~Version Information
VERS.                      2.0: CWLS Log ASCII Standard - VERSION 2.0
WRAP.                       NO: One line per depth step
~Well Information Block
STRT.FT               898.0000: 
STOP.FT              2360.0000: 
STEP.FT                 0.2500: 
NULL.                -999.2500: 
COMP.          Pioneer Natural Resources: COMPANY
WELL.             Trimax 44-23: WELL
FLD.           Purgatoire River: FIELD
LOC.           527' FSL & 1064' FEL: LOCATION
PROV.                 Colorado: PROVINCE
CNTY.               Las Animas: COUNTRY
SRVC.                Patterson: SERVICE COMPANY
DATE.          Sun Mar 13 04:57:04 2005: LOG DATE
UWI.           05 071 08326 00: UNIQUE WELL ID
~Curve Information Block
DEPT.FT            0 000 00 00: Depth
SN.Ohm-m                      : IEL Short Normal
SP.mV                         : IEL Spontaneous Potential
DIR.Ohm-m                     : IEL Induction Resistivity
GR.GAPI                       : Gamma Ray
~Parameter Information Block
~A  Depth        SN          SP         DIR          GR     
# ...
  1266.5000   2000.0000   2000.0000 100000.0000    109.9702
  1266.7500   2000.0000   2000.0000 100000.0000    111.1038
  1267.0000   2000.0000   2000.0000 100000.0000    113.6497
  1267.2500   2000.0000   2000.0000 100000.0000    114.8071
  1267.5000   2000.0000   2000.0000 100000.0000    114.6724
  1267.7500   2000.0000   2000.0000 100000.0000    113.3560
  1268.0000   2000.0000   2000.0000    139.2716    110.1131
  1268.2500   2000.0000   2000.0000     28.0806    107.4562
  1268.5000   2000.0000   2000.0000     22.6256    103.1639
  1268.7500   2000.0000   2000.0000     25.2093    100.2124
  1269.0000   2000.0000   2000.0000     34.7097     95.4345
  1269.2500   2000.0000   2000.0000     66.4543     91.6982
  1269.5000   2000.0000   2000.0000 100000.0000     85.1201
  1269.7500   2000.0000   2000.0000 100000.0000     80.5986
  1270.0000   2000.0000   2000.0000 100000.0000     75.0975
  1270.2500   2000.0000   2000.0000 100000.0000     72.8582
  1270.5000   2000.0000   2000.0000 100000.0000     71.5964
  1270.7500   2000.0000   2000.0000 100000.0000     71.8516
  1271.0000   2000.0000   2000.0000 100000.0000     73.5004
  1271.2500   2000.0000   2000.0000 100000.0000     75.1706
  1271.5000   2000.0000   2000.0000 100000.0000     77.5202
  1271.7500   2000.0000   2000.0000 100000.0000     78.2655
  1272.0000   2000.0000   2000.0000 100000.0000     77.7020
  1272.2500   2000.0000   2000.0000     63.0025     76.6973
  1272.5000   2000.0000   2000.0000     26.1508     75.9774
  1272.7500   2000.0000   2000.0000     18.2852     76.9558
  1273.0000   2000.0000   2000.0000     15.4177     80.9539
  1273.2500   2000.0000   2000.0000     14.3740     84.6408
  1273.5000   2000.0000   2000.0000     14.2452     90.1742
  1273.7500   2000.0000   2000.0000     14.6568     93.5059
  1274.0000   2000.0000   2000.0000     15.3873     98.3819
  1274.2500   2000.0000   2000.0000     16.2499    101.8379
  1274.5000   2000.0000   2000.0000     17.0774    107.3085
  1274.7500   2000.0000   2000.0000     17.7576    111.0418
  1275.0000   2000.0000   2000.0000     18.2586    116.7384
  1275.2500   2000.0000   2000.0000     18.6027    120.4543
  1275.5000   2000.0000   2000.0000     18.8173    125.0819
  1275.7500   2000.0000   2000.0000     18.9134    126.9668
  1276.0000   2000.0000   2000.0000     18.9036    127.6906
  1276.2500   2000.0000   2000.0000     18.8236    127.1299
  1276.5000   2000.0000   2000.0000     18.7287    125.6617
  1276.7500   2000.0000   2000.0000     18.6700    124.6043
  1277.0000   2000.0000   2000.0000     18.6748    123.0150
  1277.2500   2000.0000   2000.0000     18.7434    121.9639
  1277.5000   2000.0000   2000.0000     18.8576    120.5091
  1277.7500   2000.0000   2000.0000     18.9975    119.5884
  1278.0000   2000.0000   2000.0000     19.1598    117.9165
  1278.2500   2000.0000   2000.0000     19.3695    116.4168
  1278.5000   2000.0000   2000.0000     19.6741    113.7277
  1278.7500   2000.0000   2000.0000     20.1177    111.9016
  1279.0000   2000.0000   2000.0000     20.7114    109.3102
  1279.2500   2000.0000   2000.0000     21.4178    107.5175
  1279.5000   2000.0000   2000.0000     22.1646    104.2615
  1279.7500   2000.0000   2000.0000     22.8820    101.6272
  1280.0000   2000.0000   2000.0000     23.5416     97.5357
  1280.2500   2000.0000   2000.0000     24.1638     95.2956
  1280.5000   2000.0000   2000.0000     24.7910     93.3047
  1280.7500   2000.0000   2000.0000     25.4520     92.8314
  1281.0000   2000.0000   2000.0000     26.1454     92.9706
  1281.2500   2000.0000   2000.0000     26.8462     93.4538
  1281.5000   2000.0000   2000.0000     27.5200     94.5452
  1281.7500   2000.0000   2000.0000     28.1311     95.2859
  1282.0000   2000.0000   2000.0000     28.6441     95.9185
  1282.2500   2000.0000   2000.0000     29.0271     95.9124
  1282.5000   2000.0000   2000.0000     29.2629     95.6326
  1282.7500   2000.0000   2000.0000     29.3596     95.5707
  1283.0000   2000.0000   2000.0000     29.3579     95.6055
  1283.2500   2000.0000   2000.0000     29.3279     95.2716
  1283.5000   2000.0000   2000.0000     29.3509     93.4441
  1283.7500   2000.0000   2000.0000     29.4882     91.2292
  1284.0000   2000.0000   2000.0000     29.7478     86.9187
  1284.2500   2000.0000   2000.0000     30.0653     83.9702
  1284.5000   2000.0000   2000.0000     30.3173     80.5962
  1284.7500   2000.0000   2000.0000     30.3759     79.4985
  1285.0000   2000.0000   2000.0000     30.1827     79.4049
  1285.2500   2000.0000   2000.0000     29.7903     79.8590
  1285.5000   2000.0000   2000.0000     29.3350     80.6425
  1285.7500   2000.0000   2000.0000     28.9650     81.2281
  1286.0000   2000.0000   2000.0000     28.7766     82.4581
  1286.2500   2000.0000   2000.0000     28.7887     83.5264
  1286.5000   2000.0000   2000.0000     28.9501     85.1619
  1286.7500   2000.0000   2000.0000     29.1680     85.9204
  1287.0000   2000.0000   2000.0000     29.3425     85.9716
  1287.2500   2000.0000   2000.0000     29.3958     85.2116
  1287.5000   2000.0000   2000.0000     29.2904     83.5235
  1287.7500   2000.0000   2000.0000     29.0354     82.7059
  1288.0000   2000.0000   2000.0000     28.6818     82.9923
  1288.2500   2000.0000   2000.0000     28.3053     84.4249
  1288.5000   2000.0000   2000.0000     27.9766     87.8308
  1288.7500   2000.0000   2000.0000     27.7335     90.0845
  1289.0000   2000.0000   2000.0000     27.5701     92.0064
  1289.2500   2000.0000   2000.0000     27.4493     92.0963
  1289.5000   2000.0000   2000.0000     27.3263     91.3877
  1289.7500   2000.0000   2000.0000     27.1687     91.2071
  1290.0000   2000.0000   2000.0000     26.9652     92.1260
  1290.2500   2000.0000   2000.0000     26.7209     93.2254
  1290.5000   2000.0000   2000.0000     26.4459     94.2209
  1290.7500   2000.0000   2000.0000     26.1476     93.6959
  1291.0000   2000.0000   2000.0000     25.8327     90.7511
  1291.2500   2000.0000   2000.0000     25.5135     87.7854
  1291.5000   2000.0000   2000.0000     25.2059     83.2886
  1291.7500   2000.0000   2000.0000     24.9172     81.0569
  1292.0000   2000.0000   2000.0000     24.6355     79.3275
  1292.2500   2000.0000   2000.0000     24.3360     78.9338
  1292.5000   2000.0000   2000.0000     24.0017     78.5028
  1292.7500   2000.0000   2000.0000     23.6377     77.8654
  1293.0000   2000.0000   2000.0000     23.2673     76.1927
  1293.2500   2000.0000   2000.0000     22.9170     74.9076
  1293.5000   2000.0000   2000.0000     22.6059     73.7914
  1293.7500   2000.0000   2000.0000     22.3478     74.1485
  1294.0000   2000.0000   2000.0000     22.1562     76.4188
  1294.2500   2000.0000   2000.0000     22.0444     78.5629
  1294.5000   2000.0000   2000.0000     22.0152     81.4983
  1294.7500   2000.0000   2000.0000     22.0499     82.7605
  1295.0000   2000.0000   2000.0000     22.1085     83.3657
  1295.2500   2000.0000   2000.0000     22.1457     83.0937
  1295.5000   2000.0000   2000.0000     22.1373     82.3938
  1295.7500   2000.0000   2000.0000     22.0960     82.1873
  1296.0000   2000.0000   2000.0000     22.0632     82.4918
  1296.2500   2000.0000   2000.0000     22.0813     82.7752
  1296.5000   2000.0000   2000.0000     22.1674     82.6088
  1296.7500   2000.0000   2000.0000     22.3076     82.0873
  1297.0000   2000.0000   2000.0000     22.4746     81.3806
  1297.2500   2000.0000   2000.0000     22.6541     81.3285
  1297.5000   2000.0000   2000.0000     22.8589     81.9180
  1297.7500   2000.0000   2000.0000     23.1174     82.6833
  1298.0000   2000.0000   2000.0000     23.4490     84.6604
  1298.2500   2000.0000   2000.0000     23.8535     86.6835
  1298.5000   2000.0000   2000.0000     24.3249     90.0745
  1298.7500   2000.0000   2000.0000     24.8746     91.6689
  1299.0000   2000.0000   2000.0000     25.5356     92.0468
  1299.2500   2000.0000   2000.0000     26.3376     91.2207
  1299.5000   2000.0000   2000.0000     27.2733     89.7059
  1299.7500   2000.0000   2000.0000     28.2864     89.1206
