~Version Information
VERS.                      2.0: CWLS Log ASCII Standard - VERSION 2.0
WRAP.                       NO: One line per depth step
~Well Information Block
STRT.FT               802.1000: 
STOP.FT              1915.0000: 
STEP.FT                 0.1000: 
NULL.                -999.2500: 
COMP.          Petrogulf Corporation: COMPANY
WELL.             State 16-32R: WELL
FLD.           Purgatorie River: FIELD
LOC.           1849' FNL & 1677' FEL: LOCATION
CNTY.               Las Animas: COUNTY
SRVC.                         : SERVICE COMPANY
DATE.          Thu May 13 18:17:16 2004: LOG DATE
UWI.           05 071 08033 00: UNIQUE WELL ID
STAT.                 Colorado: STATE
~Curve Information Block
DEPT.FT            0 000 00 00: Depth
DCAL.in                       : CDL Caliper
RHOB.g/cc                     : CDL Bulk Density
RHOC.g/cc                     : CDL Density Correction
DPOR.pu                       : CDL Density Porosity
GR.GAPI                       : Gamma Ray
NPOR.pu                       : Neutron Porosity
~Parameter Information Block
~A  Depth       DCAL        RHOB        RHOC        DPOR         GR         NPOR    
# ...
  1128.5000      8.1516      2.4453      0.0714     12.4088    107.5264     26.1843
  1128.6000      8.1516      2.4028      0.0566     14.9801    104.4510     25.6173
  1128.7000      8.1516      2.3843      0.0628     16.1044     99.0131     25.4409
  1128.8000      8.1864      2.3979      0.0663     15.2795     90.5822     25.4567
  1128.9000      8.1864      2.4086      0.1340     14.6284     79.8475     24.9622
  1129.0000      8.2102      2.4060     -0.0179     14.7886     67.7621     24.0018
  1129.1000      8.2102      2.4090      0.0067     14.6034     61.1017     23.1671
  1129.2000      8.2102      2.4089      0.0678     14.6112     65.0810     22.8036
  1129.3000      8.3824      2.3872      0.0438     15.9269     70.8959     22.7850
  1129.4000      8.3824      2.3524      0.0138     18.0385     72.9439     22.9731
  1129.5000      8.4167      2.3188      0.0914     20.0736     75.4751     23.2174
  1129.6000      8.4167      2.2974      0.0656     21.3710     77.7817     23.3395
  1129.7000      8.4167      2.3021      0.0664     21.0829     82.6003     23.4107
  1129.8000      8.2908      2.3164      0.1100     20.2171     96.0222     23.6786
  1129.9000      8.2908      2.2940      0.1111     21.5734    108.6747     24.1085
  1130.0000      8.3132      2.2274      0.0417     25.6107    110.7339     24.3683
  1130.1000      8.3132      2.1553      0.0132     29.9802    108.5003     24.4680
  1130.2000      8.3132      2.0996     -0.0017     33.3552    105.1163     24.5695
  1130.3000      8.3954      2.0550     -0.0055     36.0624     98.8305     24.6400
  1130.4000      8.3954      2.0227      0.0073     38.0198     91.9942     24.5364
  1130.5000      8.4260      2.0157     -0.0292     38.4434     83.1017     24.4655
  1130.6000      8.4260      2.0423      0.0353     36.8275     74.2499     24.8947
  1130.7000      8.4260      2.1047      0.0134     33.0473     76.3553     25.5719
  1130.8000      8.3663      2.1980      0.0972     27.3956     87.3657     25.9854
  1130.9000      8.3663      2.2914      0.1683     21.7314     96.4510     26.3411
  1131.0000      8.4402      2.3522      0.1913     18.0461    102.0444     26.8149
  1131.1000      8.4402      2.3905      0.1368     15.7246    101.8160     27.2969
  1131.2000      8.4402      2.4335      0.1987     13.1209     95.2689     27.7198
  1131.3000      8.5161      2.4788      0.1945     10.3728     91.6901     28.0572
  1131.4000      8.5161      2.5156      0.0968      8.1484     92.6580     28.2163
  1131.5000      8.4708      2.5420      0.0885      6.5470     88.9492     28.2385
  1131.6000      8.4708      2.5489      0.0732      6.1259     80.7656     28.3395
  1131.7000      8.4708      2.5377      0.0287      6.8045     77.8112     28.2337
  1131.8000      8.4872      2.5294      0.0726      7.3064     85.4672     27.8418
  1131.9000      8.4872      2.5299      0.0909      7.2768     96.8206     27.6333
  1132.0000      8.4083      2.5187      0.0897      7.9547    103.8090     27.6981
  1132.1000      8.4083      2.4840     -0.0125     10.0576    110.2609     27.9064
  1132.2000      8.4083      2.4471      0.0036     12.2977    114.5869     28.1886
  1132.3000      8.4245      2.4381     -0.0469     12.8430    107.6762     28.4624
  1132.4000      8.4245      2.4557      0.0955     11.7786     96.0912     28.7547
  1132.5000      8.3720      2.4688      0.0617     10.9789     94.1773     29.4262
  1132.6000      8.3720      2.4721      0.0644     10.7831     99.8529     30.5352
  1132.7000      8.3720      2.4734      0.1312     10.7013    100.2098     31.5470
  1132.8000      8.3966      2.4775      0.0244     10.4516     90.2646     32.0505
  1132.9000      8.3966      2.5063      0.0329      8.7084     80.4664     32.2195
  1133.0000      8.4439      2.5534      0.1914      5.8517     81.4778     32.2519
  1133.1000      8.4439      2.5803      0.0995      4.2236     88.3101     32.2711
  1133.2000      8.4439      2.5836      0.1408      4.0239     96.8795     32.2725
  1133.3000      8.4682      2.5716      0.1807      4.7506    109.2894     31.7599
  1133.4000      8.4682      2.5403      0.1429      6.6470    119.0807     30.5124
  1133.5000      8.3147      2.5103      0.0672      8.4659    118.4724     29.2126
  1133.6000      8.3147      2.4992      0.1322      9.1366    112.4770     28.4722
  1133.7000      8.3147      2.4872      0.0920      9.8689    109.3563     27.9092
  1133.8000      8.1779      2.4756      0.0513     10.5727    112.1495     27.1159
  1133.9000      8.1779      2.4857      0.0873      9.9604    116.0334     26.4443
  1134.0000      8.1606      2.4948      0.1386      9.4038    115.2708     26.0355
  1134.1000      8.1606      2.4680      0.2135     11.0299    115.7174     25.4285
  1134.2000      8.1606      2.4237      0.1265     13.7123    118.6651     24.4265
  1134.3000      8.2093      2.3898      0.3290     15.7674    116.2162     23.4994
  1134.4000      8.2093      2.3582      0.1162     17.6853    110.2230     23.2050
  1134.5000      8.2599      2.3276      0.1228     19.5402    107.1333     23.5813
  1134.6000      8.2599      2.2973      0.1277     21.3743    109.1631     24.3391
  1134.7000      8.2599      2.2752     -0.0128     22.7149    113.4293     25.3008
  1134.8000      8.4745      2.2885      0.1271     21.9106    111.0648     26.1216
  1134.9000      8.4745      2.3406      0.1206     18.7511    103.3122     26.3541
  1135.0000      8.6337      2.4082      0.1705     14.6545     95.8587     26.0357
  1135.1000      8.6337      2.4629      0.1821     11.3387     87.3957     25.4548
  1135.2000      8.6337      2.4740      0.3234     10.6667     82.1845     24.7888
  1135.3000      8.6984      2.4384      0.1230     12.8272     88.5110     24.1553
  1135.4000      8.6984      2.4013      0.1185     15.0713    100.9407     23.6736
  1135.5000      8.6084      2.3809      0.1406     16.3110    106.9552     23.1395
  1135.6000      8.6084      2.3375      0.2129     18.9388    107.5396     21.8968
  1135.7000      8.6084      2.2382      0.1272     24.9591    106.2517     19.9195
  1135.8000      8.6940      2.1045      0.0095     33.0614     99.0815     18.1349
  1135.9000      8.6940      1.9734      0.0333     41.0065     88.3926     16.7868
  1136.0000      8.6374      1.8395      0.1112     49.1218     80.9305     15.2185
  1136.1000      8.6374      1.6902     -0.0159     58.1691     78.9407     13.2379
  1136.2000      8.6374      1.5442     -0.0956     67.0212     79.5087     11.4216
  1136.3000      8.5841      1.4054     -0.0018     75.4280     79.1554     10.2600
  1136.4000      8.5841      1.2782     -0.0971     83.1366     79.0589      9.9756
  1136.5000      8.7186      1.2283     -0.1079     86.1662     76.3031     10.4720
  1136.6000      8.7186      1.3072      0.0745     81.3816     67.0390     11.0227
  1136.7000      8.7186      1.4669      0.3332     71.7050     54.9371     11.2779
  1136.8000      8.9797      1.6237      0.4038     62.2003     46.4695     11.6682
  1136.9000      8.9797      1.7298      0.4692     55.7715     43.7410     12.4812
  1137.0000      9.6027      1.7727      0.4296     53.1677     42.9661     13.4344
  1137.1000      9.6027      1.7802      0.3327     52.7131     43.0662     14.1126
  1137.2000      9.6027      1.7943      0.3476     51.8619     44.5369     14.4823
  1137.3000      9.6575      1.8154      0.3430     50.5790     41.3350     14.6505
  1137.4000      9.6575      1.7999      0.3309     51.5213     33.8721     14.5231
  1137.5000      8.9651      1.7101      0.1555     56.9643     29.2360     13.9445
  1137.6000      8.9651      1.5642     -0.0186     65.8067     25.5619     12.7999
  1137.7000      8.9651      1.4263     -0.0875     74.1619     22.5006     11.2553
  1137.8000      8.7689      1.3489     -0.1007     78.8520     23.2985      9.9663
  1137.9000      8.7689      1.3269      0.0554     80.1849     23.6167      9.0585
  1138.0000      9.1083      1.3143      0.0655     80.9520     20.8241      8.1666
