~Version Information
VERS.                      2.0: CWLS Log ASCII Standard - VERSION 2.0
WRAP.                       NO: One line per depth step
~Well Information Block
STRT.FT              2246.0000: 
STOP.FT              2472.6000: 
STEP.FT                 0.1000: 
NULL.                -999.2500: 
COMP.          Petrogulf Corporation: COMPANY
WELL.           Schedler 9-23V: WELL
FLD.           Purgatorie River: FIELD
LOC.           2185' FSL & 2328' FWL: LOCATION
CNTY.               Las Animas: COUNTY
SRVC.                         : SERVICE COMPANY
DATE.          Thu Jul 10 10:29:30 2003: LOG DATE
UWI.           05 071 07876 00: UNIQUE WELL ID
STAT.                 Colorado: STATE
~Curve Information Block
DEPT.FT            0 000 00 00: Depth
DCAL.in                       : CDL Caliper
RHOB.g/cc                     : CDL Bulk Density
RHOC.g/cc                     : CDL Density Correction
DPOR.pu                       : CDL Density Porosity
GR.GAPI                       : Gamma Ray
NPOR.pu                       : Neutron Porosity
~Parameter Information Block
~A  Depth       DCAL        RHOB        RHOC        DPOR         GR         NPOR    
# ...
  2466.8000      7.3609      2.5975      0.3459      3.1800   -999.2500   -999.2500
  2466.9000      7.3609      2.6100      0.3540      2.4252   -999.2500   -999.2500
  2467.0000      7.2596      2.6215      0.3576      1.7273   -999.2500   -999.2500
  2467.1000      7.2596      2.6321      0.3565      1.0874   -999.2500   -999.2500
  2467.2000      7.2596      2.6418      0.3512      0.4968   -999.2500   -999.2500
  2467.3000      7.2267      2.6510      0.3421     -0.0634   -999.2500   -999.2500
  2467.4000      7.2267      2.6603      0.3302     -0.6217   -999.2500   -999.2500
  2467.5000      7.2637      2.6701      0.3162     -1.2159   -999.2500   -999.2500
  2467.6000      7.2637      2.6812      0.3012     -1.8915   -999.2500   -999.2500
  2467.7000      7.2637      2.6946      0.2862     -2.7006   -999.2500   -999.2500
  2467.8000      7.3257      2.7110      0.2718     -3.6992   -999.2500   -999.2500
  2467.9000      7.3257      2.7316      0.2589     -4.9460   -999.2500   -999.2500
  2468.0000      7.4084      2.7572      0.2476     -6.4994   -999.2500   -999.2500
  2468.1000      7.4084      2.7889      0.2382     -8.4156   -999.2500   -999.2500
  2468.2000      7.4084      2.8273      0.2306    -10.7466   -999.2500   -999.2500
  2468.3000      7.5082      2.8734      0.2245    -13.5382   -999.2500   -999.2500
  2468.4000      7.5082      2.9277      0.2196    -16.8287   -999.2500   -999.2500
  2468.5000      7.5957      2.9905      0.2152    -20.6377   -999.2500   -999.2500
  2468.6000      7.5957      3.0622      0.2106    -24.9832   -999.2500   -999.2500
  2468.7000      7.5957      3.1427      0.2047    -29.8632   -999.2500   -999.2500
  2468.8000      7.6007      3.2317      0.1963    -35.2562   -999.2500   -999.2500
  2468.9000      7.6007      3.3284      0.1838    -41.1146   -999.2500   -999.2500
  2469.0000      7.1830      3.4314      0.1656    -47.3562   -999.2500   -999.2500
  2469.1000      7.1830      3.5386      0.1400    -53.8521   -999.2500   -999.2500
  2469.2000      7.1830      3.6468      0.1051    -60.4130   -999.2500   -999.2500
  2469.3000      5.3806      3.7518      0.0592    -66.7736   -999.2500   -999.2500
  2469.4000      5.3806      3.8476      0.0007    -72.5814   -999.2500   -999.2500
  2469.5000      2.4829      3.9270     -0.0720    -77.3917   -999.2500   -999.2500
  2469.6000      2.4829      3.9812     -0.1601    -80.6785   -999.2500   -999.2500
  2469.7000      2.4829      4.0007     -0.2649    -81.8621   -999.2500   -999.2500
  2469.8000      0.7425      3.9760     -0.3873    -80.3619   -999.2500   -999.2500
  2469.9000      0.7425      3.8985     -0.5283    -75.6664   -999.2500   -999.2500
  2470.0000      0.3556      3.7624     -0.6885    -67.4156   -999.2500   -999.2500
  2470.1000      0.3556      3.5654     -0.8685    -55.4807   -999.2500   -999.2500
  2470.2000      0.3556      3.3104     -1.0683    -40.0224   -999.2500   -999.2500
  2470.3000   -999.2500      3.0050     -1.2879    -21.5126   -999.2500   -999.2500
  2470.4000   -999.2500      2.6617     -1.5257     -0.7076   -999.2500   -999.2500
  2470.5000   -999.2500      2.2965      0.0100     21.4253   -999.2500   -999.2500
  2470.6000   -999.2500      1.9270      0.0100     43.8193   -999.2500   -999.2500
  2470.7000   -999.2500      1.5703      0.0100     65.4347   -999.2500   -999.2500
  2470.8000   -999.2500      1.2413   -999.2500     85.3779   -999.2500   -999.2500
  2470.9000   -999.2500      0.9507   -999.2500    102.9900   -999.2500   -999.2500
  2471.0000   -999.2500      0.7048   -999.2500    117.8908   -999.2500   -999.2500
  2471.1000   -999.2500      0.5054   -999.2500    129.9768   -999.2500   -999.2500
  2471.2000   -999.2500      0.3502   -999.2500    139.3792   -999.2500   -999.2500
  2471.3000   -999.2500      0.2344   -999.2500    146.3976   -999.2500   -999.2500
  2471.4000   -999.2500      0.1515   -999.2500    151.4255   -999.2500   -999.2500
  2471.5000   -999.2500      0.0944   -999.2500    154.8832   -999.2500   -999.2500
  2471.6000   -999.2500      0.0568   -999.2500    157.1662   -999.2500   -999.2500
  2471.7000   -999.2500      0.0329   -999.2500    158.6137   -999.2500   -999.2500
  2471.8000   -999.2500      0.0183   -999.2500    159.4949   -999.2500   -999.2500
  2471.9000   -999.2500      0.0098   -999.2500    160.0103   -999.2500   -999.2500
  2472.0000   -999.2500      0.0051   -999.2500    160.2998   -999.2500   -999.2500
  2472.1000   -999.2500      0.0025   -999.2500    160.4561   -999.2500   -999.2500
  2472.2000   -999.2500      0.0011   -999.2500    160.5371   -999.2500   -999.2500
  2472.3000   -999.2500      0.0005   -999.2500    160.5775   -999.2500   -999.2500
  2472.4000   -999.2500      0.0001   -999.2500    160.5970   -999.2500   -999.2500
  2472.5000   -999.2500      0.0000   -999.2500    160.6061   -999.2500   -999.2500
  2472.6000   -999.2500      0.0000   -999.2500    160.6061   -999.2500   -999.2500
