~Version Information
VERS.                      2.0: CWLS Log ASCII Standard - VERSION 2.0
WRAP.                       NO: One line per depth step
~Well Information Block
STRT.FT               450.0000: 
STOP.FT              2753.5000: 
STEP.FT                 0.1000: 
NULL.                -999.2500: 
COMP.          Pioneer Natural Resources: COMPANY
WELL.             Squeal 11-26: WELL
FLD.           Purgatoire River: FIELD
LOC.           1186' FNL & 152' FWL: LOCATION
PROV.                 Colorado: PROVINCE
CNTY.               Las Animas: COUNTRY
SRVC.                Patterson: SERVICE COMPANY
DATE.          Wed Jun 15 09:11:52 2005: LOG DATE
UWI.           05 071 08404 00: UNIQUE WELL ID
~Curve Information Block
DEPT.FT            0 000 00 00: Depth
DCAL.in                       : CDL Caliper
RHOB.g/cc                     : CDL Bulk Density
RHOC.g/cc                     : CDL Density Correction
DPOR.pu                       : CDL Density Porosity
GR.GAPI                       : Gamma Ray
NPOR.pu                       : Neutron Porosity
~Parameter Information Block
~A  Depth       DCAL        RHOB        RHOC        DPOR         GR         NPOR    
# ...
  2130.0000      8.0197      2.6754      0.0920     -1.5391     76.5761     23.5533
  2130.1000      8.0197      2.6695     -0.0226     -1.1833     78.0711     24.6400
  2130.2000      8.0197      2.6705      0.0348     -1.2449     81.1623     25.3153
  2130.3000      8.0388      2.6859      0.0537     -2.1750     84.0619     24.6700
  2130.4000      8.0388      2.7027      0.0047     -3.1966     88.1772     23.3220
  2130.5000      8.0588      2.7177      0.0751     -4.1053     90.3019     22.4518
  2130.6000      8.0588      2.7220      0.1078     -4.3665     85.7242     22.3627
  2130.7000      8.0588      2.7073      0.0819     -3.4727     79.3451     22.5563
  2130.8000      8.0505      2.6790      0.0949     -1.7559     77.6751     22.6109
  2130.9000      8.0505      2.6502      0.0360     -0.0115     79.9666     22.6668
  2131.0000      7.9870      2.6342      0.0645      0.9584     80.7497     22.8424
  2131.1000      7.9870      2.6330      0.0396      1.0279     77.2533     22.6759
  2131.2000      7.9870      2.6473      0.0665      0.1608     73.6961     22.0019
  2131.3000      7.9538      2.6733      0.1243     -1.4092     73.1335     21.3559
  2131.4000      7.9538      2.6914      0.1226     -2.5089     73.4802     21.4716
  2131.5000      7.9551      2.6933      0.1153     -2.6232     72.0144     22.3793
  2131.6000      7.9551      2.6974      0.0260     -2.8716     70.3103     23.7229
  2131.7000      7.9551      2.7186      0.0586     -4.1554     71.7895     25.0407
  2131.8000      7.9581      2.7366      0.0937     -5.2506     75.5000     25.6101
  2131.9000      7.9581      2.7284      0.0609     -4.7494     79.5895     25.2999
  2132.0000      7.9729      2.7041      0.0710     -3.2788     84.4767     24.5991
  2132.1000      7.9729      2.6831      0.0262     -2.0044     89.0394     23.9371
  2132.2000      7.9729      2.6706      0.0393     -1.2482     90.8469     23.2860
  2132.3000      8.0040      2.6612      0.0265     -0.6791     88.9666     22.7942
  2132.4000      8.0040      2.6474      0.0094      0.1564     84.5910     23.0280
  2132.5000      8.0252      2.6339      0.0030      0.9785     82.0665     23.5262
  2132.6000      8.0252      2.6390      0.0094      0.6679     84.9396     23.4308
  2132.7000      8.0252      2.6664      0.0534     -0.9913     88.6484     22.9820
  2132.8000      8.0725      2.6936      0.0820     -2.6437     89.6602     22.7561
  2132.9000      8.0725      2.7065      0.0727     -3.4270     89.8296     22.6513
  2133.0000      8.0822      2.7131      0.0923     -3.8269     88.0264     22.1734
  2133.1000      8.0822      2.7200      0.0609     -4.2442     82.6760     21.6233
  2133.2000      8.0822      2.7222      0.0716     -4.3763     76.4000     21.5976
  2133.3000      8.0749      2.7165      0.0251     -4.0284     72.9904     21.8903
  2133.4000      8.0749      2.7083      0.0148     -3.5363     73.8009     22.4815
  2133.5000      8.0968      2.7004      0.0195     -3.0526     78.2674     23.3546
  2133.6000      8.0968      2.6886      0.0438     -2.3391     84.8041     23.8306
  2133.7000      8.0968      2.6783      0.0114     -1.7143     90.6487     24.0281
  2133.8000      8.0673      2.6807      0.0087     -1.8576     92.1649     23.9533
  2133.9000      8.0673      2.6890      0.0123     -2.3613     89.0648     23.3333
  2134.0000      8.0485      2.6913     -0.0131     -2.5020     84.7135     22.9927
  2134.1000      8.0485      2.7047     -0.0612     -3.3133     80.6645     23.4904
  2134.2000      8.0485      2.7442      0.0411     -5.7078     76.4279     24.1264
  2134.3000      8.0656      2.7748      0.1044     -7.5655     75.1691     24.0580
  2134.4000      8.0656      2.7667      0.0498     -7.0749     81.1200     23.1348
  2134.5000      8.0846      2.7358      0.0682     -5.1973     88.9858     22.3635
  2134.6000      8.0846      2.6986      0.0937     -2.9458     90.1021     22.5403
  2134.7000      8.0846      2.6553      0.0589     -0.3239     86.5042     23.0868
  2134.8000      8.0751      2.6058      0.0267      2.6765     86.4764     23.1464
  2134.9000      8.0751      2.5639     -0.0761      5.2175     90.9622     22.8521
  2135.0000      8.1005      2.5407     -0.0064      6.6265     95.0860     22.8607
  2135.1000      8.1005      2.5295     -0.0255      7.3031     98.2376     23.0899
  2135.2000      8.1005      2.5295      0.0206      7.3035    101.6431     23.4103
  2135.3000      8.1167      2.5435      0.0372      6.4533    104.6970     24.2398
  2135.4000      8.1167      2.5642      0.1014      5.2021    107.1203     25.6974
  2135.5000      8.1215      2.5826      0.1452      4.0862    111.0150     26.9844
  2135.6000      8.1215      2.6003      0.0961      3.0122    120.7115     27.3248
  2135.7000      8.1215      2.6231      0.1895      1.6279    135.7106     27.1274
  2135.8000      8.1271      2.6437      0.2425      0.3838    149.8672     27.6235
  2135.9000      8.1271      2.6528      0.2227     -0.1705    160.6875     29.2710
  2136.0000      8.1961      2.6554      0.2007     -0.3261    167.1792     30.4168
  2136.1000      8.1961      2.6578      0.1831     -0.4716    168.5651     29.6767
  2136.2000      8.1961      2.6593      0.1348     -0.5624    166.8679     28.6115
  2136.3000      8.1821      2.6540      0.1085     -0.2423    162.5859     28.6955
  2136.4000      8.1821      2.6373      0.0894      0.7695    155.3570     28.9872
  2136.5000      8.1418      2.6115      0.0747      2.3362    149.9808     28.5213
  2136.6000      8.1418      2.5841      0.0716      3.9930    150.3481     27.5946
  2136.7000      8.1418      2.5668      0.0404      5.0424    151.0373     26.8457
  2136.8000      8.1050      2.5690      0.0165      4.9068    147.0367     26.4260
  2136.9000      8.1050      2.5805      0.0591      4.2113    142.3523     25.8568
  2137.0000      8.1043      2.5775      0.0739      4.3913    141.7632     24.8296
  2137.1000      8.1043      2.5559      0.0091      5.7022    143.9065     24.1138
  2137.2000      8.1043      2.5356     -0.0239      6.9356    145.8587     24.3057
  2137.3000      8.1006      2.5264      0.0557      7.4932    147.5806     24.7616
  2137.4000      8.1006      2.5269     -0.0408      7.4581    149.0465     25.1083
  2137.5000      8.0964      2.5417     -0.0001      6.5612    146.5891     24.8312
  2137.6000      8.0964      2.5603      0.0515      5.4358    139.3985     23.5906
  2137.7000      8.0964      2.5616      0.0591      5.3581    134.6643     22.5768
  2137.8000      8.0919      2.5461      0.0316      6.2991    134.2405     22.8387
  2137.9000      8.0919      2.5390     -0.0057      6.7292    130.6263     23.8454
  2138.0000      8.0848      2.5559      0.0455      5.7001    122.5639     24.5261
  2138.1000      8.0848      2.5799      0.0686      4.2477    116.3422     24.5185
  2138.2000      8.0848      2.5836      0.0864      4.0239    115.0437     24.0628
  2138.3000      8.0783      2.5713      0.0080      4.7682    117.6333     23.3192
  2138.4000      8.0783      2.5761      0.0149      4.4768    121.4851     22.5300
  2138.5000      8.0841      2.6048      0.0810      2.7370    124.6469     22.0300
  2138.6000      8.0841      2.6282      0.0704      1.3230    125.8041     21.8914
  2138.7000      8.0841      2.6240      0.0652      1.5734    122.5037     22.2063
  2138.8000      8.0396      2.6007      0.0244      2.9886    117.3934     22.5901
  2138.9000      8.0396      2.5796      0.0097      4.2677    114.9426     22.0744
  2139.0000      8.0382      2.5675      0.0351      4.9979    113.5775     20.7623
  2139.1000      8.0382      2.5609      0.0367      5.4003    110.6221     19.7424
  2139.2000      8.0382      2.5561      0.0161      5.6938    105.3819     19.4313
  2139.3000      8.0454      2.5492      0.0342      6.1085     99.1129     19.5563
  2139.4000      8.0454      2.5398      0.0546      6.6761     96.2159     19.4874
  2139.5000      8.0825      2.5253      0.0383      7.5597     96.6166     18.4944
