~Version Information
VERS.                      2.0: CWLS Log ASCII Standard - VERSION 2.0
WRAP.                       NO: One line per depth step
~Well Information Block
STRT.FT               241.5000: 
STOP.FT              2340.7500: 
STEP.FT                 0.2500: 
NULL.                -999.2500: 
COMP.          Petrogulf Corporation: COMPANY
WELL.            Montoya 1-24V: WELL
FLD.           Purgatorie River: FIELD
LOC.           605' FSL & 2557' FWL: LOCATION
CNTY.               Las Animas: COUNTY
SRVC.                         : SERVICE COMPANY
DATE.          Tue Nov 30 10:28:39 2004: LOG DATE
UWI.           05 071 08194 00: UNIQUE WELL ID
STAT.                 Colorado: STATE
~Curve Information Block
DEPT.FT            0 000 00 00: Depth
GR.GAPI                       : Gamma Ray
CCL.                          : Casing Collar Locator
TT3.usec                      : CBL 3' Travel Time
AMP3.mV                       : CBL 3' Amplitude
~Parameter Information Block
~A  Depth        GR         CCL         TT3         AMP3    
# ...
  2050.5000    120.3680      0.0000    642.6216      4.0413
  2050.7500    119.3641      0.0000    653.7935      3.9338
  2051.0000    116.6207      0.0000    667.1011      3.8220
  2051.2500    111.1831      0.0000    677.1089      3.6807
  2051.5000    104.1696      0.0000    680.0955      3.4929
  2051.7500     97.7044      0.0000    676.1240      3.2714
  2052.0000     93.4353      0.0000    668.9919      3.0568
  2052.2500     91.8112      0.0000    664.0552      2.8899
  2052.5000     92.3626      0.0000    665.1176      2.7856
  2052.7500     94.2794      0.0000    672.3907      2.7348
  2053.0000     96.5458      0.0000    682.8818      2.7217
  2053.2500     97.8669      0.0000    692.6868      2.7331
  2053.5000     97.1531      0.0000    699.2610      2.7536
  2053.7500     94.5224      0.0000    702.1671      2.7649
  2054.0000     91.6906      0.0000    702.4264      2.7551
  2054.2500     90.7734      0.0000    701.4007      2.7291
  2054.5000     92.4000      0.0000    699.9619      2.7064
  2054.7500     95.3384      0.0000    698.2116      2.7050
  2055.0000     97.9203      0.0000    695.7396      2.7278
  2055.2500     99.2486      0.0000    692.3185      2.7656
  2055.5000     99.1481      0.0000    688.7476      2.8090
  2055.7500     97.7767      0.0000    686.9139      2.8535
  2056.0000     95.6326      0.0000    688.0959      2.8939
  2056.2500     93.5261      0.0000    690.5450      2.9213
  2056.5000     92.0514      0.0000    689.5724      2.9297
  2056.7500     91.1262      0.0000    681.5080      2.9230
  2057.0000     90.4061      0.0000    667.7504      2.9143
  2057.2500     90.0969      0.0000    654.0424      2.9170
  2057.5000     90.7893      0.0000    645.7744      2.9362
  2057.7500     92.2695      0.0000    644.6273      2.9725
  2058.0000     92.9924      0.0000    649.2756      3.0393
  2058.2500     91.2724      0.0000    657.2391      3.1745
  2058.5000     86.8998      0.0000    664.9717      3.4181
  2058.7500     81.3366      0.0000    668.3064      3.7657
  2059.0000     76.4888      0.0000    665.9421      4.1518
  2059.2500     73.5095      3.0000    662.1157      4.4907
  2059.5000     72.5084      3.0000    662.9637      4.7375
  2059.7500     72.9561      0.0000    670.0056      4.9143
  2060.0000     74.1936      0.0000    679.0900      5.0917
  2060.2500     75.5453      0.0000    685.5156      5.3466
  2060.5000     76.1438      0.0000    688.7335      5.7103
  2060.7500     75.1954      0.0000    692.0212      6.1328
  2061.0000     72.7718      0.0000    697.9870      6.5052
  2061.2500     70.1077      0.0000    704.3329      6.7264
  2061.5000     68.7589      0.0000    704.4185      6.7608
  2061.7500     69.3912      0.0000    692.6030      6.6564
  2062.0000     71.3568      0.0000    669.2062      6.5171
  2062.2500     73.3878      0.0000    640.3602      6.4358
  2062.5000     74.7471      0.0000    613.3709      6.4383
  2062.7500     75.8627      0.0000    591.9833      6.4924
  2063.0000     77.8737      0.0000    575.4271      6.5647
  2063.2500     81.3439      0.0000    561.1444      6.6561
  2063.5000     85.3125      0.0000    547.8220      6.7857
  2063.7500     87.9472      0.0000    536.1276      6.9633
  2064.0000     88.4668      0.0000    527.4081      7.1831
  2064.2500     88.1275      0.0000    522.1970      7.4277
  2064.5000     88.8953      0.0000    519.8591      7.6628
  2064.7500     91.3058      0.0000    519.2219      7.8355
  2065.0000     93.9601      0.0000    519.2960      7.9025
  2065.2500     95.0182      0.0000    519.4922      7.8680
  2065.5000     93.8898      0.0000    519.5084      7.7861
  2065.7500     91.4929      0.0000    519.2149      7.7226
  2066.0000     89.2684      0.0000    518.6434      7.7195
  2066.2500     88.1218      0.0000    517.9837      7.7871
  2066.5000     87.8912      0.0000    517.4920      7.9079
  2066.7500     87.4030      0.0000    517.3228      8.0401
  2067.0000     85.3857      0.0000    517.4250      8.1316
  2067.2500     81.8194      0.0000    517.5958      8.1499
  2067.5000     78.1653      0.0000    517.6353      8.1079
  2067.7500     75.9112      0.0000    517.4706      8.0570
  2068.0000     75.2301      0.0000    517.1824      8.0487
  2068.2500     75.2871      0.0000    516.9425      8.1003
  2068.5000     75.2116      0.0000    516.8879      8.1979
  2068.7500     74.3357      0.0000    517.0055      8.3211
  2069.0000     72.2529      0.0000    517.1345      8.4538
  2069.2500     69.3732      0.0000    517.1074      8.5712
  2069.5000     67.0295      0.0000    516.9030      8.6361
  2069.7500     66.3945      0.0000    516.6718      8.6209
  2070.0000     67.3115      0.0000    516.6156      8.5289
  2070.2500     68.5666      0.0000    516.8200      8.3885
  2070.5000     69.3905      0.0000    517.1708      8.2355
  2070.7500     70.3278      0.0000    517.4156      8.1097
  2071.0000     72.3871      0.0000    517.2920      8.0499
  2071.2500     75.5497      0.0000    516.5613      8.0694
  2071.5000     78.3762      0.0000    514.9004      8.1370
  2071.7500     79.0868      0.0000    511.8669      8.1955
  2072.0000     77.0629      0.0000    507.3378      8.1998
  2072.2500     73.4671      0.0000    502.3564      8.1348
  2072.5000     70.5274      0.0000    499.4455      8.0071
  2072.7500     69.9859      0.0000    501.5270      7.8292
  2073.0000     71.7631      0.0000    510.0733      7.6146
  2073.2500     73.8695      0.0000    524.0463      7.3884
  2073.5000     73.8583      0.0000    540.1348      7.1977
  2073.7500     70.8270      0.0000    553.6968      7.1068
  2074.0000     66.2857      0.0000    559.7532      7.1720
  2074.2500     62.9893      0.0000    553.8866      7.4099
  2074.5000     62.6874      0.0000    533.6508      7.7765
  2074.7500     64.8506      0.0000    500.8348      8.1888
  2075.0000     67.3985      0.0000    462.4573      8.5848
  2075.2500     68.3790      0.0000    427.6520      8.9712
  2075.5000     67.0565      0.0000    402.0988      9.4131
  2075.7500     63.9922      0.0000    385.4132      9.9827
  2076.0000     60.4366      0.0000    373.6010     10.7133
  2076.2500     57.4745      0.0000    363.3003     11.5785
  2076.5000     55.5058      0.0000    353.9932     12.4748
  2076.7500     54.3397      0.0000    347.6078     13.2151
  2077.0000     53.5763      0.0000    347.3266     13.5762
  2077.2500     52.9481      0.0000    357.2269     13.4066
  2077.5000     52.5445      0.0000    382.0486     12.7017
  2077.7500     52.7254      0.0000    424.7825     11.5805
  2078.0000     53.7140      0.0000    482.0863     10.2091
  2078.2500     55.4472      0.0000    542.4287      8.7479
  2078.5000     57.9045      0.0000    591.5603      7.3274
  2078.7500     61.3509      0.0000    621.4730      6.0365
  2079.0000     66.0001      0.0000    633.6675      4.9271
  2079.2500     71.3502      0.0000    634.6324      4.0270
  2079.5000     76.0515      0.0000    630.2903      3.3469
  2079.7500     78.8533      0.0000    624.3585      2.8748
  2080.0000     79.8320      0.0000    619.0611      2.5753
  2080.2500     80.4104      0.0000    615.5356      2.4002
  2080.5000     82.0948      0.0000    613.8496      2.3052
  2080.7500     85.5545      0.0000    613.4042      2.2603
  2081.0000     90.8270      0.0000    613.5308      2.2481
  2081.2500     97.4869      0.0000    613.8237      2.2546
  2081.5000    104.2148      0.0000    614.1447      2.2639
  2081.7500    108.9548      0.0000    614.5643      2.2631
  2082.0000    109.9181      0.0000    615.3661      2.2513
  2082.2500    106.2629      0.0000    617.0529      2.2460
  2082.5000     98.2238      0.0000    620.1151      2.2766
  2082.7500     87.3158      0.0000    624.3582      2.3630
  2083.0000     76.1166      0.0000    628.2748      2.4971
  2083.2500     66.9917      0.0000    629.6535      2.6461
  2083.5000     60.7878      0.0000    627.4929      2.7729
  2083.7500     56.8955      0.0000    623.1154      2.8476
