~Version Information
VERS.                      2.0: CWLS Log ASCII Standard - VERSION 2.0
WRAP.                       NO: One line per depth step
~Well Information Block
STRT.FT               671.6000: 
STOP.FT              1890.7000: 
STEP.FT                 0.1000: 
NULL.                -999.2500: 
COMP.          Petrogulf Corporation: COMPANY
WELL.             State 16-14R: WELL
FLD.           Purgatorie River: FIELD
LOC.           598' FSL & 682' FWL: LOCATION
CNTY.               Las Animas: COUNTY
SRVC.                         : SERVICE COMPANY
DATE.          Fri Nov 05 07:21:30 2004: LOG DATE
UWI.           05 071 08034 00: UNIQUE WELL ID
STAT.                 Colorado: STATE
~Curve Information Block
DEPT.FT            0 000 00 00: Depth
DCAL.in                       : CDL Caliper
RHOB.g/cc                     : CDL Bulk Density
RHOC.g/cc                     : CDL Density Correction
DPOR.pu                       : CDL Density Porosity
GR.GAPI                       : Gamma Ray
NPOR.pu                       : Neutron Porosity
~Parameter Information Block
~A  Depth       DCAL        RHOB        RHOC        DPOR         GR         NPOR    
# ...
   767.6000      7.8812      2.6873      0.1181     -2.2633     93.0251     27.4231
   767.7000      7.8812      2.6900      0.1703     -2.4269    102.0502     26.4620
   767.8000      7.8854      2.6660      0.1082     -0.9707    109.6418     24.9063
   767.9000      7.8854      2.6336      0.0932      0.9918    109.4184     23.7125
   768.0000      7.8928      2.6089      0.0496      2.4900    103.5817     23.2645
   768.1000      7.8928      2.5920      0.1168      3.5138     99.2715     23.0710
   768.2000      7.8928      2.5694      0.1004      4.8847     99.7682     22.6654
   768.3000      7.9154      2.5400      0.0410      6.6668    102.3245     21.9585
   768.4000      7.9154      2.5196      0.0011      7.9029    101.5866     21.4157
   768.5000      7.9175      2.5181      0.0113      7.9967     96.4907     21.3554
   768.6000      7.9175      2.5351      0.0033      6.9607     93.1535     21.3513
   768.7000      7.9175      2.5622      0.0491      5.3230     95.8386     21.1092
   768.8000      7.9321      2.5864      0.0426      3.8571     99.7172     20.9303
   768.9000      7.9321      2.5993      0.0835      3.0701    102.0921     20.9817
   769.0000      7.9171      2.5945      0.1151      3.3630    106.0738     21.1397
   769.1000      7.9171      2.5700      0.0875      4.8500    112.3332     21.2731
   769.2000      7.9171      2.5442      0.0316      6.4130    116.8315     21.5022
   769.3000      7.9331      2.5438      0.0758      6.4368    114.6164     22.1561
   769.4000      7.9331      2.5689      0.0984      4.9174    107.8966     22.7599
   769.5000      7.9226      2.5894      0.1347      3.6728    102.8261     22.6738
   769.6000      7.9226      2.5811      0.1137      4.1730     99.5957     22.2686
   769.7000      7.9226      2.5551      0.0671      5.7526     96.9505     22.1316
   769.8000      7.9257      2.5348      0.0706      6.9797     97.9500     22.4971
   769.9000      7.9257      2.5264      0.0832      7.4905    102.0090     23.5063
   770.0000      7.9050      2.5295      0.0620      7.3020    104.5264     24.7624
   770.1000      7.9050      2.5329      0.1306      7.0980    107.6565     25.6189
   770.2000      7.9050      2.5106      0.0964      8.4482    113.9955     25.9351
   770.3000      7.9159      2.4713     -0.0207     10.8308    116.3629     25.8762
   770.4000      7.9159      2.4564      0.0006     11.7328    111.9778     25.4238
   770.5000      7.9547      2.4783      0.0476     10.4085    107.4696     24.5586
   770.6000      7.9547      2.5087      0.0764      8.5625    105.5425     23.9045
   770.7000      7.9547      2.5136      0.1299      8.2677    107.6802     23.8276
   770.8000      7.9676      2.4883      0.0449      9.7979    112.4660     23.8189
   770.9000      7.9676      2.4633      0.0453     11.3136    115.2142     23.7242
   771.0000      7.9688      2.4676      0.0527     11.0562    117.7558     23.6773
   771.1000      7.9688      2.4982      0.1221      9.2003    120.6681     23.4879
   771.2000      7.9688      2.5261      0.1507      7.5105    119.8516     22.8267
   771.3000      7.9490      2.5321      0.0934      7.1438    114.3468     21.6487
   771.4000      7.9490      2.5250      0.1480      7.5730    106.5628     20.4715
   771.5000      7.9237      2.5266      0.0983      7.4766    101.1518     19.7897
   771.6000      7.9237      2.5491      0.1502      6.1122     99.2445     19.6174
   771.7000      7.9237      2.5769      0.1582      4.4276     96.8277     19.2738
   771.8000      7.9554      2.5888      0.2045      3.7120     91.3122     18.1492
   771.9000      7.9554      2.5875      0.1640      3.7863     83.1998     16.8496
   772.0000      7.9147      2.5867      0.1763      3.8361     74.6934     16.1202
   772.1000      7.9147      2.5873      0.1435      3.8021     67.7230     15.6381
   772.2000      7.9147      2.5853      0.1275      3.9230     62.3807     15.0664
   772.3000      7.9204      2.5782      0.1326      4.3509     59.4179     14.7732
   772.4000      7.9204      2.5700      0.1012      4.8456     58.1230     14.8889
   772.5000      7.9034      2.5667      0.0980      5.0490     54.5657     14.7715
   772.6000      7.9034      2.5650      0.0909      5.1503     48.2898     14.3422
   772.7000      7.9034      2.5624      0.1068      5.3066     43.5477     14.1744
   772.8000      7.9346      2.5596      0.1072      5.4768     43.1149     14.1012
   772.9000      7.9346      2.5531      0.1247      5.8743     46.3306     13.7636
   773.0000      7.9731      2.5457      0.0489      6.3210     48.1451     13.6183
   773.1000      7.9731      2.5486      0.0371      6.1469     44.1893     14.1496
   773.2000      7.9731      2.5621      0.0715      5.3302     38.9124     14.9314
   773.3000      7.9366      2.5822      0.0606      4.1064     37.2993     15.4444
   773.4000      7.9366      2.6118      0.0880      2.3122     38.6918     15.6494
   773.5000      7.9533      2.6467      0.0741      0.1970     40.1302     15.4711
   773.6000      7.9533      2.6696      0.1712     -1.1868     38.7268     15.0972
   773.7000      7.9533      2.6681      0.1236     -1.0961     35.8265     14.7726
   773.8000      7.9613      2.6505      0.0801     -0.0322     34.5933     14.4053
   773.9000      7.9613      2.6292      0.0824      1.2616     35.4310     14.1965
   774.0000      7.9620      2.6119      0.0275      2.3119     36.2244     14.4730
   774.1000      7.9620      2.5999      0.0829      3.0390     35.3823     14.8596
   774.2000      7.9620      2.5776      0.0413      4.3851     33.7648     14.7352
   774.3000      7.9720      2.5401     -0.0035      6.6633     32.2484     14.1379
   774.4000      7.9720      2.5101     -0.0370      8.4771     31.4964     13.6174
   774.5000      7.9416      2.5012      0.0133      9.0179     32.7134     13.4209
   774.6000      7.9416      2.4975      0.0218      9.2452     34.7397     13.3028
   774.7000      7.9416      2.4871      0.0507      9.8750     36.1764     13.1699
   774.8000      7.9246      2.4812      0.0040     10.2288     39.0326     13.0791
   774.9000      7.9246      2.4897      0.0731      9.7133     44.1301     13.0499
   775.0000      7.9197      2.5003      0.0594      9.0727     48.2937     12.9684
   775.1000      7.9197      2.5072      0.0318      8.6520     48.7234     12.6492
   775.2000      7.9197      2.5189      0.0699      7.9435     45.8439     12.2793
   775.3000      7.9420      2.5323      0.0634      7.1352     42.2087     12.1882
   775.4000      7.9420      2.5406      0.0594      6.6329     39.5370     12.4770
   775.5000      7.9609      2.5466      0.0252      6.2658     37.3166     12.9699
   775.6000      7.9609      2.5489      0.0881      6.1282     35.1275     13.4512
   775.7000      7.9609      2.5415      0.0908      6.5772     33.3988     14.0277
   775.8000      8.0165      2.5339      0.0369      7.0392     33.0736     15.0377
   775.9000      8.0165      2.5408      0.0043      6.6199     34.4420     16.5939
   776.0000      7.9825      2.5632      0.0739      5.2622     36.2602     18.2230
   776.1000      7.9825      2.5937      0.0822      3.4122     35.5703     19.3505
   776.2000      7.9825      2.6187      0.1124      1.8999     32.0147     20.1917
   776.3000      8.0114      2.6230      0.0934      1.6365     30.0241     21.3294
   776.4000      8.0114      2.6238      0.0345      1.5866     31.1376     22.5774
   776.5000      8.0102      2.6506      0.1049     -0.0363     32.8590     23.1573
   776.6000      8.0102      2.6931      0.0370     -2.6141     34.7420     23.1483
   776.7000      8.0102      2.7197      0.0620     -4.2216     37.4218     23.3679
   776.8000      7.9565      2.7180      0.0876     -4.1199     40.1149     23.7994
   776.9000      7.9565      2.7046      0.1059     -3.3061     42.3633     23.8493
   777.0000      7.9394      2.7043      0.0818     -3.2906     43.5544     23.5245
   777.1000      7.9394      2.7185      0.1508     -4.1525     43.8796     22.8999
