~Version Information
VERS.                      2.0: CWLS Log ASCII Standard - VERSION 2.0
WRAP.                       NO: One line per depth step
~Well Information Block
STRT.FT                 0.5000: 
STOP.FT              2891.5000: 
STEP.FT                 0.2500: 
NULL.                -999.2500: 
COMP.          Petrogulf Corporation: COMPANY
WELL.            Montoya 1-41V: WELL
FLD.           Purgatoire River: FIELD
LOC.           610' FNL & 1205' FEL--: LOCATION
PROV.                 Colorado: PROVINCE
CNTY.               Las Animas: COUNTRY
SRVC.                Patterson: SERVICE COMPANY
DATE.          Mon Sep 12 11:42:30 2005: LOG DATE
UWI.           05 071 08144 00: UNIQUE WELL ID
~Curve Information Block
DEPT.FT            0 000 00 00: Depth
CCL.                          : Casing Collar Locator
TT3.usec                      : CBL 3' Travel Time
AMP3.mV                       : CBL 3' Amplitude
GR.GAPI                       : Gamma Ray
~Parameter Information Block
~A  Depth       CCL         TT3         AMP3         GR     
# ...
   570.0000      0.0000    651.3684      5.6369     79.4075
   570.2500      0.0000    621.4155      5.6330     81.4978
   570.5000      0.0000    600.5277      5.6551     82.8481
   570.7500      0.0000    587.4355      5.7117     83.2914
   571.0000      0.0000    577.3651      5.7936     82.8961
   571.2500      0.0000    565.6154      5.8805     81.7569
   571.5000      0.0000    551.9622      5.9545     79.8648
   571.7500      0.0000    542.3763      6.0129     77.2972
   572.0000      0.0000    544.4518      6.0700     74.4940
   572.2500      0.0000    559.5857      6.1398     72.1586
   572.5000      0.0000    580.5930      6.2151     70.9356
   572.7500      0.0000    598.1934      6.2702     71.2037
   573.0000      0.0000    609.0683      6.2878     72.8954
   573.2500      0.0000    616.5380      6.2772     75.1527
   573.5000      0.0000    624.4332      6.2633     76.2811
   573.7500      0.0000    633.1418      6.2669     74.6140
   574.0000      0.0000    642.4215      6.2958     69.8385
   574.2500      0.0000    654.8903      6.3475     63.4674
   574.5000      0.0000    673.7291      6.4125     57.8061
   574.7500      0.0000    697.8710      6.4755     54.3596
   575.0000      0.0000    721.9199      6.5187     53.0358
   575.2500      0.0000    740.9078      6.5279     52.5936
   575.5000      0.0000    753.7236      6.5007     51.7874
   575.7500      0.0000    762.4060      6.4484     50.2892
   576.0000      0.0000    770.0507      6.3874     48.6704
   576.2500      0.0000    779.2232      6.3259     47.5420
   576.5000      0.0000    789.6133      6.2601     46.9102
   576.7500      0.0000    796.3464      6.1835     46.4752
   577.0000      0.0000    793.2998      6.0971     46.2130
   577.2500      0.0000    779.7896      6.0075     46.2416
   577.5000      0.0000    762.0050      5.9172     46.4122
   577.7500      0.0000    746.7604      5.8209     46.6706
   578.0000      0.0000    735.8328      5.7161     47.6506
   578.2500      0.0000    727.2883      5.6126     50.1143
   578.5000      0.0000    719.8994      5.5281     53.6813
   578.7500      0.0000    714.5042      5.4737     56.8085
   579.0000      0.0000    712.5615      5.4437     58.3929
   579.2500      0.0000    715.2124      5.4192     58.9091
   579.5000      0.0000    723.1742      5.3840     59.5746
   579.7500      0.0000    735.9128      5.3381     60.8648
   580.0000      0.0000    750.4311      5.2930     62.3636
   580.2500      0.0000    762.0416      5.2594     63.6950
   580.5000      0.0000    767.7866      5.2418     64.8119
   580.7500      0.0000    769.2947      5.2433     65.2871
   581.0000      0.0000    771.6083      5.2673     64.1183
   581.2500      0.0000    778.8759      5.3133     60.7944
   581.5000      0.0000    791.0499      5.3712     56.1946
   581.7500      0.0000    803.9912      5.4225     52.0326
   582.0000      0.0000    812.3575      5.4494     49.6511
   582.2500      0.0000    813.3799      5.4457     49.5714
   582.5000      0.0000    808.8384      5.4166     51.8727
   582.7500      0.0000    803.6823      5.3685     56.5868
   583.0000      0.0000    802.6230      5.3062     63.6225
   583.2500      0.0000    807.5685      5.2421     72.3019
   583.5000      0.0000    817.6528      5.1998     81.1748
   583.7500      0.0000    831.2631      5.2003     88.6584
   584.0000      0.0000    847.2153      5.2484     93.9306
   584.2500      0.0000    863.3486      5.3321     96.9069
   584.5000      0.0000    874.8051      5.4272     97.5956
   584.7500      0.0000    875.1002      5.5021     96.2124
   585.0000      0.0000    859.9005      5.5286     93.7749
   585.2500      0.0000    830.9621      5.5003     91.5781
   585.5000      0.0000    796.9503      5.4376     90.0025
   585.7500      0.0000    769.0247      5.3764     88.6298
   586.0000      0.0000    754.5643      5.3522     87.4368
   586.2500      0.0000    754.7844      5.3844     87.0850
   586.5000      0.0000    766.0259      5.4633     88.0679
   586.7500      0.0000    780.9020      5.5487     90.1693
   587.0000      0.0000    790.4152      5.5884     92.7373
   587.2500      0.0000    789.4462      5.5484     95.0512
   587.5000      0.0000    780.6920      5.4346     96.5134
   587.7500      0.0000    771.4413      5.2876     96.9794
   588.0000      0.0000    766.8138      5.1512     97.2067
   588.2500      0.0000    766.9998      5.0456     98.7048
   588.5000      0.0000    769.9709      4.9693    102.6391
   588.7500      0.0000    775.2060      4.9212    108.5752
   589.0000      0.0000    783.5053      4.9130    114.4771
   589.2500      0.0000    792.7839      4.9568    118.2626
   589.5000      0.0000    796.1540      5.0456    119.3620
   589.7500      0.0000    787.1157      5.1526    118.7094
   590.0000      0.0000    766.6406      5.2490    117.5580
   590.2500      0.0000    742.9372      5.3155    116.4762
   590.5000      0.0000    724.3004      5.3390    115.1065
   590.7500      0.0000    713.8261      5.3116    112.6322
   591.0000      0.0000    710.5864      5.2329    108.6010
   591.2500      0.0000    713.8659      5.1071    103.2678
   591.5000      0.0000    725.6016      4.9383     97.1890
   591.7500      0.0000    748.8541      4.7337     90.9139
   592.0000      0.0000    783.2305      4.5058     85.0909
   592.2500      0.0000    821.4052      4.2688     80.4863
   592.5000      0.0000    851.5685      4.0352     77.9276
   592.7500      0.0000    865.7236      3.8160     78.1272
   593.0000      0.0000    866.9153      3.6192     80.9077
   593.2500      0.0000    866.7813      3.4416     84.4997
   593.5000      0.0000    872.6235      3.2642     86.3704
   593.7500      0.0000    876.8806      3.0629     85.0764
   594.0000      0.0000    863.5368      2.8310     81.1016
   594.2500      0.0000    825.8683      2.5924     76.2602
   594.5000      0.0000    774.4938      2.3923     72.7096
   594.7500      0.0000    728.1275      2.2720     72.0066
   595.0000      0.0000    699.7469      2.2474     74.3716
   595.2500      0.0000    690.1485      2.3042     78.7073
   595.5000      0.0000    689.7512      2.4121     83.4524
   595.7500      0.0000    685.6283      2.5450     87.4959
   596.0000      0.0000    670.7422      2.6925     90.4335
   596.2500      0.0000    649.2999      2.8544     92.1516
   596.5000      0.0000    633.0018      3.0322     92.4378
   596.7500      0.0000    631.2031      3.2277     91.2236
   597.0000      0.0000    644.3497      3.4412     88.8980
   597.2500      0.0000    665.4280      3.6637     85.8469
   597.5000      0.0000    685.6249      3.8731     81.8622
   597.7500      0.0000    699.0451      4.0435     76.5216
   598.0000      0.0000    704.6078      4.1597     70.1209
   598.2500      0.0000    704.7569      4.2263     63.9048
   598.5000      0.0000    702.2186      4.2705     59.2866
   598.7500      0.0000    697.6588      4.3431     56.9323
   599.0000      0.0000    689.8882      4.5057     56.7039
   599.2500      0.0000    677.9773      4.7854     58.4178
   599.5000      0.0000    663.5439      5.1240     62.2538
   599.7500      0.0000    651.4259      5.3904     68.0916
   600.0000      0.0000    647.0600      5.4730     74.7218
   600.2500      0.0000    650.7469      5.3584     80.2471
   600.5000      0.0000    653.8429      5.1107     83.4266
   600.7500      0.0000    643.5820      4.7962     84.5759
   601.0000      0.0000    614.3631      4.4458     85.2635
   601.2500      2.0000    573.4371      4.0713     87.1910
   601.5000      0.0000    535.0208      3.6984     91.0842
   601.7500      0.0000    510.7821      3.3776     96.2593
   602.0000      0.0000    504.4162      3.1570    101.2787
   602.2500      0.0000    510.4338      3.0375    105.2067
   602.5000      0.0000    517.1245      2.9655    108.0996
   602.7500      0.0000    514.6008      2.8847    110.2397
   603.0000      0.0000    503.9391      2.7877    111.3799
   603.2500      0.0000    498.7085      2.7070    110.9642
