~Version Information
VERS.                      2.0: CWLS Log ASCII Standard - VERSION 2.0
WRAP.                       NO: One line per depth step
~Well Information Block
STRT.FT                -7.2500: 
STOP.FT              2610.0000: 
STEP.FT                 0.2500: 
NULL.                -999.2500: 
COMP.          Pioneer Natural Resources: COMPANY
WELL.              Wagner 13-9: WELL
FLD.           Purgatorie River: FIELD
LOC.           1819' FSL & 1111' FWL--: LOCATION
PROV.                       CO: PROVINCE
CNTY.               Las Animas: COUNTRY
SRVC.          Patterson Wireline: SERVICE COMPANY
DATE.          Wed May 18 09:08:26 2005: LOG DATE
UWI.           05 071 08302 00: UNIQUE WELL ID
~Curve Information Block
DEPT.FT            0 000 00 00: Depth
CCL.                          : Casing Collar Locator
TT3.usec                      : CBL 3' Travel Time
AMP3.mV                       : CBL 3' Amplitude
GR.GAPI                       : Gamma Ray
~Parameter Information Block
~A  Depth       CCL         TT3         AMP3         GR     
# ...
   696.2500      0.0000    858.4698      8.0894    120.6882
   696.5000      0.0000    853.4567      8.1442    121.2878
   696.7500      0.0000    850.8486      8.2118    123.0378
   697.0000      0.0000    849.9677      8.2300    125.0500
   697.2500      0.0000    849.8729      8.1664    126.0193
   697.5000      0.0000    849.9759      8.0515    125.2528
   697.7500      0.0000    850.1228      7.9450    123.1480
   698.0000      0.0000    850.2947      7.8790    121.0781
   698.2500      0.0000    850.1024      7.8421    120.5442
   698.5000      0.0000    848.5269      7.8114    121.9211
   698.7500      0.0000    844.6354      7.7801    123.9694
   699.0000      0.0000    839.2867      7.7450    124.8208
   699.2500      0.0000    836.0669      7.6661    123.4756
   699.5000      0.0000    839.3796      7.4698    120.5295
   699.7500      0.0000    850.6633      7.1315    117.6685
   700.0000      0.0000    867.2003      6.7375    116.1826
   700.2500      0.0000    885.1012      6.4189    115.7902
   700.5000      0.0000    901.9614      6.2359    115.2445
   700.7500      0.0000    915.8170      6.1748    113.9906
   701.0000     -2.0000    923.9099      6.2393    112.5201
   701.2500     -2.0000    924.7089      6.4931    111.1638
   701.5000      0.0000    919.9080      7.0116    109.4572
   701.7500      0.0000    912.7171      7.8001    106.9718
   702.0000      0.0000    905.1892      8.7292    104.2619
   702.2500      0.0000    898.2393      9.5356    102.7317
   702.5000      0.0000    892.4906      9.9498    103.5564
   702.7500      0.0000    887.5058      9.8827    106.6317
   703.0000      0.0000    881.3160      9.4750    110.7239
   703.2500      0.0000    872.4740      8.9585    114.7181
   703.5000      0.0000    862.7201      8.5033    118.4308
   703.7500      0.0000    856.7129      8.1799    122.0990
   704.0000      0.0000    858.5828      7.9919    125.1961
   704.2500      0.0000    868.8867      7.9046    125.9258
   704.5000      0.0000    885.0107      7.8701    122.4010
   704.7500      0.0000    903.6329      7.8533    114.6650
   705.0000      0.0000    922.1634      7.8442    105.1283
   705.2500      0.0000    939.2004      7.8450     96.7573
   705.5000      0.0000    954.5035      7.8508     91.1686
   705.7500      0.0000    966.5744      7.8459     88.2749
   706.0000      0.0000    969.6567      7.8220     86.8335
   706.2500      0.0000    957.0023      7.7894     85.1007
   706.5000      0.0000    929.2449      7.7620     81.7585
   706.7500      0.0000    896.4656      7.7340     76.8510
   707.0000      0.0000    870.1406      7.6841     71.8288
   707.2500      0.0000    855.1373      7.6023     68.6345
   707.5000      0.0000    849.7795      7.5111     68.8067
   707.7500      0.0000    850.5071      7.4513     73.1851
   708.0000      0.0000    854.8088      7.4456     81.8557
   708.2500      0.0000    861.2299      7.4788     94.0311
   708.5000      0.0000    868.4496      7.5157    108.0278
   708.7500      0.0000    874.8734      7.5308    121.6148
   709.0000      0.0000    878.9059      7.5205    132.8513
   709.2500      0.0000    879.7261      7.4985    141.0706
   709.5000      0.0000    877.9001      7.4870    147.0414
   709.7500      0.0000    875.0406      7.5035    151.7969
   710.0000      0.0000    872.5936      7.5478    155.3090
   710.2500      0.0000    871.0146      7.5948    156.6428
   710.5000      0.0000    869.9830      7.6056    155.3723
   710.7500      0.0000    869.0272      7.5554    152.5219
   711.0000      0.0000    867.7410      7.4566    150.0174
   711.2500      0.0000    865.7568      7.3513    149.2959
   711.5000      0.0000    863.0696      7.2780    150.3116
   711.7500      0.0000    860.5305      7.2390    151.7122
   712.0000      0.0000    859.5400      7.1998    152.0832
   712.2500      0.0000    860.8165      7.1189    151.2841
   712.5000      0.0000    863.6462      6.9766    150.4235
   712.7500      0.0000    866.5956      6.7826    150.2809
   713.0000      0.0000    868.7145      6.5670    150.1144
   713.2500      0.0000    869.8947      6.3706    148.5861
   713.5000      0.0000    870.4484      6.2371    145.5085
   713.7500      0.0000    870.6851      6.1968    141.8408
   714.0000      0.0000    870.7847      6.2438    138.3570
   714.2500      0.0000    870.8191      6.3263    135.5550
   714.5000      0.0000    870.7673      6.3709    134.6726
   714.7500      0.0000    870.5046      6.3289    137.1998
   715.0000      0.0000    869.7666      6.2094    142.6596
   715.2500      0.0000    868.2410      6.0667    147.6882
   715.5000      0.0000    865.9533      5.9599    148.3232
   715.7500      0.0000    863.6912      5.9191    143.4683
   716.0000      0.0000    862.6831      5.9409    135.8807
   716.2500      0.0000    863.4283      6.0009    129.7305
   716.5000      0.0000    864.9573      6.0693    127.3745
   716.7500      0.0000    865.5814      6.1237    128.3418
   717.0000      0.0000    864.3484      6.1554    130.5891
   717.2500      0.0000    861.5948      6.1681    132.2289
   717.5000      0.0000    858.0961      6.1681    132.6602
   717.7500      0.0000    853.9352      6.1560    132.7132
   718.0000      0.0000    848.6031      6.1274    133.5029
   718.2500      0.0000    842.2068      6.0829    134.9339
   718.5000      0.0000    835.9642      6.0348    135.7869
   718.7500      0.0000    831.2474      6.0005    135.4816
   719.0000      0.0000    828.5181      5.9881    135.1476
   719.2500      0.0000    827.3282      5.9908    136.5294
   719.5000      0.0000    826.9588      5.9922    139.9641
   719.7500      0.0000    826.8783      5.9745    143.5577
   720.0000      0.0000    826.8311      5.9302    144.5110
   720.2500      0.0000    826.7484      5.8698    141.5607
   720.5000      0.0000    826.6213      5.8150    136.2107
   720.7500      0.0000    826.4186      5.7832    131.4029
   721.0000      0.0000    826.0960      5.7862    129.0200
   721.2500      0.0000    825.6631      5.8372    128.6964
   721.5000      0.0000    825.2190      5.9373    128.6319
   721.7500      0.0000    824.9448      6.0580    127.0847
   722.0000      0.0000    825.1102      6.1625    123.3422
   722.2500      0.0000    826.1011      6.2489    117.9104
   722.5000      0.0000    828.2562      6.3566    112.0399
   722.7500      0.0000    831.3670      6.5198    106.8810
   723.0000      0.0000    834.2729      6.7228    102.8258
   723.2500      0.0000    835.3521      6.9087     99.3610
   723.5000      0.0000    833.8143      7.0262     95.3903
   723.7500      0.0000    830.4103      7.0624     89.9830
   724.0000      0.0000    826.7114      7.0390     83.1410
   724.2500      0.0000    823.9565      6.9862     75.7921
   724.5000      0.0000    822.7621      6.9260     69.0285
   724.7500      0.0000    823.6210      6.8732     63.5033
   725.0000      0.0000    827.3026      6.8372     59.4547
   725.2500      0.0000    834.4938      6.8119     56.9874
   725.5000      0.0000    844.6899      6.7716     56.1709
   725.7500      0.0000    855.4050      6.6926     56.7612
   726.0000      0.0000    862.9904      6.5792     57.9737
   726.2500      0.0000    864.7991      6.4632     59.0104
   726.5000      0.0000    860.5835      6.3756     60.0063
   726.7500      0.0000    852.0208      6.3181     62.0446
   727.0000      0.0000    841.4749      6.2650     66.0067
   727.2500      0.0000    831.3481      6.1938     71.5678
   727.5000      0.0000    823.8831      6.1109     77.2867
   727.7500      0.0000    820.5149      6.0458     81.4634
   728.0000      0.0000    820.9554      6.0203     83.1213
   728.2500      0.0000    823.3172      6.0325     82.5677
   728.5000      0.0000    825.7622      6.0693     80.9997
   728.7500      0.0000    827.9614      6.1194     79.4410
   729.0000      0.0000    830.3448      6.1697     78.0742
   729.2500      0.0000    832.3572      6.2035     76.5916
   729.5000      0.0000    832.6296      6.2079     74.8631
