~Version Information
VERS.                      2.0: CWLS Log ASCII Standard - VERSION 2.0
WRAP.                       NO: One line per depth step
~Well Information Block
STRT.FT               954.4000: 
STOP.FT              2380.0000: 
STEP.FT                 0.1000: 
NULL.                -999.2500: 
COMP.          Petrogulf Corporation: COMPANY
WELL.             State 16-24V: WELL
FLD.           Purgatorie River: FIELD
LOC.           481' FSL & 2419' FWL: LOCATION
CNTY.               Las Animas: COUNTY
SRVC.                         : SERVICE COMPANY
DATE.          Tue May 04 07:31:25 2004: LOG DATE
UWI.           05 071 08014 00: UNIQUE WELL ID
STAT.                 Colorado: STATE
~Curve Information Block
DEPT.FT            0 000 00 00: Depth
DCAL.in                       : CDL Caliper
RHOB.g/cc                     : CDL Bulk Density
RHOC.g/cc                     : CDL Density Correction
DPOR.pu                       : CDL Density Porosity
GR.GAPI                       : Gamma Ray
~Parameter Information Block
~A  Depth       DCAL        RHOB        RHOC        DPOR         GR     
# ...
  1805.6000      7.9123      2.4018      0.0572     15.0413     55.6583
  1805.7000      7.9123      2.4116      0.0591     14.4463     52.0420
  1805.8000      7.9071      2.4460      0.0080     12.3641     54.7548
  1805.9000      7.9071      2.4707      0.1913     10.8640     64.9940
  1806.0000      7.9028      2.4551      0.0823     11.8122     77.3340
  1806.1000      7.9028      2.4302      0.0739     13.3223     87.4878
  1806.2000      7.9028      2.4329      0.0243     13.1583     97.7160
  1806.3000      7.8948      2.4470      0.0544     12.3002    105.8634
  1806.4000      7.8948      2.4478      0.1551     12.2549    113.7994
  1806.5000      7.8968      2.4474      0.0844     12.2813    129.4355
  1806.6000      7.8968      2.4498      0.1502     12.1328    145.8808
  1806.7000      7.8968      2.4319      0.0753     13.2191    153.5087
  1806.8000      7.9044      2.4105      0.0469     14.5148    159.0155
  1806.9000      7.9044      2.4200      0.0302     13.9411    169.7139
  1807.0000      7.9014      2.4447      0.1691     12.4424    179.5498
  1807.1000      7.9014      2.4514      0.1195     12.0361    178.1817
  1807.2000      7.9014      2.4430      0.1436     12.5474    166.1723
  1807.3000      7.8995      2.4382      0.1538     12.8364    155.4754
  1807.4000      7.8995      2.4446      0.0968     12.4461    149.1868
  1807.5000      7.8946      2.4598      0.1687     11.5260    141.6945
  1807.6000      7.8946      2.4713      0.0764     10.8293    133.7941
  1807.7000      7.8946      2.4660      0.0517     11.1541    125.7200
  1807.8000      7.8822      2.4567      0.0778     11.7125    119.7224
  1807.9000      7.8822      2.4782      0.0760     10.4151    122.2226
  1808.0000      7.8871      2.5383      0.1032      6.7708    128.9389
  1808.1000      7.8871      2.6032      0.1729      2.8337    135.7036
  1808.2000      7.8871      2.6278      0.2081      1.3430    142.9542
  1808.3000      7.8947      2.5990      0.1447      3.0889    143.1570
  1808.4000      7.8947      2.5526      0.1128      5.9026    136.0086
  1808.5000      7.9074      2.5321      0.0736      7.1484    130.2732
  1808.6000      7.9074      2.5390      0.1656      6.7248    128.2014
  1808.7000      7.9074      2.5468      0.0902      6.2562    130.1896
  1808.8000      7.8950      2.5479      0.1467      6.1904    131.4127
  1808.9000      7.8950      2.5658      0.0454      5.1031    127.3614
  1809.0000      7.8778      2.6160      0.1892      2.0607    121.8340
  1809.1000      7.8778      2.6709      0.1562     -1.2692    117.4456
  1809.2000      7.8778      2.6941      0.2676     -2.6732    116.9291
  1809.3000      7.8380      2.6627      0.2082     -0.7705    119.3065
  1809.4000      7.8380      2.5846      0.1347      3.9608    114.8914
  1809.5000      7.7982      2.5057      0.1048      8.7442    103.3724
  1809.6000      7.7982      2.4636      0.1120     11.2949     99.3743
  1809.7000      7.7982      2.4621      0.0295     11.3898    108.6148
  1809.8000      7.8007      2.4850      0.0440      9.9977    121.4458
  1809.9000      7.8007      2.5118      0.0858      8.3764    128.2512
  1810.0000      7.8422      2.5335      0.0685      7.0578    126.0803
  1810.1000      7.8422      2.5538      0.2010      5.8280    117.0553
  1810.2000      7.8422      2.5825      0.1951      4.0924    104.4537
  1810.3000      7.8583      2.6316      0.1822      1.1142     90.7106
  1810.4000      7.8583      2.6837      0.3503     -2.0435     81.7702
  1810.5000      7.8324      2.6957      0.3162     -2.7718     82.6144
  1810.6000      7.8324      2.6609      0.3149     -0.6582     87.2851
  1810.7000      7.8324      2.6225      0.2020      1.6673     88.4657
  1810.8000      7.7340      2.6221      0.1294      1.6934     91.6229
  1810.9000      7.7340      2.6373      0.3071      0.7686     97.9722
  1811.0000      7.7114      2.6178      0.1315      1.9486     96.1156
  1811.1000      7.7114      2.5646      0.1067      5.1761     87.1988
  1811.2000      7.7114      2.5069     -0.0070      8.6745     80.3955
  1811.3000      7.7449      2.4751      0.0334     10.6014     77.7485
  1811.4000      7.7449      2.5004     -0.0903      9.0694     81.0291
  1811.5000      7.8510      2.5715      0.0751      4.7556     89.0015
  1811.6000      7.8510      2.6196      0.1576      1.8419     94.0246
  1811.7000      7.8510      2.6139      0.0915      2.1908     93.4704
  1811.8000      7.8828      2.5982      0.0279      3.1391     93.7152
  1811.9000      7.8828      2.5982      0.1230      3.1409     97.4353
  1812.0000      7.8856      2.5928      0.1049      3.4691     97.4305
  1812.1000      7.8856      2.5865      0.1091      3.8482     91.4425
  1812.2000      7.8856      2.6064      0.0777      2.6443     84.4383
  1812.3000      7.9080      2.6406      0.1776      0.5687     82.8966
  1812.4000      7.9080      2.6532      0.1810     -0.1943     88.5258
  1812.5000      7.8545      2.6373      0.1091      0.7677     92.6506
  1812.6000      7.8545      2.6124      0.1341      2.2763     93.7110
  1812.7000      7.8545      2.5948      0.0599      3.3443     97.0267
  1812.8000      7.8379      2.5928      0.0449      3.4677     98.6502
  1812.9000      7.8379      2.6082      0.0965      2.5329     94.8592
  1813.0000      7.8540      2.6322      0.0263      1.0769     92.7227
  1813.1000      7.8540      2.6297      0.1382      1.2301     95.7923
  1813.2000      7.8540      2.5808      0.1102      4.1943     99.9885
  1813.3000      7.8834      2.5341      0.0745      7.0258    103.1873
  1813.4000      7.8834      2.5347      0.0630      6.9856    103.5423
  1813.5000      7.8825      2.5757      0.1045      4.5044    104.3330
  1813.6000      7.8825      2.6258      0.1164      1.4678    108.0788
  1813.7000      7.8825      2.6406      0.1710      0.5716    108.9030
  1813.8000      7.8492      2.6104      0.0813      2.4025    109.7191
  1813.9000      7.8492      2.5810      0.0263      4.1835    115.2876
  1814.0000      7.8590      2.5733      0.1162      4.6496    117.8215
  1814.1000      7.8590      2.5705      0.0632      4.8177    111.4408
  1814.2000      7.8590      2.5714      0.1570      4.7613    102.7863
  1814.3000      7.8984      2.5678      0.1055      4.9788    100.2480
  1814.4000      7.8984      2.5423      0.1095      6.5257    104.6741
  1814.5000      7.8778      2.5226      0.0224      7.7214    115.8983
  1814.6000      7.8778      2.5455      0.1401      6.3342    129.0425
  1814.7000      7.8778      2.5740      0.1992      4.6032    135.4306
  1814.8000      7.8483      2.5645      0.1299      5.1790    136.3151
  1814.9000      7.8483      2.5374      0.1433      6.8259    130.1046
  1815.0000      7.7899      2.5155      0.1157      8.1494    114.5987
  1815.1000      7.7899      2.5032      0.0516      8.8973    102.9756
  1815.2000      7.7899      2.5028      0.1857      8.9239    102.5426
  1815.3000      7.7925      2.5105      0.0597      8.4551    104.9573
  1815.4000      7.7925      2.5227      0.1557      7.7179    104.9027
  1815.5000      7.8471      2.5354      0.0321      6.9462    109.0675
  1815.6000      7.8471      2.5397      0.1318      6.6849    117.7972
  1815.7000      7.8471      2.5217      0.0755      7.7775    121.1714
  1815.8000      7.8689      2.4735      0.0808     10.6971    120.8333
  1815.9000      7.8689      2.3657      0.0816     17.2279    122.6489
  1816.0000      7.9233      2.1973      0.0817     27.4375    124.6874
  1816.1000      7.9233      2.1188     -0.1420     32.1949    125.8780
  1816.2000      7.9233      2.2566      0.0745     23.8428    126.7046
  1816.3000      7.8997      2.4767      0.1079     10.5016    123.1533
  1816.4000      7.8997      2.6104      0.0824      2.4017    115.0937
  1816.5000      7.8698      2.6389      0.1949      0.6755    113.9527
  1816.6000      7.8698      2.6035      0.1251      2.8188    122.4298
  1816.7000      7.8698      2.5519      0.0916      5.9474    126.6417
