~Version Information
VERS.                      2.0: CWLS Log ASCII Standard - VERSION 2.0
WRAP.                       NO: One line per depth step
~Well Information Block
STRT.FT                -5.7500: 
STOP.FT              1965.7500: 
STEP.FT                 0.2500: 
NULL.                -999.2500: 
COMP.          Pioneer Natural Resources: COMPANY
WELL.          Easton 12-30 Tr: WELL
FLD.           Purgatorie River: FIELD
LOC.           549' FWL & 2416' FNL--: LOCATION
PROV.                       CO: PROVINCE
CNTY.               Las Animas: COUNTRY
SRVC.          Patterson Wireline: SERVICE COMPANY
DATE.          Mon Jun 06 16:13:03 2005: LOG DATE
UWI.           05 071 08379 00: UNIQUE WELL ID
~Curve Information Block
DEPT.FT            0 000 00 00: Depth
CCL.                          : Casing Collar Locator
TT3.usec                      : CBL 3' Travel Time
AMP3.mV                       : CBL 3' Amplitude
GR.GAPI                       : Gamma Ray
~Parameter Information Block
~A  Depth       CCL         TT3         AMP3         GR     
# ...
  1166.7500      0.0000    760.4186      6.5424     66.1476
  1167.0000      0.0000    755.9502      6.5272     63.8228
  1167.2500      0.0000    751.1853      6.5128     62.5304
  1167.5000      0.0000    748.0229      6.5132     61.3640
  1167.7500      0.0000    747.6154      6.5339     59.9960
  1168.0000      0.0000    750.5075      6.5851     59.0271
  1168.2500      0.0000    756.7772      6.6831     59.0221
  1168.5000      0.0000    765.3255      6.8258     59.4508
  1168.7500      0.0000    773.5857      6.9812     59.1906
  1169.0000      0.0000    778.8453      7.1120     58.0231
  1169.2500      0.0000    779.9805      7.2096     56.9632
  1169.5000      0.0000    777.8678      7.2953     56.9440
  1169.7500      0.0000    774.3749      7.3920     57.6954
  1170.0000      0.0000    771.0072      7.5011     58.1749
  1170.2500      0.0000    768.2042      7.6037     57.6866
  1170.5000      0.0000    765.6341      7.6755     56.3124
  1170.7500      0.0000    763.0715      7.6980     54.6384
  1171.0000      0.0000    761.0162      7.6648     53.4110
  1171.2500      0.0000    760.3975      7.5861     53.1877
  1171.5000      0.0000    761.5826      7.4829     53.8967
  1171.7500      0.0000    763.8356      7.3720     54.7451
  1172.0000      0.0000    765.9036      7.2585     54.9218
  1172.2500      0.0000    767.0043      7.1527     54.4310
  1172.5000      0.0000    767.1553      7.0818     53.8908
  1172.7500      0.0000    766.8055      7.0690     53.6726
  1173.0000      0.0000    766.3645      7.0995     53.7954
  1173.2500      0.0000    766.0104      7.1207     54.5365
  1173.5000      0.0000    765.7512      7.0804     56.4175
  1173.7500      0.0000    765.5437      6.9590     59.4579
  1174.0000      0.0000    765.3539      6.7710     62.8889
  1174.2500      0.0000    765.1573      6.5468     65.6837
  1174.5000      0.0000    764.9102      6.3203     67.2111
  1174.7500      0.0000    764.4881      6.1238     67.4896
  1175.0000      0.0000    763.5873      5.9863     67.0738
  1175.2500      0.0000    761.7241      5.9289     66.8141
  1175.5000      0.0000    758.4752      5.9534     67.6553
  1175.7500      0.0000    753.8199      6.0309     70.4135
  1176.0000      0.0000    748.1885      6.1078     75.4790
  1176.2500      0.0000    742.1801      6.1379     82.6029
  1176.5000      0.0000    736.4046      6.1133     91.0662
  1176.7500      0.0000    731.5255      6.0632    100.1679
  1177.0000      0.0000    728.1415      6.0266    109.4823
  1177.2500      0.0000    726.5523      6.0284    118.4311
  1177.5000      0.0000    726.8120      6.0734    125.7005
  1177.7500      0.0000    728.9509      6.1522    129.6479
  1178.0000      0.0000    732.9321      6.2507    129.6018
  1178.2500      0.0000    738.3917      6.3567    126.5750
  1178.5000      0.0000    744.6299      6.4620    122.7011
  1178.7500      0.0000    750.8956      6.5634    120.0552
  1179.0000      0.0000    756.4535      6.6590    119.6078
  1179.2500      0.0000    760.3575      6.7416    120.8008
  1179.5000      0.0000    761.4603      6.7990    122.2050
  1179.7500      0.0000    758.9385      6.8234    122.9419
  1180.0000      0.0000    752.9901      6.8176    123.5327
  1180.2500      0.0000    745.1042      6.7906    125.1917
  1180.5000      0.0000    737.4824      6.7483    128.4606
  1180.7500      0.0000    731.9647      6.6877    132.8208
  1181.0000      0.0000    729.4626      6.6022    137.2982
  1181.2500      0.0000    730.2380      6.4940    140.8973
  1181.5000      0.0000    734.2230      6.3808    142.8375
  1181.7500      0.0000    740.6724      6.2894    143.0870
  1182.0000      0.0000    747.7103      6.2408    142.4034
  1182.2500      0.0000    752.8983      6.2368    141.2957
  1182.5000      0.0000    754.7531      6.2584    139.1538
  1182.7500      0.0000    753.8361      6.2783    134.8796
  1183.0000      0.0000    752.4093      6.2818    128.3635
  1183.2500      0.0000    753.0529      6.2768    121.1923
  1183.5000      0.0000    757.2457      6.2797    115.9916
  1183.7500      0.0000    764.4508      6.2931    114.9758
  1184.0000      0.0000    772.0706      6.3045    118.4247
  1184.2500      0.0000    776.9987      6.3074    123.9899
  1184.5000      0.0000    778.2519      6.3121    127.9152
  1184.7500      0.0000    777.8361      6.3315    127.6110
  1185.0000      0.0000    778.1157      6.3667    123.1849
  1185.2500      0.0000    778.8450      6.4127    116.7498
  1185.5000      0.0000    777.9958      6.4700    110.8644
  1185.7500      0.0000    774.8537      6.5425    107.5142
  1186.0000      0.0000    770.8223      6.6312    107.5434
  1186.2500      0.0000    767.5640      6.7359    110.4637
  1186.5000      0.0000    765.5488      6.8573    115.0242
  1186.7500      0.0000    764.3070      6.9909    120.2761
  1187.0000      0.0000    763.3659      7.1218    126.0850
  1187.2500      0.0000    763.0438      7.2316    132.4955
  1187.5000      0.0000    764.7505      7.3071    138.5041
  1187.7500      0.0000    770.1714      7.3451    141.5851
  1188.0000      0.0000    779.4125      7.3545    138.8892
  1188.2500      0.0000    789.9379      7.3556    129.4015
  1188.5000      0.0000    797.9093      7.3678    115.1138
  1188.7500      0.0000    800.9993      7.3958    100.1018
  1189.0000      0.0000    800.1282      7.4290     88.2887
  1189.2500      0.0000    798.6701      7.4521     81.5243
  1189.5000      0.0000    799.6870      7.4526     79.2507
  1189.7500      0.0000    803.4453      7.4262     79.9791
  1190.0000      0.0000    807.4303      7.3711     83.0610
  1190.2500      0.0000    808.7650      7.2679     88.8230
  1190.5000      0.0000    806.7841      7.0867     97.1163
  1190.7500      0.0000    803.7020      6.8481    106.2257
  1191.0000      0.0000    802.8109      6.6567    113.4299
  1191.2500      0.0000    805.6281      6.6192    116.7031
  1191.5000      0.0000    810.8674      6.7338    116.2599
  1191.7500      0.0000    816.3076      6.9124    114.6530
  1192.0000      0.0000    821.0118      7.0956    114.8514
  1192.2500      0.0000    825.2007      7.2937    117.5810
  1192.5000      0.0000    828.3325      7.5280    120.6346
  1192.7500      0.0000    827.6768      7.7872    121.2378
  1193.0000      2.0000    818.2643      8.0425    119.0657
  1193.2500      0.0000    794.0377      8.2876    116.5620
  1193.5000      0.0000    752.1932      8.5580    116.3544
  1193.7500      0.0000    701.1017      8.8964    118.8051
  1194.0000      0.0000    662.3557      9.2730    122.1717
  1194.2500      0.0000    656.4790      9.5563    124.6000
  1194.5000      0.0000    683.2921      9.6035    125.5825
  1194.7500      0.0000    721.9467      9.3819    125.9101
  1195.0000      0.0000    752.2772      8.9830    126.7252
  1195.2500      0.0000    771.0804      8.5404    128.5089
  1195.5000      0.0000    786.9885      8.1492    130.7183
  1195.7500      0.0000    806.0451      7.8400    132.4184
  1196.0000      0.0000    825.8988      7.5979    133.2223
  1196.2500      0.0000    840.4415      7.3985    133.4965
  1196.5000      0.0000    845.7380      7.2284    133.8036
  1196.7500      0.0000    841.7224      7.0831    134.3381
  1197.0000      0.0000    830.8544      6.9594    134.7861
  1197.2500      0.0000    816.0414      6.8572    134.6164
  1197.5000      0.0000    799.0952      6.7783    133.6252
  1197.7500      0.0000    780.9741      6.7200    132.1541
  1198.0000      0.0000    763.6807      6.6727    130.5508
  1198.2500      0.0000    750.9364      6.6259    128.6743
  1198.5000      0.0000    746.1070      6.5727    126.4019
  1198.7500      0.0000    749.6361      6.5111    124.3181
  1199.0000      0.0000    758.3173      6.4457    123.3197
  1199.2500      0.0000    766.4424      6.3872    123.6222
  1199.5000      0.0000    768.4018      6.3449    124.5460
  1199.7500      0.0000    762.1499      6.3184    125.3205
  1200.0000      0.0000    751.1047      6.2959    125.8206
