~Version Information
VERS.                      2.0: CWLS Log ASCII Standard - VERSION 2.0
WRAP.                       NO: One line per depth step
~Well Information Block
STRT.FT                 0.0000: 
STOP.FT              1916.0000: 
STEP.FT                 0.1000: 
NULL.                -999.2500: 
COMP.          Pioneer Natural Resources: COMPANY
WELL.          Blackjack 32-11 Tr: WELL
FLD.           Purgatorie River: FIELD
LOC.           2066' FNL & 1453' FEL: LOCATION
PROV.                 Colorado: PROVINCE
CNTY.               Las Animas: COUNTRY
SRVC.                Patterson: SERVICE COMPANY
DATE.          Tue Aug 16 12:08:23 2005: LOG DATE
UWI.                          : UNIQUE WELL ID
~Curve Information Block
DEPT.FT            0 000 00 00: Depth
DCAL.in                       : CDL Caliper
RHOB.g/cc                     : CDL Bulk Density
RHOC.g/cc                     : CDL Density Correction
DPOR.pu                       : CDL Density Porosity
GR.GAPI                       : Gamma Ray
NPOR.pu                       : Neutron Porosity
~Parameter Information Block
~A  Depth       DCAL        RHOB        RHOC        DPOR         GR         NPOR    
# ...
  1881.6000      7.8040      2.7419      0.0104     -5.5692    261.6483     25.7251
  1881.7000      7.8040      2.7008      0.0272     -3.0813    271.7732     25.3434
  1881.8000      7.7782      2.6839     -0.0136     -2.0532    276.1121     24.8172
  1881.9000      7.7782      2.6814     -0.0016     -1.9053    277.7070     24.6448
  1882.0000      7.8103      2.6730      0.1231     -1.3954    276.1700     26.6927
  1882.1000      7.8103      2.6446      0.1497      0.3244    274.8384     34.0964
  1882.2000      7.8103      2.6115      0.1328      2.3345    274.1950     44.9372
  1882.3000      7.8611      2.5876      0.1281      3.7844    266.2011     51.9772
  1882.4000      7.8611      2.5705      0.0881      4.8182    247.7262     54.2855
  1882.5000      7.8957      2.5632      0.0730      5.2592    223.8054     54.7190
  1882.6000      7.8957      2.5672      0.1262      5.0208    201.4103     54.7645
  1882.7000      7.8957      2.5705      0.1006      4.8163    189.0642     54.7671
  1882.8000      7.9324      2.5632      0.0910      5.2610    189.7500   -999.2500
  1882.9000      7.9324      2.5497      0.0630      6.0806    193.3716   -999.2500
  1883.0000      7.9672      2.5411      0.0993      6.5970    190.3140   -999.2500
  1883.1000      7.9672      2.5411      0.0763      6.6012    182.2355   -999.2500
  1883.2000      7.9672      2.5492      0.0901      6.1079    174.0043   -999.2500
  1883.3000      7.9618      2.5637      0.1458      5.2325    166.1701   -999.2500
  1883.4000      7.9618      2.5778      0.1161      4.3730    159.0778   -999.2500
  1883.5000      7.9900      2.5885      0.1186      3.7255    153.6787   -999.2500
  1883.6000      7.9900      2.5961      0.1331      3.2664    150.0627   -999.2500
  1883.7000      7.9900      2.5962      0.1486      3.2628    150.0543   -999.2500
  1883.8000      7.9635      2.5815      0.1374      4.1489    153.3787   -999.2500
  1883.9000      7.9635      2.5551      0.1059      5.7533    155.4707   -999.2500
  1884.0000      7.9546      2.5281      0.1058      7.3852    155.6919   -999.2500
  1884.1000      7.9546      2.5087      0.0959      8.5622    155.8229   -999.2500
  1884.2000      7.9546      2.5023      0.0749      8.9506    154.6924   -999.2500
  1884.3000      8.0408      2.5147      0.0495      8.1973    153.6545   -999.2500
  1884.4000      8.0408      2.5378      0.1323      6.8029    154.9090   -999.2500
  1884.5000      8.0441      2.5521      0.1556      5.9324    156.4353   -999.2500
  1884.6000      8.0441      2.5536      0.1480      5.8429    157.0894   -999.2500
  1884.7000      8.0441      2.5532      0.1364      5.8645    156.5510   -999.2500
  1884.8000      8.0223      2.5552      0.2115      5.7482    153.4382   -999.2500
  1884.9000      8.0223      2.5558      0.1877      5.7101    150.7825   -999.2500
  1885.0000      8.0510      2.5618      0.1884      5.3463    151.7039   -999.2500
  1885.1000      8.0510      2.5883      0.1771      3.7409    153.3894   -999.2500
  1885.2000      8.0510      2.6392      0.1898      0.6540    154.0691   -999.2500
  1885.3000      8.0340      2.6912      0.2588     -2.4975    155.9580   -999.2500
  1885.4000      8.0340      2.7147      0.1929     -3.9221    160.0262   -999.2500
  1885.5000      8.1880      2.7022      0.2175     -3.1658    162.8238   -999.2500
  1885.6000      8.1880      2.6560      0.1749     -0.3627    160.0731   -999.2500
  1885.7000      8.1880      2.5876      0.1061      3.7795    150.8199   -999.2500
  1885.8000      8.2207      2.5275     -0.0395      7.4214    140.3901   -999.2500
  1885.9000      8.2207      2.5007     -0.0428      9.0480    136.5694   -999.2500
  1886.0000      8.0860      2.5037     -0.0327      8.8680    138.1479   -999.2500
  1886.1000      8.0860      2.5152      0.0460      8.1723    139.2242   -999.2500
  1886.2000      8.0860      2.5182      0.1475      7.9903    139.7890   -999.2500
  1886.3000      7.9853      2.5099      0.1969      8.4895    141.7068   -999.2500
  1886.4000      7.9853      2.4968      0.1870      9.2867    143.8480   -999.2500
  1886.5000      8.0062      2.4890      0.1642      9.7564    143.9213   -999.2500
  1886.6000      8.0062      2.4967      0.1914      9.2927    142.8102   -999.2500
  1886.7000      8.0062      2.5258      0.1781      7.5292    143.1838   -999.2500
  1886.8000      8.1487      2.5766      0.2173      4.4503    146.3076   -999.2500
  1886.9000      8.1487      2.6354      0.2365      0.8825    151.2051   -999.2500
  1887.0000      8.1316      2.6791      0.2777     -1.7651    153.2046   -999.2500
  1887.1000      8.1316      2.6882      0.2887     -2.3121    150.4299   -999.2500
  1887.2000      8.1316      2.6629      0.2157     -0.7833    145.3896   -999.2500
  1887.3000      7.9849      2.6232      0.1358      1.6240    140.3660   -999.2500
  1887.4000      7.9849      2.5871      0.1037      3.8137    137.4525   -999.2500
  1887.5000      8.0278      2.5605      0.0694      5.4265    137.2584   -999.2500
  1887.6000      8.0278      2.5439      0.0356      6.4293    137.4385   -999.2500
  1887.7000      8.0278      2.5422      0.0310      6.5311    127.9045   -999.2500
  1887.8000      8.0199      2.5579      0.0275      5.5828     95.6228   -999.2500
  1887.9000      8.0199      2.5774      0.1010      4.3980     49.2954   -999.2500
  1888.0000      7.9945      2.5850      0.0901      3.9390     15.6613   -999.2500
  1888.1000      7.9945      2.5815      0.0918      4.1535      2.8604   -999.2500
  1888.2000      7.9945      2.5765      0.0741      4.4540      0.2883   -999.2500
  1888.3000      7.9430      2.5770      0.0788      4.4264      0.0153   -999.2500
  1888.4000      7.9430      2.5823      0.1271      4.1048      0.0000   -999.2500
  1888.5000      7.9249      2.5833      0.1350      4.0444   -999.2500   -999.2500
  1888.6000      7.9249      2.5706      0.1435      4.8101   -999.2500   -999.2500
  1888.7000      7.9249      2.5495      0.0779      6.0908   -999.2500   -999.2500
  1888.8000      7.9431      2.5345      0.0817      7.0020   -999.2500   -999.2500
  1888.9000      7.9431      2.5301      0.1032      7.2667   -999.2500   -999.2500
  1889.0000      7.9559      2.5367      0.0698      6.8660   -999.2500   -999.2500
  1889.1000      7.9559      2.5537      0.1032      5.8386   -999.2500   -999.2500
  1889.2000      7.9559      2.5622      0.1424      5.3202   -999.2500   -999.2500
  1889.3000      8.0144      2.5425      0.1061      6.5176   -999.2500   -999.2500
  1889.4000      8.0144      2.5081      0.0319      8.6017   -999.2500   -999.2500
  1889.5000      8.1054      2.4822      0.0815     10.1720   -999.2500   -999.2500
  1889.6000      8.1054      2.4604      0.1198     11.4939   -999.2500   -999.2500
  1889.7000      8.1054      2.4403      0.0556     12.7113   -999.2500   -999.2500
  1889.8000      8.0843      2.4419      0.0773     12.6128   -999.2500   -999.2500
  1889.9000      8.0843      2.4708      0.1192     10.8599   -999.2500   -999.2500
  1890.0000      8.0825      2.5026      0.2551      8.9358   -999.2500   -999.2500
  1890.1000      8.0825      2.5152      0.2435      8.1705   -999.2500   -999.2500
  1890.2000      8.0825      2.5177      0.2098      8.0190   -999.2500   -999.2500
  1890.3000      8.1274      2.5285      0.2287      7.3631   -999.2500   -999.2500
  1890.4000      8.1274      2.5482      0.2376      6.1674   -999.2500   -999.2500
  1890.5000      8.1799      2.5652      0.2643      5.1393   -999.2500   -999.2500
  1890.6000      8.1799      2.5692      0.2291      4.8996   -999.2500   -999.2500
  1890.7000      8.1799      2.5581      0.2050      5.5724   -999.2500   -999.2500
  1890.8000      8.1473      2.5385      0.1664      6.7554   -999.2500   -999.2500
  1890.9000      8.1473      2.5248      0.1268      7.5902   -999.2500   -999.2500
  1891.0000      8.1852      2.5278      0.1213      7.4064   -999.2500   -999.2500
  1891.1000      8.1852      2.5411      0.1182      6.5974   -999.2500   -999.2500
