~Version Information
VERS.                      2.0: CWLS Log ASCII Standard - VERSION 2.0
WRAP.                       NO: One line per depth step
~Well Information Block
STRT.FT               450.0000: 
STOP.FT              2756.0000: 
STEP.FT                 0.2500: 
NULL.                -999.2500: 
COMP.          Pioneer Natural Resources: COMPANY
WELL.             Squeal 11-26: WELL
FLD.           Purgatoire River: FIELD
LOC.           1186' FNL & 152' FWL: LOCATION
PROV.                 Colorado: PROVINCE
CNTY.               Las Animas: COUNTRY
SRVC.                Patterson: SERVICE COMPANY
DATE.          Wed Jun 15 02:22:08 2005: LOG DATE
UWI.           05 071 08404 00: UNIQUE WELL ID
~Curve Information Block
DEPT.FT            0 000 00 00: Depth
SN.Ohm-m                      : IEL Short Normal
SP.mV                         : IEL Spontaneous Potential
DIR.Ohm-m                     : IEL Induction Resistivity
GR.GAPI                       : Gamma Ray
~Parameter Information Block
~A  Depth        SN          SP         DIR          GR     
# ...
  1220.5000     38.7380   -200.0001     25.5329     97.7438
  1220.7500     39.7042   -200.0001     26.7044     97.1905
  1221.0000     40.1897   -200.0001     27.9042     97.9622
  1221.2500     40.4364   -200.0001     29.1395     99.9040
  1221.5000     40.4598   -200.0001     30.4346    104.7835
  1221.7500     40.2633   -200.0001     31.8037    108.5875
  1222.0000     40.0287   -200.0001     33.2230    113.0624
  1222.2500     39.9759   -200.0001     34.6323    114.0649
  1222.5000     40.1753   -200.0001     35.9559    111.5295
  1222.7500     40.5568   -200.0001     37.1132    107.3913
  1223.0000     41.0720   -200.0001     38.0237     99.4986
  1223.2500     41.8189   -200.0001     38.6486     94.6719
  1223.5000     42.9729   -200.0001     39.0554     89.8077
  1223.7500     44.5834   -200.0001     39.4204     88.1131
  1224.0000     46.4538   -200.0001     39.9319     86.6706
  1224.2500     48.2685   -200.0001     40.6818     85.7875
  1224.5000     49.7426   -200.0001     41.6336     84.3383
  1224.7500     50.6696   -200.0001     42.6710     83.5866
  1225.0000     51.0628   -200.0001     43.6717     83.3290
  1225.2500     51.2032   -200.0001     44.5552     83.7209
  1225.5000     51.3748   -200.0001     45.2907     84.5129
  1225.7500     51.6170   -200.0001     45.8809     84.7763
  1226.0000     51.7695   -200.0001     46.3435     84.5880
  1226.2500     51.6403   -200.0001     46.6976     84.2447
  1226.5000     51.1346   -200.0001     46.9453     83.8281
  1226.7500     50.3408   -200.0001     47.0409     83.8023
  1227.0000     49.4901   -200.0001     46.8722     84.2808
  1227.2500     48.7724   -200.0001     46.3040     84.9426
  1227.5000     48.2000   -200.0001     45.2930     86.3134
  1227.7500     47.6722   -200.0001     43.9689     87.2887
  1228.0000     47.0679   -200.0001     42.5825     88.5504
  1228.2500     46.2270   -200.0001     41.3617     89.4327
  1228.5000     45.0478   -200.0001     40.4126     91.9004
  1228.7500     43.6315   -200.0001     39.7150     94.9020
  1229.0000     42.1925   -200.0001     39.1757    101.1623
  1229.2500     40.8611   -200.0001     38.6909    105.5327
  1229.5000     39.6407   -200.0001     38.1864    110.5540
  1229.7500     38.5167   -200.0001     37.6321    112.4200
  1230.0000     37.4971   -200.0001     37.0358    113.3980
  1230.2500     36.5539   -200.0001     36.4231    113.3332
  1230.5000     35.6648   -200.0001     35.8186    112.8067
  1230.7500     34.8971   -200.0001     35.2305    112.4537
  1231.0000     34.3533   -200.0001     34.6528    112.4536
  1231.2500     34.0263   -200.0001     34.0891    112.9934
  1231.5000     33.8069   -200.0001     33.5858    114.2520
  1231.7500     33.6568   -200.0001     33.2446    114.8468
  1232.0000     33.6688   -200.0001     33.1891    114.5959
  1232.2500     33.9979   -200.0001     33.4958    113.5891
  1232.5000     34.7470   -200.0001     34.1332    111.0378
  1232.7500     35.7958   -200.0001     34.9522    108.6246
  1233.0000     36.8451   -200.0001     35.7514    103.6024
  1233.2500     37.7447   -200.0001     36.3873     99.3603
  1233.5000     38.5833   -200.0001     36.8435     92.8407
  1233.7500     39.4379   -200.0001     37.1953     89.5230
  1234.0000     40.2451   -200.0001     37.5095     87.4401
  1234.2500     40.9042   -200.0001     37.7707     87.8676
  1234.5000     41.3689   -200.0001     37.8783     89.8770
  1234.7500     41.6184   -200.0001     37.6957     91.3855
  1235.0000     41.5901   -200.0001     37.0864     93.6420
  1235.2500     41.1447   -200.0001     35.9210     95.4843
  1235.5000     40.1643   -200.0001     34.0960     99.2999
  1235.7500     38.7296   -200.0001     31.6146    102.4591
  1236.0000     37.1279   -200.0001     28.6758    107.4367
  1236.2500     35.6400   -200.0001     25.6527    110.6147
  1236.5000     34.3759   -200.0001     22.9493    115.2106
  1236.7500     33.3100   -200.0001     20.8700    118.2327
  1237.0000     32.3818   -200.0001     19.6038    122.3201
  1237.2500     31.5629   -200.0001     19.3166    124.3739
  1237.5000     30.8460   -200.0001     20.3272    126.3346
  1237.7500     30.1987   -200.0001     23.4845    127.2635
  1238.0000     29.6068   -200.0001     31.5165    128.7809
  1238.2500     29.1254   -200.0001     58.2830    129.9152
  1238.5000     28.7958   -200.0001   4818.0386    131.2238
  1238.7500     28.5821   -200.0001 100000.0000    131.4305
  1239.0000     28.4700   -200.0001 100000.0000    130.3459
  1239.2500     28.5255   -200.0001 100000.0000    128.6243
  1239.5000     28.8192   -200.0001 100000.0000    124.6470
  1239.7500     29.3803   -200.0001 100000.0000    121.3831
  1240.0000     30.1754   -200.0001 100000.0000    116.6223
  1240.2500     31.1013   -200.0001 100000.0000    114.0794
  1240.5000     32.0620   -200.0001 100000.0000    111.2131
  1240.7500     33.0308   -200.0001 100000.0000    109.4920
  1241.0000     34.0095   -200.0001 100000.0000    106.6472
  1241.2500     34.9614   -200.0001    170.8511    104.6591
  1241.5000     35.8423   -200.0001     82.8922    101.9993
  1241.7500     36.6668   -200.0001     59.4060    100.6176
  1242.0000     37.4290   -200.0001     58.3204     99.3760
  1242.2500     37.9810   -200.0001    124.2300     99.3833
  1242.5000     38.1454   -200.0001 100000.0000    101.1756
  1242.7500     37.9268   -200.0001 100000.0000    103.5380
  1243.0000     37.4356   -200.0001 100000.0000    107.9691
  1243.2500     36.7274   -200.0001 100000.0000    110.8105
  1243.5000     35.8507   -200.0001 100000.0000    114.2014
  1243.7500     34.8932   -200.0001 100000.0000    115.9998
  1244.0000     33.9165   -200.0001 100000.0000    118.7885
  1244.2500     32.8942   -200.0001 100000.0000    121.0771
  1244.5000     31.7530   -200.0001     16.1942    125.0812
  1244.7500     30.4823   -200.0001      2.6796    127.8192
  1245.0000     29.1300   -200.0001      1.2276    131.7103
  1245.2500     27.6844   -200.0001      0.7363    134.1914
  1245.5000     26.0326   -200.0001      0.5156    137.6123
  1245.7500     24.0424   -200.0001      0.4140    139.2553
  1246.0000     21.6353   -200.0001      0.3883    139.7539
  1246.2500     18.7646   -200.0001      0.4356    138.4588
  1246.5000     15.4043   -200.0001      0.5905    134.1293
  1246.7500     11.6728   -200.0001      0.9819    129.6077
  1247.0000      7.9644   -200.0001      2.2165    119.6671
  1247.2500      4.8473   -200.0001     14.3045    110.5892
  1247.5000      2.7417   -200.0001 100000.0000     94.0574
  1247.7500      1.6585   -200.0001 100000.0000     82.3626
  1248.0000      1.2563   -200.0001 100000.0000     66.3437
  1248.2500      1.1598   -200.0001 100000.0000     57.8658
  1248.5000      1.1729   -200.0001 100000.0000     49.7212
  1248.7500      1.2263   -200.0001 100000.0000     47.5173
  1249.0000      1.3046   -200.0001 100000.0000     48.0790
  1249.2500      1.4132   -200.0001 100000.0000     49.8583
  1249.5000      1.5758   -200.0001 100000.0000     52.6081
  1249.7500      1.9449   -200.0001 100000.0000     53.8592
  1250.0000      2.8978   -200.0001 100000.0000     54.9762
  1250.2500      4.9827   -200.0001 100000.0000     55.7405
  1250.5000      8.7600   -200.0001 100000.0000     57.8303
  1250.7500     14.5784   -200.0001 100000.0000     59.9658
  1251.0000     22.2232   -200.0001 100000.0000     63.3521
  1251.2500     30.5126   -200.0001 100000.0000     64.8278
  1251.5000     37.4192   -200.0001      8.3469     64.9743
  1251.7500     40.9737   -200.0001      2.0706     64.0027
  1252.0000     40.1410   -200.0001      0.9609     62.4329
  1252.2500     35.0736   -200.0001      0.5555     62.1640
  1252.5000     27.0378   -200.0001      0.3644     63.9791
  1252.7500     18.1146   -200.0001      0.2625     67.2344
  1253.0000     10.4270   -200.0001      0.2033     76.0917
  1253.2500      5.2446   -200.0001      0.1651     84.7160
  1253.5000      2.6280   -200.0001      0.1375    100.3385
  1253.7500      1.7486   -200.0001      0.1165    111.0243
