~Version Information
VERS.                      2.0: CWLS Log ASCII Standard - VERSION 2.0
WRAP.                       NO: One line per depth step
~Well Information Block
STRT.FT               440.0000: 
STOP.FT              2735.2000: 
STEP.FT                 0.1000: 
NULL.                -999.2500: 
COMP.          Pioneer Natural Resources: COMPANY
WELL.              Cluck 21-25: WELL
FLD.           Purgatoire River: FIELD
LOC.           91' FNL & 1834' FWL--: LOCATION
PROV.                 Colorado: PROVINCE
CNTY.               Las Animas: COUNTRY
SRVC.                Patterson: SERVICE COMPANY
DATE.          Tue Jun 07 07:26:19 2005: LOG DATE
UWI.           05 071 08397 00: UNIQUE WELL ID
~Curve Information Block
DEPT.FT            0 000 00 00: Depth
DCAL.in                       : CDL Caliper
RHOB.g/cc                     : CDL Bulk Density
RHOC.g/cc                     : CDL Density Correction
DPOR.pu                       : CDL Density Porosity
NPOR.pu                       : Neutron Porosity
GR.GAPI                       : Gamma Ray
~Parameter Information Block
SNDERRM.mmho-m          0.0000: Medium Sonde Error Correction
~A  Depth       DCAL        RHOB        RHOC        DPOR        NPOR         GR     
# ...
  2254.4000      8.1246      2.4678      0.0600     11.0423     28.0046    148.7796
  2254.5000      8.1306      2.4887      0.0466      9.7767     28.3349    152.9727
  2254.6000      8.1306      2.4931      0.0504      9.5111     28.8852    169.6596
  2254.7000      8.1306      2.4871      0.0533      9.8725     28.9645    184.5965
  2254.8000      8.1276      2.4762      0.0710     10.5315     28.5613    188.8882
  2254.9000      8.1276      2.4695      0.0770     10.9402     28.2086    180.8705
  2255.0000      8.1279      2.4763      0.1026     10.5293     28.2233    170.0602
  2255.1000      8.1279      2.5009      0.1263      9.0358     28.6990    167.2464
  2255.2000      8.1279      2.5369      0.1735      6.8535     29.3287    164.4848
  2255.3000      8.1327      2.5701      0.1633      4.8415     29.3315    155.4604
  2255.4000      8.1327      2.5958      0.1356      3.2830     28.3009    145.9497
  2255.5000      8.1319      2.6127      0.1769      2.2616     27.0274    139.5367
  2255.6000      8.1319      2.6107      0.1456      2.3843     26.4832    137.6235
  2255.7000      8.1319      2.5900      0.1088      3.6361     26.7759    136.8920
  2255.8000      8.1198      2.5753      0.0690      4.5290     27.1761    133.1392
  2255.9000      8.1198      2.5880      0.1172      3.7594     26.9475    132.3240
  2256.0000      8.1018      2.6134      0.1728      2.2169     26.2354    139.6268
  2256.1000      8.1018      2.6195      0.1717      1.8467     25.7064    150.2420
  2256.2000      8.1018      2.5966      0.0913      3.2387     26.0434    159.7704
  2256.3000      8.0938      2.5670      0.0014      5.0288     27.2973    168.9444
  2256.4000      8.0938      2.5535      0.0535      5.8484     28.4121    172.9456
  2256.5000      8.0956      2.5548      0.0451      5.7724     28.5362    165.3644
  2256.6000      8.0956      2.5707      0.0109      4.8074     28.1056    154.3331
  2256.7000      8.0956      2.5946      0.0879      3.3562     27.8004    151.4431
  2256.8000      8.0985      2.6020      0.0661      2.9117     27.5092    154.8024
  2256.9000      8.0985      2.5884      0.0696      3.7355     27.0910    158.9363
  2257.0000      8.0971      2.5690      0.0448      4.9088     26.7736    161.7048
  2257.1000      8.0971      2.5549      0.0072      5.7629     26.6034    161.6998
  2257.2000      8.0971      2.5500      0.0307      6.0605     26.5712    156.3862
  2257.3000      8.0919      2.5550      0.0281      5.7597     26.7596    147.1456
  2257.4000      8.0919      2.5711      0.0258      4.7795     26.8352    144.2233
  2257.5000      8.0882      2.5878      0.0797      3.7717     26.6364    153.1215
  2257.6000      8.0882      2.5917      0.0480      3.5338     26.6061    162.6979
  2257.7000      8.0882      2.5926      0.0292      3.4785     26.9279    162.3649
  2257.8000      8.0854      2.5928      0.0616      3.4637     27.1835    161.2351
  2257.9000      8.0854      2.5773      0.0355      4.4087     26.8448    168.0175
  2258.0000      8.0839      2.5568      0.0172      5.6497     26.3462    173.1292
  2258.1000      8.0839      2.5553      0.0215      5.7418     26.5438    170.3976
  2258.2000      8.0839      2.5631      0.0862      5.2641     27.1976    166.3522
  2258.3000      8.0853      2.5620      0.0230      5.3352     27.7036    163.1688
  2258.4000      8.0853      2.5584      0.0257      5.5518     28.0125    160.8963
  2258.5000      8.0864      2.5556      0.0510      5.7237     28.1352    159.0348
  2258.6000      8.0864      2.5499      0.0376      6.0690     28.0387    156.3519
  2258.7000      8.0864      2.5509      0.0097      6.0048     27.9631    155.4857
  2258.8000      8.0850      2.5651      0.0296      5.1484     27.8789    158.2937
  2258.9000      8.0850      2.5829      0.0677      4.0695     27.5309    166.6847
  2259.0000      8.0859      2.5926      0.0609      3.4776     27.1044    176.6698
  2259.1000      8.0859      2.5977      0.0436      3.1680     26.5160    179.5987
  2259.2000      8.0859      2.6076      0.0531      2.5690     25.5906    177.3968
  2259.3000      8.0873      2.6171      0.0766      1.9966     25.0852    177.0309
  2259.4000      8.0873      2.6203      0.0388      1.8018     25.4852    177.1364
  2259.5000      8.0865      2.6236      0.0431      1.6009     26.3148    173.3635
  2259.6000      8.0865      2.6297      0.0805      1.2292     27.0440    167.8299
  2259.7000      8.0865      2.6375      0.0709      0.7600     27.1043    162.4778
  2259.8000      8.0857      2.6469      0.0772      0.1855     26.5041    157.5524
  2259.9000      8.0857      2.6532      0.0864     -0.1949     25.9635    157.5124
  2260.0000      8.0857      2.6553      0.0786     -0.3227     25.7435    161.9202
  2260.1000      8.0857      2.6614      0.0736     -0.6927     25.8719    162.0574
  2260.2000      8.0857      2.6679      0.1152     -1.0830     26.2589    153.7315
  2260.3000      8.0861      2.6534      0.1070     -0.2041     26.5694    139.8437
  2260.4000      8.0861      2.6124      0.0284      2.2794     26.5448    127.2306
  2260.5000      8.0853      2.5721      0.0023      4.7220     26.3435    125.8774
  2260.6000      8.0853      2.5567      0.0267      5.6517     26.6676    137.7186
  2260.7000      8.0853      2.5680      0.0283      4.9716     27.3753    156.2512
  2260.8000      8.0839      2.5906      0.0606      3.5973     27.4952    176.4810
  2260.9000      8.0839      2.5993      0.0864      3.0724     27.1565    192.9382
  2261.0000      8.0848      2.5818      0.0363      4.1319     27.3206    197.9423
  2261.1000      8.0848      2.5482      0.0424      6.1713     28.0154    190.4468
  2261.2000      8.0848      2.5108     -0.0018      8.4354     28.7323    178.5629
  2261.3000      8.0858      2.4781      0.0145     10.4192     29.4936    167.3384
  2261.4000      8.0858      2.4608     -0.0029     11.4649     30.2087    159.3268
  2261.5000      8.0845      2.4651      0.0276     11.2079     30.4678    157.2445
  2261.6000      8.0845      2.4764      0.0384     10.5207     30.4470    158.5582
  2261.7000      8.0845      2.4717      0.0464     10.8059     30.7078    159.7383
  2261.8000      8.0848      2.4397      0.0454     12.7458     30.9784    157.2567
  2261.9000      8.0848      2.3868      0.0042     15.9515     30.8061    152.1075
  2262.0000      8.0863      2.3299     -0.0040     19.4017     30.6896    149.5182
  2262.1000      8.0863      2.2804      0.0157     22.4006     31.0225    147.5211
  2262.2000      8.0863      2.2422     -0.0090     24.7151     31.3384    141.3473
  2262.3000      8.0850      2.2136      0.0268     26.4468     31.1780    134.4647
  2262.4000      8.0850      2.1886     -0.0171     27.9664     30.5229    133.2701
  2262.5000      8.0811      2.1687      0.0009     29.1680     29.7286    135.7476
  2262.6000      8.0811      2.1617     -0.0065     29.5963     29.4550    137.2285
  2262.7000      8.0811      2.1736     -0.0017     28.8712     30.0405    135.1931
  2262.8000      8.0802      2.2084      0.0343     26.7618     30.7091    129.6924
  2262.9000      8.0802      2.2676      0.0793     23.1756     30.3138    124.5991
  2263.0000      8.0835      2.3466      0.1619     18.3900     28.8018    123.7698
  2263.1000      8.0835      2.4297      0.2101     13.3510     27.3221    123.9455
  2263.2000      8.0835      2.5060      0.1924      8.7280     26.8329    122.0278
  2263.3000      8.0855      2.5729      0.2003      4.6725     26.8541    122.3976
  2263.4000      8.0855      2.6152      0.1354      2.1105     26.6150    127.0572
  2263.5000      8.0853      2.6166      0.1107      2.0253     26.2469    135.4950
  2263.6000      8.0853      2.5917      0.0549      3.5331     26.0565    147.9062
  2263.7000      8.0853      2.5789      0.0377      4.3112     26.2795    156.1669
  2263.8000      8.0863      2.5915      0.0589      3.5463     26.8705    154.6160
  2263.9000      8.0863      2.6048      0.0806      2.7415     27.3121    151.6664
