~Version Information
VERS.                      2.0: CWLS Log ASCII Standard - VERSION 2.0
WRAP.                       NO: One line per depth step
~Well Information Block
STRT.FT               390.0000: 
STOP.FT              2770.2500: 
STEP.FT                 0.2500: 
NULL.                -999.2500: 
COMP.          Pioneer Natural Resources: COMPANY
WELL.              Lynch 43-30: WELL
FLD.           Purgatoire River: FIELD
LOC.           1438' FSL & 429' FEL: LOCATION
PROV.                 Colorado: PROVINCE
CNTY.               Las Animas: COUNTRY
SRVC.                Patterson: SERVICE COMPANY
DATE.          Wed Oct 27 08:06:51 2004: LOG DATE
UWI.           05 071 08170 00: UNIQUE WELL ID
~Curve Information Block
DEPT.FT            0 000 00 00: Depth
DIR.Ohm-m                     : IEL Induction Resistivity
SN.Ohm-m                      : IEL Short Normal
SP.mV                         : IEL Spontaneous Potential
GR.GAPI                       : Gamma Ray
~Parameter Information Block
~A  Depth       DIR          SN          SP          GR     
# ...
  1160.5000     15.5161   2000.0000   2000.0000    114.9844
  1160.7500     15.3565   2000.0000   2000.0000    114.9070
  1161.0000     15.3166   2000.0000   2000.0000    115.9024
  1161.2500     15.3858   2000.0000   2000.0000    116.8102
  1161.5000     15.5478   2000.0000   2000.0000    117.2701
  1161.7500     15.7842   2000.0000   2000.0000    116.5619
  1162.0000     16.0768   2000.0000   2000.0000    114.2072
  1162.2500     16.4098   2000.0000   2000.0000    112.2235
  1162.5000     16.7696   2000.0000   2000.0000    109.4475
  1162.7500     17.1386   2000.0000   2000.0000    108.0831
  1163.0000     17.4926   2000.0000   2000.0000    106.8052
  1163.2500     17.8080   2000.0000   2000.0000    106.0693
  1163.5000     18.0726   2000.0000   2000.0000    104.2141
  1163.7500     18.2852   2000.0000   2000.0000    102.2465
  1164.0000     18.4404   2000.0000   2000.0000     98.7579
  1164.2500     18.5168   2000.0000   2000.0000     96.8142
  1164.5000     18.4868   2000.0000   2000.0000     95.7597
  1164.7500     18.3401   2000.0000   2000.0000     96.6704
  1165.0000     18.0950   2000.0000   2000.0000    100.0851
  1165.2500     17.7845   2000.0000   2000.0000    103.0757
  1165.5000     17.4336   2000.0000   2000.0000    107.5673
  1165.7500     17.0517   2000.0000   2000.0000    110.3413
  1166.0000     16.6430   2000.0000   2000.0000    114.4397
  1166.2500     16.2217   2000.0000   2000.0000    117.2699
  1166.5000     15.8158   2000.0000   2000.0000    121.1736
  1166.7500     15.4568   2000.0000   2000.0000    122.9387
  1167.0000     15.1677   2000.0000   2000.0000    123.7003
  1167.2500     14.9591   2000.0000   2000.0000    123.1702
  1167.5000     14.8334   2000.0000   2000.0000    121.7976
  1167.7500     14.7942   2000.0000   2000.0000    120.9555
  1168.0000     14.8499   2000.0000   2000.0000    119.9636
  1168.2500     15.0085   2000.0000   2000.0000    119.2869
  1168.5000     15.2673   2000.0000   2000.0000    117.7502
  1168.7500     15.6063   2000.0000   2000.0000    116.1788
  1169.0000     15.9929   2000.0000   2000.0000    113.1693
  1169.2500     16.3943   2000.0000   2000.0000    111.1629
  1169.5000     16.7898   2000.0000   2000.0000    108.9578
  1169.7500     17.1741   2000.0000   2000.0000    108.1559
  1170.0000     17.5509   2000.0000   2000.0000    107.3771
  1170.2500     17.9236   2000.0000   2000.0000    106.5126
  1170.5000     18.2886   2000.0000   2000.0000    103.6920
  1170.7500     18.6366   2000.0000   2000.0000    100.5770
  1171.0000     18.9629   2000.0000   2000.0000     94.7388
  1171.2500     19.2735   2000.0000   2000.0000     91.0046
  1171.5000     19.5738   2000.0000   2000.0000     87.2857
  1171.7500     19.8444   2000.0000   2000.0000     86.4575
  1172.0000     20.0257   2000.0000   2000.0000     86.9431
  1172.2500     20.0372   2000.0000   2000.0000     87.4852
  1172.5000     19.8225   2000.0000   2000.0000     87.5116
  1172.7500     19.3853   2000.0000   2000.0000     87.2267
  1173.0000     18.7872   2000.0000   2000.0000     87.9921
  1173.2500     18.1174   2000.0000   2000.0000     90.2517
  1173.5000     17.4630   2000.0000   2000.0000     96.6650
  1173.7500     16.8926   2000.0000   2000.0000    102.3454
  1174.0000     16.4497   2000.0000   2000.0000    110.9853
  1174.2500     16.1492   2000.0000   2000.0000    115.4970
  1174.5000     15.9794   2000.0000   2000.0000    118.7014
  1174.7500     15.9092   2000.0000   2000.0000    118.2438
  1175.0000     15.9028   2000.0000   2000.0000    114.6982
  1175.2500     15.9316   2000.0000   2000.0000    111.4059
  1175.5000     15.9773   2000.0000   2000.0000    106.3078
  1175.7500     16.0230   2000.0000   2000.0000    103.0205
  1176.0000     16.0451   2000.0000   2000.0000     98.2426
  1176.2500     16.0159   2000.0000   2000.0000     95.3595
  1176.5000     15.9148   2000.0000   2000.0000     92.5325
  1176.7500     15.7359   2000.0000   2000.0000     92.3805
  1177.0000     15.4861   2000.0000   2000.0000     95.2944
  1177.2500     15.1787   2000.0000   2000.0000     98.9697
  1177.5000     14.8267   2000.0000   2000.0000    105.7498
  1177.7500     14.4417   2000.0000   2000.0000    110.3616
  1178.0000     14.0366   2000.0000   2000.0000    116.5267
  1178.2500     13.6313   2000.0000   2000.0000    119.7971
  1178.5000     13.2547   2000.0000   2000.0000    123.1467
  1178.7500     12.9393   2000.0000   2000.0000    124.3178
  1179.0000     12.7114   2000.0000   2000.0000    124.4726
  1179.2500     12.5833   2000.0000   2000.0000    123.5801
  1179.5000     12.5532   2000.0000   2000.0000    121.6012
  1179.7500     12.6102   2000.0000   2000.0000    120.7468
  1180.0000     12.7387   2000.0000   2000.0000    121.0954
  1180.2500     12.9204   2000.0000   2000.0000    122.0480
  1180.5000     13.1322   2000.0000   2000.0000    122.9118
  1180.7500     13.3444   2000.0000   2000.0000    122.3463
  1181.0000     13.5234   2000.0000   2000.0000    119.7081
  1181.2500     13.6390   2000.0000   2000.0000    117.3750
  1181.5000     13.6743   2000.0000   2000.0000    114.4379
  1181.7500     13.6296   2000.0000   2000.0000    113.3955
  1182.0000     13.5179   2000.0000   2000.0000    113.2075
  1182.2500     13.3543   2000.0000   2000.0000    113.7145
  1182.5000     13.1503   2000.0000   2000.0000    115.1616
  1182.7500     12.9168   2000.0000   2000.0000    116.5834
  1183.0000     12.6679   2000.0000   2000.0000    119.0864
  1183.2500     12.4196   2000.0000   2000.0000    120.5248
  1183.5000     12.1832   2000.0000   2000.0000    121.5692
  1183.7500     11.9618   2000.0000   2000.0000    121.3656
  1184.0000     11.7528   2000.0000   2000.0000    119.6956
  1184.2500     11.5530   2000.0000   2000.0000    117.6858
  1184.5000     11.3612   2000.0000   2000.0000    113.8511
  1184.7500     11.1774   2000.0000   2000.0000    111.5458
  1185.0000     11.0010   2000.0000   2000.0000    109.9617
  1185.2500     10.8291   2000.0000   2000.0000    110.5115
  1185.5000     10.6561   2000.0000   2000.0000    113.2570
  1185.7500     10.4765   2000.0000   2000.0000    115.7965
  1186.0000     10.2877   2000.0000   2000.0000    119.8350
  1186.2500     10.0930   2000.0000   2000.0000    122.3926
  1186.5000      9.8999   2000.0000   2000.0000    125.6334
  1186.7500      9.7180   2000.0000   2000.0000    127.0395
  1187.0000      9.5556   2000.0000   2000.0000    127.4337
  1187.2500      9.4179   2000.0000   2000.0000    126.6812
  1187.5000      9.3070   2000.0000   2000.0000    125.2347
  1187.7500      9.2228   2000.0000   2000.0000    124.7881
  1188.0000      9.1640   2000.0000   2000.0000    125.1780
  1188.2500      9.1295   2000.0000   2000.0000    125.8089
  1188.5000      9.1176   2000.0000   2000.0000    126.6635
  1188.7500      9.1265   2000.0000   2000.0000    127.0092
  1189.0000      9.1548   2000.0000   2000.0000    127.2202
  1189.2500      9.2021   2000.0000   2000.0000    127.2827
  1189.5000      9.2690   2000.0000   2000.0000    127.6125
  1189.7500      9.3552   2000.0000   2000.0000    128.1703
  1190.0000      9.4584   2000.0000   2000.0000    129.4026
  1190.2500      9.5735   2000.0000   2000.0000    130.0952
  1190.5000      9.6936   2000.0000   2000.0000    130.0774
  1190.7500      9.8109   2000.0000   2000.0000    129.1061
  1191.0000      9.9164   2000.0000   2000.0000    126.6223
  1191.2500     10.0013   2000.0000   2000.0000    124.8973
  1191.5000     10.0597   2000.0000   2000.0000    123.1549
  1191.7500     10.0903   2000.0000   2000.0000    122.7080
  1192.0000     10.0966   2000.0000   2000.0000    122.7953
  1192.2500     10.0832   2000.0000   2000.0000    123.2206
  1192.5000     10.0528   2000.0000   2000.0000    124.5681
  1192.7500     10.0046   2000.0000   2000.0000    125.9669
  1193.0000      9.9360   2000.0000   2000.0000    128.1253
  1193.2500      9.8456   2000.0000   2000.0000    128.8554
  1193.5000      9.7366   2000.0000   2000.0000    127.8858
  1193.7500      9.6167   2000.0000   2000.0000    125.8363
