~Version Information
VERS.                      2.0: CWLS Log ASCII Standard - VERSION 2.0
WRAP.                       NO: One line per depth step
~Well Information Block
STRT.FT               395.0000: 
STOP.FT              1998.0000: 
STEP.FT                 0.1000: 
NULL.                -999.2500: 
COMP.          Pioneer Natural Resources: COMPANY
WELL.          Easton 12-30 Tr: WELL
FLD.           Purgatoire River: FIELD
LOC.           549' FWL & 2416' FNL--: LOCATION
PROV.                 Colorado: PROVINCE
CNTY.               Las Animas: COUNTRY
SRVC.                Patterson: SERVICE COMPANY
DATE.          Thu Jun 02 09:14:44 2005: LOG DATE
UWI.           05 071 08379 00: UNIQUE WELL ID
~Curve Information Block
DEPT.FT            0 000 00 00: Depth
DCAL.in                       : CDL Caliper
RHOB.g/cc                     : CDL Bulk Density
RHOC.g/cc                     : CDL Density Correction
DPOR.pu                       : CDL Density Porosity
NPOR.pu                       : Neutron Porosity
GR.GAPI                       : Gamma Ray
~Parameter Information Block
~A  Depth       DCAL        RHOB        RHOC        DPOR        NPOR         GR     
# ...
  1863.8000      7.9786      2.5595      0.1016      5.4866     26.1712    143.0674
  1863.9000      7.9786      2.5500      0.0708      6.0617     26.2980    152.1641
  1864.0000      7.9782      2.5429      0.0293      6.4910     26.0057    152.3051
  1864.1000      7.9782      2.5505      0.0539      6.0301     25.6248    142.4697
  1864.2000      7.9782      2.5663      0.0999      5.0711     25.4641    130.5872
  1864.3000      7.9786      2.5736      0.0823      4.6302     25.4842    123.7308
  1864.4000      7.9786      2.5652      0.0597      5.1390     25.4739    121.0473
  1864.5000      7.9752      2.5531      0.0221      5.8731     25.6920    119.8049
  1864.6000      7.9752      2.5551      0.0479      5.7497     26.3877    122.8611
  1864.7000      7.9752      2.5686      0.0565      4.9316     26.7950    129.8440
  1864.8000      7.9702      2.5721      0.0516      4.7226     26.4280    135.6162
  1864.9000      7.9702      2.5580      0.0383      5.5759     26.0896    136.8980
  1865.0000      7.9665      2.5472     -0.0420      6.2294     26.1677    133.3834
  1865.1000      7.9665      2.5552      0.0467      5.7437     26.2094    127.7210
  1865.2000      7.9665      2.5683      0.0422      4.9518     26.2176    122.9337
  1865.3000      7.9660      2.5762      0.0575      4.4741     26.2385    123.6215
  1865.4000      7.9660      2.5807      0.0955      4.1997     26.0330    129.1957
  1865.5000      7.9679      2.5839      0.0686      4.0048     25.7595    130.4863
  1865.6000      7.9679      2.5878      0.0709      3.7689     25.7038    127.4922
  1865.7000      7.9679      2.5855      0.0785      3.9118     25.7417    128.6593
  1865.8000      7.9656      2.5761      0.0456      4.4786     25.6845    134.3573
  1865.9000      7.9656      2.5735      0.0629      4.6357     25.8760    139.1923
  1866.0000      7.9613      2.5780      0.0617      4.3618     26.5409    141.7174
  1866.1000      7.9613      2.5772      0.0864      4.4133     27.0878    144.5280
  1866.2000      7.9613      2.5631      0.0819      5.2663     27.0361    147.8527
  1866.3000      7.9697      2.5384      0.0791      6.7609     26.7990    150.0307
  1866.4000      7.9697      2.5203      0.0425      7.8579     26.9888    148.8003
  1866.5000      7.9957      2.5200      0.0674      7.8791     27.8361    141.7952
  1866.6000      7.9957      2.5237      0.0854      7.6568     28.9760    133.3714
  1866.7000      7.9957      2.5197      0.0760      7.8947     29.6541    132.8298
  1866.8000      8.0236      2.5164      0.0428      8.0941     29.5450    140.2707
  1866.9000      8.0236      2.5207      0.0694      7.8388     28.8418    148.1210
  1867.0000      8.0374      2.5249      0.0826      7.5804     27.8028    153.9141
  1867.1000      8.0374      2.5229      0.0827      7.7049     27.1485    156.8811
  1867.2000      8.0374      2.5195      0.0729      7.9099     27.4026    156.4525
  1867.3000      8.0395      2.5196      0.0963      7.9015     28.1183    152.2489
  1867.4000      8.0395      2.5189      0.0959      7.9426     28.6376    145.2279
  1867.5000      8.0388      2.5122      0.1030      8.3520     28.6478    142.5305
  1867.6000      8.0388      2.5022      0.0760      8.9594     28.2680    148.5654
  1867.7000      8.0388      2.4987      0.0553      9.1670     27.8382    153.7738
  1867.8000      8.0393      2.5031      0.0616      8.9042     27.6058    147.9876
  1867.9000      8.0393      2.5110      0.0356      8.4262     27.5126    137.1130
  1868.0000      8.0435      2.5194      0.0885      7.9160     27.4237    131.6574
  1868.1000      8.0435      2.5229      0.0630      7.7048     27.5992    134.2173
  1868.2000      8.0435      2.5253      0.0508      7.5593     28.2760    143.4105
  1868.3000      8.0508      2.5351      0.0706      6.9663     29.0821    155.8344
  1868.4000      8.0508      2.5490      0.0964      6.1230     29.4972    162.0380
  1868.5000      8.0607      2.5571      0.1397      5.6321     29.5502    155.2921
  1868.6000      8.0607      2.5621      0.0874      5.3243     29.6539    143.2861
  1868.7000      8.0607      2.5749      0.1128      4.5494     29.9057    135.6629
  1868.8000      8.0675      2.5872      0.1065      3.8082     29.9424    135.0217
  1868.9000      8.0675      2.5856      0.0446      3.9034     29.8809    138.8025
  1869.0000      8.0648      2.5724      0.0743      4.7019     29.9864    142.2512
  1869.1000      8.0648      2.5586      0.0475      5.5410     29.8190    145.7447
  1869.2000      8.0648      2.5546      0.0511      5.7848     29.1531    149.7917
  1869.3000      8.0626      2.5624      0.0490      5.3086     28.6005    150.4070
  1869.4000      8.0626      2.5769      0.0769      4.4289     28.7100    148.0108
  1869.5000      8.0642      2.5890      0.0709      3.6970     29.5737    147.8343
  1869.6000      8.0642      2.5903      0.0911      3.6175     30.4784    148.9191
  1869.7000      8.0642      2.5786      0.0736      4.3271     30.1557    146.0239
  1869.8000      8.0650      2.5575      0.0566      5.6032     28.8042    141.2808
  1869.9000      8.0650      2.5369      0.0398      6.8571     28.1764    141.4496
  1870.0000      8.0644      2.5253      0.0640      7.5546     28.6968    149.3153
  1870.1000      8.0644      2.5232      0.0412      7.6856     29.2050    160.1456
  1870.2000      8.0644      2.5269      0.0625      7.4603     29.1872    166.9502
  1870.3000      8.0644      2.5348      0.0507      6.9844     29.1075    167.5277
  1870.4000      8.0644      2.5437      0.0579      6.4435     29.3165    162.6273
  1870.5000      8.0664      2.5476      0.0691      6.2082     29.6733    154.9953
  1870.6000      8.0664      2.5445      0.0757      6.3913     29.8684    151.8382
  1870.7000      8.0664      2.5424      0.0685      6.5230     29.6766    157.2101
  1870.8000      8.0725      2.5497      0.0783      6.0759     29.3705    163.4758
  1870.9000      8.0725      2.5615      0.1044      5.3616     29.2975    162.0403
  1871.0000      8.0805      2.5666      0.1339      5.0558     29.3081    157.3976
  1871.1000      8.0805      2.5676      0.0949      4.9913     29.2934    155.3017
  1871.2000      8.0805      2.5723      0.1127      4.7107     29.3566    151.7661
  1871.3000      8.0832      2.5741      0.1254      4.5977     29.2650    143.8149
  1871.4000      8.0832      2.5700      0.0929      4.8466     28.9758    138.0625
  1871.5000      8.0745      2.5725      0.0952      4.6956     28.5902    140.1541
  1871.6000      8.0745      2.5850      0.1391      3.9389     28.1805    145.1008
  1871.7000      8.0745      2.5965      0.1029      3.2410     28.0338    145.9617
  1871.8000      8.0549      2.6035      0.0965      2.8155     28.0555    143.7225
  1871.9000      8.0549      2.6094      0.1024      2.4620     28.1058    143.8781
  1872.0000      8.0401      2.6131      0.0915      2.2365     28.5242    147.2400
  1872.1000      8.0401      2.6091      0.1424      2.4780     29.0614    149.9825
  1872.2000      8.0401      2.5959      0.1063      3.2780     28.8278    151.0895
  1872.3000      8.0344      2.5807      0.0955      4.2019     27.8987    152.3288
  1872.4000      8.0344      2.5619      0.0710      5.3416     27.3414    152.6930
  1872.5000      8.0353      2.5339      0.0303      7.0369     27.8184    148.7719
  1872.6000      8.0353      2.5015      0.0526      9.0009     29.0057    141.4895
  1872.7000      8.0353      2.4699      0.0045     10.9167     29.7325    136.5919
  1872.8000      8.0431      2.4435      0.0193     12.5136     29.4299    138.2112
  1872.9000      8.0431      2.4290     -0.0112     13.3944     28.9539    144.4610
  1873.0000      8.0617      2.4281      0.0606     13.4473     29.0023    151.8804
  1873.1000      8.0617      2.4334      0.0634     13.1300     29.4041    158.6830
  1873.2000      8.0617      2.4422      0.0652     12.5916     29.7883    161.1972
  1873.3000      8.0964      2.4608      0.0831     11.4689     29.9691    157.5019
