~Version Information
VERS.                      2.0: CWLS Log ASCII Standard - VERSION 2.0
WRAP.                       NO: One line per depth step
~Well Information Block
STRT.FT               605.6000: 
STOP.FT              1938.0000: 
STEP.FT                 0.1000: 
NULL.                -999.2500: 
COMP.          Petrogulf Corporation: COMPANY
WELL.              Graff 9-31R: WELL
FLD.           Purgatorie River: FIELD
LOC.           707' FNL & 1713' FEL: LOCATION
CNTY.               Las Animas: COUNTY
SRVC.                         : SERVICE COMPANY
DATE.          Mon Oct 25 06:13:30 2004: LOG DATE
UWI.           05 071 08037 00: UNIQUE WELL ID
STAT.                 Colorado: STATE
~Curve Information Block
DEPT.FT            0 000 00 00: Depth
DCAL.in                       : CDL Caliper
RHOB.g/cc                     : CDL Bulk Density
RHOC.g/cc                     : CDL Density Correction
DPOR.pu                       : CDL Density Porosity
GR.GAPI                       : Gamma Ray
NPOR.pu                       : Neutron Porosity
~Parameter Information Block
~A  Depth       DCAL        RHOB        RHOC        DPOR         GR         NPOR    
# ...
   797.6000      8.3391      2.5875      0.0583      3.7868    108.3079     24.0911
   797.7000      8.3391      2.6302      0.0848      1.2027    108.2796     24.3676
   797.8000      8.3429      2.6526      0.1168     -0.1556    105.0476     24.7193
   797.9000      8.3429      2.6463      0.0165      0.2242    102.3635     25.0437
   798.0000      8.3431      2.6261      0.0887      1.4460    103.9535     25.3988
   798.1000      8.3431      2.6034      0.0047      2.8271    108.3393     25.6326
   798.2000      8.3431      2.5896     -0.0079      3.6600    111.9610     25.4678
   798.3000      8.3443      2.5857      0.0563      3.8983    115.3434     24.7244
   798.4000      8.3443      2.5798      0.0181      4.2573    117.2777     23.5445
   798.5000      8.3469      2.5738      0.0340      4.6164    114.8645     22.3438
   798.6000      8.3469      2.5700      0.0429      4.8470    110.8020     21.5769
   798.7000      8.3469      2.5590      0.0545      5.5161    107.8201     21.2159
   798.8000      8.3469      2.5392      0.0408      6.7152    104.6951     21.0048
   798.9000      8.3469      2.5249      0.0353      7.5841    101.7106     21.3026
   799.0000      8.3407      2.5292      0.0674      7.3236     99.2521     22.1178
   799.1000      8.3407      2.5522      0.0413      5.9285     94.4905     22.7844
   799.2000      8.3407      2.5837      0.0790      4.0205     89.5182     23.1787
   799.3000      8.3359      2.6124      0.0799      2.2794     91.2542     23.4773
   799.4000      8.3359      2.6372      0.1386      0.7734     97.4166     23.4339
   799.5000      8.3380      2.6506      0.1194     -0.0352    100.5964     23.0364
   799.6000      8.3380      2.6423      0.1478      0.4696    100.1309     22.9098
   799.7000      8.3380      2.6238      0.0407      1.5901    100.1618     23.5073
   799.8000      8.3403      2.6129      0.0503      2.2476    102.4320     24.7009
   799.9000      8.3403      2.6070      0.0446      2.6087    104.8442     25.8971
   800.0000      8.3350      2.6011      0.0526      2.9622    105.4512     26.4731
   800.1000      8.3350      2.5979      0.0415      3.1565    104.7389     26.3951
   800.2000      8.3350      2.5947      0.0260      3.3495    103.2023     26.1456
   800.3000      8.3133      2.5870      0.0159      3.8205     97.8852     26.1384
   800.4000      8.3133      2.5803      0.0046      4.2236     89.9643     26.3416
   800.5000      8.2737      2.5813      0.0105      4.1607     87.1485     26.5350
   800.6000      8.2737      2.5842      0.0316      3.9871     88.8173     26.6282
   800.7000      8.2737      2.5821      0.0137      4.1147     88.6205     26.5181
   800.8000      8.2662      2.5704      0.0351      4.8252     89.1500     26.0591
   800.9000      8.2662      2.5560      0.0030      5.6989     94.0135     25.2820
   801.0000      8.2680      2.5551      0.0342      5.7502    102.3891     24.5743
   801.1000      8.2680      2.5611      0.0395      5.3902    110.8364     24.1931
   801.2000      8.2680      2.5677     -0.0238      4.9908    114.0108     23.9806
   801.3000      8.2670      2.5927      0.0279      3.4700    113.9688     23.9642
   801.4000      8.2670      2.6330      0.0768      1.0294    115.0326     24.1414
   801.5000      8.2676      2.6588      0.1207     -0.5329    114.9004     24.3126
   801.6000      8.2676      2.6571      0.0526     -0.4310    111.4058     24.5304
   801.7000      8.2676      2.6423      0.0896      0.4653    105.0554     24.7627
   801.8000      8.2669      2.6269      0.0462      1.3970     97.0229     24.7983
   801.9000      8.2669      2.6150     -0.0065      2.1200     90.4345     24.4376
   802.0000      8.2680      2.6142     -0.0348      2.1727     89.5820     23.6468
   802.1000      8.2680      2.6214      0.0764      1.7303     93.5847     22.8225
   802.2000      8.2680      2.6272      0.0018      1.3825     96.4531     22.4299
   802.3000      8.2704      2.6327      0.0391      1.0459     94.5645     22.3391
   802.4000      8.2704      2.6340      0.0092      0.9726     89.5148     22.2392
   802.5000      8.2738      2.6279     -0.0031      1.3376     83.8216     22.2904
   802.6000      8.2738      2.6246      0.0333      1.5398     79.8701     22.3498
   802.7000      8.2738      2.6346     -0.0063      0.9313     80.6903     22.1096
   802.8000      8.2799      2.6589      0.0033     -0.5364     84.1541     21.7846
   802.9000      8.2799      2.6767      0.0925     -1.6203     85.8207     21.4617
   803.0000      8.2857      2.6712      0.0857     -1.2839     85.7903     21.1826
   803.1000      8.2857      2.6596      0.0187     -0.5824     85.9337     21.2323
   803.2000      8.2857      2.6587      0.0339     -0.5247     87.3663     21.6566
   803.3000      8.2977      2.6561      0.0380     -0.3694     86.9131     22.1985
   803.4000      8.2977      2.6451     -0.0253      0.2965     81.2595     22.4594
   803.5000      8.3176      2.6275      0.0689      1.3666     75.8572     22.1503
   803.6000      8.3176      2.5990      0.0030      3.0898     76.4014     21.7235
   803.7000      8.3176      2.5768     -0.0777      4.4353     80.4411     21.6847
   803.8000      8.3277      2.5752      0.0077      4.5323     83.2307     21.7346
   803.9000      8.3277      2.5689      0.0416      4.9168     83.7248     21.5095
   804.0000      8.3347      2.5412      0.0378      6.5936     84.3457     21.1849
   804.1000      8.3347      2.5150      0.0034      8.1836     85.9561     20.8389
   804.2000      8.3347      2.5102      0.0376      8.4754     87.1487     20.3501
   804.3000      8.3329      2.5213      0.0683      7.8000     88.5240     19.9547
   804.4000      8.3329      2.5394      0.0515      6.7006     91.0881     19.8513
   804.5000      8.3453      2.5634      0.0388      5.2486     91.9936     19.8102
   804.6000      8.3453      2.5892      0.0913      3.6827     87.8934     19.7862
   804.7000      8.3453      2.6077      0.0729      2.5611     81.0698     19.9681
   804.8000      8.3548      2.6064      0.0957      2.6424     73.4959     20.1921
   804.9000      8.3548      2.5892      0.0188      3.6853     66.3220     20.2433
   805.0000      8.3618      2.5845      0.0380      3.9725     62.6167     20.3380
   805.1000      8.3618      2.5953      0.0645      3.3165     63.3956     20.4638
   805.2000      8.3618      2.5884      0.1016      3.7315     66.8183     20.3372
   805.3000      8.3677      2.5560      0.0500      5.6952     68.7553     20.1316
   805.4000      8.3677      2.5327      0.0140      7.1089     68.2515     20.1383
   805.5000      8.3727      2.5390      0.0160      6.7269     67.7033     20.3255
   805.6000      8.3727      2.5556      0.0733      5.7223     66.7618     20.4320
   805.7000      8.3727      2.5609      0.0435      5.4019     66.7525     20.2893
   805.8000      8.3812      2.5601      0.0575      5.4461     71.2295     19.9613
   805.9000      8.3812      2.5601      0.0229      5.4489     76.3136     19.8020
   806.0000      8.3892      2.5521      0.0403      5.9346     75.8871     19.9772
   806.1000      8.3892      2.5304      0.0227      7.2468     72.7072     20.2701
   806.2000      8.3892      2.5113     -0.0186      8.4042     72.0561     20.3307
   806.3000      8.4003      2.5098      0.0495      8.4977     74.3255     19.9312
   806.4000      8.4003      2.5112      0.0423      8.4106     75.2449     19.2498
   806.5000      8.4078      2.5051      0.0184      8.7837     72.5858     18.6761
   806.6000      8.4078      2.5003      0.0647      9.0700     71.4965     18.5363
   806.7000      8.4078      2.5018      0.0331      8.9800     74.5471     18.5780
   806.8000      8.4128      2.5082      0.0481      8.5962     76.1686     18.2946
   806.9000      8.4128      2.5086      0.0731      8.5685     74.9809     17.9242
   807.0000      8.4239      2.4916      0.0528      9.5977     73.5163     17.7822
   807.1000      8.4239      2.4641      0.0159     11.2664     70.6143     17.4537
