~Version Information
 VERS.                                  2.0 : CWLS LAS VERSION
 WRAP.                                   NO : WRAPING MODE
 SWARE .                 MController 2.5.0J : SOFTWARE VERSION
~Well Information
 WELL.                       Montoya 01-41V : WELL
 COMP.                Petrogulf Corporation : COMPANY
 FLD.                      Purgatoire River : FIELD
 LOC.                NE/NE Sec 01 T33S R68W : LOCATION
 DATE.                             08/21/05 : DATE(S) LOGGED
 SRVC.       BLANCO Geological Services LLC : SERVICE COMPANY
 STAT.                                   CO : STATE
 CNTY.                           Las Animas : COUNTY
 CTRY.                                  USA : COUNTRY
 API.                       05-071-08144-00 : API NUMBER
 STRT.FT                             719.00 : START DEPTH
 STOP.FT                            2945.00 : STOP DEPTH
 STEP.FT                               1.00 : DEPTH INCREMENT
 NULL.                                -9999 : NULL VALUE
~Curve information
 DEPTH.FT                                   :
 ROP.MIN/FT                                 :
 GAS.UNITS                                  :
~ASCII Log data
# ...
      2319.0         0.35          8.8 
      2320.0         0.40          8.8 
      2321.0         0.40          8.9 
      2322.0         0.37          9.1 
      2323.0         0.37          8.8 
      2324.0         0.37          8.9 
      2325.0         0.30          9.7 
      2326.0         0.30          8.7 
      2327.0         0.33         10.3 
      2328.0         0.28         11.3 
      2329.0         0.30         15.1 
      2330.0         0.27         14.7 
      2331.0         0.30         14.1 
      2332.0         0.30         13.1 
      2333.0         0.27         10.4 
      2334.0         0.27          7.1 
      2335.0         0.20          7.4 
      2336.0         0.23          5.9 
      2337.0         0.23          7.0 
      2338.0         0.17          7.5 
      2339.0         0.23          9.4 
      2340.0         0.23         12.0 
      2341.0         0.23         14.8 
      2342.0         0.22         18.3 
      2343.0         0.27         24.1 
      2344.0         2.80         79.7 
      2345.0         0.42         17.4 
      2346.0         0.37         15.8 
      2347.0         0.33         13.5 
      2348.0         0.33         13.2 
      2349.0         0.33         12.4 
      2350.0         0.33          9.8 
      2351.0         0.37         10.2 
      2352.0         0.40          7.8 
      2353.0         0.43          8.3 
      2354.0         0.32          7.5 
      2355.0         0.30          8.0 
      2356.0         0.33          7.4 
      2357.0         0.30          7.9 
      2358.0         0.30          7.7 
      2359.0         0.30          7.7 
      2360.0         0.30          8.2 
      2361.0         0.33          7.8 
      2362.0         0.30          8.1 
      2363.0         0.27          7.5 
      2364.0         0.27          9.2 
      2365.0         0.32         11.4 
      2366.0         0.30         13.2 
      2367.0         0.30          8.7 
      2368.0         0.27          8.2 
      2369.0         0.27          7.0 
      2370.0         0.23          7.0 
      2371.0         0.23          7.7 
      2372.0         0.23          8.8 
      2373.0         0.23          9.2 
      2374.0         3.08         24.6 
      2375.0         0.37         15.7 
      2376.0         0.40         14.6 
      2377.0         0.30         13.3 
      2378.0         0.32         11.1 
      2379.0         0.27         10.8 
      2380.0         0.27         10.5 
      2381.0         0.27         11.8 
      2382.0         0.33         11.1 
      2383.0         0.23         10.7 
      2384.0         0.33         10.6 
      2385.0         0.37          9.2 
      2386.0         0.30          8.8 
      2387.0         0.40          9.9 
      2388.0         0.33          9.6 
      2389.0         0.35          9.4 
      2390.0         0.30          7.6 
      2391.0         0.27          7.4 
      2392.0         0.27          6.8 
      2393.0         0.27          6.5 
      2394.0         0.30          7.2 
      2395.0         0.30          7.9 
      2396.0         0.27          7.2 
      2397.0         0.27          7.6 
      2398.0         0.30          6.7 
      2399.0         0.27          6.3 
      2400.0         0.30          5.9 
      2401.0         0.32          7.1 
      2402.0         0.33          7.6 
      2403.0         0.40          9.1 
      2404.0         2.40         24.3 
      2405.0         0.58         11.2 
      2406.0         0.43          9.4 
      2407.0         0.37          8.8 
      2408.0         0.37          8.8 
      2409.0         0.27          9.3 
      2410.0         0.27          8.5 
      2411.0         0.27          8.7 
      2412.0         0.27          8.5 
      2413.0         0.33          9.0 
      2414.0         0.58          8.7 
      2415.0         0.50          8.4 
      2416.0         0.57          7.4 
      2417.0         0.30          8.0 
      2418.0         0.27          7.4 
      2419.0         0.23          7.8 
      2420.0         0.20          7.5 
      2421.0         0.27          6.9 
      2422.0         0.23          7.5 
      2423.0         0.27          6.8 
      2424.0         0.25          7.0 
      2425.0         0.23          7.9 
      2426.0         0.23          7.6 
      2427.0         0.27          7.9 
      2428.0         0.30          7.3 
      2429.0         0.30          7.4 
      2430.0         0.30          8.5 
      2431.0         0.30          9.2 
      2432.0         0.23         10.4 
      2433.0         0.20         14.7 
      2434.0         2.35         35.8 
      2435.0         0.57         42.7 
      2436.0         0.37         40.2 
      2437.0         0.30         32.3 
      2438.0         0.23         26.4 
      2439.0         0.18         24.8 
      2440.0         0.13         22.5 
      2441.0         0.30         21.7 
      2442.0         0.30         20.4 
      2443.0         0.30         20.4 
      2444.0         0.27         18.8 
      2445.0         0.20         16.2 
      2446.0         0.20         15.9 
      2447.0         0.27         14.6 
      2448.0         0.33         15.0 
      2449.0         0.37         13.7 
      2450.0         0.37         13.6 
      2451.0         0.42         12.6 
      2452.0         0.40         12.3 
      2453.0         0.33         12.4 
      2454.0         0.43         12.6 
      2455.0         0.37         13.7 
      2456.0         0.33         14.7 
      2457.0         0.33         11.4 
      2458.0         0.37          8.5 
      2459.0         0.30          8.4 
      2460.0         0.23          8.9 
      2461.0         0.28          9.6 
      2462.0         0.23         11.8 
      2463.0         0.33         15.6 
      2464.0         3.95         26.2 
      2465.0         0.43         13.7 
      2466.0         0.40         13.9 
      2467.0         0.33         14.6 
      2468.0         0.27         14.3 
      2469.0         0.23         13.4 
      2470.0         0.27         12.6 
      2471.0         0.35         11.3 
      2472.0         0.47         10.9 
      2473.0         0.47         12.0 
      2474.0         0.47         10.8 
      2475.0         0.47          9.9 
      2476.0         0.23         10.5 
      2477.0         0.23         11.0 
      2478.0         0.30         10.8 
      2479.0         0.30          9.3 
      2480.0         0.28          9.1 
      2481.0         0.27          9.1 
      2482.0         0.30          9.1 
      2483.0         0.33          8.8 
      2484.0         0.33          9.0 
      2485.0         0.30          9.5 
      2486.0         0.33          8.1 
      2487.0         0.30          7.8 
      2488.0         0.20          7.8 
      2489.0         0.23          7.5 
      2490.0         0.23          8.5 
      2491.0         0.23         10.2 
      2492.0         0.28         13.8 
      2493.0         0.43         23.6 
      2494.0         2.47         37.6 
      2495.0         0.45         18.8 
      2496.0         0.43         14.7 
      2497.0         0.33         13.7 
      2498.0         0.30         11.4 
      2499.0         0.30         10.9 
      2500.0         0.23         10.8 
      2501.0         0.27         11.2 
      2502.0         0.23         11.0 
      2503.0         0.37         11.4 
      2504.0         0.37         10.2 
      2505.0         0.32         10.6 
      2506.0         0.20          9.5 
      2507.0         0.23         10.0 
      2508.0         0.27         10.1 
      2509.0         0.23          9.6 
      2510.0         0.23          9.5 
      2511.0         0.23          9.5 
      2512.0         0.27         10.6 
      2513.0         0.27         10.2 
      2514.0         0.30         10.0 
      2515.0         0.27          8.9 
      2516.0         0.27          8.5 
      2517.0         0.20          8.3 
      2518.0         0.17          8.3 
