~Version Information
VERS.                      2.0: CWLS Log ASCII Standard - VERSION 2.0
WRAP.                       NO: One line per depth step
~Well Information Block
STRT.FT               -17.7500: 
STOP.FT              1590.5000: 
STEP.FT                 0.2500: 
NULL.                -999.2500: 
COMP.          Petrogulf Corporation: COMPANY
WELL.          Great Plains 22-21V: WELL
FLD.           Purgatorie River: FIELD
LOC.           63' FNL & 1895' FWL--: LOCATION
CNTY.               Las Animas: COUNTY
SRVC.          Superior Well Services: SERVICE COMPANY
DATE.          Fri Dec 08 14:45:19 2006: LOG DATE
UWI.           05 071 08346 00: UNIQUE WELL ID
STAT.                       CO: STATE
~Curve Information Block
DEPT.FT            0 000 00 00: Depth
CCL.                          : Casing Collar Locator
TT3.usec                      : CBL 3' Travel Time
AMP3.mV                       : CBL 3' Amplitude
GR.GAPI                       : Gamma Ray
~Parameter Information Block
~A  Depth       CCL         TT3         AMP3         GR     
# ...
   719.2500      0.0000    306.7653     17.4688    121.1905
   719.5000      0.0000    306.9212     17.1972    123.0160
   719.7500      0.0000    307.0368     16.9575    123.7956
   720.0000      0.0000    307.1258     16.7648    124.2044
   720.2500      0.0000    307.2098     16.6236    125.8767
   720.5000      0.0000    307.3491     16.5282    129.6938
   720.7500      0.0000    307.7224     16.4685    134.7308
   721.0000      0.0000    308.7650     16.4287    138.9732
   721.2500      0.0000    311.2119     16.3815    141.1063
   721.5000      0.0000    315.7579     16.2967    141.3689
   721.7500      0.0000    322.3477     16.1657    140.6401
   722.0000      0.0000    329.7729     16.0132    139.3868
   722.2500      0.0000    336.2614     15.8779    137.9377
   722.5000      0.0000    340.6387     15.7798    137.0101
   722.7500      0.0000    342.8970     15.7058    137.0551
   723.0000      0.0000    343.7828     15.6245    137.3553
   723.2500      0.0000    344.0945     15.5126    136.5383
   723.5000      0.0000    344.3320     15.3733    134.0350
   723.7500      0.0000    344.6892     15.2353    130.7270
   724.0000      0.0000    345.1419     15.1334    128.1504
   724.2500      0.0000    345.5555     15.0825    127.2664
   724.5000      0.0000    345.8218     15.0719    128.0794
   724.7500      0.0000    345.9509     15.0803    130.1409
   725.0000      0.0000    346.0334     15.0949    132.9153
   725.2500      0.0000    346.1246     15.1167    135.6471
   725.5000      0.0000    346.1917     15.1519    137.5033
   725.7500      0.0000    346.1692     15.2019    138.1379
   726.0000      0.0000    346.0407     15.2586    137.8499
   726.2500      0.0000    345.8632     15.3094    137.1006
   726.5000      0.0000    345.7268     15.3483    136.0887
   726.7500      0.0000    345.6816     15.3854    134.8436
   727.0000      0.0000    345.6885     15.4391    133.7002
   727.2500      0.0000    345.6501     15.5134    133.5756
   727.5000      0.0000    345.5121     15.5866    135.5199
   727.7500      0.0000    345.3622     15.6232    139.7697
   728.0000      0.0000    345.4588     15.6004    145.1148
   728.2500      0.0000    346.2014     15.5227    149.1403
   728.5000      0.0000    348.0838     15.4143    149.3279
   728.7500      0.0000    351.5541     15.3000    144.6217
   729.0000      0.0000    356.8781     15.1941    136.4270
   729.2500      0.0000    364.3494     15.1024    127.8801
   729.5000      0.0000    374.4975     15.0254    121.7868
   729.7500      0.0000    387.9228     14.9568    119.1206
   730.0000      0.0000    404.7527     14.8844    119.1954
   730.2500      0.0000    423.2019     14.7984    120.7973
   730.5000      0.0000    437.3928     14.7062    123.0667
   730.7500      0.0000    438.7644     14.6365    125.6599
   731.0000      0.0000    423.5796     14.6203    128.3006
   731.2500      0.0000    398.6315     14.6596    130.2456
   731.5000      0.0000    376.8004     14.7173    130.4358
   731.7500      0.0000    368.4512     14.7400    128.3538
   732.0000      0.0000    378.3895     14.6942    124.5311
   732.2500      0.0000    407.2722     14.5848    120.0211
   732.5000      0.0000    452.1611     14.4384    115.6376
   732.7500      0.0000    507.0631     14.2698    111.9850
   733.0000      0.0000    565.1936     14.0710    109.7449
   733.2500      0.0000    620.1854     13.8325    109.2800
   733.5000      0.0000    665.7472     13.5607    110.0623
   733.7500      0.0000    697.3407     13.2671    111.0540
   734.0000      0.0000    714.8849     12.9503    111.9020
   734.2500      0.0000    722.2606     12.6011    113.4828
   734.5000      0.0000    723.9584     12.2226    116.9683
   734.7500      0.0000    722.7722     11.8428    122.5505
   735.0000      0.0000    719.9774     11.5074    129.2590
   735.2500      0.0000    716.4135     11.2555    135.7144
   735.5000      0.0000    712.7033     11.0886    140.7697
   735.7500      0.0000    708.8373     10.9622    143.7224
   736.0000      0.0000    704.3898     10.8156    144.2251
   736.2500      0.0000    699.7463     10.6170    142.0410
   736.5000      0.0000    696.6528     10.3812    137.2376
   736.7500      0.0000    697.0526     10.1486    131.0296
   737.0000      0.0000    701.3491      9.9501    125.9551
   737.2500      0.0000    707.8007      9.7935    124.3621
   737.5000      0.0000    713.4582      9.6727    126.6491
   737.7500      0.0000    715.7452      9.5789    131.2689
   738.0000      0.0000    713.5958      9.4943    136.0584
   738.2500      0.0000    707.7925      9.3840    139.2791
   738.5000      0.0000    700.6370      9.2023    140.0453
   738.7500      0.0000    694.9553      8.9107    138.3928
   739.0000      0.0000    692.7316      8.4939    134.9095
   739.2500      0.0000    694.3722      7.9669    130.4602
   739.5000      0.0000    699.1270      7.3703    126.4039
   739.7500      0.0000    705.8550      6.7563    124.3186
   740.0000      0.0000    713.1577      6.1707    124.6956
   740.2500      0.0000    719.3234      5.6407    126.2756
   740.5000      0.0000    723.0682      5.1728    127.3345
   740.7500      0.0000    724.6121      4.7655    127.3394
   741.0000      0.0000    725.5733      4.4219    126.8982
   741.2500      0.0000    727.2390      4.1466    126.4853
   741.5000      0.0000    728.8071      3.9342    125.9052
   741.7500      0.0000    727.7949      3.7682    124.9753
   742.0000      0.0000    722.5547      3.6328    124.0974
   742.2500      0.0000    714.1428      3.5235    123.7321
   742.5000      0.0000    705.4891      3.4475    123.6510
   742.7500      0.0000    699.0221      3.4134    123.2068
   743.0000      0.0000    695.3124      3.4221    122.1002
   743.2500      0.0000    693.5522      3.4644    120.4163
   743.5000      0.0000    692.7598      3.5212    118.1811
   743.7500      0.0000    692.5594      3.5715    115.4191
   744.0000      0.0000    693.2537      3.6073    112.4902
   744.2500      0.0000    695.3616      3.6380    109.8459
   744.5000      0.0000    698.8609      3.6732    107.4845
   744.7500      0.0000    702.6230      3.7051    104.9136
   745.0000      0.0000    704.8452      3.7157    101.4287
   745.2500      0.0000    704.5077      3.6986     96.3877
   745.5000      0.0000    702.3572      3.6705     89.8712
   745.7500      0.0000    700.2767      3.6606     83.2116
   746.0000      0.0000    700.0150      3.6946     78.2549
   746.2500      0.0000    702.9240      3.7912     76.0609
   746.5000      0.0000    710.3232      3.9640     76.8066
   746.7500      0.0000    722.7882      4.2199     80.6209
   747.0000      0.0000    738.7145      4.5498     87.6820
   747.2500      0.0000    754.6494      4.9302     97.4130
   747.5000      0.0000    767.6636      5.3463    108.0191
   747.7500      0.0000    776.1274      5.8251    117.1319
   748.0000      0.0000    777.5134      6.4430    123.2421
   748.2500      0.0000    766.4911      7.2930    126.6761
   748.5000      0.0000    735.8598      8.4411    128.8256
   748.7500      0.0000    680.2558      9.9105    130.2128
   749.0000      0.0000    601.7286     11.6896    129.7735
   749.2500      0.0000    512.8567     13.7316    126.4692
   749.5000      0.0000    431.6913     15.9488    121.2606
   749.7500      0.0000    371.2534     18.2352    116.6961
   750.0000      0.0000    333.7513     20.5172    114.3650
   750.2500      0.0000    313.6759     22.7826    113.4505
   750.5000      0.0000    303.9862     25.0556    112.1385
   750.7500      0.0000    299.5196     27.3390    109.8149
   751.0000      0.0000    297.2782     29.5762    107.5067
   751.2500      0.0000    295.5684     31.6698    106.7635
   751.5000      0.0000    293.3239     33.5226    108.4957
   751.7500      0.0000    290.0399     35.0310    112.4268
   752.0000      0.0000    286.1950     36.0399    117.2551
   752.2500      0.0000    283.2094     36.3854    121.4359
   752.5000      0.0000    282.4034     36.0403    124.0147
