~Version Information
VERS.                      2.0: CWLS Log ASCII Standard - VERSION 2.0
WRAP.                       NO: One line per depth step
~Well Information Block
STRT.FT               430.0000: 
STOP.FT              2826.2500: 
STEP.FT                 0.2500: 
NULL.                -999.2500: 
COMP.          Pioneer Natural Resources: COMPANY
WELL.           Ei-ei-oh 31-24: WELL
FLD.           Purgatoire River: FIELD
LOC.           235' FNL & 2001' FEL--: LOCATION
PROV.                 Colorado: PROVINCE
CNTY.               Las Animas: COUNTRY
SRVC.                Patterson: SERVICE COMPANY
DATE.          Thu Jun 16 06:46:37 2005: LOG DATE
UWI.           05 071 08403 00: UNIQUE WELL ID
~Curve Information Block
DEPT.FT            0 000 00 00: Depth
DIR.Ohm-m                     : IEL Induction Resistivity
SN.Ohm-m                      : IEL Short Normal
SP.mV                         : IEL Spontaneous Potential
GR.GAPI                       : Gamma Ray
~Parameter Information Block
~A  Depth       DIR          SN          SP          GR     
# ...
  2641.0000     11.2809     11.1734    249.6584    120.7450
  2641.2500     11.4792     11.4715    248.3114    120.0200
  2641.5000     11.7207     11.8187    246.7955    122.1469
  2641.7500     12.0125     12.2102    245.0902    125.5557
  2642.0000     12.3583     12.6575    243.1749    132.2604
  2642.2500     12.7603     13.1850    241.0332    136.3881
  2642.5000     13.2211     13.8197    238.6577    139.3363
  2642.7500     13.7443     14.5815    236.0549    138.3991
  2643.0000     14.3318     15.4763    233.2507    133.8015
  2643.2500     14.9809     16.4890    230.2940    129.7393
  2643.5000     15.6825     17.5806    227.2596    122.9178
  2643.7500     16.4206     18.6960    224.2483    117.9307
  2644.0000     17.1704     19.7789    221.3841    110.4043
  2644.2500     17.8972     20.7808    218.8077    105.8123
  2644.5000     18.5582     21.6574    216.6661     99.6078
  2644.7500     19.1086     22.3615    215.0979     95.6313
  2645.0000     19.5071     22.8418    214.2151     89.6417
  2645.2500     19.7179     23.0504    214.0854     86.0515
  2645.5000     19.7099     22.9544    214.7159     82.9998
  2645.7500     19.4635     22.5449    216.0426     83.3947
  2646.0000     18.9836     21.8442    217.9298     87.3189
  2646.2500     18.3109     20.9117    220.1790     91.0404
  2646.5000     17.5164     19.8470    222.5482     96.3683
  2646.7500     16.6822     18.7789    224.7789     99.2047
  2647.0000     15.8822     17.8346    226.6266    102.3948
  2647.2500     15.1704     17.1022    227.8908    104.1144
  2647.5000     14.5789     16.6097    228.4391    106.3630
  2647.7500     14.1220     16.3347    228.2243    107.3408
  2648.0000     13.8023     16.2347    227.2896    107.2234
  2648.2500     13.6175     16.2758    225.7647    106.0455
  2648.5000     13.5640     16.4442    223.8511    103.5473
  2648.7500     13.6390     16.7373    221.7994    102.0520
  2649.0000     13.8394     17.1457    219.8814    100.4789
  2649.2500     14.1582     17.6350    218.3592     99.5781
  2649.5000     14.5775     18.1346    217.4549     97.5793
  2649.7500     15.0592     18.5407    217.3246     95.5730
  2650.0000     15.5390     18.7446    218.0389     91.8519
  2650.2500     15.9308     18.6807    219.5742     89.2905
  2650.5000     16.1457     18.3638    221.8158     86.1397
  2650.7500     16.1223     17.8830    224.5717     85.0042
  2651.0000     15.8490     17.3581    227.5987     85.6145
  2651.2500     15.3663     16.8926    230.6337     88.1544
  2651.5000     14.7475     16.5510    233.4286     96.4273
  2651.7500     14.0723     16.3591    235.7830    105.3528
  2652.0000     13.4080     16.3123    237.5684    122.4403
  2652.2500     12.8030     16.3840    238.7429    133.8420
  2652.5000     12.2883     16.5321    239.3530    145.8559
  2652.7500     11.8824     16.7046    239.5229    148.8107
  2653.0000     11.5938     16.8465    239.4342    146.7424
  2653.2500     11.4219     16.9029    239.2986    143.0951
  2653.5000     11.3555     16.8164    239.3279    137.7156
  2653.7500     11.3709     16.5251    239.7073    135.6322
  2654.0000     11.4328     15.9744    240.5721    136.0474
  2654.2500     11.4987     15.1475    241.9941    138.5026
  2654.5000     11.5282     14.1001    243.9761    143.3085
  2654.7500     11.4928     12.9651    246.4550    145.3420
  2655.0000     11.3836     11.9137    249.3133    143.5622
  2655.2500     11.2095     11.0926    252.3961    138.4227
  2655.5000     10.9904     10.5769    255.5320    126.7081
  2655.7500     10.7476     10.3600    258.5545    118.8501
  2656.0000     10.4968     10.3756    261.3218    111.1982
  2656.2500     10.2460     10.5308    263.7316    109.6297
  2656.5000      9.9986     10.7352    265.7288    110.6247
  2656.7500      9.7589     10.9196    267.3060    111.5571
  2657.0000      9.5374     11.0446    268.4967    111.0121
  2657.2500      9.3495     11.0994    269.3624    109.1563
  2657.5000      9.2110     11.0935    269.9773    105.4476
  2657.7500      9.1313     11.0458    270.4134    103.6158
  2658.0000      9.1104     10.9752    270.7272    103.4679
  2658.2500      9.1397     10.8960    270.9514    104.9046
  2658.5000      9.2058     10.8179    271.0907    107.1142
  2658.7500      9.2944     10.7501    271.1223    107.4861
  2659.0000      9.3944     10.7042    271.0010    106.9219
  2659.2500      9.5006     10.6942    270.6666    107.1702
  2659.5000      9.6150     10.7338    270.0537    109.6940
  2659.7500      9.7465     10.8345    269.1032    111.8811
  2660.0000      9.9084     11.0020    267.7729    113.0841
  2660.2500     10.1150     11.2327    266.0470    111.8542
  2660.5000     10.3784     11.5151    263.9426    108.5893
  2660.7500     10.7067     11.8375    261.5117    106.8207
  2661.0000     11.1052     12.2000    258.8376    105.1058
  2661.2500     11.5794     12.6210    256.0263    103.4008
  2661.5000     12.1365     13.1306    253.1929     97.5119
  2661.7500     12.7853     13.7528    250.4462     90.9810
  2662.0000     13.5323     14.4910    247.8733     79.4247
  2662.2500     14.3787     15.3243    245.5282     72.6288
  2662.5000     15.3165     16.2121    243.4253     66.0576
  2662.7500     16.3266     17.1013    241.5407     63.8695
  2663.0000     17.3730     17.9364    239.8195     61.9300
  2663.2500     18.3980     18.6740    238.1885     60.6805
  2663.5000     19.3275     19.2923    236.5708     59.0794
  2663.7500     20.0916     19.7921    234.9009     58.8269
  2664.0000     20.6550     20.1884    233.1367     59.9995
  2664.2500     21.0309     20.5003    231.2668     61.3320
  2664.5000     21.2698     20.7436    229.3129     62.9823
  2664.7500     21.4372     20.9292    227.3264     63.3509
  2665.0000     21.5976     21.0674    225.3807     62.6653
  2665.2500     21.8075     21.1718    223.5589     61.7946
  2665.5000     22.1080     21.2601    221.9409     60.8040
  2665.7500     22.5145     21.3482    220.5895     60.4342
  2666.0000     23.0070     21.4398    219.5394     59.6515
  2666.2500     23.5299     21.5199    218.7898     58.7589
  2666.5000     24.0025     21.5596    218.3034     57.2937
  2666.7500     24.3417     21.5354    218.0116     56.4076
  2667.0000     24.4904     21.4473    217.8250     54.6923
  2667.2500     24.4367     21.3221    217.6484     52.9683
  2667.5000     24.2127     21.1997    217.3955     49.9735
  2667.7500     23.8724     21.1136    217.0025     48.3280
  2668.0000     23.4664     21.0772    216.4360     47.0856
  2668.2500     23.0260     21.0818    215.6952     47.1480
  2668.5000     22.5655     21.1038    214.8092     48.3091
  2668.7500     22.0945     21.1182    213.8293     49.4318
  2669.0000     21.6299     21.1141    212.8208     51.0181
  2669.2500     21.1980     21.1039    211.8556     51.9342
  2669.5000     20.8256     21.1147    211.0067     53.5025
  2669.7500     20.5273     21.1661    210.3451     55.0753
  2670.0000     20.2970     21.2484    209.9393     58.8342
  2670.2500     20.1095     21.3171    209.8530     62.3039
  2670.5000     19.9283     21.3050    210.1423     68.1588
  2670.7500     19.7159     21.1468    210.8502     71.6886
  2671.0000     19.4373     20.8042    211.9994     74.8234
  2671.2500     19.0597     20.2814    213.5844     74.6090
  2671.5000     18.5576     19.6224    215.5650     70.5289
  2671.7500     17.9251     18.8912    217.8635     66.4918
  2672.0000     17.1870     18.1447    220.3673     62.3849
  2672.2500     16.3946     17.4181    222.9358     63.0660
  2672.5000     15.6079     16.7292    225.4128     70.2657
  2672.7500     14.8757     16.0906    227.6424     77.8927
  2673.0000     14.2275     15.5152    229.4845     89.5159
  2673.2500     13.6753     15.0147    230.8292     95.4955
  2673.5000     13.2215     14.5963    231.6062    101.4404
  2673.7500     12.8643     14.2633    231.7891    104.4764
  2674.0000     12.5991     14.0163    231.3937    109.0876
  2674.2500     12.4186     13.8580    230.4729    111.6326
