~Version Information
VERS.                      2.0: CWLS Log ASCII Standard - VERSION 2.0
WRAP.                       NO: One line per depth step
~Well Information Block
STRT.FT                -6.5000: 
STOP.FT              1719.0000: 
STEP.FT                 0.5000: 
NULL.                -999.2500: 
COMP.          Pioneer Natural Resources: COMPANY
WELL.             Tami J 23-18: WELL
FLD.           Purgatorie River: FIELD
LOC.           2250' FSL & 2400' FWL: LOCATION
PROV.                 Colorado: PROVINCE
CNTY.               Las Animas: COUNTRY
SRVC.          Patterson Wireline: SERVICE COMPANY
DATE.          Fri Dec 17 13:50:12 2004: LOG DATE
UWI.           05-071-08073-00: UNIQUE WELL ID
~Curve Information Block
DEPT.FT            0 000 00 00: Depth
CCL.                          : Casing Collar Locator
TT3.usec                      : CBL 3' Travel Time
AMP3.mV                       : CBL 3' Amplitude
GR.GAPI                       : Gamma Ray
~Parameter Information Block
~A  Depth       CCL         TT3         AMP3         GR     
# ...
  1132.5000      0.0000    727.7342      5.1763     79.7419
  1133.0000      0.0000    725.9468      5.5510     68.4013
  1133.5000      0.0000    724.9948      5.1605     66.8359
  1134.0000      0.0000    722.2902      4.6761     77.4584
  1134.5000      0.0000    725.5446      4.6050     89.7949
  1135.0000      0.0000    745.2959      4.5373     95.5831
  1135.5000      0.0000    761.2255      4.3323     89.8980
  1136.0000      0.0000    757.3958      4.3866     78.9842
  1136.5000      0.0000    751.9887      4.5492     75.8530
  1137.0000      0.0000    742.8804      4.4544     76.3039
  1137.5000      0.0000    729.6653      4.3626     77.9583
  1138.0000      0.0000    747.4949      4.5655     90.4668
  1138.5000      0.0000    799.1851      4.9813    104.1503
  1139.0000      0.0000    836.1262      5.3052    104.9561
  1139.5000      0.0000    842.1206      5.5308    103.6059
  1140.0000      0.0000    830.2990      5.5994    111.9081
  1140.5000      0.0000    802.9270      5.4626    118.7496
  1141.0000      0.0000    786.4675      5.3904    120.4957
  1141.5000      0.0000    796.4295      5.4050    124.6240
  1142.0000      0.0000    802.3697      5.4270    124.5886
  1142.5000      0.0000    789.7017      5.2715    110.3379
  1143.0000      0.0000    780.6194      5.0885     96.5861
  1143.5000      0.0000    786.2803      4.8614     91.7557
  1144.0000      0.0000    795.0491      4.4977     88.4239
  1144.5000      0.0000    792.1765      4.2281     83.6359
  1145.0000      0.0000    783.4696      4.1459     80.3140
  1145.5000      0.0000    767.9887      4.1359     79.1044
  1146.0000     -5.0000    753.4849      4.0750     78.9488
  1146.5000      0.0000    757.1970      4.1306     77.5168
  1147.0000      0.0000    757.0209      4.4508     72.3353
  1147.5000      0.0000    764.5019      4.7965     69.0133
  1148.0000      0.0000    781.7648      4.9902     74.4862
  1148.5000      0.0000    799.8736      5.4334     86.3560
  1149.0000      0.0000    789.5413      5.9933     96.0384
  1149.5000      0.0000    741.0477      6.2238    108.2579
  1150.0000      0.0000    688.5589      5.8463    130.7295
  1150.5000      0.0000    639.6948      5.3040    151.4555
  1151.0000      0.0000    612.6951      5.0548    157.5268
  1151.5000      0.0000    628.6338      4.9033    149.3929
  1152.0000      0.0000    662.3123      4.9024    143.4811
  1152.5000      0.0000    685.9536      5.2172    143.7211
  1153.0000      0.0000    697.4494      5.6282    136.8879
  1153.5000      0.0000    701.8239      5.9617    126.1716
  1154.0000      0.0000    717.4008      6.0154    117.5456
  1154.5000      0.0000    735.4545      5.6478    116.0257
  1155.0000      0.0000    733.5786      5.4890    122.0254
  1155.5000      0.0000    710.2958      5.7724    128.4456
  1156.0000      0.0000    693.5378      5.8874    139.3417
  1156.5000      0.0000    689.2418      5.8005    144.7147
  1157.0000      0.0000    689.6729      5.6708    137.8328
  1157.5000      0.0000    700.3673      5.6880    132.5712
  1158.0000      0.0000    731.7141      5.8038    139.2706
  1158.5000      0.0000    757.6137      5.6535    148.8709
  1159.0000      0.0000    767.9398      5.6059    139.8698
  1159.5000      0.0000    801.6506      5.9108    121.7214
  1160.0000      0.0000    836.5280      6.0178    109.6950
  1160.5000      0.0000    843.0644      5.7359    100.2225
  1161.0000      0.0000    837.8008      5.6533     94.4602
  1161.5000      0.0000    814.6271      5.7633     94.6835
  1162.0000      0.0000    774.9518      5.4536     98.2903
  1162.5000      0.0000    755.9854      4.8832    107.5239
  1163.0000      0.0000    757.4057      4.3863    119.2023
  1163.5000      0.0000    726.4186      3.9992    121.2375
  1164.0000      0.0000    640.2476      3.7726    113.3623
  1164.5000      0.0000    576.8076      3.7638    107.7457
  1165.0000      0.0000    560.1194      3.9758    103.9979
  1165.5000      0.0000    559.7930      4.3797     97.5290
  1166.0000      0.0000    561.8428      4.6773     94.7319
  1166.5000      0.0000    569.3942      4.6802     91.8435
  1167.0000      0.0000    607.1259      4.8698     85.7026
  1167.5000      0.0000    696.3851      5.3537     80.8093
  1168.0000      0.0000    784.6054      5.8193     75.7043
  1168.5000      0.0000    818.9955      6.1210     69.6830
  1169.0000      0.0000    814.0974      6.2997     68.8940
  1169.5000      0.0000    783.6699      6.3448     74.6828
  1170.0000      0.0000    746.5131      6.2338     81.2102
  1170.5000      0.0000    729.4091      6.1067     82.5885
  1171.0000      0.0000    732.1978      5.9537     79.8784
  1171.5000      0.0000    743.4216      5.5961     77.3775
  1172.0000      0.0000    727.4914      5.0158     72.8072
  1172.5000      0.0000    674.1064      4.6017     68.1343
  1173.0000      0.0000    666.4529      4.4104     67.3328
  1173.5000      0.0000    711.8881      4.1579     68.0041
  1174.0000      0.0000    727.6946      3.9759     67.8770
  1174.5000      0.0000    718.9344      4.0878     69.4087
  1175.0000      0.0000    717.3988      4.3053     74.0837
  1175.5000      0.0000    722.6094      4.3817     77.9779
  1176.0000      0.0000    725.3179      4.4072     77.7526
  1176.5000      0.0000    725.3242      4.4870     77.1106
  1177.0000      0.0000    724.6685      4.6777     74.6099
  1177.5000      0.0000    724.0305      5.0052     71.4914
  1178.0000      0.0000    723.5437      5.4045     72.6055
  1178.5000      0.0000    723.0018      5.7921     75.9091
  1179.0000      0.0000    719.1030      6.0734     78.5732
  1179.5000      0.0000    705.6904      6.2140     80.4966
  1180.0000      0.0000    703.5913      6.2216     83.8469
  1180.5000      0.0000    747.7965      6.1155     90.8309
  1181.0000      0.0000    792.8799      5.9598     98.9721
  1181.5000      0.0000    785.7657      5.8944    107.4056
  1182.0000      0.0000    765.3723      5.9461    116.5242
  1182.5000      0.0000    765.5943      6.0358    116.5430
  1183.0000      0.0000    760.0767      6.0664    103.2945
  1183.5000      0.0000    731.2300      5.7799     82.7590
  1184.0000      0.0000    701.7533      5.0156     65.0702
  1184.5000      0.0000    686.7790      4.5539     54.9988
  1185.0000      0.0000    682.8033      5.0807     52.7455
  1185.5000      0.0000    682.9982      5.4880     54.9824
  1186.0000      0.0000    692.1893      5.2900     57.2387
  1186.5000      0.0000    722.3917      5.4732     59.2541
  1187.0000      0.0000    756.0475      6.1691     63.0369
  1187.5000      0.0000    765.6227      6.4745     73.5598
  1188.0000      0.0000    761.3702      5.7280     88.9749
  1188.5000      0.0000    759.3263      4.4356    102.2259
  1189.0000      0.0000    768.2106      3.8673    104.0867
  1189.5000      0.0000    781.7787      4.1793     98.8822
  1190.0000      0.0000    790.6724      4.9947     95.1473
  1190.5000      0.0000    784.8907      5.9813     91.7203
  1191.0000      0.0000    761.1202      6.3101     90.6595
  1191.5000      0.0000    727.3690      5.6568     91.0623
  1192.0000      0.0000    701.3563      4.8711     89.8168
  1192.5000      0.0000    692.1544      4.8295     92.1086
  1193.0000      0.0000    693.3713      5.3749     98.5516
  1193.5000      0.0000    697.2368      5.4913    103.8028
  1194.0000      0.0000    708.4489      4.7095    101.6812
  1194.5000      0.0000    717.5974      4.0454     94.7805
  1195.0000      0.0000    707.0103      4.0806     87.7067
  1195.5000      0.0000    662.6482      4.2741     81.4402
  1196.0000      0.0000    606.1951      4.8549     76.8865
  1196.5000      0.0000    577.8853      5.6631     73.6815
  1197.0000      0.0000    571.7322      6.0650     72.9749
  1197.5000      0.0000    570.1570      6.0942     79.3757
  1198.0000      0.0000    570.7522      6.0073     96.2222
  1198.5000      0.0000    585.1926      5.8833    113.3697
  1199.0000      0.0000    626.7538      5.4903    110.5659
