~Version Information
VERS.                      2.0: CWLS Log ASCII Standard - VERSION 2.0
WRAP.                       NO: One line per depth step
~Well Information Block
STRT.FT                -7.5000: 
STOP.FT              1702.2500: 
STEP.FT                 0.2500: 
NULL.                -999.2500: 
COMP.          Pioneer Natural Resources: COMPANY
WELL.          Warrior 33-1 Tr: WELL
FLD.           Purgatoire River: FIELD
LOC.           2648' FSL & 2341' FEL--: LOCATION
PROV.                 Colorado: PROVINCE
CNTY.               Las Animas: COUNTRY
SRVC.                Patterson: SERVICE COMPANY
DATE.          Wed Jun 22 12:18:08 2005: LOG DATE
UWI.           05 071 08412 00: UNIQUE WELL ID
~Curve Information Block
DEPT.FT            0 000 00 00: Depth
CCL.                          : Casing Collar Locator
TT3.usec                      : CBL 3' Travel Time
AMP3.mV                       : CBL 3' Amplitude
GR.GAPI                       : Gamma Ray
~Parameter Information Block
~A  Depth       CCL         TT3         AMP3         GR     
# ...
   227.0000      0.0000    831.1735     10.7448     68.6278
   227.2500      0.0000    821.8137     10.7182     70.1128
   227.5000      0.0000    806.8450     10.6994     72.8026
   227.7500      0.0000    790.0554     10.6910     75.3016
   228.0000      0.0000    779.5421     10.6838     76.8792
   228.2500      0.0000    782.2927     10.6638     78.3879
   228.5000      0.0000    797.9506     10.6232     81.5961
   228.7500      0.0000    818.6517     10.5575     87.2976
   229.0000      0.0000    835.1508     10.4458     94.0343
   229.2500      0.0000    842.1561     10.2250     98.9340
   229.5000      0.0000    839.0327      9.8030     99.8470
   229.7500      0.0000    828.9291      9.1469     96.6680
   230.0000      0.0000    818.5157      8.3698     90.9587
   230.2500      0.0000    815.2950      7.6799     84.6808
   230.5000      0.0000    821.8904      7.2183     79.2252
   230.7500      0.0000    834.0178      6.9873     75.3036
   231.0000      0.0000    845.7867      6.9168     73.3488
   231.2500      2.0000    855.2081      6.9343     73.6573
   231.5000     -2.0000    863.2918      6.9774     76.0800
   231.7500     -2.0000    870.7653      7.0062     79.7841
   232.0000      2.0000    877.8087      7.0336     83.4433
   232.2500      0.0000    884.8240      7.1556     85.8145
   232.5000      0.0000    891.3827      7.5471     86.4589
   232.7500      0.0000    895.4348      8.3491     86.0780
   233.0000      0.0000    894.7794      9.4751     86.0079
   233.2500      0.0000    888.9991     10.5763     87.1342
   233.5000      0.0000    879.9318     11.3034     89.1074
   233.7500      0.0000    870.5960     11.5812     90.5586
   234.0000      0.0000    863.4430     11.5814     90.2260
   234.2500      0.0000    859.0917     11.5020     87.9728
   234.5000      0.0000    856.4139     11.4387     84.6591
   234.7500      0.0000    853.4552     11.4047     81.2440
   235.0000      0.0000    848.5044     11.3889     78.3615
   235.2500      0.0000    841.4018     11.3837     76.6467
   235.5000      0.0000    834.5347     11.3861     76.8474
   235.7500      0.0000    831.7042     11.3936     79.2275
   236.0000      0.0000    834.7862     11.4049     83.0828
   236.2500      0.0000    841.7585     11.4238     87.0707
   236.5000      0.0000    848.4667     11.4558     89.7941
   236.7500      0.0000    851.5302     11.5021     90.1819
   237.0000      0.0000    848.9835     11.5542     87.9474
   237.2500      0.0000    839.5909     11.5931     83.9288
   237.5000      0.0000    823.7866     11.5937     79.7867
   237.7500      0.0000    805.8654     11.5375     77.3410
   238.0000      0.0000    793.1902     11.4265     77.9970
   238.2500      0.0000    790.8683     11.2853     82.1236
   238.5000      0.0000    797.5725     11.1460     88.5535
   238.7500      0.0000    808.1422     11.0283     94.9610
   239.0000      0.0000    819.1922     10.9338     99.1032
   239.2500      0.0000    830.1873     10.8541     99.9459
   239.5000      0.0000    840.5726     10.7844     98.0187
   239.7500      0.0000    848.7558     10.7289     95.0152
   240.0000      0.0000    853.7375     10.6939     92.7637
   240.2500      0.0000    856.0078     10.6777     92.0658
   240.5000      0.0000    856.7125     10.6706     92.4097
   240.7500      0.0000    856.6048     10.6668     92.8376
   241.0000      0.0000    855.5674     10.6715     92.8712
   241.2500      0.0000    852.4622     10.6946     92.6148
   241.5000      0.0000    845.4673     10.7365     92.2740
   241.7500      0.0000    833.7231     10.7827     91.7106
   242.0000      0.0000    819.7972     10.8123     90.4926
   242.2500      0.0000    809.9344     10.8143     88.4980
   242.5000      0.0000    809.8311     10.7942     86.2742
   242.7500      0.0000    819.3705     10.7659     84.6680
   243.0000      0.0000    832.4376     10.7376     84.3779
   243.2500      0.0000    841.9122     10.7080     85.9048
   243.5000      0.0000    844.2110     10.6748     89.3372
   243.7500      0.0000    840.2990     10.6419     93.7387
   244.0000      0.0000    834.4752     10.6168     97.1429
   244.2500      0.0000    831.8311     10.6033     97.7756
   244.5000      0.0000    834.7070     10.5975     95.3571
   244.7500      0.0000    840.8729     10.5903     90.9941
   245.0000      0.0000    845.4587     10.5741     85.9268
   245.2500      0.0000    844.4113     10.5507     80.8401
   245.5000      0.0000    836.4477     10.5324     76.4810
   245.7500      0.0000    823.2141     10.5345     74.1834
   246.0000      0.0000    808.5474     10.5672     75.0423
   246.2500      0.0000    797.1328     10.6312     78.8052
   246.5000      0.0000    792.9977     10.7147     83.9384
   246.7500      0.0000    798.2201     10.7961     88.5538
   247.0000      0.0000    812.2645     10.8532     91.2218
   247.2500      0.0000    832.3516     10.8721     91.5361
   247.5000      0.0000    854.3992     10.8502     90.3577
   247.7500      0.0000    874.0582     10.7928     89.1847
   248.0000      0.0000    888.2340     10.7091     88.8852
   248.2500      0.0000    896.3121     10.6085     89.2095
   248.5000      0.0000    899.6118     10.5018     89.7661
   248.7500      0.0000    899.6166     10.4061     91.2069
   249.0000      0.0000    896.8702     10.3412     94.8716
   249.2500      0.0000    891.3634     10.3174    100.9645
   249.5000      0.0000    883.6029     10.3267    107.3943
   249.7500      0.0000    875.0685     10.3474    111.0205
   250.0000      0.0000    867.6252     10.3567    110.2148
   250.2500      0.0000    862.2318     10.3459    105.8879
   250.5000      0.0000    857.8807     10.3277    100.0888
   250.7500      0.0000    852.2302     10.3286     94.4031
   251.0000      0.0000    844.5428     10.3665     89.9448
   251.2500      0.0000    837.7425     10.4349     87.8425
   251.5000      0.0000    835.8884     10.5089     88.8387
   251.7500      0.0000    839.7178     10.5641     92.6285
   252.0000      0.0000    846.1580     10.5910     97.8520
   252.2500      0.0000    851.7573     10.5939    102.5593
   252.5000      0.0000    855.0828     10.5837    104.9481
   252.7500      0.0000    855.8795     10.5714    104.3649
   253.0000      0.0000    853.2091     10.5630    101.7762
   253.2500      0.0000    845.5005     10.5557     98.9642
   253.5000      0.0000    833.4313     10.5425     97.2249
   253.7500      0.0000    822.8218     10.5212     96.7503
   254.0000      0.0000    822.6307     10.4980     96.7634
   254.2500      0.0000    837.6227     10.4779     96.1190
   254.5000      0.0000    862.8813     10.4562     94.1526
   254.7500      0.0000    886.7164     10.4263     91.1386
   255.0000      0.0000    899.2568     10.3930     87.9771
   255.2500      0.0000    898.4199     10.3701     85.5625
   255.5000      0.0000    888.9927     10.3653     84.3588
   255.7500      0.0000    877.3547     10.3728     84.2604
   256.0000      0.0000    866.7454     10.3812     84.6756
   256.2500      0.0000    856.3663     10.3809     84.7163
   256.5000      0.0000    844.2831     10.3643     83.4117
   256.7500      0.0000    830.8251     10.3254     80.0633
   257.0000      0.0000    818.9335     10.2650     74.8018
   257.2500      0.0000    811.3400     10.1916     68.8288
   257.5000      0.0000    807.9445     10.1134     63.8038
   257.7500      0.0000    806.3448     10.0350     60.8428
   258.0000      0.0000    804.5361      9.9635     60.3015
   258.2500      0.0000    802.5162      9.9102     62.3156
   258.5000      0.0000    801.5574      9.8809     66.8040
   258.7500      0.0000    802.4915      9.8690     72.7912
   259.0000      0.0000    804.7944      9.8646     78.5337
   259.2500      0.0000    807.2202      9.8667     82.6967
   259.5000      0.0000    809.0479      9.8810     85.0318
   259.7500      0.0000    810.4766      9.9117     86.0022
   260.0000      0.0000    812.1757      9.9564     86.4155
   260.2500      0.0000    814.8086     10.0055     87.3187
