~Version Information
VERS.                      2.0: CWLS Log ASCII Standard - VERSION 2.0
WRAP.                       NO: One line per depth step
~Well Information Block
STRT.FT                -7.6500: 
STOP.FT              3097.2500: 
STEP.FT                 0.0500: 
NULL.                -999.2500: 
COMP.          Pioneer Natural Resources: COMPANY
WELL.            Paradise 13-8: WELL
FLD.           Purgatoire River: FIELD
LOC.           1896' FSL & 1120' FWL--: LOCATION
PROV.                 Colorado: PROVINCE
CNTY.               Las Animas: COUNTRY
SRVC.                Patterson: SERVICE COMPANY
DATE.          Fri Feb 04 16:52:25 2005: LOG DATE
UWI.           05 071 07946 00: UNIQUE WELL ID
~Curve Information Block
DEPT.FT            0 000 00 00: Depth
CCL.                          : Casing Collar Locator
TT3.usec                      : CBL 3' Travel Time
AMP3.mV                       : CBL 3' Amplitude
GR.GAPI                       : Gamma Ray
~Parameter Information Block
~A  Depth       CCL         TT3         AMP3         GR     
# ...
  1640.5500      0.0000    666.2524      2.2480    108.0806
  1640.6000      0.0000    666.2524      2.2480    108.0806
  1640.6500      0.0000    666.2524      2.2480    108.0806
  1640.7000      0.0000    666.2524      2.2480    108.0806
  1640.7500      0.0000    649.9227      2.2745    112.7999
  1640.8000      0.0000    649.9227      2.2745    112.7999
  1640.8500      0.0000    649.9227      2.2745    112.7999
  1640.9000      0.0000    649.9227      2.2745    112.7999
  1640.9500      0.0000    649.9227      2.2745    112.7999
  1641.0000      0.0000    626.1058      2.3014    115.0765
  1641.0500      0.0000    626.1058      2.3014    115.0765
  1641.1000      0.0000    626.1058      2.3014    115.0765
  1641.1500      0.0000    626.1058      2.3014    115.0765
  1641.2000      0.0000    626.1058      2.3014    115.0765
  1641.2500      0.0000    599.1145      2.3290    113.9659
  1641.3000      0.0000    599.1145      2.3290    113.9659
  1641.3500      0.0000    599.1145      2.3290    113.9659
  1641.4000      0.0000    599.1145      2.3290    113.9659
  1641.4500      0.0000    599.1145      2.3290    113.9659
  1641.5000      0.0000    575.3605      2.3566    109.8803
  1641.5500      0.0000    575.3605      2.3566    109.8803
  1641.6000      0.0000    575.3605      2.3566    109.8803
  1641.6500      0.0000    575.3605      2.3566    109.8803
  1641.7000      0.0000    575.3605      2.3566    109.8803
  1641.7500      0.0000    559.2031      2.3825    104.6625
  1641.8000      0.0000    559.2031      2.3825    104.6625
  1641.8500      0.0000    559.2031      2.3825    104.6625
  1641.9000      0.0000    559.2031      2.3825    104.6625
  1641.9500      0.0000    559.2031      2.3825    104.6625
  1642.0000      0.0000    550.8721      2.4045    100.6469
  1642.0500      0.0000    550.8721      2.4045    100.6469
  1642.1000      0.0000    550.8721      2.4045    100.6469
  1642.1500      0.0000    550.8721      2.4045    100.6469
  1642.2000      0.0000    550.8721      2.4045    100.6469
  1642.2500      0.0000    547.8964      2.4203     99.9562
  1642.3000      0.0000    547.8964      2.4203     99.9562
  1642.3500      0.0000    547.8964      2.4203     99.9562
  1642.4000      0.0000    547.8964      2.4203     99.9562
  1642.4500      0.0000    547.8964      2.4203     99.9562
  1642.5000      0.0000    547.5921      2.4292    104.3461
  1642.5500      0.0000    547.5921      2.4292    104.3461
  1642.6000      0.0000    547.5921      2.4292    104.3461
  1642.6500      0.0000    547.5921      2.4292    104.3461
  1642.7000      0.0000    547.5921      2.4292    104.3461
  1642.7500      0.0000    548.2587      2.4322    114.4121
  1642.8000      0.0000    548.2587      2.4322    114.4121
  1642.8500      0.0000    548.2587      2.4322    114.4121
  1642.9000      0.0000    548.2587      2.4322    114.4121
  1642.9500      0.0000    548.2587      2.4322    114.4121
  1643.0000      0.0000    549.0574      2.4304    127.6813
  1643.0500      0.0000    549.0574      2.4304    127.6813
  1643.1000      0.0000    549.0574      2.4304    127.6813
  1643.1500      0.0000    549.0574      2.4304    127.6813
  1643.2000      0.0000    549.0574      2.4304    127.6813
  1643.2500      0.0000    549.5931      2.4235    138.3327
  1643.3000      0.0000    549.5931      2.4235    138.3327
  1643.3500      0.0000    549.5931      2.4235    138.3327
  1643.4000      0.0000    549.5931      2.4235    138.3327
  1643.4500      0.0000    549.5931      2.4235    138.3327
  1643.5000      0.0000    549.8616      2.4116    140.9994
  1643.5500      0.0000    549.8616      2.4116    140.9994
  1643.6000      0.0000    549.8616      2.4116    140.9994
  1643.6500      0.0000    549.8616      2.4116    140.9994
  1643.7000      0.0000    549.8616      2.4116    140.9994
  1643.7500      0.0000    550.5665      2.3987    135.2330
  1643.8000      0.0000    550.5665      2.3987    135.2330
  1643.8500      0.0000    550.5665      2.3987    135.2330
  1643.9000      0.0000    550.5665      2.3987    135.2330
  1643.9500      0.0000    550.5665      2.3987    135.2330
  1644.0000      0.0000    553.5323      2.3917    125.2080
  1644.0500      0.0000    553.5323      2.3917    125.2080
  1644.1000      0.0000    553.5323      2.3917    125.2080
  1644.1500      0.0000    553.5323      2.3917    125.2080
  1644.2000      0.0000    553.5323      2.3917    125.2080
  1644.2500      0.0000    561.6194      2.3947    115.6973
  1644.3000      0.0000    561.6194      2.3947    115.6973
  1644.3500      0.0000    561.6194      2.3947    115.6973
  1644.4000      0.0000    561.6194      2.3947    115.6973
  1644.4500      0.0000    561.6194      2.3947    115.6973
  1644.5000      0.0000    577.3841      2.4035    109.3232
  1644.5500      0.0000    577.3841      2.4035    109.3232
  1644.6000      0.0000    577.3841      2.4035    109.3232
  1644.6500      0.0000    577.3841      2.4035    109.3232
  1644.7000      0.0000    577.3841      2.4035    109.3232
  1644.7500      0.0000    600.6362      2.4112    106.3016
  1644.8000      0.0000    600.6362      2.4112    106.3016
  1644.8500      0.0000    600.6362      2.4112    106.3016
  1644.9000      0.0000    600.6362      2.4112    106.3016
  1644.9500      0.0000    600.6362      2.4112    106.3016
  1645.0000      0.0000    627.1269      2.4176    104.7687
  1645.0500      0.0000    627.1269      2.4176    104.7687
  1645.1000      0.0000    627.1269      2.4176    104.7687
  1645.1500      0.0000    627.1269      2.4176    104.7687
  1645.2000      0.0000    627.1269      2.4176    104.7687
  1645.2500      0.0000    650.7695      2.4313    101.5975
  1645.3000      0.0000    650.7695      2.4313    101.5975
  1645.3500      0.0000    650.7695      2.4313    101.5975
  1645.4000      0.0000    650.7695      2.4313    101.5975
  1645.4500      0.0000    650.7695      2.4313    101.5975
  1645.5000      0.0000    667.9809      2.4609     94.6355
  1645.5500      0.0000    667.9809      2.4609     94.6355
  1645.6000      0.0000    667.9809      2.4609     94.6355
  1645.6500      0.0000    667.9809      2.4609     94.6355
  1645.7000      0.0000    667.9809      2.4609     94.6355
  1645.7500      0.0000    679.9255      2.5030     84.8426
  1645.8000      0.0000    679.9255      2.5030     84.8426
  1645.8500      0.0000    679.9255      2.5030     84.8426
  1645.9000      0.0000    679.9255      2.5030     84.8426
  1645.9500      0.0000    679.9255      2.5030     84.8426
  1646.0000      0.0000    690.6853      2.5357     75.6292
  1646.0500      0.0000    690.6853      2.5357     75.6292
  1646.1000      0.0000    690.6853      2.5357     75.6292
  1646.1500      0.0000    690.6853      2.5357     75.6292
  1646.2000      0.0000    690.6853      2.5357     75.6292
  1646.2500      0.0000    703.2048      2.5259     69.9918
  1646.3000      0.0000    703.2048      2.5259     69.9918
  1646.3500      0.0000    703.2048      2.5259     69.9918
  1646.4000      0.0000    703.2048      2.5259     69.9918
  1646.4500      0.0000    703.2048      2.5259     69.9918
  1646.5000      0.0000    716.5423      2.4499     68.6763
  1646.5500      0.0000    716.5423      2.4499     68.6763
  1646.6000      0.0000    716.5423      2.4499     68.6763
  1646.6500      0.0000    716.5423      2.4499     68.6763
  1646.7000      0.0000    716.5423      2.4499     68.6763
  1646.7500      0.0000    726.7127      2.3175     70.9230
  1646.8000      0.0000    726.7127      2.3175     70.9230
  1646.8500      0.0000    726.7127      2.3175     70.9230
  1646.9000      0.0000    726.7127      2.3175     70.9230
  1646.9500      0.0000    726.7127      2.3175     70.9230
  1647.0000      0.0000    729.6556      2.1727     76.0589
  1647.0500      0.0000    729.6556      2.1727     76.0589
  1647.1000      0.0000    729.6556      2.1727     76.0589
  1647.1500      0.0000    729.6556      2.1727     76.0589
  1647.2000      0.0000    729.6556      2.1727     76.0589
