~Version Information
VERS.                      2.0: CWLS Log ASCII Standard - VERSION 2.0
WRAP.                       NO: One line per depth step
~Well Information Block
STRT.FT               -14.0000: 
STOP.FT              2531.7500: 
STEP.FT                 0.2500: 
NULL.                -999.2500: 
COMP.          Petrogulf Corporation: COMPANY
WELL.            Lavedure 7-44: WELL
FLD.           Purgatorie River: FIELD
LOC.           969' FSL & 501' FEL--: LOCATION
PROV.                       CO: PROVINCE
CNTY.               Las Animas: COUNTRY
SRVC.          Patterson Wireline: SERVICE COMPANY
DATE.          Wed Dec 10 09:23:08 2003: LOG DATE
UWI.                          : UNIQUE WELL ID
~Curve Information Block
DEPT.FT            0 000 00 00: Depth
CCL.                          : Casing Collar Locator
TT3.usec                      : CBL 3' Travel Time
AMP3.mV                       : CBL 3' Amplitude
GR.GAPI                       : Gamma Ray
~Parameter Information Block
~A  Depth       CCL         TT3         AMP3         GR     
# ...
   153.5000      0.0000    265.3701     66.1367    143.1563
   153.7500      0.0000    265.3631     66.1233    138.0231
   154.0000      0.0000    265.3669     66.1298    135.1901
   154.2500      0.0000    265.3792     66.1836    134.9305
   154.5000      0.0000    265.3885     66.2781    136.5080
   154.7500      0.0000    265.3861     66.3825    138.6344
   155.0000      0.0000    265.3732     66.4664    140.0841
   155.2500      0.0000    265.3567     66.5020    140.1326
   155.5000      0.0000    265.3436     66.4680    138.7154
   155.7500      0.0000    265.3386     66.3726    136.2071
   156.0000      0.0000    265.3435     66.2564    133.0696
   156.2500      0.0000    265.3572     66.1659    129.8253
   156.5000      0.0000    265.3752     66.1332    127.1854
   156.7500      0.0000    265.3892     66.1688    125.7848
   157.0000      0.0000    265.3915     66.2544    125.7055
   157.2500      0.0000    265.3812     66.3449    126.5851
   157.5000      0.0000    265.3659     66.3946    128.3958
   157.7500      0.0000    265.3558     66.3834    131.7778
   158.0000      0.0000    265.3571     66.3267    137.1527
   158.2500      0.0000    265.3669     66.2632    143.5457
   158.5000      0.0000    265.3746     66.2251    148.7988
   158.7500      0.0000    265.3716     66.2115    151.2810
   159.0000      0.0000    265.3583     66.1918    151.3171
   159.2500      0.0000    265.3470     66.1158    150.7682
   159.5000      0.0000    265.3701     65.9014    151.2300
   159.7500      0.0000    265.5330     65.3866    152.6169
   160.0000      0.0000    266.1290     64.2809    153.3899
   160.2500      0.0000    267.7866     62.2167    152.1308
   160.5000      0.0000    271.4410     58.9627    148.8817
   160.7500      0.0000    277.8409     54.6600    145.0024
   161.0000      0.0000    286.7119     49.8598    141.8731
   161.2500      0.0000    296.4093     45.3286    139.8706
   161.5000      0.0000    304.7503     41.7369    138.5789
   161.7500      0.0000    310.3931     39.3772    137.6615
   162.0000      0.0000    313.4034     38.1001    137.1719
   162.2500      2.0000    314.6739     37.5294    137.1666
   162.5000      2.0000    315.0419     37.3481    137.4175
   162.7500      0.0000    314.8167     37.4320    137.5334
   163.0000      0.0000    313.6891     37.8581    137.3301
   163.2500      0.0000    310.8502     38.8871    137.2685
   163.5000      0.0000    305.4478     40.9120    138.3238
   163.7500      0.0000    297.4173     44.2935    140.7775
   164.0000      0.0000    288.0236     49.0747    143.1550
   164.2500      0.0000    279.3289     54.7260    143.1019
   164.5000      0.0000    272.9111     60.2131    139.6431
   164.7500      0.0000    269.0948     64.5070    134.2314
   165.0000      0.0000    267.2488     67.1632    129.3432
   165.2500      0.0000    266.5205     68.4304    126.3388
   165.5000      0.0000    266.2855     68.8681    124.8553
   165.7500      0.0000    266.2132     68.9404    123.7764
   166.0000      0.0000    266.1727     68.8912    122.2534
   166.2500      0.0000    266.1331     68.8138    120.0126
   166.5000      0.0000    266.0969     68.7491    117.2509
   166.7500      0.0000    266.0723     68.7404    114.4420
   167.0000      0.0000    266.0620     68.8289    112.0086
   167.2500      0.0000    266.0642     69.0155    110.0921
   167.5000      0.0000    266.0731     69.2601    108.8693
   167.7500      0.0000    266.0807     69.5181    108.8869
   168.0000      0.0000    266.0781     69.7544    110.6340
   168.2500      0.0000    266.0586     69.9311    114.0009
   168.5000      0.0000    266.0238     70.0164    118.5413
   168.7500      0.0000    265.9828     70.0104    123.8559
   169.0000      0.0000    265.9459     69.9485    129.2919
   169.2500      0.0000    265.9195     69.8744    133.6786
   169.5000      0.0000    265.9044     69.8057    135.8118
   169.7500      0.0000    265.8984     69.7302    135.1022
   170.0000      0.0000    265.9008     69.6463    131.6823
   170.2500      0.0000    265.9130     69.5989    126.1231
   170.5000      0.0000    265.9351     69.6473    119.2972
   170.7500      0.0000    265.9628     69.7946    112.4935
   171.0000      0.0000    265.9896     69.9728    107.1984
   171.2500      0.0000    266.0107     70.1007    104.3382
   171.5000      0.0000    266.0230     70.1410    103.8062
   171.7500      0.0000    266.0266     70.1056    104.7929
   172.0000      0.0000    266.0244     70.0286    106.3059
   172.2500      0.0000    266.0198     69.9375    107.4295
   172.5000      0.0000    266.0135     69.8467    107.6163
   172.7500      0.0000    266.0051     69.7739    106.9733
   173.0000      0.0000    265.9971     69.7463    106.1387
   173.2500      0.0000    265.9945     69.7713    105.7832
   173.5000      0.0000    266.0017     69.8199    106.1029
   173.7500      0.0000    266.0185     69.8626    106.7119
   174.0000      0.0000    266.0360     69.9054    107.2615
   174.2500      0.0000    266.0411     69.9616    108.3734
   174.5000      0.0000    266.0280     70.0050    111.5667
   174.7500      0.0000    266.0043     69.9851    117.7761
   175.0000      0.0000    265.9831     69.8881    126.2244
   175.2500      0.0000    265.9713     69.7621    135.0561
   175.5000      0.0000    265.9692     69.6766    142.6086
   175.7500      0.0000    265.9751     69.6634    147.8531
   176.0000      0.0000    265.9884     69.7003    150.2762
   176.2500      0.0000    266.0105     69.7477    149.8475
   176.5000      0.0000    266.0401     69.7888    146.8405
   176.7500      0.0000    266.0703     69.8252    141.5360
   177.0000      0.0000    266.0923     69.8488    134.3651
   177.2500      0.0000    266.1029     69.8448    126.3551
   177.5000      0.0000    266.1038     69.8187    119.0856
   177.7500      0.0000    266.0965     69.7966    113.9775
   178.0000      0.0000    266.0861     69.7956    111.6852
   178.2500      0.0000    266.0832     69.8135    112.0594
   178.5000      0.0000    266.0938     69.8424    114.2843
   178.7500      0.0000    266.1094     69.8709    117.0220
   179.0000      0.0000    266.1141     69.8740    118.9646
   179.2500      0.0000    266.1017     69.8225    119.6772
   179.5000      0.0000    266.0880     69.7104    119.9167
   179.7500      0.0000    266.1143     69.5546    120.9046
   180.0000      0.0000    266.3236     69.3159    123.1867
   180.2500      0.0000    267.1304     68.7503    126.2652
   180.5000      0.0000    269.4126     67.3166    129.2642
   180.7500      0.0000    274.2794     64.3878    131.8042
   181.0000      0.0000    282.0043     59.8104    134.1675
   181.2500      0.0000    290.8028     54.3093    136.6213
   181.5000      0.0000    297.2743     49.1303    138.7145
   181.7500      0.0000    298.9039     45.1866    139.3126
   182.0000      0.0000    296.1724     42.6609    137.2844
   182.2500      0.0000    291.9721     41.2955    132.4125
   182.5000      0.0000    289.1899     40.7492    126.0526
   182.7500      0.0000    288.8354     40.7002    120.6392
   183.0000     -2.0000    289.9318     40.9027    117.9398
   183.2500      0.0000    290.8201     41.2520    117.8318
   183.5000      0.0000    290.5461     41.8164    119.1102
   183.7500      0.0000    289.1310     42.8607    121.2438
   184.0000      0.0000    286.7946     44.7734    124.8844
   184.2500      0.0000    283.3865     47.7654    130.6923
   184.5000      0.0000    278.8844     51.5910    137.8861
   184.7500      0.0000    274.0436     55.6922    144.0256
   185.0000      0.0000    270.0285     59.5514    146.4411
   185.2500      0.0000    267.4794     62.7997    144.2248
   185.5000      0.0000    266.2311     65.1716    138.9270
   185.7500      0.0000    265.7590     66.5927    133.3691
   186.0000      0.0000    265.6332     67.2547    129.7219
   186.2500      0.0000    265.6285     67.4907    128.3476
   186.5000      0.0000    265.6565     67.5848    128.0562
   186.7500      0.0000    265.6887     67.6881    127.2827
