~Version Information
VERS.                      2.0: CWLS Log ASCII Standard - VERSION 2.0
WRAP.                       NO: One line per depth step
~Well Information Block
STRT.FT               392.5000: 
STOP.FT              2252.6000: 
STEP.FT                 0.1000: 
NULL.                -999.2500: 
COMP.          Petrogulf Corporation: COMPANY
WELL.          Alexander 9-43V: WELL
FLD.           Purgatorie River: FIELD
LOC.           1651' FSL & 1081' FEL: LOCATION
CNTY.               Las Animas: COUNTY
SRVC.                         : SERVICE COMPANY
DATE.          Mon Mar 17 08:48:25 2003: LOG DATE
UWI.           05 071 07727 00: UNIQUE WELL ID
STAT.                 Colorado: STATE
~Curve Information Block
DEPT.FT            0 000 00 00: Depth
DCAL.in                       : CDL Caliper
RHOB.g/cc                     : CDL Bulk Density
RHOC.g/cc                     : CDL Density Correction
DPOR.pu                       : CDL Density Porosity
GR.GAPI                       : Gamma Ray
NPOR.pu                       : Neutron Porosity
~Parameter Information Block
~A  Depth       DCAL        RHOB        RHOC        DPOR         GR         NPOR    
# ...
   910.9000      8.0491      2.4942      0.0129      9.4417    157.1305     31.0797
   911.0000      8.0593      2.4967      0.0117      9.2881    156.4001     31.0102
   911.1000      8.0593      2.4980      0.0105      9.2113    156.4001     30.9459
   911.2000      8.0593      2.4984      0.0096      9.1893    156.4001     30.8850
   911.3000      8.0825      2.4982      0.0091      9.2024    155.5092     30.8283
   911.4000      8.0825      2.4976      0.0089      9.2338    155.5092     30.7795
   911.5000      8.0992      2.4971      0.0092      9.2690    154.5300     30.7450
   911.6000      8.0992      2.4966      0.0098      9.2959    154.5300     30.7339
   911.7000      8.0992      2.4965      0.0107      9.3042    154.5300     30.7569
   911.8000      8.0917      2.4968      0.0118      9.2849    153.2837     30.8247
   911.9000      8.0917      2.4977      0.0132      9.2304    153.2837     30.9467
   912.0000      8.0692      2.4993      0.0147      9.1333    151.7594     31.1293
   912.1000      8.0692      2.5017      0.0163      8.9874    151.7594     31.3741
   912.2000      8.0692      2.5050      0.0182      8.7868    151.7594     31.6772
   912.3000      8.0533      2.5093      0.0203      8.5266    149.9978     32.0289
   912.4000      8.0533      2.5146      0.0226      8.2032    149.9978     32.4141
   912.5000      8.0426      2.5211      0.0250      7.8147    147.5480     32.8135
   912.6000      8.0426      2.5285      0.0277      7.3611    147.5480     33.2054
   912.7000      8.0426      2.5371      0.0303      6.8452    147.5480     33.5680
   912.8000      8.0246      2.5465      0.0328      6.2723    143.3086     33.8817
   912.9000      8.0246      2.5568      0.0349      5.6508    143.3086     34.1307
   913.0000      8.0040      2.5676      0.0364      4.9915    136.2400     34.3043
   913.1000      8.0040      2.5789      0.0371      4.3078    136.2400     34.3977
   913.2000      8.0040      2.5904      0.0370      3.6146    136.2400     34.4114
   913.3000      7.9922      2.6017      0.0358      2.9280    126.3797     34.3508
   913.4000      7.9922      2.6126      0.0339      2.2642    126.3797     34.2246
   913.5000      7.9851      2.6230      0.0314      1.6387    115.2091     34.0435
   913.6000      7.9851      2.6324      0.0287      1.0660    115.2091     33.8189
   913.7000      7.9851      2.6408      0.0261      0.5582    115.2091     33.5616
   913.8000      7.9737      2.6479      0.0241      0.1251    105.0668     33.2813
   913.9000      7.9737      2.6537      0.0231     -0.2264    105.0668     32.9859
   914.0000      7.9593      2.6581      0.0232     -0.4927     98.1186     32.6819
   914.1000      7.9593      2.6611      0.0248     -0.6731     98.1186     32.3745
   914.2000      7.9593      2.6627      0.0278     -0.7700     98.1186     32.0684
   914.3000      7.9509      2.6630      0.0322     -0.7881     95.5484     31.7686
   914.4000      7.9509      2.6621      0.0382     -0.7349     95.5484     31.4800
   914.5000      7.9477      2.6602      0.0457     -0.6193     97.3540     31.2085
   914.6000      7.9477      2.6574      0.0548     -0.4515     97.3540     30.9600
   914.7000      7.9477      2.6540      0.0653     -0.2421     97.3540     30.7398
   914.8000      7.9429      2.6500      0.0771     -0.0015    102.7073     30.5528
   914.9000      7.9429      2.6457      0.0901      0.2609    102.7073     30.4018
   915.0000      7.9296      2.6411      0.1037      0.5375    110.4327     30.2873
   915.1000      7.9296      2.6364      0.1174      0.8232    110.4327     30.2071
   915.2000      7.9296      2.6316      0.1305      1.1157    110.4327     30.1554
   915.3000      7.9143      2.6266      0.1424      1.4164    119.2448     30.1231
   915.4000      7.9143      2.6215      0.1523      1.7302    119.2448     30.0979
   915.5000      7.9241      2.6159      0.1600      2.0664    127.8971     30.0646
   915.6000      7.9241      2.6098      0.1650      2.4372    127.8971     30.0056
   915.7000      7.9241      2.6028      0.1672      2.8584    127.8971     29.9026
   915.8000      7.9769      2.5948      0.1667      3.3475    135.4448     29.7379
   915.9000      7.9769      2.5853      0.1634      3.9235    135.4448     29.4966
   916.0000      8.0533      2.5740      0.1575      4.6044    141.4065     29.1686
   916.1000      8.0533      2.5608      0.1493      5.4065    141.4065     28.7510
   916.2000      8.0533      2.5454      0.1390      6.3423    141.4065     28.2487
   916.3000      8.1083      2.5276      0.1270      7.4193    145.5733     27.6753
   916.4000      8.1083      2.5075      0.1137      8.6387    145.5733     27.0516
   916.5000      8.1273      2.4851      0.0997      9.9950    147.6619     26.4034
   916.6000      8.1273      2.4607      0.0859     11.4756    147.6619     25.7584
   916.7000      8.1273      2.4345      0.0730     13.0618    147.6619     25.1429
   916.8000      8.1335      2.4070      0.0621     14.7297    147.2410     24.5780
   916.9000      8.1335      2.3785      0.0539     16.4518    147.2410     24.0776
   917.0000      8.1565      2.3497      0.0490     18.1987    144.0885     23.6483
   917.1000      8.1565      2.3210      0.0476     19.9410    144.0885     23.2890
   917.2000      8.1565      2.2928      0.0495     21.6505    144.0885     22.9935
   917.3000      8.2007      2.2655      0.0541     23.3017    138.6291     22.7531
   917.4000      8.2007      2.2396      0.0605     24.8720    138.6291     22.5592
   917.5000      8.2400      2.2154      0.0676     26.3418    131.9916     22.4060
   917.6000      8.2400      2.1930      0.0746     27.6943    131.9916     22.2921
   917.7000      8.2400      2.1729      0.0806     28.9145    131.9916     22.2210
   917.8000      8.2618      2.1552      0.0853     29.9887    125.5534     22.2003
   917.9000      8.2618      2.1401      0.0885     30.9038    125.5534     22.2405
   918.0000      8.2598      2.1278      0.0906     31.6470    120.3161     22.3531
   918.1000      8.2598      2.1186      0.0922     32.2055    120.3161     22.5483
   918.2000      8.2598      2.1126      0.0941     32.5672    120.3161     22.8331
   918.3000      8.2454      2.1101      0.0970     32.7213    116.7193     23.2103
   918.4000      8.2454      2.1111      0.1014     32.6595    116.7193     23.6769
   918.5000      8.2710      2.1158      0.1073     32.3765    115.0684     24.2246
   918.6000      8.2710      2.1241      0.1145     31.8714    115.0684     24.8395
   918.7000      8.2710      2.1360      0.1221     31.1487    115.0684     25.5032
   918.8000      8.3593      2.1514      0.1293     30.2184    115.9218     26.1940
   918.9000      8.3593      2.1699      0.1351     29.0962    115.9218     26.8885
   919.0000      8.4555      2.1912      0.1386     27.8039    119.7292     27.5637
   919.1000      8.4555      2.2149      0.1392     26.3683    119.7292     28.1983
   919.2000      8.4555      2.2405      0.1368     24.8210    119.7292     28.7751
   919.3000      8.4200      2.2673      0.1316     23.1966    125.9428     29.2817
   919.4000      8.4200      2.2947      0.1239     21.5323    125.9428     29.7116
   919.5000      8.2235      2.3222      0.1145     19.8654    132.7044     30.0646
   919.6000      8.2235      2.3492      0.1042     18.2325    132.7044     30.3463
   919.7000      8.2235      2.3750      0.0935     16.6676    132.7044     30.5667
   919.8000      8.0800      2.3992      0.0830     15.2002    137.7722     30.7393
   919.9000      8.0800      2.4214      0.0731     13.8542    137.7722     30.8790
   920.0000      8.0472      2.4413      0.0640     12.6471    139.9349     31.0001
   920.1000      8.0472      2.4588      0.0557     11.5893    139.9349     31.1149
   920.2000      8.0472      2.4737      0.0483     10.6836    139.9349     31.2324
   920.3000      8.0470      2.4862      0.0416      9.9264    139.6175     31.3580
   920.4000      8.0470      2.4964      0.0358      9.3082    139.6175     31.4933
