~Version Information
VERS.                      2.0: CWLS Log ASCII Standard - VERSION 2.0
WRAP.                       NO: One line per depth step
~Well Information Block
STRT.FT               840.0000: 
STOP.FT              2020.0000: 
STEP.FT                 0.1000: 
NULL.                -999.2500: 
COMP.          Petrogulf Corporation: COMPANY
WELL.           Lavedure 7-44R: WELL
FLD.           Purgatorie River: FIELD
LOC.           946' FSL & 521' FEL: LOCATION
PROV.                 Colorado: PROVINCE
CNTY.               Las Animas: COUNTRY
SRVC.                Patterson: SERVICE COMPANY
DATE.          Mon Sep 26 08:30:48 2005: LOG DATE
UWI.                          : UNIQUE WELL ID
~Curve Information Block
DEPT.FT            0 000 00 00: Depth
DCAL.in                       : CDL Caliper
RHOB.g/cc                     : CDL Bulk Density
RHOC.g/cc                     : CDL Density Correction
DPOR.pu                       : CDL Density Porosity
GR.GAPI                       : Gamma Ray
NPOR.pu                       : Neutron Porosity
~Parameter Information Block
~A  Depth       DCAL        RHOB        RHOC        DPOR         GR         NPOR    
# ...
  1924.8000      7.7801      2.4762      0.0836     10.5337     73.1734     19.1047
  1924.9000      7.7801      2.5100      0.1112      8.4858     77.8388     18.9343
  1925.0000      7.7813      2.5295      0.1146      7.3019     79.0781     19.1316
  1925.1000      7.7813      2.5500      0.1217      6.0620     77.5708     19.7022
  1925.2000      7.7813      2.5681      0.1386      4.9667     75.9939     20.3531
  1925.3000      7.7777      2.5658      0.1387      5.1008     76.5692     20.8845
  1925.4000      7.7777      2.5425      0.0925      6.5151     77.7906     21.2051
  1925.5000      7.8010      2.5129      0.0530      8.3065     77.5788     21.1035
  1925.6000      7.8010      2.4901      0.0399      9.6889     77.5538     20.7682
  1925.7000      7.8010      2.4775      0.0278     10.4552     78.9839     20.6930
  1925.8000      7.8082      2.4718     -0.0007     10.8016     79.5732     20.8332
  1925.9000      7.8082      2.4669      0.0504     11.0972     77.5133     20.9509
  1926.0000      7.8088      2.4596      0.0305     11.5371     73.6427     21.0145
  1926.1000      7.8088      2.4556      0.0679     11.7809     70.1933     20.9911
  1926.2000      7.8088      2.4573      0.0313     11.6758     68.4917     20.9664
  1926.3000      7.8157      2.4565      0.0819     11.7258     67.1209     20.8599
  1926.4000      7.8157      2.4422      0.0669     12.5965     65.1168     20.5849
  1926.5000      7.8147      2.4168      0.0590     14.1362     62.9408     20.3886
  1926.6000      7.8147      2.3974      0.0060     15.3062     60.1372     20.2859
  1926.7000      7.8147      2.3992      0.0232     15.2025     57.2671     19.9952
  1926.8000      7.8080      2.4160      0.0428     14.1812     55.9575     19.4064
  1926.9000      7.8080      2.4272      0.0535     13.5011     53.8851     18.6938
  1927.0000      7.8125      2.4227      0.0595     13.7746     49.5006     18.0265
  1927.1000      7.8125      2.4102      0.0230     14.5307     46.4966     17.3637
  1927.2000      7.8125      2.3988      0.0828     15.2238     46.3022     16.6417
  1927.3000      7.8155      2.3925      0.0570     15.6058     46.6954     15.7978
  1927.4000      7.8155      2.3960      0.0464     15.3943     46.9353     14.8322
  1927.5000      7.8182      2.4064      0.0433     14.7621     46.4711     13.7405
  1927.6000      7.8182      2.4115      0.0722     14.4559     44.6230     12.6025
  1927.7000      7.8182      2.4080      0.0492     14.6685     42.2242     11.6631
  1927.8000      7.8205      2.4085      0.0578     14.6359     40.4789     11.1612
  1927.9000      7.8205      2.4166      0.0574     14.1451     40.1001     11.2774
  1928.0000      7.8218      2.4225      0.0601     13.7884     40.5778     11.9473
  1928.1000      7.8218      2.4188      0.0791     14.0132     41.1918     12.8691
  1928.2000      7.8218      2.4047      0.0385     14.8656     41.7510     13.8309
  1928.3000      7.8289      2.3877      0.0520     15.8953     42.0854     14.6594
  1928.4000      7.8289      2.3792      0.0331     16.4128     41.8403     15.2139
  1928.5000      7.8277      2.3837      0.0656     16.1422     41.6807     15.3658
  1928.6000      7.8277      2.3960      0.0283     15.3958     44.1524     15.2174
  1928.7000      7.8277      2.4103      0.0619     14.5290     47.7419     15.1383
  1928.8000      7.8190      2.4203      0.0739     13.9197     47.8655     15.4356
  1928.9000      7.8190      2.4210      0.0851     13.8813     45.1858     16.1692
  1929.0000      7.8175      2.4149      0.0489     14.2468     42.6430     16.8423
  1929.1000      7.8175      2.4098      0.0588     14.5578     40.5292     17.0301
  1929.2000      7.8175      2.4100      0.0405     14.5464     39.1933     16.9597
  1929.3000      7.8291      2.4158      0.0549     14.1960     39.3604     16.9871
  1929.4000      7.8291      2.4227      0.0722     13.7764     40.5312     17.1469
  1929.5000      7.8260      2.4254      0.0550     13.6132     43.1146     17.2192
  1929.6000      7.8260      2.4231      0.0815     13.7508     47.8642     17.1615
  1929.7000      7.8260      2.4203      0.0418     13.9187     53.4350     17.2022
  1929.8000      7.8216      2.4232      0.0409     13.7484     58.4662     17.5491
  1929.9000      7.8216      2.4293      0.0471     13.3758     63.9116     18.2813
  1930.0000      7.8237      2.4326      0.0485     13.1754     71.1695     19.1858
  1930.1000      7.8237      2.4347      0.0302     13.0485     81.1421     20.1886
  1930.2000      7.8237      2.4455      0.0168     12.3967     92.0859     21.5508
  1930.3000      7.8281      2.4682      0.0434     11.0195    101.8555     23.0727
  1930.4000      7.8281      2.4953      0.0375      9.3779    110.7655     24.0384
  1930.5000      7.8278      2.5188      0.0622      7.9509    118.0662     24.1561
  1930.6000      7.8278      2.5324      0.0515      7.1302    123.3681     23.8622
  1930.7000      7.8278      2.5379      0.0395      6.7956    130.4278     23.7907
  1930.8000      7.8216      2.5447      0.0292      6.3819    138.6155     24.0843
  1930.9000      7.8216      2.5465      0.1079      6.2713    141.0273     24.5329
  1931.0000      7.8219      2.5267      0.0544      7.4741    137.2866     25.0745
  1931.1000      7.8219      2.4970     -0.0129      9.2754    134.1215     25.5555
  1931.2000      7.8219      2.4831      0.0162     10.1138    133.5118     25.7669
  1931.3000      7.8334      2.4842      0.0366     10.0497    132.0507     25.8438
  1931.4000      7.8334      2.4822      0.0417     10.1715    128.0756     26.0509
  1931.5000      7.8590      2.4709      0.0209     10.8561    122.4084     26.2682
  1931.6000      7.8590      2.4614      0.0063     11.4311    115.5779     26.0767
  1931.7000      7.8590      2.4603      0.0486     11.4999    107.5011     25.4456
  1931.8000      7.8716      2.4591      0.0343     11.5668     97.7165     24.9741
  1931.9000      7.8716      2.4538      0.0482     11.8882     88.4260     24.8700
  1932.0000      7.9001      2.4457      0.0577     12.3826     81.4760     24.5872
  1932.1000      7.9001      2.4342      0.0558     13.0769     73.9762     23.9337
  1932.2000      7.9001      2.4272      0.0373     13.5007     65.1569     23.2563
  1932.3000      7.8827      2.4294      0.0826     13.3720     57.9531     22.8953
  1932.4000      7.8827      2.4323      0.0618     13.1966     53.8762     22.7736
  1932.5000      7.8955      2.4293      0.0657     13.3763     52.1685     22.5373
  1932.6000      7.8955      2.4222      0.0516     13.8090     50.8851     22.1383
  1932.7000      7.8955      2.4197      0.0137     13.9586     49.6675     21.6115
  1932.8000      7.9020      2.4269      0.0741     13.5240     50.7753     20.8751
  1932.9000      7.9020      2.4377      0.0068     12.8657     54.4632     20.1473
  1933.0000      7.9043      2.4404      0.0658     12.7059     57.1540     19.5608
  1933.1000      7.9043      2.4280      0.0240     13.4525     55.5909     18.9597
  1933.2000      7.9043      2.4104      0.0194     14.5201     51.7391     18.3959
  1933.3000      7.9025      2.3967      0.0373     15.3485     49.1061     18.0958
  1933.4000      7.9025      2.3847      0.0413     16.0805     46.4912     18.1158
  1933.5000      7.9098      2.3754     -0.0054     16.6425     42.8781     18.2801
  1933.6000      7.9098      2.3772      0.0261     16.5347     40.4529     18.2874
  1933.7000      7.9098      2.3899      0.0410     15.7658     39.8195     18.1016
  1933.8000      7.9065      2.4039      0.0435     14.9130     40.1396     18.0624
  1933.9000      7.9065      2.4136      0.0366     14.3301     40.6763     18.0881
  1934.0000      7.9010      2.4231      0.0512     13.7496     41.3525     17.7988
  1934.1000      7.9010      2.4347      0.0652     13.0482     42.8985     17.1869
  1934.2000      7.9010      2.4397      0.0480     12.7445     44.3489     16.4773
  1934.3000      7.8791      2.4312      0.0762     13.2610     44.1668     15.8705
