~Version Information
VERS.                      2.0: CWLS Log ASCII Standard - VERSION 2.0
WRAP.                       NO: One line per depth step
~Well Information Block
STRT.FT               550.0000: 
STOP.FT              2042.5000: 
STEP.FT                 0.2500: 
NULL.                -999.2500: 
COMP.          Petrogulf Corporation: COMPANY
WELL.          Robinson 15-12V: WELL
FLD.           Purgatorie River: FIELD
LOC.           1788' FNL & 466' FWL: LOCATION
PROV.                 Colorado: PROVINCE
CNTY.               Las Animas: COUNTRY
SRVC.                Patterson: SERVICE COMPANY
DATE.          Mon Sep 12 10:04:59 2005: LOG DATE
UWI.                          : UNIQUE WELL ID
~Curve Information Block
DEPT.FT            0 000 00 00: Depth
SP.mV                         : DIL Spontaneous Potential
RILD.Ohm-m                    : DIL Deep Resistivity
RILM.Ohm-m                    : DIL Medium Resistivity
RLL3.Ohm-m                    : DIL Shallow Resistivity
GR.GAPI                       : Gamma Ray
~Parameter Information Block
~A  Depth        SP         RILD        RILM        RLL3         GR     
# ...
   830.0000   2000.0000     19.3932     18.8301   2000.0000    127.4436
   830.2500   2000.0000     19.7536     19.9956   2000.0000    125.3509
   830.5000   2000.0000     20.0616     20.7782   2000.0000    113.4566
   830.7500   2000.0000     21.5760     21.4840   2000.0000    107.2247
   831.0000   2000.0000     20.9313     22.1362   2000.0000    107.7219
   831.2500   2000.0000     20.8785     25.1212   2000.0000    103.3298
   831.5000   2000.0000     21.5688     28.2872   2000.0000    113.5999
   831.7500   2000.0000     21.3068     23.5972   2000.0000    119.8483
   832.0000   2000.0000     21.5154     24.9457   2000.0000    128.4634
   832.2500   2000.0000     20.8497     22.6832   2000.0000    138.0592
   832.5000   2000.0000     20.1233     21.3827   2000.0000    130.7614
   832.7500   2000.0000     19.5105     20.0389   2000.0000    139.2472
   833.0000   2000.0000     18.3653     18.0819   2000.0000    151.4796
   833.2500   2000.0000     17.4707     17.1954   2000.0000    155.1965
   833.5000   2000.0000     17.0005     15.9600   2000.0000    139.8901
   833.7500   2000.0000     16.3275     15.3263   2000.0000    141.5709
   834.0000   2000.0000     15.8220     14.6429   2000.0000    154.0122
   834.2500   2000.0000     15.2672     13.7500   2000.0000    157.2830
   834.5000   2000.0000     15.1478     13.0049   2000.0000    153.2656
   834.7500   2000.0000     14.9976     12.8729   2000.0000    152.7719
   835.0000   2000.0000     14.5296     12.7168   2000.0000    168.5065
   835.2500   2000.0000     13.9707     12.3399   2000.0000    165.8459
   835.5000   2000.0000     13.3755     12.3427   2000.0000    162.2782
   835.7500   2000.0000     12.9736     12.5038   2000.0000    159.3117
   836.0000   2000.0000     12.6139     12.4795   2000.0000    169.9921
   836.2500   2000.0000     12.5048     11.8377   2000.0000    174.3407
   836.5000   2000.0000     12.2592     11.6906   2000.0000    169.6778
   836.7500   2000.0000     12.3820     11.5690   2000.0000    161.7863
   837.0000   2000.0000     12.0989     11.3480   2000.0000    145.3120
   837.2500   2000.0000     12.1116     11.2363   2000.0000    144.9757
   837.5000   2000.0000     12.2786     11.1270   2000.0000    167.0420
   837.7500   2000.0000     11.9391     10.8481   2000.0000    173.9419
   838.0000   2000.0000     11.9043     10.8092   2000.0000    191.5060
   838.2500   2000.0000     12.0057     10.6085   2000.0000    181.6192
   838.5000   2000.0000     12.0079     10.4539   2000.0000    176.0585
   838.7500   2000.0000     11.8807     10.5655   2000.0000    168.5880
   839.0000   2000.0000     12.0991     10.5843   2000.0000    162.3310
   839.2500   2000.0000     11.9629     10.7436   2000.0000    159.7870
   839.5000   2000.0000     12.3484     10.8526   2000.0000    145.9190
   839.7500   2000.0000     13.4318     11.1460   2000.0000    153.0137
   840.0000   2000.0000     13.6777     11.9567   2000.0000    149.4638
   840.2500   2000.0000     13.7782     12.4840   2000.0000    144.4734
   840.5000   2000.0000     14.0114     13.0386   2000.0000    135.1778
   840.7500   2000.0000     13.7932     14.0628   2000.0000    124.0641
   841.0000   2000.0000     14.3829     14.6349   2000.0000    118.6965
   841.2500   2000.0000     15.0047     14.8951   2000.0000    113.1018
   841.5000   2000.0000     15.6572     15.5282   2000.0000    114.9261
   841.7500   2000.0000     16.0766     15.5811   2000.0000    115.7314
   842.0000   2000.0000     17.5637     15.7457   2000.0000    128.4132
   842.2500   2000.0000     19.0824     16.5344   2000.0000    129.8786
   842.5000   2000.0000     20.7786     17.1086   2000.0000    121.0023
   842.7500   2000.0000     22.5295     18.2208   2000.0000    119.9197
   843.0000   2000.0000     23.1209     20.7991   2000.0000    115.4728
   843.2500   2000.0000     23.6786     23.2391   2000.0000    110.8091
   843.5000   2000.0000     23.7022     23.2255   2000.0000    101.4004
   843.7500   2000.0000     23.2164     24.7111   2000.0000     93.0989
   844.0000   2000.0000     24.3754     25.9174   2000.0000     89.3210
   844.2500   2000.0000     25.1432     26.7649   2000.0000     85.7709
   844.5000   2000.0000     26.0510     28.8675   2000.0000     86.1633
   844.7500   2000.0000     25.7537     29.2185   2000.0000     92.2829
   845.0000   2000.0000     28.4902     30.9184   2000.0000     98.1074
   845.2500   2000.0000     32.3299     29.5662   2000.0000    112.1528
   845.5000   2000.0000     26.9244     31.3135   2000.0000    126.4012
   845.7500   2000.0000     26.6337     31.9312   2000.0000    121.2175
   846.0000   2000.0000     26.9133     31.3837   2000.0000     99.6884
   846.2500   2000.0000     24.5162     30.1890   2000.0000     95.0860
   846.5000   2000.0000     23.0536     30.7636   2000.0000     97.2641
   846.7500   2000.0000     22.6872     27.8401   2000.0000     95.2217
   847.0000   2000.0000     20.5553     24.9131   2000.0000    105.3932
   847.2500   2000.0000     18.9465     23.2789   2000.0000    118.1134
   847.5000   2000.0000     18.3178     19.9424   2000.0000    134.7869
   847.7500   2000.0000     17.0117     16.5268   2000.0000    151.3694
   848.0000   2000.0000     16.1952     15.4438   2000.0000    160.5004
   848.2500   2000.0000     15.6940     14.2747   2000.0000    153.5887
   848.5000   2000.0000     14.5696     13.5889   2000.0000    162.0485
   848.7500   2000.0000     13.9811     13.0658   2000.0000    167.7059
   849.0000   2000.0000     13.5085     14.2507   2000.0000    163.5619
   849.2500   2000.0000     13.1682     12.0208   2000.0000    167.8209
   849.5000   2000.0000     12.2793     11.2273   2000.0000    168.9068
   849.7500   2000.0000     12.1220     10.5350   2000.0000    172.2762
   850.0000   2000.0000     12.4874     10.3988   2000.0000    170.0446
   850.2500   2000.0000     13.3237     10.9748   2000.0000    164.8454
   850.5000   2000.0000     12.3777     10.1958   2000.0000    168.6940
   850.7500   2000.0000     12.7566     10.3317   2000.0000    162.3787
   851.0000   2000.0000     13.1357     10.6175   2000.0000    153.3853
   851.2500   2000.0000     13.6044     10.9695   2000.0000    146.8628
   851.5000   2000.0000     14.9088     11.9868   2000.0000    130.6510
   851.7500   2000.0000     14.9972     13.2915   2000.0000    121.9960
   852.0000   2000.0000     15.4438     14.3904   2000.0000    111.6749
   852.2500   2000.0000     16.5425     16.2736   2000.0000    102.7482
   852.5000   2000.0000     17.2488     17.5391   2000.0000     83.4185
   852.7500   2000.0000     18.5111     18.7215   2000.0000     77.0848
   853.0000   2000.0000     19.8340     19.8636   2000.0000     76.8293
   853.2500   2000.0000     20.6481     22.3346   2000.0000     80.9519
   853.5000   2000.0000     22.4415     24.0056   2000.0000     84.4677
   853.7500   2000.0000     23.9582     25.2997   2000.0000     86.0419
   854.0000   2000.0000     23.2051     28.8548   2000.0000     83.7841
   854.2500   2000.0000     26.7839     30.1735   2000.0000     78.4888
   854.5000   2000.0000     28.3537     30.1819   2000.0000     81.1195
   854.7500   2000.0000     27.0960     31.6687   2000.0000     77.9168
   855.0000   2000.0000     29.4497     31.8126   2000.0000     77.6480
   855.2500   2000.0000     28.3480     29.3042   2000.0000     76.6185
   855.5000   2000.0000     32.5965     30.8892   2000.0000     76.7724
   855.7500   2000.0000     31.9505     33.0939   2000.0000     72.9834
   856.0000   2000.0000     32.0421     31.4110   2000.0000     72.4453
   856.2500   2000.0000     30.4471     32.3105   2000.0000     68.9080
   856.5000   2000.0000     30.9896     31.9062   2000.0000     71.5072
   856.7500   2000.0000     29.6720     31.4135   2000.0000     73.6979
   857.0000   2000.0000     30.2733     34.0545   2000.0000     69.5463
   857.2500   2000.0000     30.6079     32.9527   2000.0000     72.5175
   857.5000   2000.0000     30.8809     37.7869   2000.0000     62.9715
   857.7500   2000.0000     32.8886     37.0170   2000.0000     66.6673
