~Version Information
 VERS.                                  2.0 : CWLS LAS VERSION
 WRAP.                                   NO : WRAPING MODE
 SWARE .                 MController 2.5.0J : SOFTWARE VERSION
~Well Information
 WELL.                          Silva 6-22V : WELL
 COMP.                       Petrogulf Corp : COMPANY
 FLD.                      Purgatoire River : FIELD
 LOC.                 SE/NW Sec 6 T33S R67W : LOCATION
 DATE.                            11/7-9/04 : DATE(S) LOGGED
 SRVC.       Blanco Geological Services LLC : SERVICE COMPANY
 STAT.                                   CO : STATE
 CNTY.                           Las Animas : COUNTY
 CTRY.                                  USA : COUNTRY
 API.                       05-071-08143-00 : API NUMBER
 STRT.FT                              35.00 : START DEPTH
 STOP.FT                            2732.00 : STOP DEPTH
 STEP.FT                               1.00 : DEPTH INCREMENT
 NULL.                                -9999 : NULL VALUE
~Curve information
 DEPTH.FT                                   :
 ROP.MIN/FT                                 :
 GAS.UNITS                                  :
~ASCII Log data
# ...
       635.0         0.23         12.2 
       636.0         0.20         12.5 
       637.0         0.17         12.3 
       638.0         0.17         12.3 
       639.0         0.22         13.5 
       640.0         0.20         13.2 
       641.0         0.17         13.3 
       642.0         0.23         13.3 
       643.0         0.27         13.7 
       644.0         0.23         14.4 
       645.0         0.33         14.4 
       646.0         0.23         13.4 
       647.0         0.20         12.7 
       648.0         0.23         12.8 
       649.0         0.20         12.2 
       650.0         0.23         12.4 
       651.0         0.23         13.2 
       652.0         0.23         14.0 
       653.0         0.25         13.8 
       654.0         0.27         13.0 
       655.0         0.07         11.4 
       656.0         0.23         10.2 
       657.0         0.17          7.3 
       658.0         0.17          8.4 
       659.0         0.17          8.4 
       660.0         0.17          9.6 
       661.0         0.20          8.8 
       662.0         0.27          9.1 
       663.0         0.18          8.1 
       664.0         0.17          8.2 
       665.0         0.17         12.2 
       666.0         0.13         77.4 
       667.0         0.13         77.4 
       668.0         0.10        131.3 
       669.0         0.20        131.3 
       670.0         0.17         75.9 
       671.0         0.17         38.6 
       672.0         0.13          6.9 
       673.0         0.17          6.6 
       674.0         0.17          6.0 
       675.0         0.20          6.3 
       676.0         0.13          5.9 
       677.0         0.17          6.1 
       678.0         0.17          6.4 
       679.0         0.13          7.1 
       680.0         0.17          7.1 
       681.0         0.17          7.5 
       682.0         0.17          7.6 
       683.0         0.13          7.7 
       684.0         0.25          6.6 
       685.0         0.27          6.0 
       686.0         0.27          5.3 
       687.0         0.27          6.0 
       688.0         0.23          6.5 
       689.0         0.20          7.4 
       690.0         0.17          8.3 
       691.0         0.23          8.6 
       692.0         0.17          7.2 
       693.0         0.18          7.0 
       694.0         0.17          6.4 
       695.0         0.20          6.4 
       696.0         0.17          7.1 
       697.0         0.13          7.9 
       698.0         0.17          8.0 
       699.0         0.17          9.0 
       700.0         0.17          9.2 
       701.0         0.13          8.4 
       702.0         0.17          8.5 
       703.0         0.17          8.5 
       704.0         0.20         10.1 
       705.0         0.17          9.9 
       706.0         0.17          8.7 
       707.0         0.20          8.3 
       708.0         0.17          9.4 
       709.0         0.20          9.4 
       710.0         0.17         10.3 
       711.0         0.17         11.3 
       712.0         0.25         12.0 
       713.0         0.23          9.9 
       714.0         0.23          9.2 
       715.0         0.20          8.9 
       716.0         0.37          8.4 
       717.0         0.27          8.3 
       718.0         0.17          8.2 
       719.0         0.13          8.2 
       720.0         0.30          8.8 
       721.0         0.22          9.3 
       722.0         0.17          9.1 
       723.0         0.17          9.1 
       724.0         0.20          8.3 
       725.0         0.17          8.2 
       726.0         0.20          8.3 
       727.0         0.20          7.5 
       728.0         0.20          8.6 
       729.0         0.23          9.6 
       730.0         0.20          9.9 
       731.0         0.20          9.7 
       732.0         0.27          8.7 
       733.0         0.23          8.6 
       734.0         0.20          9.5 
       735.0         0.20          8.4 
       736.0         0.20          8.4 
       737.0         0.25          8.9 
       738.0         0.20         10.3 
       739.0         0.23         12.5 
       740.0         0.23         13.1 
       741.0         0.27         13.4 
       742.0         0.23         10.5 
       743.0         0.23          9.5 
       744.0         0.27          9.2 
       745.0         0.17          9.0 
       746.0         0.27          9.5 
       747.0         0.27          9.5 
       748.0         0.17          9.8 
       749.0         0.27          9.4 
       750.0         0.27          8.8 
       751.0         0.30          8.9 
       752.0         0.23          9.8 
       753.0         0.23          9.4 
       754.0         0.27          9.2 
       755.0         0.20          9.4 
       756.0         0.23          9.8 
       757.0         0.27         10.1 
       758.0         0.30          9.9 
       759.0         0.35          9.4 
       760.0         0.27          9.5 
       761.0         0.20          9.1 
       762.0         0.17          9.1 
       763.0         0.17          9.6 
       764.0         0.20          9.2 
       765.0         0.23          9.0 
       766.0         0.20          9.2 
       767.0         0.23         10.5 
       768.0         0.37         10.4 
       769.0         0.33         10.2 
       770.0         0.30         12.9 
       771.0         0.42         20.0 
       772.0         0.37         20.5 
       773.0         0.23         15.3 
       774.0         0.20         11.8 
       775.0         0.17         11.2 
       776.0         0.17          9.7 
       777.0         0.17          9.1 
       778.0         0.10          9.6 
       779.0         0.23         10.2 
       780.0         0.13         10.2 
       781.0         0.18         10.3 
       782.0         0.17         10.3 
       783.0         0.20         10.3 
       784.0         0.17          9.8 
       785.0         0.17         10.1 
       786.0         0.20          9.6 
       787.0         0.20          9.8 
       788.0         0.17          9.9 
       789.0         0.17          9.9 
       790.0         0.17         10.4 
       791.0         0.13         10.3 
       792.0         0.17         10.1 
       793.0         0.17         18.6 
       794.0         0.30         11.0 
       795.0         0.30         11.5 
       796.0         0.30         11.2 
       797.0         0.13         10.3 
       798.0         0.18         10.3 
       799.0         0.17          9.9 
       800.0         0.17         10.6 
       801.0         0.17         10.6 
       802.0         0.17         11.0 
       803.0         0.20         11.7 
       804.0         0.17         10.6 
       805.0         0.23         10.4 
       806.0         0.33         11.0 
       807.0         0.60         11.4 
       808.0         0.28         10.6 
       809.0         0.37          9.6 
       810.0         0.17         10.2 
       811.0         0.27         10.6 
       812.0         0.10         10.9 
       813.0         0.17         11.1 
       814.0         0.17         10.5 
       815.0         0.20         10.6 
       816.0         0.17         10.7 
       817.0         0.17         10.7 
       818.0         0.17         10.3 
       819.0         0.17         10.3 
       820.0         0.17         10.7 
       821.0         0.13         10.7 
       822.0         0.13         10.5 
       823.0         0.13         11.7 
       824.0         0.17         11.8 
       825.0         0.17         11.8 
       826.0         0.17         11.7 
       827.0         0.18         10.9 
       828.0         0.17         11.0 
       829.0         0.13         11.0 
       830.0         0.17         10.6 
       831.0         0.17         10.6 
       832.0         0.17         10.6 
       833.0         0.13          9.8 
       834.0         0.27         10.7 
