~Version Information
VERS.                      2.0: CWLS Log ASCII Standard - VERSION 2.0
WRAP.                       NO: One line per depth step
~Well Information Block
STRT.FT                -9.0000: 
STOP.FT              2130.0000: 
STEP.FT                 0.2500: 
NULL.                -999.2500: 
COMP.          Pioneer Natural Resources: COMPANY
WELL.               King 22-13: WELL
FLD.           Purgatorie River: FIELD
LOC.           2419' FNL & 1806' FWL: LOCATION
PROV.                 Colorado: PROVINCE
CNTY.               Las Animas: COUNTRY
SRVC.                Patterson: SERVICE COMPANY
DATE.          Wed Apr 20 09:20:28 2005: LOG DATE
UWI.           05-071-08318-00: UNIQUE WELL ID
~Curve Information Block
DEPT.FT            0 000 00 00: Depth
CCL.                          : Casing Collar Locator
TT3.usec                      : CBL 3' Travel Time
AMP3.mV                       : CBL 3' Amplitude
GR.GAPI                       : Gamma Ray
~Parameter Information Block
~A  Depth       CCL         TT3         AMP3         GR     
# ...
  1532.0000      0.0000    757.7288      6.3794    116.7573
  1532.2500      0.0000    760.5588      6.3114    117.3029
  1532.5000      0.0000    765.5330      6.2201    120.7086
  1532.7500      0.0000    771.2206      6.1305    125.5172
  1533.0000      0.0000    776.3081      6.0636    129.7012
  1533.2500      0.0000    779.8455      6.0206    131.4737
  1533.5000      0.0000    781.5623      5.9825    130.3263
  1533.7500      0.0000    781.7548      5.9278    127.3334
  1534.0000      0.0000    780.7686      5.8490    124.3071
  1534.2500      0.0000    778.7310      5.7576    122.7857
  1534.5000      0.0000    775.9113      5.6747    123.5413
  1534.7500      0.0000    773.2570      5.6169    126.3466
  1535.0000      0.0000    772.1530      5.5863    130.1484
  1535.2500      0.0000    773.3087      5.5729    133.8829
  1535.5000      0.0000    776.0411      5.5657    137.0341
  1535.7500      0.0000    778.9255      5.5651    139.1202
  1536.0000      0.0000    780.9612      5.5802    139.0920
  1536.2500      0.0000    781.9792      5.6155    136.0463
  1536.5000      0.0000    782.2661      5.6598    130.4859
  1536.7500      0.0000    782.1357      5.6938    124.2731
  1537.0000      0.0000    781.7980      5.7078    119.2501
  1537.2500      0.0000    781.3982      5.7093    116.2827
  1537.5000      0.0000    781.0508      5.7126    115.6412
  1537.7500      0.0000    780.8279      5.7229    117.6591
  1538.0000      0.0000    780.7292      5.7298    122.4001
  1538.2500      0.0000    780.6976      5.7197    128.7705
  1538.5000      0.0000    780.6888      5.6925    134.5396
  1538.7500      0.0000    780.7319      5.6666    137.6890
  1539.0000      0.0000    780.8889      5.6628    137.7745
  1539.2500      0.0000    781.1424      5.6861    135.9502
  1539.5000      0.0000    781.3583      5.7255    133.8431
  1539.7500      0.0000    781.3743      5.7685    132.3823
  1540.0000      0.0000    781.1094      5.8110    131.5326
  1540.2500      0.0000    780.5933      5.8552    131.0451
  1540.5000      0.0000    779.9378      5.9017    131.2512
  1540.7500      0.0000    779.3024      5.9453    132.7076
  1541.0000      0.0000    778.8432      5.9775    134.9502
  1541.2500      0.0000    778.6364      5.9903    136.2760
  1541.5000      0.0000    778.6299      5.9811    135.2680
  1541.7500      0.0000    778.6919      5.9531    131.9433
  1542.0000      0.0000    778.7251      5.9157    127.1584
  1542.2500      0.0000    778.7282      5.8824    121.8740
  1542.5000      0.0000    778.7524      5.8683    117.2482
  1542.7500      0.0000    778.8685      5.8828    114.3688
  1543.0000      0.0000    779.2510      5.9235    113.3076
  1543.2500      0.0000    780.3153      5.9766    112.9020
  1543.5000      0.0000    782.6349      6.0249    111.7833
  1543.7500      0.0000    786.3521      6.0597    109.5431
  1544.0000      0.0000    790.2539      6.0852    106.8573
  1544.2500      0.0000    791.6299      6.1125    104.4051
  1544.5000      0.0000    787.8712      6.1476    101.7457
  1544.7500      0.0000    778.8008      6.1856     97.7205
  1545.0000      0.0000    767.1013      6.2173     92.3178
  1545.2500      0.0000    756.1656      6.2368     87.5502
  1545.5000      0.0000    747.9608      6.2437     85.6158
  1545.7500      0.0000    743.1660      6.2370     86.3420
  1546.0000      0.0000    742.3336      6.2120     87.2322
  1546.2500      0.0000    745.8809      6.1655     86.2345
  1546.5000      0.0000    753.2933      6.0999     84.0802
  1546.7500      0.0000    762.9191      6.0224     83.9003
  1547.0000      0.0000    772.2979      5.9427     88.9133
  1547.2500      0.0000    778.8931      5.8726    100.3551
  1547.5000      0.0000    781.4146      5.8245    116.6872
  1547.7500      0.0000    780.5056      5.8030    133.9887
  1548.0000      0.0000    777.6721      5.7988    147.3338
  1548.2500      0.0000    773.4986      5.7966    153.1349
  1548.5000      0.0000    767.3363      5.7974    151.4031
  1548.7500      0.0000    759.0215      5.8237    145.6672
  1549.0000      0.0000    750.8708      5.8825    140.1081
  1549.2500      0.0000    747.2088      5.9222    136.8311
  1549.5000      0.0000    750.9300      5.8644    135.6798
  1549.7500      0.0000    760.2759      5.6937    135.3705
  1550.0000      0.0000    769.4573      5.4849    134.2791
  1550.2500      0.0000    773.1895      5.3277    131.3689
  1550.5000     -5.0000    771.4643      5.2543    127.3075
  1550.7500      5.0000    770.0302      5.2456    124.2013
  1551.0000      0.0000    775.4421      5.2768    123.6763
  1551.2500      0.0000    788.3373      5.3445    125.4004
  1551.5000      0.0000    800.5292      5.4638    127.5709
  1551.7500      0.0000    799.5228      5.6377    128.6100
  1552.0000      0.0000    778.5543      5.8202    128.3806
  1552.2500      0.0000    743.2473      5.9262    127.9768
  1552.5000      0.0000    707.3856      5.9042    128.4205
  1552.7500      0.0000    682.2963      5.7858    129.5726
  1553.0000      0.0000    671.4436      5.6465    130.2520
  1553.2500      0.0000    673.2944      5.5389    129.2699
  1553.5000      0.0000    685.5946      5.4755    126.3867
  1553.7500      0.0000    705.7271      5.4520    122.5033
  1554.0000      0.0000    729.3348      5.4628    118.9253
  1554.2500      0.0000    751.0914      5.5027    116.2338
  1554.5000      0.0000    767.0770      5.5664    113.8190
  1554.7500      0.0000    775.3471      5.6502    110.4846
  1555.0000      0.0000    774.4340      5.7515    105.5409
  1555.2500      0.0000    763.0850      5.8667     99.4581
  1555.5000      0.0000    742.8188      5.9882     93.5393
  1555.7500      0.0000    720.2421      6.1026     89.0507
  1556.0000      0.0000    705.1237      6.1908     86.7342
  1556.2500      0.0000    704.3763      6.2338     86.7248
  1556.5000      0.0000    717.0139      6.2233     88.4706
  1556.7500      0.0000    735.1986      6.1692     90.9897
  1557.0000      0.0000    750.6440      6.0977     93.6725
  1557.2500      0.0000    759.5460      6.0365     96.7559
  1557.5000      0.0000    761.4543      5.9977    100.8338
  1557.7500      0.0000    756.1750      5.9762    106.1020
  1558.0000      0.0000    744.0632      5.9635    112.0729
  1558.2500      0.0000    727.5638      5.9616    117.7231
  1558.5000      0.0000    710.0790      5.9787    122.1030
  1558.7500      0.0000    693.8346      6.0163    125.0257
  1559.0000      0.0000    679.8397      6.0648    126.9572
  1559.2500      0.0000    669.0347      6.1121    128.2695
  1559.5000      0.0000    662.4666      6.1562    128.9446
  1559.7500      0.0000    660.8915      6.2055    128.8295
  1560.0000      0.0000    664.7769      6.2670    127.9022
  1560.2500      0.0000    674.1447      6.3320    126.4526
  1560.5000      0.0000    687.8400      6.3789    125.0696
  1560.7500      0.0000    703.1552      6.3897    124.1454
  1561.0000      0.0000    716.3162      6.3614    123.4895
  1561.2500      0.0000    723.3428      6.3057    122.8839
  1561.5000      0.0000    721.6145      6.2459    122.7782
  1561.7500      0.0000    712.5051      6.2130    123.8010
  1562.0000      0.0000    702.3693      6.2339    125.6423
  1562.2500      0.0000    699.0400      6.3120    126.9566
  1562.5000      0.0000    706.1996      6.4194    126.3488
  1562.7500      0.0000    721.0988      6.5121    123.1410
  1563.0000      0.0000    737.2635      6.5540    117.6282
  1563.2500      0.0000    748.4803      6.5291    111.2630
  1563.5000      0.0000    750.6057      6.4400    106.3700
  1563.7500      0.0000    741.9679      6.3075    105.0052
  1564.0000      0.0000    724.2191      6.1693    107.9380
  1564.2500      0.0000    702.7657      6.0655    114.6743
  1564.5000      0.0000    684.7889      6.0170    123.9774
  1564.7500      0.0000    675.7291      6.0197    134.0250
  1565.0000      0.0000    677.0878      6.0560    142.4801
  1565.2500      0.0000    686.5779      6.1053    147.2495
