~Version Information
VERS.                      2.0: CWLS Log ASCII Standard - VERSION 2.0
WRAP.                       NO: One line per depth step
~Well Information Block
STRT.FT               450.0000: 
STOP.FT              2753.5000: 
STEP.FT                 0.1000: 
NULL.                -999.2500: 
COMP.          Pioneer Natural Resources: COMPANY
WELL.             Squeal 11-26: WELL
FLD.           Purgatoire River: FIELD
LOC.           1186' FNL & 152' FWL: LOCATION
PROV.                 Colorado: PROVINCE
CNTY.               Las Animas: COUNTRY
SRVC.                Patterson: SERVICE COMPANY
DATE.          Wed Jun 15 09:11:52 2005: LOG DATE
UWI.           05 071 08404 00: UNIQUE WELL ID
~Curve Information Block
DEPT.FT            0 000 00 00: Depth
DCAL.in                       : CDL Caliper
RHOB.g/cc                     : CDL Bulk Density
RHOC.g/cc                     : CDL Density Correction
DPOR.pu                       : CDL Density Porosity
GR.GAPI                       : Gamma Ray
NPOR.pu                       : Neutron Porosity
~Parameter Information Block
~A  Depth       DCAL        RHOB        RHOC        DPOR         GR         NPOR    
   450.0000      8.2552      2.3133     -0.5670     20.4056     78.9936     17.0624
   450.1000      8.2552      2.2795     -0.5216     22.4529     75.4282     17.6935
   450.2000      8.2552      2.2730     -0.4982     22.8513     72.5913     18.5133
   450.3000      8.2475      2.2915     -0.5690     21.7244     72.0250     19.0140
   450.4000      8.2475      2.3259     -0.5077     19.6447     77.0290     18.8755
   450.5000      8.2523      2.3364     -0.3952     19.0031     85.8907     17.9780
   450.6000      8.2523      2.3055     -0.5062     20.8778     93.6133     16.6379
   450.7000      8.2523      2.2649     -0.5194     23.3376     96.3151     15.6776
   450.8000      8.2561      2.2388     -0.5256     24.9227     94.9401     15.6968
   450.9000      8.2561      2.2188     -0.4787     26.1318     95.0046     16.4532
   451.0000      8.2559      2.1939     -0.4614     27.6395     96.2943     17.1447
   451.1000      8.2559      2.1816     -0.5456     28.3882     93.2614     17.2687
   451.2000      8.2559      2.2023     -0.4789     27.1355     87.9791     16.8177
   451.3000      8.2403      2.2407     -0.4926     24.8087     88.0770     16.2198
   451.4000      8.2403      2.2752     -0.4834     22.7131     93.2964     15.9330
   451.5000      8.2556      2.2995     -0.3945     21.2432     93.8629     16.0745
   451.6000      8.2556      2.3028     -0.3724     21.0406     87.8816     16.6173
   451.7000      8.2556      2.2820     -0.4835     22.3044     83.3061     17.3489
   451.8000      8.2540      2.2574     -0.5202     23.7941     79.9718     17.7920
   451.9000      8.2540      2.2410     -0.4652     24.7859     75.0804     18.0073
   452.0000      8.2553      2.2271     -0.5223     25.6320     76.0052     18.1980
   452.1000      8.2553      2.2232     -0.5591     25.8693     82.3626     18.1980
   452.2000      8.2553      2.2334     -0.4699     25.2504     81.8825     18.3270
   452.3000      8.2583      2.2443     -0.4498     24.5895     73.5513     18.3552
   452.4000      8.2583      2.2562     -0.4602     23.8688     66.0132     17.4940
   452.5000      8.2551      2.2673     -0.4050     23.1925     62.4973     16.5868
   452.6000      8.2551      2.2667     -0.4594     23.2284     61.2446     16.4908
   452.7000      8.2551      2.2625     -0.4929     23.4863     60.1095     16.5219
   452.8000      8.2549      2.2632     -0.5081     23.4408     59.8590     16.1232
   452.9000      8.2549      2.2730     -0.5190     22.8471     63.0225     15.4776
   453.0000      8.2507      2.3094     -0.4821     20.6402     66.8956     15.2966
   453.1000      8.2507      2.3746     -0.4316     16.6910     66.7965     15.7687
   453.2000      8.2507      2.4355     -0.4281     12.9996     65.9419     16.1002
   453.3000      8.2514      2.4580     -0.3265     11.6335     69.2581     16.1520
   453.4000      8.2514      2.4406     -0.3920     12.6884     74.5511     16.5392
   453.5000      8.2411      2.4034     -0.3945     14.9480     75.2720     17.2064
   453.6000      8.2411      2.3575     -0.4361     17.7244     67.1609     17.3899
   453.7000      8.2411      2.3195     -0.5649     20.0298     53.8713     16.8516
   453.8000      8.2404      2.3078     -0.4822     20.7392     43.3492     16.3486
   453.9000      8.2404      2.3139     -0.5349     20.3696     39.8170     16.2278
   454.0000      8.2392      2.3177     -0.4969     20.1390     41.6766     15.8951
   454.1000      8.2392      2.3032     -0.4021     21.0204     45.8618     15.3477
   454.2000      8.2392      2.2692     -0.4750     23.0804     50.8635     15.4801
   454.3000      8.2400      2.2458     -0.5554     24.4991     54.7441     16.8189
   454.4000      8.2400      2.2579     -0.5203     23.7654     56.1343     18.6607
   454.5000      8.2433      2.2906     -0.5080     21.7824     56.6509     19.5801
   454.6000      8.2433      2.3150     -0.4542     20.3008     55.9451     19.1025
   454.7000      8.2433      2.3196     -0.4801     20.0252     52.1727     17.9738
   454.8000      8.2368      2.3091     -0.4264     20.6606     48.5024     17.1850
   454.9000      8.2368      2.2896     -0.5035     21.8394     47.4482     17.2335
   455.0000      8.2386      2.2704     -0.4678     23.0061     45.4780     17.9899
   455.1000      8.2386      2.2692     -0.5368     23.0768     40.9563     18.3001
   455.2000      8.2386      2.3023     -0.4878     21.0728     38.1859     17.2430
   455.3000      8.2402      2.3426     -0.4056     18.6273     40.1419     16.1930
   455.4000      8.2402      2.3431     -0.4627     18.5978     43.5814     16.4977
   455.5000      8.2446      2.3136     -0.4119     20.3904     43.6794     17.6949
   455.6000      8.2446      2.3016     -0.5007     21.1144     41.3790     18.7960
   455.7000      8.2446      2.3162     -0.4243     20.2285     40.2681     19.2260
   455.8000      8.2398      2.3164     -0.3985     20.2178     39.7591     18.8849
   455.9000      8.2398      2.2939     -0.5120     21.5805     38.2630     17.9296
   456.0000      8.2394      2.2910     -0.4950     21.7588     36.2673     16.8651
   456.1000      8.2394      2.3231     -0.4568     19.8098     35.4990     16.4609
   456.2000      8.2394      2.3558     -0.4100     17.8274     35.1149     16.7450
   456.3000      8.2382      2.3476     -0.4201     18.3292     38.5398     17.1994
   456.4000      8.2382      2.3104     -0.5738     20.5798     41.0350     17.5959
   456.5000      8.2360      2.3037     -0.4903     20.9854     43.0933     17.6789
   456.6000      8.2360      2.3352     -0.3867     19.0785     44.7783     17.2711
   456.7000      8.2360      2.3560     -0.4002     17.8171     44.9698     16.7453
   456.8000      8.2378      2.3460     -0.3990     18.4233     44.1727     16.6193
   456.9000      8.2378      2.3178     -0.4163     20.1345     43.4425     16.9306
   457.0000      8.2389      2.2825     -0.4553     22.2717     44.0493     17.1937
   457.1000      8.2389      2.2552     -0.4999     23.9288     45.6311     17.2026
   457.2000      8.2389      2.2614     -0.5970     23.5511     41.9900     17.1709
   457.3000      8.2559      2.2981     -0.4205     21.3252     41.2224     17.3241
   457.4000      8.2559      2.3196     -0.5075     20.0254     43.5532     17.7494
   457.5000      8.2372      2.3014     -0.4204     21.1268     44.9199     17.8952
   457.6000      8.2372      2.2639     -0.5315     23.3973     42.2784     17.5017
   457.7000      8.2372      2.2376     -0.5051     24.9964     41.2920     17.5711
   457.8000      8.2358      2.2269     -0.5815     25.6428     43.7653     18.4020
   457.9000      8.2358      2.2336     -0.4979     25.2367     44.4458     18.8338
   458.0000      8.2394      2.2728     -0.5274     22.8589     42.8753     18.1584
   458.1000      8.2394      2.3270     -0.3834     19.5738     42.1938     17.2267
   458.2000      8.2394      2.3400     -0.3787     18.7877     38.4158     16.9495
   458.3000      8.2378      2.3108     -0.5179     20.5584     34.9279     16.9345
   458.4000      8.2378      2.2873     -0.4732     21.9835     29.4046     16.6921
   458.5000      8.2321      2.2668     -0.4533     23.2235     27.3129     16.4130
   458.6000      8.2321      2.2337     -0.5205     25.2326     30.2041     16.3387
   458.7000      8.2321      2.2124     -0.5378     26.5202     33.5248     16.5129
   458.8000      8.2314      2.2100     -0.5246     26.6689     34.1537     16.7764
   458.9000      8.2314      2.2040     -0.5526     27.0319     33.9242     16.9664
   459.0000      8.2267      2.1879     -0.5046     28.0053     34.5744     17.0247
   459.1000      8.2267      2.1770     -0.5391     28.6692     36.2550     17.2850
   459.2000      8.2267      2.1933     -0.5530     27.6785     34.4819     18.0768
   459.3000      8.2348      2.2337     -0.4759     25.2299     33.0235     18.7739
   459.4000      8.2348      2.2650     -0.5018     23.3310     30.3377     18.7574
   459.5000      8.2326      2.2765     -0.4886     22.6371     28.9880     18.2297
