~Version Information
 VERS.                                  2.0 : CWLS LAS VERSION
 WRAP.                                   NO : WRAPING MODE
 SWARE .                 MController 2.5.0E : SOFTWARE VERSION
~Well Information
 WELL.                    Dude canyon 22-32 : WELL
 COMP.    Pioneer Natural Resources USA Inc : COMPANY
 FLD.                      Purgatoire River : FIELD
 LOC.                SE/NW Sec 32 T32S R67W : LOCATION
 DATE.                         3/06-07/2005 : DATE(S) LOGGED
 SRVC.       Blanco Geological Services LLC : SERVICE COMPANY
 STAT.                                   CO : STATE
 CNTY.                           Las Animas : COUNTY
 CTRY.                                  USA : COUNTRY
 API.                       05-071-08257-00 : API NUMBER
 STRT.FT                             494.00 : START DEPTH
 STOP.FT                            2760.00 : STOP DEPTH
 STEP.FT                               1.00 : DEPTH INCREMENT
 NULL.                                -9999 : NULL VALUE
~Curve information
 DEPTH.FT                                   :
 ROP.MIN/FT                                 :
 GAS.UNITS                                  :
~ASCII Log data
# ...
     2294.00        0.267         67.9 
     2295.00        0.200         67.0 
     2296.00        0.300         64.4 
     2297.00        0.433         59.5 
     2298.00        0.400         69.9 
     2299.00        0.433         79.5 
     2300.00        0.483         79.4 
     2301.00        0.467         70.4 
     2302.00        0.433         55.8 
     2303.00        0.500         43.5 
     2304.00        0.467         42.8 
     2305.00        0.433         42.0 
     2306.00        0.433         34.1 
     2307.00        0.500         26.2 
     2308.00        0.417         26.4 
     2309.00        0.500         27.9 
     2310.00        0.667         36.3 
     2311.00       11.783        229.7 
     2312.00        2.150         94.3 
     2313.00        0.667         65.6 
     2314.00        0.533         59.3 
     2315.00        0.350         66.8 
     2316.00        0.333         66.5 
     2317.00        0.300         59.5 
     2318.00        0.367         52.2 
     2319.00        0.500         49.7 
     2320.00        0.400         55.7 
     2321.00        0.333         63.6 
     2322.00        0.400         64.8 
     2323.00        0.367         58.6 
     2324.00        0.350         44.4 
     2325.00        0.300         39.7 
     2326.00        0.467         41.8 
     2327.00        0.433         42.9 
     2328.00        0.433         42.5 
     2329.00        0.433         37.5 
     2330.00        0.433         36.0 
     2331.00        0.467         36.5 
     2332.00        0.583         40.9 
     2333.00        0.500         48.2 
     2334.00        0.500         55.1 
     2335.00        0.467         55.9 
     2336.00        0.367         53.0 
     2337.00        0.533         49.2 
     2338.00        0.433         49.8 
     2339.00        0.417         49.9 
     2340.00        0.867         47.8 
     2341.00        7.533        212.1 
     2342.00        0.700         61.3 
     2343.00        0.600         76.4 
     2344.00        0.517         88.0 
     2345.00        0.467         88.4 
     2346.00        0.300         76.2 
     2347.00        0.367         73.2 
     2348.00        0.300         83.7 
     2349.00        0.333         87.3 
     2350.00        0.667         87.4 
     2351.00        0.817         85.4 
     2352.00        0.533         93.3 
     2353.00        0.567         93.5 
     2354.00        0.567         82.6 
     2355.00        0.633         62.1 
     2356.00        0.567         47.8 
     2357.00        0.417         45.2 
     2358.00        0.567         49.9 
     2359.00        0.400         49.7 
     2360.00        0.433         49.7 
     2361.00        0.433         53.5 
     2362.00        0.400         62.7 
     2363.00        0.333         70.4 
     2364.00        0.300         71.3 
     2365.00        0.250         70.0 
     2366.00        0.233         69.0 
     2367.00        0.733         68.6 
     2368.00        0.333         62.2 
     2369.00        0.400         64.6 
     2370.00        0.333         63.6 
     2371.00        8.183        141.4 
     2372.00        0.733         54.3 
     2373.00        0.433         75.4 
     2374.00        0.567        101.5 
     2375.00        0.567        103.2 
     2376.00        0.567        101.9 
     2377.00        0.617        105.3 
     2378.00        0.600        103.9 
     2379.00        0.300         96.8 
     2380.00        0.400         94.5 
     2381.00        0.333         84.6 
     2382.00        0.267         67.0 
     2383.00        0.333         59.3 
     2384.00        0.400         58.0 
     2385.00        0.350         66.8 
     2386.00        0.500         88.0 
     2387.00        0.567        107.7 
     2388.00        0.667        114.1 
     2389.00        0.500        114.1 
     2390.00        0.467        106.3 
     2391.00        0.617         98.8 
     2392.00        0.633         86.1 
     2393.00        0.600         67.2 
     2394.00        0.533         36.9 
     2395.00        0.633         19.9 
     2396.00        0.667         21.0 
     2397.00        0.650         35.8 
     2398.00        0.700         39.7 
     2399.00        0.400         39.2 
     2400.00        0.333         40.7 
     2401.00        7.300        152.2 
     2402.00        0.567        166.1 
     2403.00        0.517        153.8 
     2404.00        0.500         93.1 
     2405.00        0.533         48.1 
     2406.00        0.500         39.9 
     2407.00        0.533         53.0 
     2408.00        0.500         55.2 
     2409.00        0.433         55.7 
     2410.00        0.417         58.9 
     2411.00        0.367         59.8 
     2412.00        0.400         59.6 
     2413.00        0.300         58.9 
     2414.00        0.333         60.2 
     2415.00        0.267         62.7 
     2416.00        0.400         68.0 
     2417.00        0.567         82.4 
     2418.00        0.550         92.3 
     2419.00        0.567         92.1 
     2420.00        0.533         83.4 
     2421.00        0.467         74.8 
     2422.00        0.433         71.0 
     2423.00        0.400         65.3 
     2424.00        0.433         59.4 
     2425.00        0.517         60.2 
     2426.00        0.500         60.9 
     2427.00        0.633         59.2 
     2428.00        0.600         56.9 
     2429.00        0.667         59.0 
     2430.00        0.733         59.0 
     2431.00        8.283        134.5 
     2432.00        0.367         54.5 
     2433.00        0.333         61.3 
     2434.00        0.333         70.4 
     2435.00        0.333         79.5 
     2436.00        0.483         92.8 
     2437.00        0.467        107.5 
     2438.00        0.433        117.5 
     2439.00        0.467        120.0 
     2440.00        0.400        118.8 
     2441.00        0.333        111.7 
     2442.00        0.200        103.7 
     2443.00        0.200        100.0 
     2444.00        0.267         94.7 
     2445.00        0.333         86.8 
     2446.00        0.417         83.5 
     2447.00        0.533         98.4 
     2448.00        0.433        116.7 
     2449.00        0.400        118.4 
     2450.00        0.400        112.4 
     2451.00        0.367         89.8 
     2452.00        0.400         73.4 
     2453.00        0.433         64.6 
     2454.00        0.483         59.8 
     2455.00        0.533         48.0 
     2456.00        0.600         43.0 
     2457.00        0.633         44.4 
     2458.00        0.467         42.8 
     2459.00        0.500         40.6 
     2460.00        0.883         44.6 
     2461.00        6.767        145.5 
     2462.00        0.933         99.0 
     2463.00        0.733         64.7 
     2464.00        0.700         95.6 
     2465.00        0.750        123.6 
     2466.00        0.600        143.4 
     2467.00        0.600        145.0 
     2468.00        0.433        137.8 
     2469.00        0.533        123.0 
     2470.00        0.500        115.4 
     2471.00        0.583        123.8 
     2472.00        0.500        123.9 
     2473.00        0.400        107.9 
     2474.00        0.333         83.6 
     2475.00        0.300         70.6 
     2476.00        0.200         67.8 
     2477.00        0.233         67.8 
     2478.00        0.167         66.6 
     2479.00        0.333         67.7 
     2480.00        0.333         81.7 
     2481.00        0.317         87.7 
     2482.00        0.400         91.8 
     2483.00        0.367         98.2 
     2484.00        0.300        102.7 
     2485.00        0.333        103.9 
     2486.00        0.367        102.9 
     2487.00        0.333         95.4 
     2488.00        0.267         85.8 
     2489.00        0.233         78.2 
     2490.00        0.433         73.5 
     2491.00        5.233         84.3 
     2492.00        0.700         96.2 
     2493.00        0.467         96.0 
