~Version Information
VERS.                      2.0: CWLS Log ASCII Standard - VERSION 2.0
WRAP.                       NO: One line per depth step
~Well Information Block
STRT.FT               748.2500: 
STOP.FT              2498.5000: 
STEP.FT                 0.2500: 
NULL.                -999.2500: 
COMP.          Petrogulf Corporation: COMPANY
WELL.           Montoya 13-41V: WELL
FLD.           Purgatorie River: FIELD
LOC.           449' FNL & 891' FEL: LOCATION
CNTY.               Las Animas: COUNTY
SRVC.                         : SERVICE COMPANY
DATE.          Tue Aug 17 13:22:31 2004: LOG DATE
UWI.           05 071 08021 00: UNIQUE WELL ID
STAT.                 Colorado: STATE
~Curve Information Block
DEPT.FT            0 000 00 00: Depth
SP.mV                         : DIL Spontaneous Potential
RILD.Ohm-m                    : DIL Deep Resistivity
RILM.Ohm-m                    : DIL Medium Resistivity
RLL3.Ohm-m                    : DIL Shallow Resistivity
GR.GAPI                       : Gamma Ray
~Parameter Information Block
~A  Depth        SP         RILD        RILM        RLL3         GR     
# ...
  2008.2500     77.7407     11.3299     10.3011     12.5634    111.8322
  2008.5000     77.5429     11.3642     10.2654     12.2677    106.7888
  2008.7500     77.4060     11.4294     10.2553     12.0529    103.9692
  2009.0000     77.3374     11.5037     10.2723     11.9538    100.5534
  2009.2500     77.3324     11.5673     10.3160     11.9995     99.1995
  2009.5000     77.3741     11.6076     10.3846     12.2166     99.0408
  2009.7500     77.4371     11.6216     10.4748     12.6156     99.7608
  2010.0000     77.4934     11.6150     10.5826     13.1661    100.3057
  2010.2500     77.5192     11.5985     10.7043     13.7793     99.4937
  2010.5000     77.4992     11.5827     10.8366     14.3218     96.7865
  2010.7500     77.4281     11.5744     10.9774     14.6711     94.9300
  2011.0000     77.3095     11.5763     11.1253     14.7858     93.5942
  2011.2500     77.1519     11.5879     11.2794     14.7367     94.0128
  2011.5000     76.9656     11.6072     11.4382     14.6665     96.3041
  2011.7500     76.7598     11.6321     11.5995     14.7028     98.3594
  2012.0000     76.5411     11.6597     11.7594     14.8918    100.7770
  2012.2500     76.3136     11.6869     11.9132     15.1980    101.1870
  2012.5000     76.0796     11.7105     12.0554     15.5532     99.6893
  2012.7500     75.8414     11.7282     12.1803     15.9019     97.7613
  2013.0000     75.6022     11.7391     12.2832     16.2097     94.7313
  2013.2500     75.3671     11.7427     12.3604     16.4466     93.1108
  2013.5000     75.1427     11.7372     12.4100     16.5748     91.4758
  2013.7500     74.9356     11.7180     12.4314     16.5607     90.9498
  2014.0000     74.7514     11.6786     12.4253     16.3981     91.3500
  2014.2500     74.5930     11.6134     12.3930     16.1181     92.5575
  2014.5000     74.4602     11.5206     12.3369     15.7757     95.2678
  2014.7500     74.3500     11.4051     12.2599     15.4215     96.9514
  2015.0000     74.2582     11.2773     12.1662     15.0830     98.1384
  2015.2500     74.1809     11.1501     12.0611     14.7646     97.9386
  2015.5000     74.1167     11.0356     11.9516     14.4589     97.2634
  2015.7500     74.0669     10.9430     11.8457     14.1551     97.4528
  2016.0000     74.0354     10.8777     11.7524     13.8431     99.1345
  2016.2500     74.0277     10.8427     11.6808     13.5176    100.6954
  2016.5000     74.0488     10.8391     11.6388     13.1912    103.0179
  2016.7500     74.1015     10.8666     11.6331     12.9068    104.8039
  2017.0000     74.1853     10.9248     11.6678     12.7402    108.2620
  2017.2500     74.2961     11.0128     11.7446     12.7793    110.4538
  2017.5000     74.4261     11.1305     11.8628     13.0878    111.3860
  2017.7500     74.5646     11.2787     12.0195     13.6695    109.6850
  2018.0000     74.6990     11.4589     12.2105     14.4544    104.5862
  2018.2500     74.8157     11.6722     12.4311     15.3165    100.9109
  2018.5000     74.9010     11.9189     12.6776     16.1140     97.1571
  2018.7500     74.9425     12.1984     12.9481     16.7311     96.3449
  2019.0000     74.9304     12.5098     13.2435     17.1079     97.2767
  2019.2500     74.8592     12.8533     13.5674     17.2534     98.6232
  2019.5000     74.7288     13.2298     13.9255     17.2477    100.1969
  2019.7500     74.5449     13.6390     14.3241     17.2318    100.2678
  2020.0000     74.3184     14.0768     14.7682     17.3833     98.8184
  2020.2500     74.0635     14.5339     15.2600     17.8726     97.3164
  2020.5000     73.7957     14.9983     15.7975     18.8066     95.0991
  2020.7500     73.5292     15.4602     16.3740     20.1768     93.7980
  2021.0000     73.2748     15.9179     16.9798     21.8391     92.0887
  2021.2500     73.0393     16.3808     17.6038     23.5446     91.1323
  2021.5000     72.8252     16.8672     18.2377     25.0166     90.0463
  2021.7500     72.6316     17.4000     18.8783     26.0459     89.6094
  2022.0000     72.4561     17.9998     19.5293     26.5628     89.6321
  2022.2500     72.2958     18.6790     20.2010     26.6605     90.1766
  2022.5000     72.1487     19.4378     20.9075     26.5629     91.3225
  2022.7500     72.0143     20.2623     21.6635     26.5581     91.7879
  2023.0000     71.8935     21.1280     22.4812     26.9177     91.5103
  2023.2500     71.7882     22.0054     23.3680     27.8208     90.8373
  2023.5000     71.7009     22.8687     24.3256     29.3006     89.9094
  2023.7500     71.6348     23.7009     25.3508     31.2342     89.7449
  2024.0000     71.5944     24.4926     26.4354     33.3964     89.9909
  2024.2500     71.5853     25.2353     27.5654     35.5751     89.8365
  2024.5000     71.6153     25.9117     28.7176     37.7025     88.1930
  2024.7500     71.6934     26.4878     29.8525     39.9187     86.3602
  2025.0000     71.8290     26.9099     30.9074     42.5014     83.7824
  2025.2500     72.0303     27.1109     31.7902     45.6621     82.5528
  2025.5000     72.3032     27.0268     32.3826     49.3128     80.6383
  2025.7500     72.6487     26.6205     32.5577     52.9559     78.6709
  2026.0000     73.0626     25.9012     32.2128     55.8088     74.9721
  2026.2500     73.5346     24.9276     31.3091     57.1261     72.9499
  2026.5000     74.0481     23.7936     29.8959     56.5272     71.7696
  2026.7500     74.5821     22.6018     28.1045     54.1100     72.0592
  2027.0000     75.1126     21.4394     26.1106     50.2902     73.2407
  2027.2500     75.6162     20.3648     24.0883     45.5259     74.4124
  2027.5000     76.0723     19.4050     22.1756     40.1575     77.2576
  2027.7500     76.4662     18.5615     20.4609     34.4500     80.0616
  2028.0000     76.7902     17.8203     18.9870     28.7312     85.3728
  2028.2500     77.0447     17.1606     17.7626     23.4473     89.3941
  2028.5000     77.2361     16.5623     16.7748     19.0672     95.6680
  2028.7500     77.3753     16.0101     15.9991     15.9107     99.4731
  2029.0000     77.4749     15.4967     15.4062     14.0384    103.1027
  2029.2500     77.5469     15.0226     14.9657     13.2720    103.2693
  2029.5000     77.6006     14.5948     14.6492     13.3114     99.7194
  2029.7500     77.6425     14.2242     14.4308     13.8566     95.5048
  2030.0000     77.6761     13.9220     14.2885     14.6703     88.5798
  2030.2500     77.7024     13.6971     14.2042     15.5815     84.5575
  2030.5000     77.7206     13.5536     14.1639     16.4646     79.6720
  2030.7500     77.7284     13.4908     14.1570     17.2242     76.8146
  2031.0000     77.7221     13.5026     14.1766     17.7911     72.9541
  2031.2500     77.6969     13.5780     14.2181     18.1265     71.0626
  2031.5000     77.6474     13.7021     14.2793     18.2314     69.9276
  2031.7500     77.5685     13.8571     14.3590     18.1565     70.1963
  2032.0000     77.4563     14.0263     14.4569     17.9979     71.2460
  2032.2500     77.3098     14.1968     14.5730     17.8659     71.9815
  2032.5000     77.1316     14.3620     14.7076     17.8364     73.2768
  2032.7500     76.9283     14.5217     14.8619     17.9091     74.6710
  2033.0000     76.7098     14.6791     15.0379     18.0082     77.9531
  2033.2500     76.4877     14.8404     15.2393     18.0351     80.6090
  2033.5000     76.2730     15.0149     15.4708     17.9501     83.8789
  2033.7500     76.0737     15.2165     15.7381     17.8293     84.8724
  2034.0000     75.8927     15.4640     16.0470     17.8543     84.6535
  2034.2500     75.7274     15.7787     16.4026     18.2364     84.0486
  2034.5000     75.5691     16.1794     16.8097     19.1232     83.4543
  2034.7500     75.4050     16.6781     17.2726     20.5335     83.2841
  2035.0000     75.2199     17.2769     17.7966     22.3336     82.5765
  2035.2500     74.9994     17.9672     18.3883     24.2612     81.2253
  2035.5000     74.7329     18.7307     19.0555     26.0143     77.4260
  2035.7500     74.4154     19.5413     19.8060     27.4173     74.0469
  2036.0000     74.0493     20.3660     20.6441     28.5994     69.0218
