~Version Information
VERS.                      2.0: CWLS Log ASCII Standard - VERSION 2.0
WRAP.                       NO: One line per depth step
~Well Information Block
STRT.FT                -8.2500: 
STOP.FT              2356.2500: 
STEP.FT                 0.2500: 
NULL.                -999.2500: 
COMP.          Petrogulf Corporation: COMPANY
WELL.             State 16-12V: WELL
FLD.           Purgatorie River: FIELD
LOC.           1992' FNL & 1237' FWL: LOCATION
PROV.                 Colorado: PROVINCE
CNTY.               Las Animas: COUNTRY
SRVC.                Patterson: SERVICE COMPANY
DATE.          Thu Aug 11 14:44:06 2005: LOG DATE
UWI.                          : UNIQUE WELL ID
~Curve Information Block
DEPT.FT            0 000 00 00: Depth
GR.GAPI                       : Gamma Ray
CCL.                          : Casing Collar Locator
TT3.usec                      : CBL 3' Travel Time
AMP3.mV                       : CBL 3' Amplitude
~Parameter Information Block
~A  Depth        GR         CCL         TT3         AMP3    
# ...
  2169.2500     47.3363      0.0000    441.0755     17.9623
  2169.5000     47.7104      0.0000    458.5433     18.1255
  2169.7500     49.7542      0.0000    441.7775     18.3386
  2170.0000     52.9766      0.0000    408.4173     18.3918
  2170.2500     56.0754      0.0000    384.6655     18.1920
  2170.5000     57.9967      0.0000    375.8629     17.9036
  2170.7500     58.5166      0.0000    376.4080     17.7419
  2171.0000     58.0838      0.0000    386.6834     17.7109
  2171.2500     57.2813      0.0000    413.4892     17.6989
  2171.5000     56.4564      0.0000    453.4763     17.7387
  2171.7500     55.8527      0.0000    484.8900     17.9516
  2172.0000     55.7820      0.0000    499.6730     18.2850
  2172.2500     56.2792      0.0000    523.5653     18.5579
  2172.5000     56.7694      0.0000    574.7477     18.7782
  2172.7500     56.5661      0.0000    637.2306     19.2483
  2173.0000     55.7290      0.0000    681.6934     20.3260
  2173.2500     55.0434      0.0000    679.5159     22.0967
  2173.5000     55.0915      0.0000    616.3326     24.2780
  2173.7500     55.7232      0.0000    516.5521     26.4558
  2174.0000     56.5126      0.0000    428.3925     28.3655
  2174.2500     57.2648      0.0000    376.0728     29.9290
  2174.5000     57.8263      0.0000    352.0829     31.1236
  2174.7500     57.8056      0.0000    344.7547     31.9402
  2175.0000     56.8781      0.0000    348.8290     32.4407
  2175.2500     55.2821      0.0000    360.5322     32.6410
  2175.5000     53.8319      0.0000    380.6294     32.2774
  2175.7500     53.4453      0.0000    422.7084     30.9225
  2176.0000     54.7031      0.0000    503.6020     28.3916
  2176.2500     57.7435      0.0000    613.2847     24.9323
  2176.5000     62.2608      0.0000    709.9598     21.1190
  2176.7500     67.4383      0.0000    763.6898     17.5630
  2177.0000     72.1702      0.0000    786.3105     14.6166
  2177.2500     75.7846      0.0000    803.5961     12.3008
  2177.5000     78.6232      0.0000    819.3737     10.4266
  2177.7500     81.6199      0.0000    821.0323      8.8223
  2178.0000     85.1236      0.0000    803.0051      7.4428
  2178.2500     88.3212      0.0000    771.3469      6.2868
  2178.5000     90.0178      0.0000    741.3779      5.3686
  2178.7500     89.9313      0.0000    733.1082      4.7220
  2179.0000     89.0342      0.0000    750.9943      4.3311
  2179.2500     88.6195      0.0000    774.7761      4.1124
  2179.5000     89.1898      0.0000    782.5603      3.9861
  2179.7500     90.2090      0.0000    774.9813      3.9269
  2180.0000     90.6902      0.0000    767.5079      3.9313
  2180.2500     89.9391      0.0000    766.8223      3.9714
  2180.5000     88.0389      0.0000    767.9901      4.0187
  2180.7500     85.8794      0.0000    769.3918      4.0789
  2181.0000     84.5654      0.0000    777.8242      4.1754
  2181.2500     84.5935      0.0000    803.0571      4.3215
  2181.5000     85.5645      0.0000    848.8757      4.5068
  2181.7500     86.6001      0.0000    901.1848      4.6901
  2182.0000     86.9087      0.0000    930.8168      4.8253
  2182.2500     86.0820      0.0000    914.7776      4.9081
  2182.5000     84.1583      0.0000    859.5308      4.9673
  2182.7500     81.6161      0.0000    801.1568      5.0029
  2183.0000     79.2301      0.0000    767.8808      4.9914
  2183.2500     77.7219      0.0000    756.0351      4.9516
  2183.5000     77.3524      0.0000    750.0935      4.9341
  2183.7500     77.8441      0.0000    742.9063      4.9518
  2184.0000     78.8674      0.0000    732.4306      4.9829
  2184.2500     80.5927      0.0000    719.1613      5.0333
  2184.5000     83.4761      0.0000    717.3544      5.1128
  2184.7500     87.2533      0.0000    757.6903      5.1580
  2185.0000     90.3386      0.0000    855.2176      5.0561
  2185.2500     90.5708      0.0000    968.0572      4.7660
  2185.5000     86.6217      0.0000   1023.7017      4.3986
  2185.7500     78.7506      0.0000   1002.7293      4.1420
  2186.0000     68.5711      0.0000    948.6249      4.0898
  2186.2500     58.3184      0.0000    892.3007      4.1753
  2186.5000     49.9540      0.0000    836.3043      4.2838
  2186.7500     44.4137      0.0000    795.4001      4.3536
  2187.0000     41.4376      0.0000    777.4589      4.3590
  2187.2500     40.0621      0.0000    762.2930      4.2961
  2187.5000     39.3550      0.0000    737.6613      4.2000
  2187.7500     38.9892      0.0000    712.6443      4.1196
  2188.0000     39.3647      0.0000    692.9335      4.0777
  2188.2500     41.2297      0.0000    676.5225      4.0901
  2188.5000     45.1163      0.0000    665.6984      4.1893
  2188.7500     50.9729      0.0000    663.4194      4.4086
  2189.0000     58.1005      0.0000    666.2284      4.7811
  2189.2500     65.2763      0.0000    670.1187      5.3450
  2189.5000     71.0687      0.0000    675.9465      6.1237
  2189.7500     74.4465      0.0000    684.2028      7.1359
  2190.0000     75.3984      0.0000    691.5024      8.4210
  2190.2500     74.9371      0.0000    694.5604      9.9632
  2190.5000     74.3974      0.0000    692.1127     11.6069
  2190.7500     74.7096      0.0000    684.1804     13.2047
  2191.0000     76.0981      0.0000    673.7333     14.7988
  2191.2500     78.1048      0.0000    666.5502     16.4947
  2191.5000     79.9020      0.0000    666.4600     18.1949
  2191.7500     80.9460      0.0000    671.7142     19.5493
  2192.0000     81.5207      0.0000    677.1320     20.2031
  2192.2500     82.5173      0.0000    680.9971     20.1204
  2192.5000     84.5398      0.0000    687.0034     19.5963
  2192.7500     87.2474      0.0000    696.5155     18.9326
  2193.0000     89.5132      0.0000    705.2744     18.1648
  2193.2500     90.1187      0.0000    709.9060     17.0310
  2193.5000     88.5906      0.0000    711.3712     15.1898
  2193.7500     85.8181      0.0000    712.2763     12.7319
  2194.0000     83.6920      0.0000    715.5313     10.3953
  2194.2500     83.5705      0.0000    724.7227      8.8062
  2194.5000     85.0929      0.0000    740.4193      7.9021
  2194.7500     86.8763      0.0000    755.6890      7.4459
  2195.0000     88.2704      0.0000    762.9330      7.3272
  2195.2500     90.0045      0.0000    763.5687      7.4002
  2195.5000     92.9967      0.0000    762.3909      7.5640
  2195.7500     96.8185      2.0000    759.4685      7.8211
  2196.0000     99.7814      0.0000    752.3673      8.1971
  2196.2500    100.7944      0.0000    741.5336      8.8122
  2196.5000    100.8630      0.0000    732.5827      9.9215
  2196.7500    102.1702      0.0000    729.8476     11.5817
  2197.0000    105.6414      0.0000    730.1451     13.3933
  2197.2500    109.9681      0.0000    729.6953     14.8403
  2197.5000    113.0731      0.0000    739.1791     15.6284
  2197.7500    113.7863      0.0000    783.3662     15.6869
  2198.0000    111.8308      0.0000    868.4425     15.2028
  2198.2500    107.0590      0.0000    956.0583     14.4226
  2198.5000     99.5077      0.0000    992.1940     13.3573
  2198.7500     89.9820      0.0000    955.2769     11.9544
  2199.0000     80.0954      0.0000    872.3500     10.3796
  2199.2500     71.7581      0.0000    797.9235      8.9290
  2199.5000     66.5693      0.0000    766.3615      7.7728
  2199.7500     65.1342      0.0000    774.1434      6.8956
  2200.0000     66.6812      0.0000    809.9830      6.2159
  2200.2500     69.6267      0.0000    866.7377      5.6960
  2200.5000     72.6853      0.0000    924.3992      5.3682
  2200.7500     75.3386      0.0000    960.0382      5.2213
  2201.0000     77.4825      0.0000    969.1646      5.1222
  2201.2500     79.0903      0.0000    962.8499      4.9777
  2201.5000     80.4031      0.0000    952.2502      4.8422
  2201.7500     82.1287      0.0000    926.3290      4.7621
  2202.0000     84.8885      0.0000    869.1938      4.6791
  2202.2500     88.2985      0.0000    797.5947      4.5399
  2202.5000     91.0103      0.0000    741.8000      4.3586
