~Version Information
VERS.                      2.0: CWLS Log ASCII Standard - VERSION 2.0
WRAP.                       NO: One line per depth step
~Well Information Block
STRT.FT               548.0000: 
STOP.FT              1916.0000: 
STEP.FT                 0.2500: 
NULL.                -999.2500: 
COMP.          Pioneer Natural Resources: COMPANY
WELL.          Blackjack 32-11 Tr: WELL
FLD.           Purgatorie River: FIELD
LOC.           2066' FNL & 1453' FEL: LOCATION
PROV.                 Colorado: PROVINCE
CNTY.               Las Animas: COUNTRY
SRVC.                Patterson: SERVICE COMPANY
DATE.          Tue Aug 16 12:08:23 2005: LOG DATE
UWI.                          : UNIQUE WELL ID
~Curve Information Block
DEPT.FT            0 000 00 00: Depth
SN.Ohm-m                      : IEL Short Normal
SP.mV                         : IEL Spontaneous Potential
DIR.Ohm-m                     : IEL Induction Resistivity
GR.GAPI                       : Gamma Ray
~Parameter Information Block
~A  Depth        SN          SP         DIR          GR     
# ...
   983.5000   2000.0000   2000.0000     20.3215    134.1347
   983.7500   2000.0000   2000.0000     19.6926    128.0095
   984.0000   2000.0000   2000.0000     20.7396    130.7597
   984.2500   2000.0000   2000.0000     19.4466    122.8283
   984.5000   2000.0000   2000.0000     20.9038    107.9126
   984.7500   2000.0000   2000.0000     19.2969    106.2608
   985.0000   2000.0000   2000.0000     19.6340    112.4392
   985.2500   2000.0000   2000.0000     18.8441    121.8423
   985.5000   2000.0000   2000.0000     18.4859    141.1434
   985.7500   2000.0000   2000.0000     17.6450    146.6856
   986.0000   2000.0000   2000.0000     16.6561    153.9537
   986.2500   2000.0000   2000.0000     16.9389    153.7674
   986.5000   2000.0000   2000.0000     16.7046    152.5101
   986.7500   2000.0000   2000.0000     15.3639    155.1641
   987.0000   2000.0000   2000.0000     15.4346    144.4111
   987.2500   2000.0000   2000.0000     14.9624    146.0376
   987.5000   2000.0000   2000.0000     14.7234    153.0965
   987.7500   2000.0000   2000.0000     14.1380    143.5591
   988.0000   2000.0000   2000.0000     13.6145    148.3750
   988.2500   2000.0000   2000.0000     13.1809    150.4848
   988.5000   2000.0000   2000.0000     13.5667    154.8266
   988.7500   2000.0000   2000.0000     13.4951    153.4960
   989.0000   2000.0000   2000.0000     13.9924    150.6293
   989.2500   2000.0000   2000.0000     14.0558    157.0601
   989.5000   2000.0000   2000.0000     13.3816    149.4226
   989.7500   2000.0000   2000.0000     13.7215    151.0616
   990.0000   2000.0000   2000.0000     13.6136    144.1287
   990.2500   2000.0000   2000.0000     13.2666    133.0834
   990.5000   2000.0000   2000.0000     13.3641    123.1115
   990.7500   2000.0000   2000.0000     13.1929    119.6283
   991.0000   2000.0000   2000.0000     13.0386    123.7850
   991.2500   2000.0000   2000.0000     13.2484    139.4953
   991.5000   2000.0000   2000.0000     13.0872    154.3251
   991.7500   2000.0000   2000.0000     13.7170    152.9486
   992.0000   2000.0000   2000.0000     14.0537    149.7412
   992.2500   2000.0000   2000.0000     13.2189    158.7786
   992.5000   2000.0000   2000.0000     13.0018    154.2932
   992.7500   2000.0000   2000.0000     13.7837    153.9631
   993.0000   2000.0000   2000.0000     13.4872    150.7971
   993.2500   2000.0000   2000.0000     13.2861    148.1724
   993.5000   2000.0000   2000.0000     13.7182    127.0766
   993.7500   2000.0000   2000.0000     13.6282    121.9911
   994.0000   2000.0000   2000.0000     12.9331    122.3796
   994.2500   2000.0000   2000.0000     14.7676    124.9441
   994.5000   2000.0000   2000.0000     15.6951    138.2601
   994.7500   2000.0000   2000.0000     17.0287    132.9955
   995.0000   2000.0000   2000.0000     16.9514    126.4664
   995.2500   2000.0000   2000.0000     17.0917    119.2330
   995.5000   2000.0000   2000.0000     17.3057    115.7081
   995.7500   2000.0000   2000.0000     17.2475    112.3899
   996.0000   2000.0000   2000.0000     16.5215    112.4163
   996.2500   2000.0000   2000.0000     16.5659    112.2618
   996.5000   2000.0000   2000.0000     17.2644    116.8022
   996.7500   2000.0000   2000.0000     17.0281    120.4040
   997.0000   2000.0000   2000.0000     16.6165    123.4877
   997.2500   2000.0000   2000.0000     16.2464    135.1412
   997.5000   2000.0000   2000.0000     17.0592    143.3486
   997.7500   2000.0000   2000.0000     17.1588    153.1616
   998.0000   2000.0000   2000.0000     17.1558    157.4578
   998.2500   2000.0000   2000.0000     15.3362    158.1258
   998.5000   2000.0000   2000.0000     16.2292    164.7314
   998.7500   2000.0000   2000.0000     16.4242    163.7507
   999.0000   2000.0000   2000.0000     17.2817    161.1914
   999.2500   2000.0000   2000.0000     16.9715    164.4617
   999.5000   2000.0000   2000.0000     17.8132    158.4423
   999.7500   2000.0000   2000.0000     17.9224    159.6152
  1000.0000   2000.0000   2000.0000     17.1186    157.8919
  1000.2500   2000.0000   2000.0000     15.6048    149.1824
  1000.5000   2000.0000   2000.0000     17.6896    130.3611
  1000.7500   2000.0000   2000.0000     19.3885    120.9425
  1001.0000   2000.0000   2000.0000     18.8268    118.3892
  1001.2500   2000.0000   2000.0000     19.9892    120.1173
  1001.5000   2000.0000   2000.0000     22.5355    131.5551
  1001.7500   2000.0000   2000.0000     22.4537    132.9684
  1002.0000   2000.0000   2000.0000     26.0079    139.8168
  1002.2500   2000.0000   2000.0000     25.8139    139.7071
  1002.5000   2000.0000   2000.0000     25.4174    140.2565
  1002.7500   2000.0000   2000.0000     24.2029    137.7568
  1003.0000   2000.0000   2000.0000     24.5932    134.0992
  1003.2500   2000.0000   2000.0000     23.2550    118.9811
  1003.5000   2000.0000   2000.0000     20.9568    111.1859
  1003.7500   2000.0000   2000.0000     22.8200    112.5728
  1004.0000   2000.0000   2000.0000     21.9480    117.0537
  1004.2500   2000.0000   2000.0000     21.8821    126.1359
  1004.5000   2000.0000   2000.0000     21.9038    144.1967
  1004.7500   2000.0000   2000.0000     21.3144    152.2432
  1005.0000   2000.0000   2000.0000     20.0915    150.8874
  1005.2500   2000.0000   2000.0000     20.0112    153.9256
  1005.5000   2000.0000   2000.0000     18.8038    144.4588
  1005.7500   2000.0000   2000.0000     18.3128    141.3410
  1006.0000   2000.0000   2000.0000     17.1260    145.5621
  1006.2500   2000.0000   2000.0000     16.4298    145.8949
  1006.5000   2000.0000   2000.0000     17.1109    149.0079
  1006.7500   2000.0000   2000.0000     17.6768    147.1458
  1007.0000   2000.0000   2000.0000     17.7608    155.9620
  1007.2500   2000.0000   2000.0000     17.8526    153.8694
  1007.5000   2000.0000   2000.0000     17.9809    155.8811
  1007.7500   2000.0000   2000.0000     15.9566    156.6729
  1008.0000   2000.0000   2000.0000     15.4413    154.6478
  1008.2500   2000.0000   2000.0000     13.8437    150.4881
  1008.5000   2000.0000   2000.0000     14.4316    132.3334
  1008.7500   2000.0000   2000.0000     16.3507    132.8154
  1009.0000   2000.0000   2000.0000     16.2071    143.5071
  1009.2500   2000.0000   2000.0000     15.8523    145.2300
  1009.5000   2000.0000   2000.0000     14.9075    163.6879
  1009.7500   2000.0000   2000.0000     16.0239    164.8269
  1010.0000   2000.0000   2000.0000     17.1954    165.6471
  1010.2500   2000.0000   2000.0000     16.1728    162.7359
  1010.5000   2000.0000   2000.0000     16.9079    159.6361
  1010.7500   2000.0000   2000.0000     17.3695    162.2398
  1011.0000   2000.0000   2000.0000     17.4190    152.6845
  1011.2500   2000.0000   2000.0000     17.1450    151.6465
  1011.5000   2000.0000   2000.0000     16.4564    162.9097
  1011.7500   2000.0000   2000.0000     17.7679    158.9625
  1012.0000   2000.0000   2000.0000     19.2215    150.8197
  1012.2500   2000.0000   2000.0000     18.4913    150.8331
  1012.5000   2000.0000   2000.0000     21.0242    137.8624
  1012.7500   2000.0000   2000.0000     21.0500    137.7771
  1013.0000   2000.0000   2000.0000     20.0829    127.6269
  1013.2500   2000.0000   2000.0000     18.1352    128.5569
  1013.5000   2000.0000   2000.0000     19.5251    122.0167
  1013.7500   2000.0000   2000.0000     19.6974    117.2027
  1014.0000   2000.0000   2000.0000     20.0889    123.2578
  1014.2500   2000.0000   2000.0000     20.7598    121.7749
  1014.5000   2000.0000   2000.0000     20.3794    122.9017
  1014.7500   2000.0000   2000.0000     20.1202    135.4814
  1015.0000   2000.0000   2000.0000     20.0108    149.8946
  1015.2500   2000.0000   2000.0000     19.3659    146.7631
  1015.5000   2000.0000   2000.0000     19.3718    147.3761
  1015.7500   2000.0000   2000.0000     18.8377    157.3490
  1016.0000   2000.0000   2000.0000     18.4911    154.3892
  1016.2500   2000.0000   2000.0000     18.0425    143.9708
  1016.5000   2000.0000   2000.0000     18.1417    151.4756
  1016.7500   2000.0000   2000.0000     18.1601    150.5043
