~Version Information
VERS.                      2.0: CWLS Log ASCII Standard - VERSION 2.0
WRAP.                       NO: One line per depth step
~Well Information Block
STRT.FT               580.0000: 
STOP.FT              2729.7500: 
STEP.FT                 0.2500: 
NULL.                -999.2500: 
COMP.          Pioneer Natural Resources: COMPANY
WELL.          Sand Pebbles 13-33: WELL
FLD.           Purgatoire River: FIELD
LOC.           1883' FSL & 63' FWL----: LOCATION
PROV.                 Colorado: PROVINCE
CNTY.               Las Animas: COUNTRY
SRVC.                Patterson: SERVICE COMPANY
DATE.          Fri Mar 11 13:47:45 2005: LOG DATE
UWI.           05 071 08224 00: UNIQUE WELL ID
~Curve Information Block
DEPT.FT            0 000 00 00: Depth
SN.Ohm-m                      : IEL Short Normal
SP.mV                         : IEL Spontaneous Potential
DIR.Ohm-m                     : IEL Induction Resistivity
GR.GAPI                       : Gamma Ray
~Parameter Information Block
~A  Depth        SN          SP         DIR          GR     
# ...
  1283.5000     24.7102   -181.0821     23.7592     91.5712
  1283.7500     23.8602   -180.1336     22.8256     95.4606
  1284.0000     23.0605   -178.7981     21.8076    103.4676
  1284.2500     22.0879   -177.2634     20.7381    109.0311
  1284.5000     20.8379   -175.7143     19.6209    115.0939
  1284.7500     19.3988   -174.2907     18.4648    116.7525
  1285.0000     17.9813   -173.0597     17.3081    116.6617
  1285.2500     16.7835   -172.0143     16.2162    116.5857
  1285.5000     15.8979   -171.1025     15.2596    119.1615
  1285.7500     15.3050   -170.2739     14.4894    123.1620
  1286.0000     14.9208   -169.5229     13.9245    131.3626
  1286.2500     14.6486   -168.9016     13.5525    136.9898
  1286.5000     14.4115   -168.4936     13.3387    143.7023
  1286.7500     14.1643   -168.3674     13.2394    146.3843
  1287.0000     13.8941   -168.5354     13.2153    147.3980
  1287.2500     13.6167   -168.9441     13.2416    146.1327
  1287.5000     13.3706   -169.4962     13.3111    141.6240
  1287.7500     13.2081   -170.0857     13.4292    137.2392
  1288.0000     13.1775   -170.6277     13.6065    129.9732
  1288.2500     13.3041   -171.0717     13.8501    125.9494
  1288.5000     13.5754   -171.3996     14.1581    123.0853
  1288.7500     13.9409   -171.6165     14.5162    123.3609
  1289.0000     14.3252   -171.7409     14.8965    125.0082
  1289.2500     14.6490   -171.7948     15.2603    125.4109
  1289.5000     14.8551   -171.7969     15.5650    123.8420
  1289.7500     14.9267   -171.7575     15.7754    121.8305
  1290.0000     14.8904   -171.6772     15.8762    119.3280
  1290.2500     14.7982   -171.5507     15.8783    119.1658
  1290.5000     14.7000   -171.3715     15.8116    122.0261
  1290.7500     14.6257   -171.1398     15.7086    125.3925
  1291.0000     14.5840   -170.8674     15.5914    130.1224
  1291.2500     14.5710   -170.5799     15.4682    131.5534
  1291.5000     14.5755   -170.3153     15.3386    129.8589
  1291.7500     14.5806   -170.1172     15.1981    126.4651
  1292.0000     14.5675   -170.0275     15.0427    119.8487
  1292.2500     14.5240   -170.0769     14.8731    115.7419
  1292.5000     14.4503   -170.2798     14.6994    111.4609
  1292.7500     14.3572   -170.6306     14.5391    109.8670
  1293.0000     14.2563   -171.1053     14.4081    108.4321
  1293.2500     14.1526   -171.6662     14.3118    107.6266
  1293.5000     14.0460   -172.2695     14.2414    106.6864
  1293.7500     13.9345   -172.8729     14.1791    106.6658
  1294.0000     13.8152   -173.4417     14.1056    108.1823
  1294.2500     13.6806   -173.9518     14.0027    110.2030
  1294.5000     13.5186   -174.3891     13.8523    114.0174
  1294.7500     13.3180   -174.7483     13.6374    116.5851
  1295.0000     13.0784   -175.0300     13.3493    120.3128
  1295.2500     12.8139   -175.2379     12.9958    123.0310
  1295.5000     12.5481   -175.3756     12.6017    127.4699
  1295.7500     12.3020   -175.4448     12.2009    129.8758
  1296.0000     12.0832   -175.4466     11.8259    130.9608
  1296.2500     11.8821   -175.3855     11.5016    129.9521
  1296.5000     11.6757   -175.2754     11.2451    127.8794
  1296.7500     11.4387   -175.1419     11.0686    127.5630
  1297.0000     11.1600   -175.0204     10.9816    129.4404
  1297.2500     10.8611   -174.9497     10.9926    131.5587
  1297.5000     10.6102   -174.9633     11.1087    134.2644
  1297.7500     10.5152   -175.0823     11.3347    135.0182
  1298.0000     10.6866   -175.3102     11.6709    133.9439
  1298.2500     11.1790   -175.6298     12.1118    131.7382
  1298.5000     11.9451   -176.0042     12.6459    126.9895
  1298.7500     12.8434   -176.3813     13.2547    123.6854
  1299.0000     13.7087   -176.7054     13.9140    119.6477
  1299.2500     14.4369   -176.9313     14.5959    117.7710
  1299.5000     15.0151   -177.0364     15.2731    116.2859
  1299.7500     15.4828   -177.0270     15.9214    116.3719
  1300.0000     15.8777   -176.9333     16.5185    118.1942
  1300.2500     16.2096   -176.7978     17.0383    120.1282
  1300.5000     16.4645   -176.6599     17.4492    122.9460
  1300.7500     16.6158   -176.5437     17.7194    124.1658
  1301.0000     16.6350   -176.4531     17.8302    124.1863
  1301.2500     16.5044   -176.3744     17.7862    122.5963
  1301.5000     16.2331   -176.2850     17.6172    117.6343
  1301.7500     15.8677   -176.1630     17.3709    113.1032
  1302.0000     15.4879   -175.9945     17.1008    106.3612
  1302.2500     15.1794   -175.7766     16.8538    103.2641
  1302.5000     14.9966   -175.5170     16.6596    102.4511
  1302.7500     14.9342   -175.2312     16.5224    104.5764
  1303.0000     14.9263   -174.9388     16.4200    110.0409
  1303.2500     14.8724   -174.6570     16.3102    113.5363
  1303.5000     14.6842   -174.3954     16.1465    116.3139
  1303.7500     14.3316   -174.1525     15.8987    116.3434
  1304.0000     13.8593   -173.9171     15.5660    115.2442
  1304.2500     13.3619   -173.6759     15.1775    115.0256
  1304.5000     12.9329   -173.4209     14.7784    116.7989
  1304.7500     12.6206   -173.1557     14.4103    119.3981
  1305.0000     12.4176   -172.8961     14.0957    124.6777
  1305.2500     12.2841   -172.6644     13.8306    128.6528
  1305.5000     12.1829   -172.4824     13.5888    134.6078
  1305.7500     12.0973   -172.3646     13.3374    137.9564
  1306.0000     12.0246   -172.3150     13.0551    140.6181
  1306.2500     11.9616   -172.3276     12.7448    140.2875
  1306.5000     11.8978   -172.3893     12.4293    137.1039
  1306.7500     11.8201   -172.4842     12.1385    134.1522
  1307.0000     11.7239   -172.5969     11.8963    130.4138
  1307.2500     11.6175   -172.7164     11.7141    129.1276
  1307.5000     11.5192   -172.8390     11.5916    128.9625
  1307.7500     11.4461   -172.9723     11.5203    129.3156
  1308.0000     11.4057   -173.1372     11.4872    129.2512
  1308.2500     11.3945   -173.3647     11.4787    128.6825
  1308.5000     11.4037   -173.6853     11.4840    128.0822
  1308.7500     11.4261   -174.1110     11.4981    128.5669
  1309.0000     11.4589   -174.6155     11.5216    130.7433
  1309.2500     11.5021   -175.1242     11.5593    132.5853
  1309.5000     11.5556   -175.5239     11.6170    134.9538
  1309.7500     11.6154   -175.6976     11.6975    136.1223
  1310.0000     11.6760   -175.5745     11.7989    137.5803
  1310.2500     11.7341   -175.1727     11.9131    138.5555
  1310.5000     11.7906   -174.6091     12.0278    139.9299
  1310.7500     11.8481   -174.0648     12.1300    140.4984
  1311.0000     11.9066   -173.7184     12.2097    140.2555
  1311.2500     11.9626   -173.6804     12.2631    139.0677
  1311.5000     12.0142   -173.9619     12.2932    135.4998
  1311.7500     12.0661   -174.4896     12.3086    132.2844
  1312.0000     12.1293   -175.1508     12.3222    128.0043
  1312.2500     12.2140   -175.8420     12.3487    126.6598
  1312.5000     12.3220   -176.4976     12.4038    127.2371
  1312.7500     12.4435   -177.0957     12.5042    128.4048
  1313.0000     12.5591   -177.6480     12.6681    129.4146
  1313.2500     12.6455   -178.1836     12.9136    129.1439
  1313.5000     12.6858   -178.7332     13.2548    127.4215
  1313.7500     12.6836   -179.3154     13.6987    125.4091
  1314.0000     12.6720   -179.9274     14.2433    120.9851
  1314.2500     12.7124   -180.5451     14.8789    117.3377
  1314.5000     12.8799   -181.1303     15.5895    111.9358
  1314.7500     13.2375   -181.6451     16.3533    109.1508
  1315.0000     13.8078   -182.0633     17.1425    107.1430
  1315.2500     14.5537   -182.3752     17.9224    107.5172
  1315.5000     15.3865   -182.5833     18.6502    110.6691
  1315.7500     16.2011   -182.6957     19.2714    114.1674
  1316.0000     16.9115   -182.7221     19.7179    120.2143
  1316.2500     17.4606   -182.6741     19.9178    123.7656
  1316.5000     17.8077   -182.5697     19.8206    126.9733
  1316.7500     17.9258   -182.4333     19.4261    127.5384
