~Version Information
 VERS.                                  2.0 : CWLS LAS VERSION
 WRAP.                                   NO : WRAPING MODE
 SWARE .                 MController 2.5.0J : SOFTWARE VERSION
~Well Information
 WELL.                   Claim Jumper 41-22 : WELL
 COMP.    Pioneer Natural Resources USA Inc : COMPANY
 FLD.                      Purgatoire River : FIELD
 LOC.                NE/NE Sec 22 T33S R65W : LOCATION
 DATE.                              6/22/05 : DATE(S) LOGGED
 SRVC.       Blanco Geological Services LLC : SERVICE COMPANY
 STAT.                                   CO : STATE
 CNTY.                           Las Animas : COUNTY
 CTRY.                                  USA : COUNTRY
 API.                       05-071-08405-00 : API NUMBER
 STRT.FT                             686.00 : START DEPTH
 STOP.FT                             925.00 : STOP DEPTH
 STEP.FT                               1.00 : DEPTH INCREMENT
 NULL.                                -9999 : NULL VALUE
~Curve information
 DEPTH.FT                                   :
 ROP.MIN/FT                                 :
 GAS.UNITS                                  :
~ASCII Log data
       686.0     -9999.00         15.1 
       687.0         0.17         15.8 
       688.0         0.35         15.9 
       689.0         0.30         16.4 
       690.0         0.23         16.3 
       691.0         0.37         16.5 
       692.0         0.33         16.5 
       693.0         0.37         16.5 
       694.0         0.20         15.8 
       695.0         0.27         15.8 
       696.0         0.27         15.7 
       697.0         0.30         19.1 
       698.0         0.30         50.0 
       699.0         0.28         98.4 
       700.0         0.20        133.6 
       701.0         0.10        147.9 
       702.0         0.23        164.0 
       703.0         0.10        164.3 
       704.0         0.17        162.9 
       705.0         0.30        156.0 
       706.0         0.33        139.6 
       707.0         0.27        121.8 
       708.0         0.27         81.2 
       709.0         0.13         42.3 
       710.0         0.13         32.3 
       711.0         0.27         25.4 
       712.0         0.27         19.2 
       713.0         0.17         16.1 
       714.0         0.32         15.2 
       715.0         0.30         14.6 
       716.0         1.70         15.2 
       717.0         0.40         15.3 
       718.0         0.57         15.7 
       719.0         0.38         15.4 
       720.0         0.27         15.6 
       721.0         0.37         15.6 
       722.0         0.20         15.8 
       723.0         0.47         15.8 
       724.0         0.43         16.1 
       725.0         0.47         15.6 
       726.0         0.40         16.5 
       727.0         0.40         16.3 
       728.0         0.45         55.1 
       729.0         0.37        129.3 
       730.0         0.37        134.7 
       731.0         0.37        134.2 
       732.0         0.37        132.2 
       733.0         0.33        130.6 
       734.0         0.37        129.1 
       735.0         0.33        127.0 
       736.0         0.37        125.0 
       737.0         0.38        123.3 
       738.0         0.37        121.5 
       739.0         0.33        119.8 
       740.0         0.37        118.4 
       741.0         0.37        116.9 
       742.0         0.40        117.9 
       743.0         0.37        118.1 
       744.0         0.33        112.2 
       745.0         0.33         94.1 
       746.0         0.95        416.5 
       747.0         0.40       1451.9 
       748.0         0.40       1284.1 
       749.0         0.47        974.5 
       750.0         0.37        807.7 
       751.0         0.33        740.0 
       752.0         0.40        709.0 
       753.0         0.42        679.7 
       754.0         0.33        644.0 
       755.0         0.40        821.9 
       756.0         0.23        902.4 
       757.0         0.20        933.1 
       758.0         0.13        941.8 
       759.0         0.13        942.8 
       760.0         0.20        940.8 
       761.0         0.23        937.1 
       762.0         0.23        927.7 
       763.0         0.23        919.6 
       764.0         0.20        912.2 
       765.0         0.23        900.1 
       766.0         0.20        886.6 
       767.0         0.23        909.5 
       768.0         0.22        912.5 
       769.0         0.17        893.0 
       770.0         0.13        849.5 
       771.0         0.17        822.6 
       772.0         0.17        850.5 
       773.0         0.13        908.8 
       774.0         0.13        976.9 
       775.0         0.23       1320.9 
       776.0         0.63       2180.7 
       777.0         0.20       1967.7 
       778.0         0.20       1668.2 
       779.0         0.40       1414.2 
       780.0         0.30       1122.8 
       781.0         0.27       1013.3 
       782.0         0.35        957.7 
       783.0         0.23        913.2 
       784.0         0.23        896.4 
       785.0         0.27        883.6 
       786.0         0.37        876.8 
       787.0         0.43        872.4 
       788.0         0.37        866.4 
       789.0         0.27        863.0 
       790.0         0.27        857.3 
       791.0         0.23        853.9 
       792.0         0.23        852.9 
       793.0         0.25        851.2 
       794.0         0.27        850.5 
       795.0         0.23        850.9 
       796.0         0.23        853.2 
       797.0         0.23        851.5 
       798.0         0.20        849.9 
       799.0         0.20        835.4 
       800.0         0.20        795.6 
       801.0         0.20        770.7 
       802.0         0.20        754.2 
       803.0         0.23        796.3 
       804.0         0.23        883.2 
       805.0         0.17        941.8 
       806.0         0.85       1500.8 
       807.0         0.37       1344.1 
       808.0         0.37       1151.7 
       809.0         0.33       1013.3 
       810.0         0.33        937.8 
       811.0         0.30        898.0 
       812.0         0.30        874.5 
       813.0         0.23        861.7 
       814.0         0.27        853.2 
       815.0         0.23        845.5 
       816.0         0.33        842.1 
       817.0         0.35        837.1 
       818.0         0.33        854.2 
       819.0         0.20        863.7 
       820.0         0.20        874.5 
       821.0         0.20        887.6 
       822.0         0.20        897.0 
       823.0         0.20        901.7 
       824.0         0.27        911.2 
       825.0         0.23        917.6 
       826.0         0.27        924.0 
       827.0         0.30        933.1 
       828.0         0.27        934.8 
       829.0         0.27        944.2 
       830.0         0.28        946.9 
       831.0         0.30        952.3 
       832.0         0.23        952.6 
       833.0         0.27        914.5 
       834.0         0.33        874.8 
       835.0         0.30        919.6 
       836.0         1.85       1927.6 
       837.0         0.53       1273.0 
       838.0         0.40       1143.3 
       839.0         0.40       1125.1 
       840.0         0.37       1064.5 
       841.0         0.30       1029.4 
       842.0         0.30        999.1 
       843.0         0.30        971.1 
       844.0         0.30        932.4 
       845.0         0.32        898.4 
       846.0         0.27        866.4 
       847.0         0.23        847.5 
       848.0         0.27        830.0 
       849.0         0.27        808.1 
       850.0         0.27        766.3 
       851.0         0.20        731.9 
       852.0         0.17        714.8 
       853.0         0.20        706.7 
       854.0         0.20        696.2 
       855.0         0.30        687.8 
       856.0         0.27        681.7 
       857.0         0.20        683.4 
       858.0         0.20        696.9 
       859.0         0.20        718.5 
       860.0         0.22        723.5 
       861.0         0.20        726.5 
       862.0         0.20        729.6 
       863.0         0.23        753.5 
       864.0         0.23        799.0 
       865.0         0.23        832.0 
       866.0         1.00       1325.9 
       867.0         0.27       1197.6 
       868.0         0.23       1075.9 
       869.0         0.33       1019.3 
       870.0         0.32        974.5 
       871.0         0.37        951.6 
       872.0         0.33        938.5 
       873.0         0.30        927.7 
       874.0         0.33        922.6 
       875.0         0.27        917.6 
       876.0         0.27        915.6 
       877.0         0.37        914.9 
       878.0         0.30        913.9 
       879.0         0.27        913.2 
       880.0         0.32        914.5 
       881.0         0.30        912.9 
       882.0         0.37        909.2 
       883.0         0.37        892.6 
       884.0         0.30        866.0 
       885.0         0.17        843.1 
