~Version Information
VERS.                      2.0: CWLS Log ASCII Standard - VERSION 2.0
WRAP.                       NO: One line per depth step
~Well Information Block
STRT.FT               250.0000: 
STOP.FT              1573.7500: 
STEP.FT                 0.2500: 
NULL.                -999.2500: 
COMP.          Pioneer Natural Resources: COMPANY
WELL.          Big Cat Federal 44-1: WELL
FLD.           Purgatoire River: FIELD
LOC.           197' FSL & 973' FEL--: LOCATION
CNTY.               Las Animas: COUNTY
SRVC.                Patterson: SERVICE COMPANY
DATE.          Sun Apr 23 14:54:11 2006: LOG DATE
UWI.           05 071 08042 00: UNIQUE WELL ID
STAT.                 Colorado: STATE
~Curve Information Block
DEPT.FT            0 000 00 00: Depth
DIR.Ohm-m                     : IEL Induction Resistivity
GR.GAPI                       : Gamma Ray
~Parameter Information Block
~A  Depth       DIR          GR     
# ...
  1086.2500     26.6877     59.6993
  1086.5000     27.1044     54.2969
  1086.7500     27.5816     51.3682
  1087.0000     28.0946     48.6820
  1087.2500     28.5881     48.0733
  1087.5000     29.0010     48.5403
  1087.7500     29.2893     49.3256
  1088.0000     29.4413     50.1967
  1088.2500     29.4810     50.0930
  1088.5000     29.4568     48.9832
  1088.7500     29.4210     48.2232
  1089.0000     29.4139     48.1901
  1089.2500     29.4584     49.0271
  1089.5000     29.5616     50.6973
  1089.7500     29.7166     51.3967
  1090.0000     29.9043     51.2682
  1090.2500     30.0987     50.5927
  1090.5000     30.2799     49.5485
  1090.7500     30.4433     49.2984
  1091.0000     30.5938     49.8995
  1091.2500     30.7263     50.8076
  1091.5000     30.8123     52.3514
  1091.7500     30.8072     53.1337
  1092.0000     30.6759     53.5710
  1092.2500     30.4181     53.4749
  1092.5000     30.0730     53.5253
  1092.7500     29.7067     54.2758
  1093.0000     29.3901     57.1484
  1093.2500     29.1781     60.2376
  1093.5000     29.0945     65.9550
  1093.7500     29.1326     69.7780
  1094.0000     29.2677     74.0803
  1094.2500     29.4728     75.2447
  1094.5000     29.7239     73.8262
  1094.7500     29.9970     71.0179
  1095.0000     30.2725     65.3912
  1095.2500     30.5472     61.7099
  1095.5000     30.8421     57.5441
  1095.7500     31.1947     55.8534
  1096.0000     31.6414     54.4556
  1096.2500     32.1987     53.8290
  1096.5000     32.8493     52.7889
  1096.7500     33.5418     51.9498
  1097.0000     34.2157     50.7312
  1097.2500     34.8391     50.1730
  1097.5000     35.4266     49.7543
  1097.7500     36.0146     49.4578
  1098.0000     36.6194     48.3652
  1098.2500     37.2118     47.1320
  1098.5000     37.7248     45.0793
  1098.7500     38.0795     44.0809
  1099.0000     38.2148     43.6721
  1099.2500     38.1108     44.0048
  1099.5000     37.7919     44.6663
  1099.7500     37.3026     44.8557
  1100.0000     36.6729     44.7453
  1100.2500     35.9003     44.6399
  1100.5000     34.9565     44.7911
  1100.7500     33.8002     45.1627
  1101.0000     32.3807     46.0811
  1101.2500     30.6475     46.9271
  1101.5000     28.5859     48.7437
  1101.7500     26.2610     50.6014
  1102.0000     23.8181     55.1424
  1102.2500     21.4258     59.8729
  1102.5000     19.2116     69.9594
  1102.7500     17.2383     78.1997
  1103.0000     15.5177     90.5997
  1103.2500     14.0361     97.3545
  1103.5000     12.7719    103.7829
  1103.7500     11.7029    105.8656
  1104.0000     10.8081    107.3555
  1104.2500     10.0666    108.1839
  1104.5000      9.4579    109.7694
  1104.7500      8.9622    110.8886
  1105.0000      8.5626    112.1978
  1105.2500      8.2458    112.7634
  1105.5000      8.0006    113.4914
  1105.7500      7.8161    114.1603
  1106.0000      7.6805    115.4479
  1106.2500      7.5831    116.1719
  1106.5000      7.5164    116.3904
  1106.7500      7.4778    115.7871
  1107.0000      7.4687    113.9435
  1107.2500      7.4921    112.4158
  1107.5000      7.5493    110.3947
  1107.7500      7.6387    109.4657
  1108.0000      7.7564    108.3526
  1108.2500      7.8969    107.2931
  1108.5000      8.0547    104.6975
  1108.7500      8.2245    102.5062
  1109.0000      8.3996     99.5459
  1109.2500      8.5704     98.3628
  1109.5000      8.7230     98.1118
  1109.7500      8.8402     98.7331
  1110.0000      8.9041    100.1627
  1110.2500      8.9011    101.2318
  1110.5000      8.8271    103.3887
  1110.7500      8.6897    105.6994
  1111.0000      8.5075    111.0031
  1111.2500      8.3038    115.4698
  1111.5000      8.0995    121.9399
  1111.7500      7.9084    124.8989
  1112.0000      7.7364    126.0124
  1112.2500      7.5840    124.6809
  1112.5000      7.4493    121.0600
  1112.7500      7.3315    118.5665
  1113.0000      7.2311    115.9036
  1113.2500      7.1503    115.1968
  1113.5000      7.0918    115.7772
  1113.7500      7.0576    116.9093
  1114.0000      7.0475    118.8019
  1114.2500      7.0596    119.8249
  1114.5000      7.0906    120.9354
  1114.7500      7.1368    121.4394
  1115.0000      7.1954    121.6200
  1115.2500      7.2646    121.1937
  1115.5000      7.3432    119.9412
  1115.7500      7.4305    119.0940
  1116.0000      7.5270    118.2596
  1116.2500      7.6356    117.8225
  1116.5000      7.7625    116.6295
  1116.7500      7.9160    115.3043
  1117.0000      8.1048    113.0681
  1117.2500      8.3362    111.8697
  1117.5000      8.6152    110.6621
  1117.7500      8.9428    109.9578
  1118.0000      9.3141    108.6063
  1118.2500      9.7147    107.5576
  1118.5000     10.1188    106.2120
  1118.7500     10.4922    105.6241
  1119.0000     10.7988    104.8602
  1119.2500     11.0118    104.0299
  1119.5000     11.1213    102.1359
  1119.7500     11.1353    100.8432
  1120.0000     11.0722     99.7658
  1120.2500     10.9505     99.7928
  1120.5000     10.7826    100.5387
  1120.7500     10.5757    101.2637
  1121.0000     10.3377    102.9391
  1121.2500     10.0821    104.7735
  1121.5000      9.8300    108.4019
  1121.7500      9.6082    110.6315
  1122.0000      9.4435    112.1576
  1122.2500      9.3575    111.6001
  1122.5000      9.3617    108.9174
  1122.7500      9.4555    106.5028
  1123.0000      9.6262    102.7641
  1123.2500      9.8509    100.3286
  1123.5000     10.1009     96.4996
  1123.7500     10.3465     93.7644
  1124.0000     10.5647     90.0324
  1124.2500     10.7445     88.4648
  1124.5000     10.8865     88.2696
  1124.7500     10.9970     89.5349
  1125.0000     11.0786     92.9280
  1125.2500     11.1248     95.9006
  1125.5000     11.1209    101.3179
  1125.7500     11.0526    105.4632
  1126.0000     10.9156    111.5105
  1126.2500     10.7198    114.4518
  1126.5000     10.4862    115.9848
  1126.7500     10.2401    115.1963
  1127.0000     10.0040    112.8493
  1127.2500      9.7939    111.6331
  1127.5000      9.6189    111.4375
  1127.7500      9.4819    112.2084
  1128.0000      9.3803    113.2850
  1128.2500      9.3066    113.1123
  1128.5000      9.2500    111.2258
  1128.7500      9.1990    109.3899
  1129.0000      9.1449    106.7466
  1129.2500      9.0835    105.2271
  1129.5000      9.0135    103.0799
  1129.7500      8.9345    101.7312
  1130.0000      8.8452    100.5706
  1130.2500      8.7441    101.0355
  1130.5000      8.6303    104.0991
  1130.7500      8.5055    107.3242
  1131.0000      8.3738    112.5569
  1131.2500      8.2416    115.5956
  1131.5000      8.1170    118.8515
  1131.7500      8.0090    120.0961
  1132.0000      7.9260    120.8151
  1132.2500      7.8732    120.7623
  1132.5000      7.8508    120.2099
  1132.7500      7.8514    119.5897
  1133.0000      7.8611    118.3072
  1133.2500      7.8626    117.3604
  1133.5000      7.8421    116.4044
  1133.7500      7.7947    116.5249
  1134.0000      7.7249    118.3446
  1134.2500      7.6428    120.5467
  1134.5000      7.5570    124.2693
  1134.7500      7.4711    126.0793
  1135.0000      7.3847    126.4551
  1135.2500      7.2971    124.9649
  1135.5000      7.2111    120.9706
  1135.7500      7.1344    117.9685
  1136.0000      7.0767    113.8194
  1136.2500      7.0469    111.0932
  1136.5000      7.0513    106.1781
  1136.7500      7.0927    102.2895
  1137.0000      7.1711     96.7122
  1137.2500      7.2843     94.0115
  1137.5000      7.4265     91.9359
  1137.7500      7.5882     91.5238
  1138.0000      7.7551     91.8660
  1138.2500      7.9103     92.9647
  1138.5000      8.0386     96.6467
  1138.7500      8.1311    100.3407
  1139.0000      8.1882    106.2407
  1139.2500      8.2184    109.4513
  1139.5000      8.2351    112.7518
  1139.7500      8.2532    114.3612
  1140.0000      8.2860    116.6167
  1140.2500      8.3428    118.0742
  1140.5000      8.4269    119.9869
  1140.7500      8.5344    120.9176
  1141.0000      8.6557    121.1072
  1141.2500      8.7776    119.8339
  1141.5000      8.8871    115.5251
  1141.7500      8.9754    111.7478
