~Version Information
VERS.                      2.0: CWLS Log ASCII Standard - VERSION 2.0
WRAP.                       NO: One line per depth step
~Well Information Block
STRT.FT               583.0000: 
STOP.FT              1701.5000: 
STEP.FT                 0.2500: 
NULL.                -999.2500: 
COMP.          Pioneer Natural Resources: COMPANY
WELL.          Scott Canyon 11-18 Tr: WELL
FLD.           Purgatoire River: FIELD
LOC.           411' FNL & 580' FWL: LOCATION
PROV.                 Colorado: PROVINCE
CNTY.               Las Animas: COUNTRY
SRVC.                Patterson: SERVICE COMPANY
DATE.          Thu Feb 17 02:07:21 2005: LOG DATE
UWI.           05 071 08286 00: UNIQUE WELL ID
~Curve Information Block
DEPT.FT            0 000 00 00: Depth
SN.Ohm-m                      : IEL Short Normal
SP.mV                         : IEL Spontaneous Potential
DIR.Ohm-m                     : IEL Induction Resistivity
GR.GAPI                       : Gamma Ray
~Parameter Information Block
~A  Depth        SN          SP         DIR          GR     
# ...
  1085.5000     15.6343    -47.7886 100000.0000    125.4288
  1085.7500     15.4755    -49.5922 100000.0000    128.3227
  1086.0000     15.1883    -51.9445 100000.0000    132.1185
  1086.2500     14.7535    -55.0022      5.0683    133.8153
  1086.5000     14.2053    -59.0002      1.3267    135.0400
  1086.7500     13.5307    -64.2685      0.6022    135.1624
  1087.0000     12.6099    -71.2315      0.3239    134.4094
  1087.2500     11.2769    -80.3725      0.1926    133.1917
  1087.5000      9.4154    -92.1219      0.1294    130.1391
  1087.7500      7.0793   -106.6443      0.1007    127.0987
  1088.0000      4.6202   -123.5607      0.0891    120.2170
  1088.2500      2.5870   -141.7121      0.0851    113.5985
  1088.5000      1.3308   -159.1594      0.0831    100.9585
  1088.7500      0.7841   -173.6322      0.0805     91.8309
  1089.0000      0.7077   -183.3853      0.0780     79.5028
  1089.2500      1.0418   -187.9778      0.0794     73.0969
  1089.5000      1.8987   -188.3850      0.0897     66.4135
  1089.7500      3.1036   -186.3684      0.1165     63.5745
  1090.0000      3.9029   -183.6381      0.1731     61.0372
  1090.2500      3.6260   -181.3723      0.2812     60.0855
  1090.5000      2.5409   -180.2046      0.4727     59.0923
  1090.7500      1.4711   -180.4319      0.8038     58.4432
  1091.0000      0.8192   -182.1890      1.3667     57.2696
  1091.2500      0.4666   -185.5007      2.2408     56.2260
  1091.5000      0.2564   -190.2454      3.3567     53.7644
  1091.7500      0.1578   -196.0913      4.4943     51.1583
  1092.0000      0.1734   -202.4427      5.5674     45.6063
  1092.2500      0.2651   -208.4794      6.7770     41.1514
  1092.5000      0.3288   -213.4861      8.5973     34.4815
  1092.7500      0.2865   -217.4758     12.1976     30.6835
  1093.0000      0.1826   -221.5939     22.6779     26.4478
  1093.2500      0.1016   -227.5669    201.9271     24.5093
  1093.5000      0.0709   -236.3654 100000.0000     22.5692
  1093.7500      0.0806   -247.3832 100000.0000     21.7947
  1094.0000      0.1104   -259.0006 100000.0000     21.3016
  1094.2500      0.1284   -269.6712 100000.0000     21.3054
  1094.5000      0.1175   -278.1924 100000.0000     21.6111
  1094.7500      0.0962   -283.4177 100000.0000     22.0644
  1095.0000      0.0878   -284.6266 100000.0000     23.5869
  1095.2500      0.0922   -282.3216 100000.0000     25.5134
  1095.5000      0.0976   -278.0410 100000.0000     30.1641
  1095.7500      0.0932   -272.9715 100000.0000     34.5213
  1096.0000      0.0641   -266.9183 100000.0000     43.0754
  1096.2500     -0.0080   -258.6913 100000.0000     50.2911
  1096.5000     -0.1185   -247.0395 100000.0000     63.4205
  1096.7500     -0.2293   -231.0688 100000.0000     73.1674
  1097.0000     -0.3095   -210.3767 100000.0000     87.2985
  1097.2500     -0.3501   -185.3948    177.8425     95.2015
  1097.5000     -0.2823   -157.7533     13.7341    103.8432
  1097.7500      0.0895   -130.1161      3.9691    107.6186
  1098.0000      0.9926   -105.2925      1.6349    111.1131
  1098.2500      2.4569    -85.1421      0.8483    112.5667
  1098.5000      4.1965    -70.0572      0.5254    114.4938
  1098.7500      5.8028    -59.2674      0.3842    116.0720
  1099.0000      7.0430    -51.5295      0.3381    118.8444
  1099.2500      7.9197    -45.6454      0.3617    120.5185
  1099.5000      8.5321    -40.6465      0.4639    122.0436
  1099.7500      8.9763    -35.7942      0.7017    122.2468
  1100.0000      9.3210    -30.6553      1.3016    121.2728
  1100.2500      9.6192    -25.3816      3.8352    119.6850
  1100.5000      9.9529    -20.9765 100000.0000    115.8249
  1100.7500     10.4514    -18.9963 100000.0000    112.4520
  1101.0000     11.2482    -20.4606 100000.0000    106.7623
  1101.2500     12.4207    -24.8116 100000.0000    102.7299
  1101.5000     13.9542    -30.1364 100000.0000     96.2296
  1101.7500     15.7748    -34.5444 100000.0000     91.6318
  1102.0000     17.8495    -37.2541 100000.0000     85.0537
  1102.2500     20.2049    -38.5258 100000.0000     81.4090
  1102.5000     22.8030    -38.9775 100000.0000     77.1693
  1102.7500     25.4705    -39.1024 100000.0000     74.6607
  1103.0000     27.9451    -39.1664    147.8202     70.4715
  1103.2500     29.9626    -39.2711     78.9923     67.4603
  1103.5000     31.4213    -39.4227     79.8201     64.0062
  1103.7500     32.4385    -39.5814     97.3078     63.5826
  1104.0000     33.0299    -39.6935    154.6121     67.3297
  1104.2500     32.8882    -39.7185 100000.0000     72.9586
  1104.5000     31.8356    -39.6428 100000.0000     84.8307
  1104.7500     30.2831    -39.4792 100000.0000     93.4595
  1105.0000     28.8726    -39.2521 100000.0000    104.4524
  1105.2500     27.8856    -38.9842 100000.0000    109.3158
  1105.5000     27.2166    -38.6942 100000.0000    112.5027
  1105.7500     26.6971    -38.4058 100000.0000    112.2114
  1106.0000     26.2846    -38.1505 100000.0000    109.0473
  1106.2500     26.0303    -37.9573 100000.0000    106.0017
  1106.5000     25.9627    -37.8359     62.5340    102.2145
  1106.7500     26.0260    -37.7699     27.2101    101.2255
  1107.0000     26.1181    -37.7257     18.4694    102.1110
  1107.2500     26.1406    -37.6692     14.9922    103.5559
  1107.5000     26.0135    -37.5792     13.4961    105.8742
  1107.7500     25.7129    -37.4515     13.0086    107.2897
  1108.0000     25.2943    -37.2945     13.1454    109.0526
  1108.2500     24.8411    -37.1245     13.7146    109.7063
  1108.5000     24.4183    -36.9612     14.5797    109.2097
  1108.7500     24.0581    -36.8242     15.5998    107.6552
  1109.0000     23.7262    -36.7265     16.6199    103.8582
  1109.2500     23.3272    -36.6719     17.5001    101.1655
  1109.5000     22.7926    -36.6584     18.1548     99.0713
  1109.7500     22.1394    -36.6837     18.5628    100.0984
  1110.0000     21.4276    -36.7449     18.7430    105.4399
  1110.2500     20.6990    -36.8331     18.7233    110.3306
  1110.5000     19.9784    -36.9294     18.5294    116.5205
  1110.7500     19.2918    -37.0090     18.1973    118.3841
  1111.0000     18.6736    -37.0509     17.7851    116.9059
  1111.2500     18.1815    -37.0494     17.3646    113.6274
  1111.5000     17.8878    -37.0194     16.9997    107.4541
  1111.7500     17.8187    -36.9906     16.7288    103.8888
  1112.0000     17.9021    -36.9920     16.5638    100.9583
  1112.2500     18.0025    -37.0379     16.4999    100.9553
  1112.5000     18.0176    -37.1224     16.5287    103.7457
  1112.7500     17.9385    -37.2220     16.6441    107.0020
  1113.0000     17.8340    -37.3046     16.8400    112.2154
  1113.2500     17.7963    -37.3439     17.1049    114.4454
  1113.5000     17.8967    -37.3321     17.4196    113.7894
  1113.7500     18.1864    -37.2849     17.7626    110.2896
  1114.0000     18.7168    -37.2341     18.1189    101.4231
  1114.2500     19.5310    -37.2116     18.4828     94.2883
  1114.5000     20.6618    -37.2351     18.8529     84.0285
  1114.7500     22.1437    -37.3003     19.2250     78.5838
  1115.0000     23.9796    -37.3853     19.5912     73.4988
  1115.2500     26.0748    -37.4640     19.9388     72.1387
  1115.5000     28.1913    -37.5210     20.2382     72.2779
  1115.7500     29.9808    -37.5611     20.4206     73.0554
  1116.0000     31.1491    -37.6047     20.3747     74.0915
  1116.2500     31.6066    -37.6736     19.9900     74.5038
  1116.5000     31.4121    -37.7782     19.2314     75.3476
  1116.7500     30.6103    -37.9146     18.1789     76.6598
  1117.0000     29.1761    -38.0724     16.9851     80.5532
  1117.2500     27.0909    -38.2424     15.7952     84.7069
  1117.5000     24.4229    -38.4192     14.6959     93.3155
  1117.7500     21.3370    -38.5996     13.7137    100.2308
  1118.0000     18.0751    -38.7813     12.8389    110.8904
  1118.2500     14.9394    -38.9634     12.0518    117.2559
  1118.5000     12.2803    -39.1444     11.3373    124.9191
  1118.7500     10.4095    -39.3202     10.6893    128.9714
