~Version Information
 VERS.                                  2.0 : CWLS LAS VERSION
 WRAP.                                   NO : WRAPING MODE
 SWARE .                 MController 2.5.0J : SOFTWARE VERSION
~Well Information
 WELL.                        McLeod 09-42R : WELL
 COMP.                Petrogulf Corporation : COMPANY
 FLD.                      Purgatoire River : FIELD
 LOC.                SE/NE Sec 09 T33S R67W : LOCATION
 DATE.                          08/13-14/05 : DATE(S) LOGGED
 SRVC.       BLANCO Geological Services LLC : SERVICE COMPANY
 STAT.                                   CO : STATE
 CNTY.                           Las Animas : COUNTY
 CTRY.                                  USA : COUNTRY
 API.                       05 071 08092 00 : API NUMBER
 STRT.FT                               6.00 : START DEPTH
 STOP.FT                            1775.00 : STOP DEPTH
 STEP.FT                               1.00 : DEPTH INCREMENT
 NULL.                                -9999 : NULL VALUE
~Curve information
 DEPTH.FT                                   :
 ROP.MIN/FT                                 :
 GAS.UNITS                                  :
~ASCII Log data
# ...
       606.0         0.20          4.7 
       607.0         0.37          4.2 
       608.0         0.17          4.3 
       609.0         0.17          4.1 
       610.0         0.23          4.4 
       611.0         0.23          4.7 
       612.0         0.20          4.7 
       613.0         0.23          4.4 
       614.0         0.23          4.4 
       615.0         0.23          4.7 
       616.0         0.23          4.4 
       617.0         0.20          4.5 
       618.0         0.18          4.4 
       619.0         0.30          4.4 
       620.0         0.23          4.7 
       621.0         0.27          4.4 
       622.0         0.30          4.9 
       623.0         0.27         10.9 
       624.0         0.27        114.0 
       625.0         0.27        139.1 
       626.0         1.48        121.7 
       627.0         0.37          9.4 
       628.0         0.40          9.1 
       629.0         0.20         11.8 
       630.0         0.13         13.9 
       631.0         0.17         16.0 
       632.0         0.13         16.6 
       633.0         0.17         16.7 
       634.0         0.13         15.8 
       635.0         0.17         15.4 
       636.0         0.13         14.9 
       637.0         0.17         15.4 
       638.0         0.23         14.8 
       639.0         0.20         13.5 
       640.0         0.37         14.1 
       641.0         0.25         13.4 
       642.0         0.20         13.3 
       643.0         0.27         13.5 
       644.0         0.30         13.1 
       645.0         0.20         12.9 
       646.0         0.23         13.1 
       647.0         0.17         13.0 
       648.0         0.17         12.5 
       649.0         0.13         12.2 
       650.0         0.17         12.4 
       651.0         0.33         11.0 
       652.0         0.23         11.4 
       653.0         0.23         13.7 
       654.0         0.27         17.9 
       655.0         0.32         56.9 
       656.0         1.67         60.9 
       657.0         0.27         11.3 
       658.0         0.27         10.6 
       659.0         0.27         10.0 
       660.0         0.23         10.2 
       661.0         0.20          9.3 
       662.0         0.23          9.6 
       663.0         0.25          9.5 
       664.0         0.23          9.1 
       665.0         0.27          8.8 
       666.0         0.23          8.7 
       667.0         0.27          9.1 
       668.0         0.23          8.9 
       669.0         0.23          9.1 
       670.0         0.27          8.4 
       671.0         0.27          8.5 
       672.0         0.30          8.0 
       673.0         0.27          8.1 
       674.0         0.33          8.4 
       675.0         0.32          8.2 
       676.0         0.30          7.8 
       677.0         0.27          7.8 
       678.0         0.27          7.9 
       679.0         0.30          8.0 
       680.0         0.27          7.8 
       681.0         0.27          7.4 
       682.0         0.30          6.9 
       683.0         0.23          8.5 
       684.0         0.23          9.0 
       685.0         0.23         14.9 
       686.0         1.68         25.2 
       687.0         0.33          8.3 
       688.0         0.30          7.0 
       689.0         0.27          7.1 
       690.0         0.27          6.5 
       691.0         0.23          6.7 
       692.0         0.23          6.6 
       693.0         0.23          6.3 
       694.0         0.28          6.4 
       695.0         0.20          6.5 
       696.0         0.20          6.3 
       697.0         0.23          6.3 
       698.0         0.37          6.6 
       699.0         0.23          6.8 
       700.0         0.17          6.5 
       701.0         0.20          6.9 
       702.0         0.40          8.2 
       703.0         0.33          8.3 
       704.0         0.20          9.2 
       705.0         0.13          9.2 
       706.0         0.13          9.3 
       707.0         0.13          8.9 
       708.0         0.13          8.3 
       709.0         0.18          7.4 
       710.0         0.13          6.6 
       711.0         0.13          6.1 
       712.0         0.17          6.3 
       713.0         0.17          7.5 
       714.0         0.20          7.4 
       715.0         0.23          8.1 
       716.0         1.47         26.2 
       717.0         0.23          9.2 
       718.0         0.17          7.7 
       719.0         0.18          7.1 
       720.0         0.20          6.3 
       721.0         0.17          6.6 
       722.0         0.20          6.0 
       723.0         0.23          6.1 
       724.0         0.23          6.1 
       725.0         0.40          6.2 
       726.0         0.37          6.0 
       727.0         0.27          5.6 
       728.0         0.27          5.7 
       729.0         0.27          5.9 
       730.0         0.27          6.0 
       731.0         0.28          5.4 
       732.0         0.27          5.4 
       733.0         0.23          5.5 
       734.0         0.27          5.3 
       735.0         0.27          5.6 
       736.0         0.27          5.4 
       737.0         0.27          5.3 
       738.0         0.27          5.4 
       739.0         0.23          7.8 
       740.0         0.23         15.7 
       741.0         0.27         24.9 
       742.0         0.23         31.7 
       743.0         0.28         44.6 
       744.0         0.27         55.8 
       745.0         0.23         64.5 
       746.0         1.57        181.5 
       747.0         0.17         49.3 
       748.0         0.17         43.0 
       749.0         0.50         89.9 
       750.0         0.45         94.2 
       751.0         0.23         85.6 
       752.0         0.13         79.4 
       753.0         0.10         76.2 
       754.0         0.10         74.3 
       755.0         0.10         71.8 
       756.0         0.43         69.6 
       757.0         0.33         61.4 
       758.0         0.37         57.4 
       759.0         0.43         53.0 
       760.0         0.40         48.5 
       761.0         0.42         46.7 
       762.0         0.43         45.2 
       763.0         0.37         43.0 
       764.0         0.37         41.8 
       765.0         0.40         41.3 
       766.0         0.33         40.2 
       767.0         0.20         38.7 
       768.0         0.20         39.8 
       769.0         0.23         42.8 
       770.0         0.30         43.4 
       771.0         0.27         42.2 
       772.0         0.25         38.0 
       773.0         0.17         39.9 
       774.0         0.17         42.9 
       775.0         0.17         46.1 
       776.0         0.23         49.4 
       777.0         0.27         53.7 
       778.0         2.35        286.5 
       779.0         0.33         37.5 
       780.0         0.47         32.3 
       781.0         0.37         29.4 
       782.0         0.27         28.3 
       783.0         0.23         27.3 
       784.0         0.30         26.8 
       785.0         0.37         25.4 
       786.0         0.43         25.8 
       787.0         0.42         28.6 
       788.0         0.27         46.9 
       789.0         0.27         53.4 
       790.0         0.27         52.7 
       791.0         0.30         45.2 
       792.0         0.27         38.2 
       793.0         0.30         34.0 
       794.0         0.27         31.8 
       795.0         0.23         29.9 
       796.0         0.23         28.0 
       797.0         0.27         28.1 
       798.0         0.27         28.1 
       799.0         0.32         30.6 
       800.0         0.27         32.2 
       801.0         0.27         33.5 
       802.0         0.27         33.6 
       803.0         0.27         33.1 
       804.0         0.33         32.5 
       805.0         0.33         31.9 
