~Version Information
VERS.                      2.0: CWLS Log ASCII Standard - VERSION 2.0
WRAP.                       NO: One line per depth step
~Well Information Block
STRT.FT               -11.2500: 
STOP.FT              1597.0000: 
STEP.FT                 0.2500: 
NULL.                -999.2500: 
COMP.          Petrogulf Corporation: COMPANY
WELL.          Great Plains 22-21R: WELL
FLD.           Purgatorie River: FIELD
LOC.           73' FNL & 1992' FWL--: LOCATION
PROV.                       CO: PROVINCE
CNTY.               Las Animas: COUNTRY
SRVC.          Patterson Wireline: SERVICE COMPANY
DATE.          Fri Sep 09 09:02:35 2005: LOG DATE
UWI.           05 071 08343 00: UNIQUE WELL ID
~Curve Information Block
DEPT.FT            0 000 00 00: Depth
CCL.                          : Casing Collar Locator
TT3.usec                      : CBL 3' Travel Time
AMP3.mV                       : CBL 3' Amplitude
GR.GAPI                       : Gamma Ray
~Parameter Information Block
~A  Depth       CCL         TT3         AMP3         GR     
# ...
   290.2500      0.0000    788.2204     16.2555     64.5249
   290.5000      0.0000    787.0367     16.3651     62.5842
   290.7500      0.0000    789.5664     16.4348     60.5495
   291.0000      0.0000    792.2302     16.4459     59.1405
   291.2500      0.0000    794.0344     16.4093     58.5866
   291.5000      0.0000    797.9805     16.3686     59.2817
   291.7500      0.0000    808.2575     16.3686     61.7255
   292.0000      0.0000    825.8163     16.4181     65.8006
   292.2500      0.0000    847.2064     16.4846     70.4539
   292.5000      0.0000    868.4638     16.5253     74.1157
   292.7500      0.0000    889.5447     16.5213     75.4244
   293.0000      0.0000    912.6703     16.4795     73.9596
   293.2500      0.0000    935.8701     16.4067     70.7301
   293.5000      0.0000    951.9173     16.2947     67.7817
   293.7500      0.0000    957.2259     16.1358     66.7636
   294.0000      0.0000    959.0020     15.9451     67.7242
   294.2500      0.0000    967.9963     15.7580     69.5875
   294.5000      0.0000    985.1389     15.6071     71.5780
   294.7500      0.0000   1000.3734     15.5030     73.5477
   295.0000      0.0000   1002.9129     15.4314     75.1038
   295.2500      0.0000    987.4404     15.3672     75.3432
   295.5000      0.0000    953.8281     15.2961     73.7614
   295.7500      0.0000    908.4082     15.2254     70.9600
   296.0000      0.0000    864.3952     15.1700     68.3309
   296.2500      0.0000    835.5632     15.1329     67.4164
   296.5000      0.0000    827.7869     15.1027     69.3911
   296.7500      0.0000    836.4875     15.0703     74.3697
   297.0000      0.0000    850.7654     15.0451     80.8493
   297.2500      0.0000    861.6967     15.0482     86.2073
   297.5000      0.0000    870.3268     15.0882     88.3549
   297.7500      0.0000    886.5032     15.1449     87.1868
   298.0000      0.0000    915.2363     15.1804     84.4835
   298.2500      0.0000    944.8798     15.1683     82.3480
   298.5000      0.0000    954.3716     15.1137     81.6168
   298.7500      0.0000    935.0778     15.0467     81.6014
   299.0000      0.0000    903.3690     14.9960     81.0027
   299.2500      0.0000    888.4760     14.9652     78.8029
   299.5000      0.0000    906.9256     14.9369     74.6045
   299.7500      0.0000    948.8246     14.9060     68.7166
   300.0000      0.0000    987.7258     14.8994     62.1183
   300.2500      0.0000   1002.8103     14.9510     56.1578
   300.5000      0.0000    993.6541     15.0581     52.1399
   300.7500      0.0000    977.0762     15.1765     50.9608
   301.0000      0.0000    969.5717     15.2587     52.7130
   301.2500      0.0000    971.6486     15.2933     56.5758
   301.5000      0.0000    970.0242     15.3104     61.2651
   301.7500      0.0000    953.9261     15.3516     65.4375
   302.0000      0.0000    925.1788     15.4313     67.7650
   302.2500      0.0000    893.0789     15.5253     67.3560
   302.5000      0.0000    864.9133     15.6021     64.5572
   302.7500      0.0000    842.8612     15.6591     60.9646
   303.0000      0.0000    826.1032     15.7168     58.4794
   303.2500      0.0000    813.7582     15.7808     58.5717
   303.5000      0.0000    806.6049     15.8252     61.8725
   303.7500      0.0000    806.2191     15.8200     67.5109
   304.0000      0.0000    812.6107     15.7646     73.1020
   304.2500      0.0000    824.0106     15.6886     76.2731
   304.5000      0.0000    838.9210     15.6254     76.3084
   304.7500      0.0000    856.7372     15.5854     74.1073
   305.0000      0.0000    876.5146     15.5493     70.8696
   305.2500      0.0000    897.1005     15.4883     67.2096
   305.5000      0.0000    918.2145     15.3972     63.3697
   305.7500      0.0000    939.3547     15.3077     59.7717
   306.0000      0.0000    957.0741     15.2597     57.1549
   306.2500      0.0000    964.8827     15.2631     56.3425
   306.5000      0.0000    957.2576     15.2946     58.0157
   306.7500      0.0000    934.4064     15.3258     62.4111
   307.0000      0.0000    903.4232     15.3422     68.9809
   307.2500      0.0000    874.4387     15.3385     76.5545
   307.5000      0.0000    854.6423     15.3131     84.0051
   307.7500      0.0000    844.9722     15.2732     90.6480
   308.0000      0.0000    841.6525     15.2366     96.0344
   308.2500      0.0000    840.3759     15.2244     99.6543
   308.5000      0.0000    839.3007     15.2504    101.0421
   308.7500      0.0000    838.9391     15.3199    100.3051
   309.0000      0.0000    840.0568     15.4337     98.5194
   309.2500      0.0000    842.1478     15.5930     97.1525
   309.5000      0.0000    843.7244     15.7951     96.8156
   309.7500      0.0000    843.5162     16.0226     96.8951
   310.0000      0.0000    841.2465     16.2383     96.4242
   310.2500      0.0000    837.7699     16.3953     94.9373
   310.5000      0.0000    834.7081     16.4549     92.6534
   310.7500      0.0000    833.5677     16.4031     90.2081
   311.0000      0.0000    834.6420     16.2609     87.9892
   311.2500      0.0000    836.3426     16.0840     85.4721
   311.5000      0.0000    835.5715     15.9370     81.7486
   311.7500      0.0000    829.3677     15.8565     77.0059
   312.0000      0.0000    817.0548     15.8317     72.7535
   312.2500      0.0000    801.2106     15.8166     70.2131
   312.5000      0.0000    786.4858     15.7565     69.0677
   312.7500      0.0000    777.2184     15.6106     68.2170
   313.0000      0.0000    775.3186     15.3673     67.2750
   313.2500      0.0000    779.1901     15.0431     66.7175
   313.5000      0.0000    784.6913     14.6670     66.7931
   313.7500      0.0000    788.4843     14.2662     67.1841
   314.0000      0.0000    790.9085     13.8680     68.0283
   314.2500      0.0000    794.6872     13.5108     70.3987
   314.5000      0.0000    800.7209     13.2411     74.9093
   314.7500      0.0000    806.2094     13.0969     80.3466
   315.0000      0.0000    807.4250     13.0938     84.6368
   315.2500      0.0000    804.0031     13.2144     86.8913
   315.5000      0.0000    799.9668     13.4022     87.8839
   315.7500      0.0000    800.1402     13.5814     88.9640
   316.0000      0.0000    805.6108     13.7044     90.9626
   316.2500      0.0000    813.0215     13.7769     93.5586
   316.5000      0.0000    818.2390     13.8332     95.3328
   316.7500      0.0000    820.0871     13.8885     94.9534
   317.0000      0.0000    820.1071     13.9186     92.5716
   317.2500      0.0000    819.8215     13.8808     89.7141
   317.5000      0.0000    820.2386     13.7521     87.7528
   317.7500      0.0000    823.8221     13.5556     86.8740
   318.0000      0.0000    834.4514     13.3508     86.4278
   318.2500      0.0000    853.5195     13.1970     85.6776
   318.5000      0.0000    876.4814     13.1188     84.0336
   318.7500      0.0000    894.9563     13.0980     81.1058
   319.0000      0.0000    904.5440     13.0887     77.0459
   319.2500      0.0000    911.6104     13.0405     72.7185
   319.5000      0.0000    930.0668     12.9248     69.1915
   319.7500      0.0000    968.4358     12.7515     66.9983
   320.0000      0.0000   1020.2136     12.5544     65.8924
   320.2500      0.0000   1068.2819     12.3599     65.3404
   320.5000      0.0000   1097.0393     12.1773     65.3835
   320.7500      0.0000   1099.1147     12.0093     66.6923
   321.0000      0.0000   1075.2891     11.8364     69.2824
   321.2500      0.0000   1034.7396     11.5816     71.5909
   321.5000      0.0000    994.7216     11.1350     71.6703
   321.7500      0.0000    972.0527     10.4667     69.2320
   322.0000      0.0000    969.2899      9.7148     65.8869
   322.2500      0.0000    970.8546      9.1146     63.4151
   322.5000      0.0000    956.8473      8.8256     62.1454
   322.7500      0.0000    921.3677      8.8363     61.0280
   323.0000      0.0000    876.1658      9.0144     59.0840
   323.2500     -2.0000    837.9982      9.2134     56.6256
   323.5000      2.0000    814.9839      9.3475     54.9137
