~Version Information
VERS.                      2.0: CWLS Log ASCII Standard - VERSION 2.0
WRAP.                       NO: One line per depth step
~Well Information Block
STRT.FT               -10.0000: 
STOP.FT              2297.5000: 
STEP.FT                 0.2500: 
NULL.                -999.2500: 
COMP.          Pioneer Natural Resources: COMPANY
WELL.              Bobsy 34-11: WELL
FLD.           Purgatorie River: FIELD
LOC.           1937' FEL & 451' FSL----------: LOCATION
PROV.                       CO: PROVINCE
CNTY.               Las Animas: COUNTRY
SRVC.          Patterson Wireline: SERVICE COMPANY
DATE.          Mon Apr 18 09:37:11 2005: LOG DATE
UWI.           05 071 08330 00: UNIQUE WELL ID
~Curve Information Block
DEPT.FT            0 000 00 00: Depth
CCL.                          : Casing Collar Locator
TT3.usec                      : CBL 3' Travel Time
AMP3.mV                       : CBL 3' Amplitude
GR.GAPI                       : Gamma Ray
~Parameter Information Block
~A  Depth       CCL         TT3         AMP3         GR     
# ...
   760.5000      0.0000    696.7932      4.8651     78.0753
   760.7500      0.0000    705.5567      4.8003     78.9492
   761.0000      0.0000    714.7593      4.8918     81.4042
   761.2500      0.0000    721.3798      5.1112     84.3652
   761.5000      0.0000    725.6520      5.3398     87.3331
   761.7500      0.0000    727.5894      5.4630     90.9547
   762.0000      0.0000    724.3343      5.4517     96.0208
   762.2500      0.0000    712.9870      5.3676    101.7775
   762.5000      0.0000    695.3040      5.3095    105.7494
   762.7500      0.0000    678.1328      5.3440    105.6358
   763.0000      0.0000    668.8724      5.4611    101.3150
   763.2500      0.0000    670.3079      5.5845     94.9984
   763.5000      0.0000    679.3231      5.6332     89.5315
   763.7500      0.0000    690.0707      5.5910     86.3555
   764.0000      0.0000    697.8452      5.5172     84.9141
   764.2500      0.0000    700.6808      5.4873     84.0012
   764.5000      0.0000    699.4135      5.5295     83.3924
   764.7500      0.0000    697.0705      5.6235     83.8765
   765.0000      0.0000    696.9796      5.7332     86.0087
   765.2500      0.0000    700.3399      5.8199     89.2495
   765.5000      0.0000    705.8607      5.8447     92.2654
   765.7500      0.0000    711.7203      5.7880     94.0307
   766.0000      0.0000    716.8901      5.6669     94.7974
   766.2500      0.0000    720.4139      5.5258     95.7633
   766.5000      0.0000    721.0167      5.3999     97.4933
   766.7500      0.0000    718.8793      5.2926     98.9441
   767.0000      0.0000    717.0082      5.1990     98.4103
   767.2500      0.0000    719.4720      5.1468     95.2369
   767.5000      0.0000    728.4577      5.1739     90.3326
   767.7500      0.0000    743.3420      5.2708     85.2047
   768.0000      0.0000    761.2736      5.3878     80.7859
   768.2500      0.0000    777.7444      5.5027     77.1011
   768.5000      0.0000    788.3123      5.6292     73.9115
   768.7500      0.0000    791.8733      5.7560     71.5205
   769.0000      0.0000    791.4413      5.8282     70.6883
   769.2500      0.0000    789.7433      5.8002     71.7517
   769.5000      0.0000    785.0596      5.6769     74.2757
   769.7500      0.0000    773.9667      5.5075     77.7486
   770.0000      0.0000    757.3546      5.3668     82.1560
   770.2500      0.0000    740.3410      5.3189     87.5617
   770.5000      0.0000    725.6510      5.3621     93.5380
   770.7500      0.0000    709.9250      5.4251     99.4312
   771.0000      0.0000    688.8926      5.4474    104.8285
   771.2500      0.0000    665.6300      5.4493    109.2899
   771.5000      0.0000    650.9587      5.4979    111.9690
   771.7500      0.0000    654.0516      5.6156    112.1859
   772.0000      0.0000    673.8973      5.7519    110.3186
   772.2500      0.0000    701.2592      5.8408    107.5979
   772.5000      0.0000    727.0606      5.8646    104.9140
   772.7500      0.0000    747.0470      5.8519    102.0848
   773.0000      0.0000    761.0165      5.8309     98.4268
   773.2500      0.0000    771.2004      5.8040     93.9387
   773.5000      0.0000    780.6938      5.7563     89.7698
   773.7500      0.0000    790.6957      5.6703     87.5239
   774.0000      0.0000    798.9656      5.5462     88.2283
   774.2500      0.0000    801.9230      5.4202     91.9217
   774.5000      0.0000    797.6755      5.3423     97.9026
   774.7500      0.0000    786.3501      5.3236    105.0362
   775.0000      0.0000    768.3122      5.3304    111.8803
   775.2500      0.0000    743.1746      5.3313    117.0094
   775.5000      0.0000    711.1686      5.3164    119.7288
   775.7500      0.0000    676.2752      5.2742    120.4300
   776.0000      0.0000    647.6937      5.1874    119.9353
   776.2500      0.0000    635.8528      5.0675    118.5612
   776.5000      0.0000    644.6136      4.9713    116.0844
   776.7500      0.0000    667.4907      4.9666    112.5143
   777.0000      0.0000    692.3719      5.0755    108.5859
   777.2500      0.0000    709.4271      5.2475    105.3633
   777.5000      0.0000    714.1451      5.3865    103.3742
   777.7500      0.0000    704.9807      5.4064    102.2716
   778.0000      0.0000    681.6697      5.2718    101.5341
   778.2500      0.0000    647.8090      5.0070    101.3918
   778.5000      0.0000    613.6334      4.6928    102.7274
   778.7500      0.0000    592.8179      4.4562    106.0165
   779.0000      0.0000    594.1712      4.4176    110.4650
   779.2500      0.0000    616.3882      4.5944    114.1942
   779.5000      0.0000    650.2162      4.8658    115.4328
   779.7500      0.0000    683.5522      5.0703    113.6905
   780.0000      0.0000    704.5942      5.1372    109.8358
   780.2500      0.0000    704.8284      5.1032    105.3429
   780.5000      0.0000    684.4765      5.0317    101.7097
   780.7500     -2.0000    655.6581      4.9491    100.0233
   781.0000      2.0000    636.8869      4.8443    100.3474
   781.2500      0.0000    641.6179      4.7024    101.5211
   781.5000      0.0000    670.5768      4.5406    101.8655
   781.7500      0.0000    713.2406      4.4105    100.1767
   782.0000      0.0000    755.4893      4.3512     96.3934
   782.2500      0.0000    787.5847      4.3464     91.7699
   782.5000      0.0000    807.9031      4.3485     88.1795
   782.7500      0.0000    820.8655      4.3329     86.6695
   783.0000      0.0000    831.7899      4.3111     86.6948
   783.2500      0.0000    843.2222      4.3166     87.0067
   783.5000      0.0000    854.0237      4.3922     87.1094
   783.7500      0.0000    860.7383      4.5580     87.6607
   784.0000      0.0000    860.8994      4.7736     89.6809
   784.2500      0.0000    855.7032      4.9597     93.5309
   784.5000      0.0000    848.6492      5.0733     98.3614
   784.7500      0.0000    842.1150      5.1421    102.3540
   785.0000      0.0000    836.8636      5.2138    103.7620
   785.2500      0.0000    833.8961      5.2949    102.1439
   785.5000      0.0000    834.4644      5.3531     98.7025
   785.7500      0.0000    838.1260      5.3591     95.2962
   786.0000      0.0000    842.1531      5.3097     93.1306
   786.2500      0.0000    843.4529      5.2180     92.5568
   786.5000      0.0000    840.8395      5.0993     93.8484
   786.7500      0.0000    835.0589      4.9698     97.3547
   787.0000      0.0000    826.8368      4.8504    102.5459
   787.2500      0.0000    815.7321      4.7660    107.6007
   787.5000      0.0000    801.2760      4.7362    110.6093
   787.7500      0.0000    784.7527      4.7671    110.9477
   788.0000      0.0000    769.5020      4.8510    109.2350
   788.2500      0.0000    759.6936      4.9675    106.3740
   788.5000      0.0000    758.0049      5.0750    102.9557
   788.7500      0.0000    763.1808      5.1192     99.3107
   789.0000      0.0000    769.9951      5.0702     95.8231
   789.2500      0.0000    772.6536      4.9489     93.1460
   789.5000      0.0000    768.7576      4.8039     92.0653
   789.7500      0.0000    760.5981      4.6685     93.2957
   790.0000      0.0000    752.5580      4.5531     97.5017
   790.2500      0.0000    745.9087      4.4676    104.9162
   790.5000      0.0000    736.2903      4.4244    114.1004
   790.7500      0.0000    718.8115      4.4124    121.5993
   791.0000      0.0000    696.2038      4.3930    124.3487
   791.2500      0.0000    679.0808      4.3384    122.7808
   791.5000      0.0000    677.3813      4.2630    120.5683
   791.7500      0.0000    693.7641      4.2064    120.8829
   792.0000      0.0000    724.5626      4.1964    123.2649
   792.2500      0.0000    763.0938      4.2343    124.0691
   792.5000      0.0000    801.3362      4.3068    119.7060
   792.7500      0.0000    832.0683      4.4045    109.8865
   793.0000      0.0000    851.9428      4.5276     98.4669
   793.2500      0.0000    862.2984      4.6721     91.0579
   793.5000      0.0000    866.7820      4.8166     90.9253
   793.7500      0.0000    868.4741      4.9369     96.4829
