~Version Information
VERS.                      2.0: CWLS Log ASCII Standard - VERSION 2.0
WRAP.                       NO: One line per depth step
~Well Information Block
STRT.FT               954.4000: 
STOP.FT              2380.0000: 
STEP.FT                 0.1000: 
NULL.                -999.2500: 
COMP.          Petrogulf Corporation: COMPANY
WELL.             State 16-24V: WELL
FLD.           Purgatorie River: FIELD
LOC.           481' FSL & 2419' FWL: LOCATION
CNTY.               Las Animas: COUNTY
SRVC.                         : SERVICE COMPANY
DATE.          Tue May 04 07:31:25 2004: LOG DATE
UWI.           05 071 08014 00: UNIQUE WELL ID
STAT.                 Colorado: STATE
~Curve Information Block
DEPT.FT            0 000 00 00: Depth
DCAL.in                       : CDL Caliper
RHOB.g/cc                     : CDL Bulk Density
RHOC.g/cc                     : CDL Density Correction
DPOR.pu                       : CDL Density Porosity
GR.GAPI                       : Gamma Ray
~Parameter Information Block
~A  Depth       DCAL        RHOB        RHOC        DPOR         GR     
# ...
  2085.6000      7.8868      2.4033     -0.0055     14.9545     87.0642
  2085.7000      7.8868      2.3900      0.0837     15.7563     83.7856
  2085.8000      7.8846      2.3951      0.0514     15.4470     81.3185
  2085.9000      7.8846      2.4362      0.0809     12.9592     84.3060
  2086.0000      7.8888      2.4959      0.1052      9.3407     98.7045
  2086.1000      7.8888      2.5255      0.0963      7.5446    114.8323
  2086.2000      7.8888      2.5109      0.1099      8.4306    115.3788
  2086.3000      7.8804      2.4844      0.0785     10.0364    102.1442
  2086.4000      7.8804      2.4692      0.0809     10.9554     90.1647
  2086.5000      7.8836      2.4476      0.0675     12.2673     86.8072
  2086.6000      7.8836      2.3924      0.0650     15.6145     92.1836
  2086.7000      7.8836      2.3161     -0.0656     20.2357    104.3659
  2086.8000      7.8814      2.2626     -0.0652     23.4812    112.7667
  2086.9000      7.8814      2.2466     -0.0210     24.4467    114.6635
  2087.0000      7.8812      2.2447      0.0211     24.5634    118.6373
  2087.1000      7.8812      2.2309      0.0477     25.3996    115.5921
  2087.2000      7.8812      2.1959     -0.0275     27.5235     99.6722
  2087.3000      7.8755      2.1531     -0.0083     30.1124     89.1143
  2087.4000      7.8755      2.1303     -0.0820     31.4967     91.6564
  2087.5000      7.8759      2.1318      0.0835     31.4058     98.3888
  2087.6000      7.8759      2.1315      0.0274     31.4231    104.3346
  2087.7000      7.8759      2.1312     -0.0312     31.4410    100.9717
  2087.8000      7.8835      2.1554      0.0618     29.9750     93.8505
  2087.9000      7.8835      2.2032      0.0341     27.0793    106.7188
  2088.0000      7.8768      2.2578      0.1629     23.7702    137.5126
  2088.1000      7.8768      2.3039      0.1321     20.9786    160.9937
  2088.2000      7.8768      2.3349      0.0984     19.0971    166.4644
  2088.3000      7.8840      2.3698      0.0441     16.9824    162.0161
  2088.4000      7.8840      2.4337      0.1280     13.1110    154.0626
  2088.5000      7.8952      2.5013      0.2205      9.0146    134.9808
  2088.6000      7.8952      2.5350      0.1129      6.9681    108.8977
  2088.7000      7.8952      2.5464      0.1602      6.2818     92.3272
  2088.8000      7.8867      2.5504      0.1627      6.0360     87.7662
  2088.9000      7.8867      2.5497      0.0817      6.0769     88.1497
  2089.0000      7.8368      2.5503      0.1443      6.0450     91.0786
  2089.1000      7.8368      2.5411      0.1036      6.5981     97.3586
  2089.2000      7.8368      2.5221      0.1225      7.7537    103.6054
  2089.3000      7.7954      2.5215      0.0842      7.7880    106.2416
  2089.4000      7.7954      2.5428      0.1165      6.4946    104.7881
  2089.5000      7.8057      2.5494      0.1070      6.0973    106.8636
  2089.6000      7.8057      2.5135      0.1289      8.2718    112.1241
  2089.7000      7.8057      2.4599     -0.0726     11.5209    107.0589
  2089.8000      7.8642      2.4491     -0.0753     12.1762     98.1824
  2089.9000      7.8642      2.4898      0.0520      9.7061    100.7997
  2090.0000      7.8981      2.5301      0.0691      7.2650    112.0370
  2090.1000      7.8981      2.5290      0.0694      7.3344    126.2667
  2090.2000      7.8981      2.4819      0.0987     10.1889    138.3949
  2090.3000      7.9241      2.4342     -0.1379     13.0783    136.7157
  2090.4000      7.9241      2.4508      0.0221     12.0700    122.3152
  2090.5000      7.9380      2.5018      0.1277      8.9824    110.5857
  2090.6000      7.9380      2.5071      0.1197      8.6633    112.7950
  2090.7000      7.9380      2.4746      0.0331     10.6312    129.4905
  2090.8000      7.9055      2.4612      0.0434     11.4430    148.3259
  2090.9000      7.9055      2.4692      0.0919     10.9574    158.6153
  2091.0000      7.8996      2.4726      0.0127     10.7503    156.6294
  2091.1000      7.8996      2.4783      0.0041     10.4086    146.1469
  2091.2000      7.8996      2.4966      0.0871      9.2963    127.2340
  2091.3000      7.8979      2.5189      0.0364      7.9429    106.7775
  2091.4000      7.8979      2.5285      0.1729      7.3638     99.9566
  2091.5000      7.9010      2.5226     -0.0056      7.7197    102.2625
  2091.6000      7.9010      2.5315      0.0521      7.1815    105.9250
  2091.7000      7.9010      2.5556      0.0783      5.7218    118.1164
  2091.8000      7.9039      2.5528      0.1264      5.8886    137.3366
  2091.9000      7.9039      2.5050      0.0508      8.7889    145.0039
  2092.0000      7.9004      2.4321      0.0175     13.2078    132.3047
  2092.1000      7.9004      2.3698     -0.0602     16.9816    109.7270
  2092.2000      7.9004      2.3505     -0.0343     18.1491     93.2469
  2092.3000      7.8927      2.3816      0.0213     16.2692     94.7186
  2092.4000      7.8927      2.4389      0.1033     12.7944    110.0841
  2092.5000      7.8892      2.4860      0.0966      9.9390    117.5622
  2092.6000      7.8892      2.5018      0.1428      8.9820    109.7405
  2092.7000      7.8892      2.4946      0.0686      9.4173    100.1792
  2092.8000      7.8913      2.4953      0.0977      9.3780     93.8742
  2092.9000      7.8913      2.5136      0.0979      8.2661     91.0707
  2093.0000      7.8852      2.5165      0.1683      8.0892     94.9560
  2093.1000      7.8852      2.4912      0.0932      9.6212    102.5479
  2093.2000      7.8852      2.4852      0.0261      9.9899    109.4751
  2093.3000      7.8656      2.5147      0.1752      8.2025    118.6301
  2093.4000      7.8656      2.5392      0.1306      6.7181    132.1394
  2093.5000      7.8619      2.5487      0.1485      6.1376    142.6117
  2093.6000      7.8619      2.5603      0.1582      5.4381    147.1966
  2093.7000      7.8619      2.5658      0.0847      5.1025    146.7849
  2093.8000      7.8669      2.5461      0.0867      6.2952    139.6371
  2093.9000      7.8669      2.5136      0.0752      8.2679    132.0662
  2094.0000      7.8648      2.4941      0.0836      9.4479    132.4103
  2094.1000      7.8648      2.4842      0.0773     10.0465    142.0282
  2094.2000      7.8648      2.4839      0.0081     10.0654    155.2912
  2094.3000      7.8790      2.5035      0.1474      8.8782    163.4169
  2094.4000      7.8790      2.5161      0.1838      8.1175    157.6589
  2094.5000      7.8826      2.4925      0.1040      9.5445    137.8787
  2094.6000      7.8826      2.4456      0.0438     12.3896    120.1054
  2094.7000      7.8826      2.4168     -0.0405     14.1328    113.8336
  2094.8000      7.8927      2.4354      0.0299     13.0033    118.6890
  2094.9000      7.8927      2.4738      0.1284     10.6787    129.7977
  2095.0000      7.9360      2.4797      0.1077     10.3208    138.4389
  2095.1000      7.9360      2.4499      0.0040     12.1300    144.6725
  2095.2000      7.9360      2.4168     -0.0096     14.1352    143.4503
  2095.3000      7.9288      2.4039     -0.0050     14.9133    130.5495
  2095.4000      7.9288      2.4178     -0.0348     14.0697    118.1909
  2095.5000      7.9154      2.4438      0.0322     12.4945    110.7760
  2095.6000      7.9154      2.4619      0.0440     11.3979    102.6858
  2095.7000      7.9154      2.4695      0.0212     10.9387     96.4068
  2095.8000      7.8988      2.4702      0.0958     10.8976     96.4578
  2095.9000      7.8988      2.4728      0.0308     10.7398    102.2717
  2096.0000      7.8929      2.4904      0.0554      9.6742    110.2450
  2096.1000      7.8929      2.5129      0.0585      8.3076    110.5271
  2096.2000      7.8929      2.5109      0.1500      8.4289    100.3166
  2096.3000      7.8850      2.4805      0.0694     10.2723     92.0140
  2096.4000      7.8850      2.4482      0.0368     12.2319     89.1850
  2096.5000      7.8800      2.4263      0.0626     13.5546     88.7422
  2096.6000      7.8800      2.4247     -0.0391     13.6562     90.3105
  2096.7000      7.8800      2.4509      0.0690     12.0665     90.4138
