~Version Information
 VERS.                                  2.0 : CWLS LAS VERSION
 WRAP.                                   NO : WRAPING MODE
 SWARE .                 MController 2.5.0E : SOFTWARE VERSION
~Well Information
 WELL.                       Parklane 43-34 : WELL
 COMP.             Evergreen Operating Corp : COMPANY
 FLD.                      Purgatorie River : FIELD
 LOC.                NE/SE Sec 34 T32S R66W : LOCATION
 DATE.                          10/04-06/04 : DATE(S) LOGGED
 SRVC.       Blanco Geological Services LLC : SERVICE COMPANY
 STAT.                                   CO : STATE
 CNTY.                           Las Animas : COUNTY
 CTRY.                                  USA : COUNTRY
 API.                       05-071-08162-00 : API NUMBER
 STRT.FT                             467.00 : START DEPTH
 STOP.FT                            2245.00 : STOP DEPTH
 STEP.FT                               1.00 : DEPTH INCREMENT
 NULL.                                -9999 : NULL VALUE
~Curve information
 DEPTH.FT                                   :
 ROP.MIN/FT                                 :
 GAS.UNITS                                  :
~ASCII Log data
# ...
     1667.00        0.233         59.5 
     1668.00        0.200         55.7 
     1669.00        0.267         49.8 
     1670.00        0.200         39.5 
     1671.00        0.233         29.7 
     1672.00        0.233         24.4 
     1673.00        0.200         25.9 
     1674.00        0.250         35.1 
     1675.00        0.233         45.8 
     1676.00        3.017        176.6 
     1677.00        0.267        116.0 
     1678.00        0.300        105.9 
     1679.00        0.233         94.1 
     1680.00        0.200         87.9 
     1681.00        0.200         84.7 
     1682.00        0.233         82.4 
     1683.00        0.300         79.8 
     1684.00        0.300         76.4 
     1685.00        0.333         72.4 
     1686.00        0.300         67.7 
     1687.00        0.300         63.2 
     1688.00        0.317         59.2 
     1689.00        0.300         56.3 
     1690.00        0.233         55.0 
     1691.00        0.233         53.9 
     1692.00        0.233         52.6 
     1693.00        0.267         51.3 
     1694.00        0.300         50.2 
     1695.00        0.267         50.0 
     1696.00        0.267         54.3 
     1697.00        0.233         55.3 
     1698.00        0.233         54.9 
     1699.00        0.233         51.0 
     1700.00        0.233         43.4 
     1701.00        0.250         32.8 
     1702.00        0.200         24.5 
     1703.00        0.200         21.4 
     1704.00        0.233         27.9 
     1705.00        0.167         35.3 
     1706.00        2.917        111.2 
     1707.00        0.233         95.1 
     1708.00        0.133         90.2 
     1709.00        0.200         88.2 
     1710.00        0.200         85.7 
     1711.00        0.367         83.4 
     1712.00        0.267         78.1 
     1713.00        0.267         73.6 
     1714.00        0.233         69.8 
     1715.00        0.233         66.5 
     1716.00        0.200         63.2 
     1717.00        0.233         60.8 
     1718.00        0.200         59.3 
     1719.00        0.217         70.5 
     1720.00        0.200         94.4 
     1721.00        0.233        121.6 
     1722.00        0.167        137.5 
     1723.00        0.200        147.0 
     1724.00        0.200        147.4 
     1725.00        0.167        142.5 
     1726.00        0.067        129.8 
     1727.00        0.100        123.4 
     1728.00        0.133        113.8 
     1729.00        0.200        102.2 
     1730.00        0.200         89.4 
     1731.00        0.133         84.8 
     1732.00        0.100         87.5 
     1733.00        0.100         92.2 
     1734.00        0.200        108.0 
     1735.00        0.200        130.3 
     1736.00        2.750        268.3 
     1737.00        0.300        191.2 
     1738.00        0.233        171.8 
     1739.00        0.233        162.2 
     1740.00        0.233        154.5 
     1741.00        0.200        147.2 
     1742.00        0.183        140.4 
     1743.00        0.167        133.4 
     1744.00        0.233        127.6 
     1745.00        0.233        120.9 
     1746.00        0.267        114.0 
     1747.00        0.233        107.9 
     1748.00        0.267        103.7 
     1749.00        0.267         99.5 
     1750.00        0.267         95.1 
     1751.00        0.167         91.6 
     1752.00        0.167         90.1 
     1753.00        0.200         88.0 
     1754.00        0.200         89.5 
     1755.00        0.200         93.1 
     1756.00        0.167         93.2 
     1757.00        0.200         91.2 
     1758.00        0.183         85.5 
     1759.00        0.200         77.6 
     1760.00        0.233         66.5 
     1761.00        0.200         54.2 
     1762.00        0.233         44.3 
     1763.00        0.233         38.5 
     1764.00        0.233         41.0 
     1765.00        0.233         52.3 
     1766.00        2.850        165.0 
     1767.00        0.433        148.1 
     1768.00        0.567        128.4 
     1769.00        0.400        114.7 
     1770.00        0.333        106.9 
     1771.00        0.383         98.8 
     1772.00        0.300         89.2 
     1773.00        0.333         84.3 
     1774.00        0.267         79.6 
     1775.00        0.300         77.3 
     1776.00        0.267         75.3 
     1777.00        0.333         72.7 
     1778.00        0.333         70.0 
     1779.00        0.400         68.4 
     1780.00        0.300         67.5 
     1781.00        0.367         66.8 
     1782.00        0.383         63.4 
     1783.00        0.333         59.0 
     1784.00        0.400         57.6 
     1785.00        0.233         56.9 
     1786.00        0.233         59.3 
     1787.00        0.267         61.2 
     1788.00        0.233         61.2 
     1789.00        0.267         60.6 
     1790.00        0.233         59.5 
     1791.00        0.233         55.2 
     1792.00        0.267         48.5 
     1793.00        0.267         43.9 
     1794.00        0.250         48.2 
     1795.00        0.267         59.9 
     1796.00        2.867        169.4 
     1797.00        0.317        124.3 
     1798.00        0.267        112.8 
     1799.00        0.200        109.0 
     1800.00        0.167        107.2 
     1801.00        0.233        105.8 
     1802.00        0.233        111.0 
     1803.00        0.167        138.0 
     1804.00        0.267        247.5 
     1805.00        0.200        399.3 
     1806.00        0.200       1243.7 
     1807.00        0.167       1395.0 
     1808.00        0.200       1516.6 
     1809.00        0.200       1607.7 
     1810.00        0.233       1669.6 
     1811.00        0.200       1710.8 
     1812.00        0.283       1748.3 
     1813.00        0.267       1758.5 
     1814.00        0.233       1756.9 
     1815.00        0.267       1740.0 
     1816.00        0.233       1681.0 
     1817.00        0.267       1620.7 
     1818.00        0.300       1544.9 
     1819.00        0.300       1532.8 
     1820.00        0.333       1450.3 
     1821.00        0.300       1348.7 
     1822.00        0.333       1253.2 
     1823.00        0.350       1098.0 
     1824.00        0.333        960.6 
     1825.00        0.300       1017.4 
     1826.00        3.383       2106.9 
     1827.00        0.300       1609.3 
     1828.00        0.333       1512.8 
     1829.00        0.333       1424.2 
     1830.00        0.267       1361.7 
     1831.00        0.267       1317.3 
     1832.00        0.300       1269.7 
     1833.00        0.300       1214.1 
     1834.00        0.300       1175.7 
     1835.00        0.283       1138.9 
     1836.00        0.267       1102.1 
     1837.00        0.267       1069.7 
     1838.00        0.267       1044.0 
     1839.00        0.233       1019.0 
     1840.00        0.233       1001.5 
     1841.00        0.267        981.5 
     1842.00        0.267        964.7 
     1843.00        0.267        951.0 
     1844.00        0.300        940.9 
     1845.00        0.300        928.5 
     1846.00        0.267        914.8 
     1847.00        0.300        944.4 
     1848.00        0.317        946.6 
     1849.00        0.333        916.4 
     1850.00        0.233        885.0 
     1851.00        0.233        849.8 
     1852.00        0.233        774.2 
     1853.00        0.267        700.9 
     1854.00        0.233        702.2 
     1855.00        0.267        800.6 
     1856.00        2.917       1647.1 
     1857.00        0.333       1374.4 
     1858.00        0.267       1259.8 
     1859.00        0.233       1189.7 
     1860.00        0.267       1138.6 
     1861.00        0.233       1098.6 
     1862.00        0.167       1064.0 
     1863.00        0.167       1031.3 
     1864.00        0.217        992.3 
     1865.00        0.200        944.4 
     1866.00        0.233        920.2 
