~Version Information
VERS.                      2.0: CWLS Log ASCII Standard - VERSION 2.0
WRAP.                       NO: One line per depth step
~Well Information Block
STRT.FT               679.2000: 
STOP.FT              2289.5000: 
STEP.FT                 0.1000: 
NULL.                -999.2500: 
COMP.          Petrogulf Corporation: COMPANY
WELL.          Anderson 18-43V: WELL
FLD.           Purgatorie River: FIELD
LOC.           1782' FSL & 887' FEL: LOCATION
CNTY.               Las Animas: COUNTY
SRVC.                         : SERVICE COMPANY
DATE.          Thu Sep 02 08:33:50 2004: LOG DATE
UWI.           05 071 08156 00: UNIQUE WELL ID
STAT.                 Colorado: STATE
~Curve Information Block
DEPT.FT            0 000 00 00: Depth
GR.GAPI                       : Gamma Ray
DCAL.in                       : CDL Caliper
DPOR.pu                       : CDL Density Porosity
NPOR.pu                       : Neutron Porosity
RHOB.g/cc                     : CDL Bulk Density
RHOC.g/cc                     : CDL Density Correction
~Parameter Information Block
~A  Depth        GR         DCAL        DPOR        NPOR        RHOB        RHOC    
# ...
  1956.0000    117.6014      7.8465      8.8115     23.4570      2.5046      0.0789
  1956.1000    119.0165      7.8465      9.4618     23.2684      2.4939      0.0363
  1956.2000    120.2755      7.8465      9.7918     23.1735      2.4884      0.0410
  1956.3000    121.2964      7.8530      9.5536     23.5918      2.4924      0.0671
  1956.4000    121.9991      7.8530      9.3442     24.2083      2.4958      0.0849
  1956.5000    122.3096      7.8863      9.5865     24.5341      2.4918      0.0778
  1956.6000    122.1721      7.8863     10.0669     24.4857      2.4839      0.0510
  1956.7000    121.5504      7.8863     10.2792     24.2428      2.4804      0.0588
  1956.8000    120.4455      7.8919     10.2512     24.0002      2.4809      0.0982
  1956.9000    118.8872      7.8919     10.2832     23.9145      2.4803      0.0410
  1957.0000    116.9393      7.9133     10.2694     23.8477      2.4806      0.0623
  1957.1000    114.6912      7.9133     10.1225     23.6026      2.4830      0.0540
  1957.2000    112.2500      7.9133      9.4992     23.5221      2.4933      0.0213
  1957.3000    109.7237      7.8895      8.1152     23.9657      2.5161      0.0760
  1957.4000    107.2135      7.8895      6.6100     24.3524      2.5409      0.0910
  1957.5000    104.7985      7.8286      5.7990     23.8982      2.5543      0.1132
  1957.6000    102.5323      7.8286      5.5694     22.9269      2.5581      0.1106
  1957.7000    100.4375      7.8286      5.2473     22.1330      2.5634      0.0852
  1957.8000     98.5140      7.8205      4.8466     21.5334      2.5700      0.1139
  1957.9000     96.7432      7.8205      4.5844     21.2300      2.5744      0.1086
  1958.0000     95.1015      7.8205      3.9497     21.6372      2.5848      0.0897
  1958.1000     93.5655      7.8205      2.9005     22.4237      2.6021      0.1422
  1958.2000     92.1208      7.8205      2.4856     22.8206      2.6090      0.1140
  1958.3000     90.7619      7.8173      3.1891     22.7682      2.5974      0.0850
  1958.4000     89.4872      7.8173      4.0327     22.4538      2.5835      0.0711
  1958.5000     88.2922      7.7177      4.0626     22.0730      2.5830      0.0991
  1958.6000     87.1611      7.7177      3.6876     22.0071      2.5892      0.1043
  1958.7000     86.0615      7.7177      3.6159     22.2684      2.5903      0.0732
  1958.8000     84.9444      7.7094      3.7375     22.5752      2.5883      0.0727
  1958.9000     83.7513      7.7094      3.7635     22.6563      2.5879      0.0851
  1959.0000     82.4208      7.7406      3.8145     22.1287      2.5871      0.0965
  1959.1000     80.9105      7.7406      3.8302     21.3176      2.5868      0.0761
  1959.2000     79.2023      7.7406      3.4280     21.0293      2.5934      0.0588
  1959.3000     77.3154      7.7464      2.6484     21.1854      2.6063      0.0923
  1959.4000     75.3021      7.7464      1.7076     21.1433      2.6218      0.0554
  1959.5000     73.2438      7.7496      0.5307     20.9598      2.6412      0.0697
  1959.6000     71.2368      7.7496     -0.7550     20.7256      2.6625      0.0603
  1959.7000     69.3786      7.7496     -1.7561     20.0970      2.6790      0.0655
  1959.8000     67.7514      7.7421     -1.9084     19.3702      2.6815      0.0771
  1959.9000     66.4160      7.7421     -1.0122     19.1438      2.6667      0.0406
  1960.0000     65.4046      7.7204      0.0345     19.1469      2.6494      0.0020
  1960.1000     64.7168      7.7204      0.1303     18.7269      2.6479     -0.0066
  1960.2000     64.3281      7.7204     -0.4953     17.9125      2.6582     -0.0530
  1960.3000     64.1936      7.7177     -1.1600     17.3249      2.6691     -0.0612
  1960.4000     64.2566      7.7177     -2.1159     17.4094      2.6849     -0.0239
  1960.5000     64.4555      7.7168     -3.2598     17.8813      2.7038      0.0778
  1960.6000     64.7350      7.7168     -3.3893     18.0446      2.7059      0.0952
  1960.7000     65.0496      7.7168     -1.9803     17.8418      2.6827      0.0887
  1960.8000     65.3706      7.7173      0.1739     17.7441      2.6471      0.0555
  1960.9000     65.6819      7.7173      1.9485     17.5729      2.6178      0.0334
  1961.0000     65.9840      7.7169      2.6469     16.9703      2.6063      0.0006
  1961.1000     66.2798      7.7169      2.4325     16.5384      2.6099      0.0409
  1961.2000     66.5705      7.7169      2.2654     16.6926      2.6126      0.0384
  1961.3000     66.8455      7.7189      2.5745     17.0181      2.6075      0.0469
  1961.4000     67.0798      7.7189      2.7600     17.4401      2.6045      0.0707
  1961.5000     67.2319      7.7255      2.7453     18.0612      2.6047      0.1262
  1961.6000     67.2505      7.7255      3.0667     18.1112      2.5994      0.0878
  1961.7000     67.0810      7.7255      3.6139     17.1309      2.5904      0.0934
  1961.8000     66.6774      7.7594      4.3687     15.8616      2.5779      0.1279
  1961.9000     66.0096      7.7594      5.1821     15.0642      2.5645      0.0495
  1962.0000     65.0673      7.7671      4.7772     14.7406      2.5712      0.0083
  1962.1000     63.8648      7.7671      3.0293     14.2876      2.6000      0.0884
  1962.2000     62.4345      7.7671      1.9814     13.8194      2.6173      0.1092
  1962.3000     60.8256      7.7666      2.7573     14.0525      2.6045      0.0377
  1962.4000     59.0979      7.7666      4.2090     14.8887      2.5806     -0.0030
  1962.5000     57.3167      7.7679      5.1515     15.6970      2.5650      0.0251
  1962.6000     55.5486      7.7679      5.8374     15.9792      2.5537      0.0138
  1962.7000     53.8608      7.7679      6.7999     15.6384      2.5378      0.0368
  1962.8000     52.3179      7.7622      7.5331     14.9628      2.5257     -0.0319
  1962.9000     50.9794      7.7622      6.8985     14.3401      2.5362     -0.0235
  1963.0000     49.8969      7.7218      4.8459     14.1833      2.5700      0.0275
  1963.1000     49.1112      7.7218      2.8499     14.7195      2.6030      0.0454
  1963.2000     48.6450      7.7218      2.1966     15.8390      2.6138      0.0572
  1963.3000     48.5029      7.7205      2.6163     16.9747      2.6068      0.0267
  1963.4000     48.6666      7.7205      3.0282     17.4238      2.6000      0.0466
  1963.5000     49.0953      7.7144      2.9402     17.2874      2.6015      0.0420
  1963.6000     49.7333      7.7144      2.6364     16.9382      2.6065      0.0575
  1963.7000     50.5138      7.7144      2.6665     16.6752      2.6060      0.0524
  1963.8000     51.3690      7.7152      3.1399     16.8774      2.5982      0.0372
  1963.9000     52.2411      7.7152      3.4972     17.4494      2.5923      0.0162
  1964.0000     53.0877      7.7143      3.4953     18.1623      2.5923      0.0406
  1964.1000     53.8922      7.7143      3.4382     18.7915      2.5933      0.0177
  1964.2000     54.6625      7.7143      3.2439     18.9913      2.5965      0.0176
  1964.3000     55.4263      7.7102      2.7234     18.9623      2.6051      0.0458
  1964.4000     56.2287      7.7102      2.0501     18.9803      2.6162      0.0265
  1964.5000     57.1182      7.7073      1.7872     18.8834      2.6205      0.0619
  1964.6000     58.1439      7.7073      2.5336     18.7442      2.6082      0.0929
  1964.7000     59.3436      7.7073      3.8679     18.7050      2.5862      0.0180
  1964.8000     60.7395      7.7063      4.8138     18.4911      2.5706      0.0118
  1964.9000     62.3379      7.7063      5.3041     18.1507      2.5625      0.0462
  1965.0000     64.1265      7.7060      5.5975     18.2010      2.5576      0.0291
  1965.1000     66.0751      7.7060      5.5470     18.9666      2.5585      0.0205
  1965.2000     68.1420      7.7060      5.2529     20.3498      2.5633      0.0438
  1965.3000     70.2712      7.7051      5.2842     21.7052      2.5628      0.0729
  1965.4000     72.3978      7.7051      5.9303     22.4046      2.5521      0.0687
  1965.5000     74.4471      7.7096      6.4536     22.5782      2.5435      0.0171
