~Version Information
 VERS.                                  2.0 : CWLS LAS VERSION
 WRAP.                                   NO : WRAPING MODE
 SWARE .                 MController 2.5.0E : SOFTWARE VERSION
~Well Information
 WELL.                        Triumph 13 10 : WELL
 COMP.             Evergreen Operating Corp : COMPANY
 FLD.                      Purgatorie River : FIELD
 LOC.                NW/SW Sec 10 T32S R66W : LOCATION
 DATE.                           7/22 23/04 : DATE(S) LOGGED
 SRVC.       Blanco Geological Services LLC : SERVICE COMPANY
 STAT.                                   CO : STATE
 CNTY.                           Las Animas : COUNTY
 CTRY.                                  USA : COUNTRY
 API.                       05 071 08108 00 : API NUMBER
 STRT.FT                             414.00 : START DEPTH
 STOP.FT                            2210.00 : STOP DEPTH
 STEP.FT                               1.00 : DEPTH INCREMENT
 NULL.                                 9999 : NULL VALUE
~Curve information
 DEPTH.FT                                   :
 ROP.MIN/FT                                 :
 GAS.UNITS                                  :
~ASCII Log data
# ...
     1814.00        0.317       1649.0 
     1815.00        0.300       1656.4 
     1816.00        0.300       1648.3 
     1817.00        0.267       1621.4 
     1818.00        0.267       1594.4 
     1819.00        0.267       1607.9 
     1820.00        0.267       1679.0 
     1821.00        0.233       1756.2 
     1822.00        0.300       1853.9 
     1823.00        0.267       1846.8 
     1824.00        0.233       1704.6 
     1825.00        0.233       1587.7 
     1826.00        3.800       4233.8 
     1827.00        0.433       3668.8 
     1828.00        0.367       3662.8 
     1829.00        0.300       3511.5 
     1830.00        0.233       2763.5 
     1831.00        0.267       2658.1 
     1832.00        0.267       2153.4 
     1833.00        0.233       1954.9 
     1834.00        0.233       1833.6 
     1835.00        0.267       1742.7 
     1836.00        0.233       1672.3 
     1837.00        0.283       1618.0 
     1838.00        0.233       1547.3 
     1839.00        0.200       1538.5 
     1840.00        0.267       1515.3 
     1841.00        0.267       1506.5 
     1842.00        0.233       1506.8 
     1843.00        0.267       1500.4 
     1844.00        0.233       1502.1 
     1845.00        0.200       1510.2 
     1846.00        0.200       1520.0 
     1847.00        0.267       1530.1 
     1848.00        0.233       1543.6 
     1849.00        0.267       1549.3 
     1850.00        0.300       1542.9 
     1851.00        0.283       1554.0 
     1852.00        0.300       1641.3 
     1853.00        0.200       1694.5 
     1854.00        0.267       1688.4 
     1855.00        0.267       1597.1 
     1856.00       13.233       4206.5 
     1857.00        0.933       3816.1 
     1858.00        0.500       3016.6 
     1859.00        0.533       2506.8 
     1860.00        0.583       1998.7 
     1861.00        0.633       1602.2 
     1862.00        0.667       1441.8 
     1863.00        0.600       1418.2 
     1864.00        0.633       1435.1 
     1865.00        0.467       1556.7 
     1866.00        0.583       1567.1 
     1867.00        0.567       1490.0 
     1868.00        0.567       1477.2 
     1869.00        0.533       1427.7 
     1870.00        0.433       1371.4 
     1871.00        0.467       1375.1 
     1872.00        0.417       1378.5 
     1873.00        0.433       1379.2 
     1874.00        0.400       1369.4 
     1875.00        0.333       1368.4 
     1876.00        0.300       1371.7 
     1877.00        0.367       1384.9 
     1878.00        0.333       1393.0 
     1879.00        0.467       1403.4 
     1880.00        0.467       1405.4 
     1881.00        0.483       1398.7 
     1882.00        0.433       1432.0 
     1883.00        0.433       1431.7 
     1884.00        0.300       1353.2 
     1885.00        0.333       1289.2 
     1886.00        3.117       4219.0 
     1887.00        0.300       4047.2 
     1888.00        0.367       3740.6 
     1889.00        0.267       2942.4 
     1890.00        0.200       2274.7 
     1891.00        0.233       2217.7 
     1892.00        0.267       2045.9 
     1893.00        0.250       1847.1 
     1894.00        0.233       1831.0 
     1895.00        0.233       1688.8 
     1896.00        0.200       1641.6 
     1897.00        0.133       1560.1 
     1898.00        0.033       1560.1 
     1899.00        0.167       1541.2 
     1900.00        0.167       1522.7 
     1901.00        0.200       1506.8 
     1902.00        0.267       1492.0 
     1903.00        0.200       1479.9 
     1904.00        0.200       1477.2 
     1905.00        0.200       1473.8 
     1906.00        0.233       1489.3 
     1907.00        0.267       1503.1 
     1908.00        0.333       1506.5 
     1909.00        0.350       1529.8 
     1910.00        0.333       1557.7 
     1911.00        0.300       1560.4 
     1912.00        0.200       1557.7 
     1913.00        0.167       1542.2 
     1914.00        0.233       1479.6 
     1915.00        0.233       1350.5 
     1916.00        3.117       4315.7 
     1917.00        0.733       4200.1 
     1918.00        0.633       3399.0 
     1919.00        0.617       2401.0 
     1920.00        0.433       1968.4 
     1921.00        0.433       1762.2 
     1922.00        0.400       1638.2 
     1923.00        0.367       1536.8 
     1924.00        0.367       1460.0 
     1925.00        0.300       1444.8 
     1926.00        0.333       1456.6 
     1927.00        0.367       1459.7 
     1928.00        0.383       1470.8 
     1929.00        0.333       1469.4 
     1930.00        0.367       1465.7 
     1931.00        0.300       1465.4 
     1932.00        0.367       1459.3 
     1933.00        0.333       1459.3 
     1934.00        0.333       1482.2 
     1935.00        0.367       1547.3 
     1936.00        0.400       1616.7 
     1937.00        0.400       1669.9 
     1938.00        0.450       1671.9 
     1939.00        0.433       1661.8 
     1940.00        0.367       1667.9 
     1941.00        0.433       1627.5 
     1942.00        0.300       1708.3 
     1943.00        0.267       1885.2 
     1944.00        0.267       1931.4 
     1945.00        0.367       1826.9 
     1946.00        3.817       5462.6 
     1947.00        1.283       4221.7 
     1948.00        0.500       2800.9 
     1949.00        0.433       2125.4 
     1950.00        0.433       2012.2 
     1951.00        0.300       1843.8 
     1952.00        0.333       1704.9 
     1953.00        0.450       1621.1 
     1954.00        0.400       1538.2 
     1955.00        0.433       1470.1 
     1956.00        0.233       1364.0 
     1957.00        0.233       1333.3 
     1958.00        0.233       1324.6 
     1959.00        0.200       1354.9 
     1960.00        0.200       1428.3 
     1961.00        0.200       1458.7 
     1962.00        0.333       1542.6 
     1963.00        0.333       1627.8 
     1964.00        0.283       1686.4 
     1965.00        0.267       1698.9 
     1966.00        0.267       1692.1 
     1967.00        0.300       1662.2 
     1968.00        0.300       1628.1 
     1969.00        0.267       1585.0 
     1970.00        0.333       1557.4 
     1971.00        0.367       1536.8 
     1972.00        0.433       1516.9 
     1973.00        0.467       1517.3 
     1974.00        0.450       1549.3 
     1975.00        0.467       1549.6 
     1976.00        5.217       4175.2 
     1977.00        0.667       3508.8 
     1978.00        0.583       2506.8 
     1979.00        0.400       1998.4 
     1980.00        0.400       1826.9 
     1981.00        0.367       1725.8 
     1982.00        0.333       1615.7 
     1983.00        0.367       1530.4 
     1984.00        0.333       1491.7 
     1985.00        0.333       1465.7 
     1986.00        0.333       1459.0 
     1987.00        0.350       1456.6 
     1988.00        0.300       1475.2 
     1989.00        0.367       1495.4 
     1990.00        0.300       1506.2 
     1991.00        0.333       1525.0 
     1992.00        0.300       1523.7 
     1993.00        0.333       1520.3 
     1994.00        0.333       1516.3 
     1995.00        0.333       1521.0 
     1996.00        0.367       1547.3 
     1997.00        0.383       1542.9 
     1998.00        0.300       1523.0 
     1999.00        0.300       1558.1 
     2000.00        0.333       1636.2 
     2001.00        0.333       1727.5 
     2002.00        0.367       1757.8 
     2003.00        0.367       1702.3 
     2004.00        0.400       1626.1 
     2005.00        0.633       1410.8 
     2006.00        3.600       5756.7 
     2007.00        1.200       3865.9 
     2008.00        0.500       2672.6 
     2009.00        0.467       2227.5 
     2010.00        0.400       1906.8 
     2011.00        0.367       1746.1 
     2012.00        0.383       1701.2 
     2013.00        0.333       1560.7 
