~Version Information
VERS.                      2.0: CWLS Log ASCII Standard - VERSION 2.0
WRAP.                       NO: One line per depth step
~Well Information Block
STRT.FT               -14.5000: 
STOP.FT              2676.5000: 
STEP.FT                 0.1000: 
NULL.                -999.2500: 
COMP.          Petrogulf Corporation: COMPANY
WELL.          Latiluppe 8-13V: WELL
FLD.           Purgatorie River: FIELD
LOC.           1069' FWL & 1647' FSL: LOCATION
CNTY.               Las Animas: COUNTY
SRVC.                         : SERVICE COMPANY
DATE.          Tue Nov 18 16:12:50 2003: LOG DATE
UWI.                          : UNIQUE WELL ID
STAT.                 Colorado: STATE
~Curve Information Block
DEPT.FT            0 000 00 00: Depth
CCL.                          : Casing Collar Locator
TT3.usec                      : CBL 3' Travel Time
AMP3.mV                       : CBL 3' Amplitude
GR.GAPI                       : Gamma Ray
~Parameter Information Block
~A  Depth       CCL         TT3         AMP3         GR     
# ...
  2477.9000      0.0000    712.3225      3.4235     79.5589
  2478.0000      0.0000    711.8923      3.3863     81.9783
  2478.1000      0.0000    711.8923      3.3863     81.9783
  2478.2000      0.0000    711.8923      3.3863     81.9783
  2478.3000      0.0000    715.3019      3.2903     82.8575
  2478.4000      0.0000    715.3019      3.2903     82.8575
  2478.5000      0.0000    720.3772      3.1997     82.4429
  2478.6000      0.0000    720.3772      3.1997     82.4429
  2478.7000      0.0000    720.3772      3.1997     82.4429
  2478.8000      0.0000    722.8524      3.1386     82.1221
  2478.9000      0.0000    722.8524      3.1386     82.1221
  2479.0000      0.0000    720.7368      3.0928     83.2773
  2479.1000      2.0000    720.7368      3.0928     83.2773
  2479.2000     -2.0000    720.7368      3.0928     83.2773
  2479.3000      0.0000    717.0497      3.0498     86.1437
  2479.4000      0.0000    717.0497      3.0498     86.1437
  2479.5000      0.0000    716.4600      3.0008     89.7480
  2479.6000      0.0000    716.4600      3.0008     89.7480
  2479.7000      0.0000    716.4600      3.0008     89.7480
  2479.8000      0.0000    720.3774      2.9362     92.6592
  2479.9000      0.0000    720.3774      2.9362     92.6592
  2480.0000      0.0000    727.5034      2.8601     93.5856
  2480.1000      0.0000    727.5034      2.8601     93.5856
  2480.2000      0.0000    727.5034      2.8601     93.5856
  2480.3000      0.0000    737.3993      2.7796     91.5121
  2480.4000      0.0000    737.3993      2.7796     91.5121
  2480.5000      0.0000    749.9559      2.6839     85.9230
  2480.6000      0.0000    749.9559      2.6839     85.9230
  2480.7000      0.0000    749.9559      2.6839     85.9230
  2480.8000      0.0000    762.0978      2.5702     77.3115
  2480.9000      0.0000    762.0978      2.5702     77.3115
  2481.0000      0.0000    769.1145      2.4754     67.2952
  2481.1000      0.0000    769.1145      2.4754     67.2952
  2481.2000      0.0000    769.1145      2.4754     67.2952
  2481.3000      0.0000    770.0865      2.4389     57.9739
  2481.4000      0.0000    770.0865      2.4389     57.9739
  2481.5000      0.0000    769.0306      2.4486     51.1163
  2481.6000      0.0000    769.0306      2.4486     51.1163
  2481.7000      0.0000    769.0306      2.4486     51.1163
  2481.8000      0.0000    770.0280      2.4624     47.7114
  2481.9000      0.0000    770.0280      2.4624     47.7114
  2482.0000      0.0000    774.0578      2.4670     47.7460
  2482.1000      0.0000    774.0578      2.4670     47.7460
  2482.2000      0.0000    774.0578      2.4670     47.7460
  2482.3000      0.0000    781.0342      2.4782     50.2939
  2482.4000      0.0000    781.0342      2.4782     50.2939
  2482.5000      0.0000    791.6901      2.4995     54.1711
  2482.6000      0.0000    791.6901      2.4995     54.1711
  2482.7000      0.0000    791.6901      2.4995     54.1711
  2482.8000      0.0000    805.9966      2.5245     58.6381
  2482.9000      0.0000    805.9966      2.5245     58.6381
  2483.0000      0.0000    821.4633      2.5714     63.4001
  2483.1000      0.0000    821.4633      2.5714     63.4001
  2483.2000      0.0000    821.4633      2.5714     63.4001
  2483.3000      0.0000    834.1755      2.6710     68.0678
  2483.4000      0.0000    834.1755      2.6710     68.0678
  2483.5000      0.0000    841.3707      2.8190     71.8545
  2483.6000      0.0000    841.3707      2.8190     71.8545
  2483.7000      0.0000    841.3707      2.8190     71.8545
  2483.8000      0.0000    843.2225      2.9815     74.1030
  2483.9000      0.0000    843.2225      2.9815     74.1030
  2484.0000      0.0000    842.3322      3.1565     75.2109
  2484.1000      0.0000    842.3322      3.1565     75.2109
  2484.2000      0.0000    842.3322      3.1565     75.2109
  2484.3000      0.0000    841.1996      3.3826     76.5229
  2484.4000      0.0000    841.1996      3.3826     76.5229
  2484.5000      0.0000    840.3553      3.6604     78.9689
  2484.6000      0.0000    840.3553      3.6604     78.9689
  2484.7000      0.0000    840.3553      3.6604     78.9689
  2484.8000      0.0000    839.0875      3.9070     82.1741
  2484.9000      0.0000    839.0875      3.9070     82.1741
  2485.0000      0.0000    837.1933      4.0337     85.0646
  2485.1000      0.0000    837.1933      4.0337     85.0646
  2485.2000      0.0000    837.1933      4.0337     85.0646
  2485.3000      0.0000    835.3066      4.0515     86.9355
  2485.4000      0.0000    835.3066      4.0515     86.9355
  2485.5000      0.0000    834.0250      4.0490     87.8252
  2485.6000      0.0000    834.0250      4.0490     87.8252
  2485.7000      0.0000    834.0250      4.0490     87.8252
  2485.8000      0.0000    833.3616      4.0648     88.1283
  2485.9000      0.0000    833.3616      4.0648     88.1283
  2486.0000      0.0000    832.9406      4.0422     87.9917
  2486.1000      0.0000    832.9406      4.0422     87.9917
  2486.2000      0.0000    832.9406      4.0422     87.9917
  2486.3000      0.0000    832.3104      3.9412     87.1840
  2486.4000      0.0000    832.3104      3.9412     87.1840
  2486.5000      0.0000    831.1188      3.8389     85.6396
  2486.6000      0.0000    831.1188      3.8389     85.6396
  2486.7000      0.0000    831.1188      3.8389     85.6396
  2486.8000      0.0000    829.2968      3.8535     83.8346
  2486.9000      0.0000    829.2968      3.8535     83.8346
  2487.0000      0.0000    827.2128      3.9851     82.3830
  2487.1000      0.0000    827.2128      3.9851     82.3830
  2487.2000      0.0000    827.2128      3.9851     82.3830
  2487.3000      0.0000    825.3134      4.1019     81.4701
  2487.4000      0.0000    825.3134      4.1019     81.4701
  2487.5000      0.0000    823.2921      4.0998     80.9072
  2487.6000      0.0000    823.2921      4.0998     80.9072
  2487.7000      0.0000    823.2921      4.0998     80.9072
  2487.8000      0.0000    819.8425      4.0223     80.6397
  2487.9000      0.0000    819.8425      4.0223     80.6397
  2488.0000      0.0000    813.6296      3.9847     80.9070
  2488.1000      0.0000    813.6296      3.9847     80.9070
  2488.2000      0.0000    813.6296      3.9847     80.9070
  2488.3000      0.0000    804.3960      4.0071     81.8065
  2488.4000      0.0000    804.3960      4.0071     81.8065
  2488.5000      0.0000    792.9833      3.9801     82.9353
  2488.6000      0.0000    792.9833      3.9801     82.9353
  2488.7000      0.0000    792.9833      3.9801     82.9353
  2488.8000      0.0000    780.7424      3.8082     83.6523
  2488.9000      0.0000    780.7424      3.8082     83.6523
  2489.0000      0.0000    769.2898      3.5480     83.6504
  2489.1000      0.0000    769.2898      3.5480     83.6504
  2489.2000      0.0000    769.2898      3.5480     83.6504
  2489.3000      0.0000    760.2778      3.3635     83.2618
  2489.4000      0.0000    760.2778      3.3635     83.2618
  2489.5000      0.0000    754.6286      3.3514     83.1821
  2489.6000      0.0000    754.6286      3.3514     83.1821
  2489.7000      0.0000    754.6286      3.3514     83.1821
  2489.8000      0.0000    751.8951      3.4379     83.9194
  2489.9000      0.0000    751.8951      3.4379     83.9194
  2490.0000      0.0000    750.6597      3.4644     85.7418
  2490.1000      0.0000    750.6597      3.4644     85.7418
  2490.2000      0.0000    750.6597      3.4644     85.7418
  2490.3000      0.0000    749.5952      3.3595     88.9793
  2490.4000      0.0000    749.5952      3.3595     88.9793
  2490.5000      0.0000    748.3264      3.2109     93.6161
  2490.6000      0.0000    748.3264      3.2109     93.6161
  2490.7000      0.0000    748.3264      3.2109     93.6161
  2490.8000      0.0000    747.5769      3.1602     98.4798
  2490.9000      0.0000    747.5769      3.1602     98.4798
  2491.0000      0.0000    748.2781      3.2389    101.6442
  2491.1000      0.0000    748.2781      3.2389    101.6442
  2491.2000      0.0000    748.2781      3.2389    101.6442
