~Version Information
VERS.                      2.0: CWLS Log ASCII Standard - VERSION 2.0
WRAP.                       NO: One line per depth step
~Well Information Block
STRT.FT               350.0000: 
STOP.FT              1390.0000: 
STEP.FT                 0.1000: 
NULL.                -999.2500: 
COMP.          Petrogulf Corporation: COMPANY
WELL.             Leier 17-42R: WELL
FLD.           Purgatorie River: FIELD
LOC.           2398' FNL & 1109' FEL: LOCATION
PROV.                 Colorado: PROVINCE
CNTY.               Las Animas: COUNTRY
SRVC.                Patterson: SERVICE COMPANY
DATE.          Tue Oct 18 07:06:44 2005: LOG DATE
UWI.                          : UNIQUE WELL ID
~Curve Information Block
DEPT.FT            0 000 00 00: Depth
DCAL.in                       : CDL Caliper
RHOB.g/cc                     : CDL Bulk Density
RHOC.g/cc                     : CDL Density Correction
DPOR.pu                       : CDL Density Porosity
GR.GAPI                       : Gamma Ray
NPOR.pu                       : Neutron Porosity
~Parameter Information Block
~A  Depth       DCAL        RHOB        RHOC        DPOR         GR         NPOR    
# ...
   484.4000      8.1224      2.4505      0.0558     12.0890     66.5173     17.6566
   484.5000      8.1394      2.4351      0.0362     13.0238     69.2601     17.6861
   484.6000      8.1394      2.4178      0.0109     14.0748     71.5844     17.8359
   484.7000      8.1394      2.4089      0.0725     14.6139     72.4730     17.9381
   484.8000      8.1432      2.4132      0.0259     14.3494     71.3214     17.9711
   484.9000      8.1432      2.4362      0.0468     12.9553     67.5035     17.9132
   485.0000      8.1625      2.4833      0.0460     10.1037     64.2712     17.5997
   485.1000      8.1625      2.5496      0.1166      6.0879     64.1272     17.2434
   485.2000      8.1625      2.6155      0.1705      2.0893     65.3277     17.0307
   485.3000      8.1637      2.6646      0.2021     -0.8828     66.6126     16.7089
   485.4000      8.1637      2.6899      0.2297     -2.4165     67.0020     16.2044
   485.5000      8.1553      2.6908      0.1914     -2.4723     65.1474     15.5734
   485.6000      8.1553      2.6727      0.1454     -1.3773     62.1713     14.9627
   485.7000      8.1553      2.6473      0.0871      0.1642     59.9965     14.6845
   485.8000      8.1086      2.6241      0.0771      1.5677     59.1048     14.6256
   485.9000      8.1086      2.6028      0.0198      2.8614     59.5343     14.3401
   486.0000      8.0410      2.5766      0.0213      4.4472     60.2435     13.7175
   486.1000      8.0410      2.5487     -0.0148      6.1389     60.6814     12.7795
   486.2000      8.0410      2.5409     -0.0343      6.6095     62.3304     11.6915
   486.3000      8.0058      2.5635     -0.0209      5.2416     65.0203     10.8439
   486.4000      8.0058      2.5946      0.0534      3.3599     66.7063     10.3542
   486.5000      7.9916      2.6077      0.0463      2.5653     65.8228     10.1406
   486.6000      7.9916      2.6054      0.0094      2.7023     63.0114      9.9772
   486.7000      7.9916      2.6092      0.0627      2.4709     60.2408      9.7772
   486.8000      7.9800      2.6276      0.0238      1.3579     59.5143      9.6861
   486.9000      7.9800      2.6576      0.0436     -0.4635     61.9581      9.6076
   487.0000      7.9845      2.6900      0.0789     -2.4216     65.6568      9.4833
   487.1000      7.9845      2.7091      0.0804     -3.5803     67.8800      9.5615
   487.2000      7.9845      2.7088      0.0702     -3.5640     68.1305      9.9537
   487.3000      8.0260      2.6910      0.0649     -2.4861     67.8076     10.3189
   487.4000      8.0260      2.6594      0.0468     -0.5719     68.7294     10.3209
   487.5000      8.0178      2.6241      0.0039      1.5715     71.0946     10.0993
   487.6000      8.0178      2.5894     -0.0012      3.6727     74.5021      9.9861
   487.7000      8.0178      2.5467      0.0184      6.2606     78.8126     10.1267
   487.8000      8.0175      2.4898     -0.0059      9.7110     81.6289     10.5075
   487.9000      8.0175      2.4216     -0.0394     13.8412     83.3995     11.2511
   488.0000      8.0047      2.3522     -0.0674     18.0494     87.6044     12.4834
   488.1000      8.0047      2.2940     -0.0699     21.5731     94.5612     13.9544
   488.2000      8.0047      2.2461     -0.0270     24.4766    102.4039     15.4585
   488.3000      7.9800      2.1980     -0.0480     27.3965    110.1546     17.3554
   488.4000      7.9800      2.1572     -0.0684     29.8687    118.4090     19.9294
   488.5000      7.9646      2.1383      0.0150     31.0149    126.9833     22.5918
   488.6000      7.9646      2.1295      0.0489     31.5469    131.6001     24.5390
   488.7000      7.9646      2.1061      0.0783     32.9623    128.3626     25.9458
   488.8000      7.9561      2.0571      0.0845     35.9363    122.9088     27.5174
   488.9000      7.9561      1.9864      0.0340     40.2177    122.2969     29.2859
   489.0000      7.9668      1.9064      0.0055     45.0639    124.1419     30.6780
   489.1000      7.9668      1.8358     -0.0515     49.3481    124.5222     31.4114
   489.2000      7.9668      1.7955     -0.0611     51.7893    123.9094     31.5274
   489.3000      7.9806      1.7933     -0.0434     51.9232    125.3780     31.2911
   489.4000      7.9806      1.8215     -0.0181     50.2149    131.8607     31.2823
   489.5000      7.9975      1.8702      0.0423     47.2597    139.0788     31.6206
   489.6000      7.9975      1.9362      0.0662     43.2608    139.9776     31.9033
   489.7000      7.9975      2.0205      0.1617     38.1524    136.7496     32.0307
   489.8000      8.0006      2.1226      0.1745     31.9648    135.5600     32.1413
   489.9000      8.0006      2.2367      0.2081     25.0495    136.3299     32.1659
   490.0000      8.0133      2.3413      0.2413     18.7101    137.7162     31.8705
   490.1000      8.0133      2.4184      0.1809     14.0348    140.6506     31.1983
   490.2000      8.0133      2.4771      0.0641     10.4788    143.5578     30.4033
   490.3000      8.0534      2.5269      0.0893      7.4622    143.0890     29.8214
   490.4000      8.0534      2.5635      0.0639      5.2411    137.1427     29.6499
   490.5000      8.0511      2.5878      0.0773      3.7697    130.5414     29.6713
   490.6000      8.0511      2.6013      0.0656      2.9500    131.0588     29.5000
   490.7000      8.0511      2.6080      0.0433      2.5473    136.5162     29.1480
   490.8000      8.0621      2.6182      0.0828      1.9272    139.0623     28.5939
   490.9000      8.0621      2.6282      0.1238      1.3240    136.7891     27.7424
   491.0000      8.0711      2.6295      0.0803      1.2396    132.9247     26.9837
   491.1000      8.0711      2.6261      0.0672      1.4483    131.4773     26.7754
   491.2000      8.0711      2.6214      0.0522      1.7330    132.6847     26.9067
   491.3000      8.0832      2.6109      0.0768      2.3671    134.9099     26.7672
   491.4000      8.0832      2.5893      0.0753      3.6766    138.9408     26.2642
   491.5000      8.1010      2.5608      0.0458      5.4066    144.3836     25.8519
   491.6000      8.1010      2.5336      0.0258      7.0536    151.0719     25.7582
   491.7000      8.1010      2.5148      0.0446      8.1915    159.5531     25.7916
   491.8000      8.1175      2.5054      0.0503      8.7636    164.8923     25.7666
   491.9000      8.1175      2.5050      0.0167      8.7859    161.2754     25.7192
   492.0000      8.1086      2.5182      0.0315      7.9896    151.9905     25.8380
   492.1000      8.1086      2.5348      0.0956      6.9814    145.0132     26.1658
   492.2000      8.1086      2.5361      0.0920      6.9008    141.8992     26.4987
   492.3000      8.0803      2.5263      0.0343      7.4982    139.4140     26.8328
   492.4000      8.0803      2.5174      0.0761      8.0394    137.0273     27.3168
   492.5000      8.0816      2.5106      0.0515      8.4512    137.8974     27.7767
   492.6000      8.0816      2.5152     -0.0124      8.1680    141.0057     28.1060
   492.7000      8.0816      2.5324      0.0633      7.1301    140.7401     28.4650
   492.8000      8.0909      2.5373      0.0590      6.8294    139.3211     28.7073
   492.9000      8.0909      2.5273     -0.0313      7.4343    143.1042     28.4354
   493.0000      8.1039      2.5260      0.0058      7.5149    149.7633     27.7768
   493.1000      8.1039      2.5327      0.0236      7.1100    153.0744     27.3844
   493.2000      8.1039      2.5396     -0.0127      6.6935    152.1042     27.5663
   493.3000      8.1069      2.5562      0.0017      5.6858    147.7473     28.0289
   493.4000      8.1069      2.5714      0.1201      4.7614    143.5287     28.3392
   493.5000      8.0890      2.5613      0.0425      5.3782    144.0760     28.3264
   493.6000      8.0890      2.5376      0.0175      6.8140    147.4056     28.1602
   493.7000      8.0890      2.5210      0.0377      7.8152    148.9510     27.8990
   493.8000      8.0942      2.5033      0.0536      8.8895    148.7858     27.6871
   493.9000      8.0942      2.4786      0.0168     10.3889    148.7694     27.8805
