~Version Information
 VERS.                                  2.0 : CWLS LAS VERSION
 WRAP.                                   NO : WRAPING MODE
 SWARE .                 MController 2.5.0E : SOFTWARE VERSION
~Well Information
 WELL.                    Dude canyon 22-32 : WELL
 COMP.    Pioneer Natural Resources USA Inc : COMPANY
 FLD.                      Purgatoire River : FIELD
 LOC.                SE/NW Sec 32 T32S R67W : LOCATION
 DATE.                         3/06-07/2005 : DATE(S) LOGGED
 SRVC.       Blanco Geological Services LLC : SERVICE COMPANY
 STAT.                                   CO : STATE
 CNTY.                           Las Animas : COUNTY
 CTRY.                                  USA : COUNTRY
 API.                       05-071-08257-00 : API NUMBER
 STRT.FT                             494.00 : START DEPTH
 STOP.FT                            2760.00 : STOP DEPTH
 STEP.FT                               1.00 : DEPTH INCREMENT
 NULL.                                -9999 : NULL VALUE
~Curve information
 DEPTH.FT                                   :
 ROP.MIN/FT                                 :
 GAS.UNITS                                  :
~ASCII Log data
# ...
     1094.00        0.600          1.9 
     1095.00        0.650          1.8 
     1096.00        0.700          2.2 
     1097.00        0.633          2.2 
     1098.00        0.567          1.6 
     1099.00        0.533          1.2 
     1100.00        0.583          1.4 
     1101.00        0.667          1.5 
     1102.00        0.567          1.5 
     1103.00        0.267          1.2 
     1104.00        0.300          1.2 
     1105.00        0.333          1.3 
     1106.00        0.333          1.7 
     1107.00        0.333          2.2 
     1108.00        0.367          3.4 
     1109.00        0.383          4.6 
     1110.00        9.100        248.4 
     1111.00        0.300          0.8 
     1112.00        0.383          0.7 
     1113.00        0.267          0.5 
     1114.00        0.267          0.6 
     1115.00        0.433          0.9 
     1116.00        0.467          1.1 
     1117.00        0.467          0.9 
     1118.00        0.500          1.4 
     1119.00        0.467          1.4 
     1120.00        0.450          1.3 
     1121.00        0.400          1.6 
     1122.00        0.400          1.5 
     1123.00        0.467          1.7 
     1124.00        0.600          2.2 
     1125.00        0.700          2.4 
     1126.00        0.500          1.3 
     1127.00        0.383          0.6 
     1128.00        0.333          0.5 
     1129.00        0.300          0.5 
     1130.00        0.333          0.6 
     1131.00        0.500          0.8 
     1132.00        0.467          1.2 
     1133.00        0.533          1.6 
     1134.00        0.600          1.3 
     1135.00        0.683          1.1 
     1136.00        0.633          1.4 
     1137.00        0.667          0.7 
     1138.00        0.567          0.6 
     1139.00        0.567          2.4 
     1140.00        7.083         82.4 
     1141.00        0.633         12.8 
     1142.00        0.733          1.2 
     1143.00        0.633          0.9 
     1144.00        0.667          0.7 
     1145.00        0.500          0.6 
     1146.00        0.417          0.6 
     1147.00        0.367          0.8 
     1148.00        0.400          0.3 
     1149.00        0.433          0.1 
     1150.00        0.433          0.2 
     1151.00        0.433         -0.2 
     1152.00        0.267          0.0 
     1153.00        0.300         -0.2 
     1154.00        0.450          0.0 
     1155.00        0.467         -0.1 
     1156.00        0.533          0.1 
     1157.00        0.467          0.2 
     1158.00        0.500          0.7 
     1159.00        0.600          5.4 
     1160.00        0.750         11.1 
     1161.00        0.467          8.0 
     1162.00        0.367          2.2 
     1163.00        0.433          6.1 
     1164.00        0.567          6.6 
     1165.00        0.600          2.7 
     1166.00        0.433         -0.2 
     1167.00        0.433          1.7 
     1168.00        0.417          2.1 
     1169.00        0.567          4.2 
     1170.00        0.433          7.1 
     1171.00        6.000         92.9 
     1172.00        0.367         21.3 
     1173.00        0.433         31.8 
     1174.00        0.333         38.6 
     1175.00        0.333         40.2 
     1176.00        0.267         39.4 
     1177.00        0.267         33.7 
     1178.00        0.267         24.7 
     1179.00        0.233         15.6 
     1180.00        0.250          8.8 
     1181.00        0.233          4.5 
     1182.00        0.200          2.4 
     1183.00        0.533          1.9 
     1184.00        0.600          1.4 
     1185.00        0.500          1.6 
     1186.00        0.433          1.4 
     1187.00        0.500          1.7 
     1188.00        0.717          1.9 
     1189.00        0.733          2.3 
     1190.00        0.533          1.7 
     1191.00        0.467          1.2 
     1192.00        0.900          1.3 
     1193.00        0.383          1.0 
     1194.00        0.500          0.9 
     1195.00        0.600          1.2 
     1196.00        0.467          2.3 
     1197.00        0.567          5.2 
     1198.00        0.467          9.5 
     1199.00        0.433         13.2 
     1200.00        0.350         15.2 
     1201.00        5.783         49.8 
     1202.00        0.533         15.3 
     1203.00        0.383          3.8 
     1204.00        0.533          3.3 
     1205.00        0.367          2.8 
     1206.00        0.367          8.4 
     1207.00        0.400         15.7 
     1208.00        0.400         21.6 
     1209.00        0.433         21.4 
     1210.00        0.400         19.2 
     1211.00        0.283         12.2 
     1212.00        0.267          8.0 
     1213.00        0.267          3.8 
     1214.00        0.267          1.9 
     1215.00        0.267          0.7 
     1216.00        0.300          0.5 
     1217.00        0.333          0.4 
     1218.00        0.500          0.7 
     1219.00        0.500          0.8 
     1220.00        0.433          0.8 
     1221.00        0.417          0.4 
     1222.00        0.533          0.5 
     1223.00        0.433          0.7 
     1224.00        0.433          4.3 
     1225.00        0.433          5.5 
     1226.00        0.467          4.6 
     1227.00        0.367          2.2 
     1228.00        0.367          1.3 
     1229.00        0.250          1.1 
     1230.00        0.200          1.6 
     1231.00        7.767         64.0 
     1232.00        0.300          1.6 
     1233.00        0.400          0.7 
     1234.00        0.333          0.5 
     1235.00        0.500          0.5 
     1236.00        0.550          1.1 
     1237.00        0.533          1.0 
     1238.00        0.533          1.2 
     1239.00        0.567          1.0 
     1240.00        0.533          1.0 
     1241.00        0.500          1.2 
     1242.00        0.333          1.2 
     1243.00        0.350          0.9 
     1244.00        0.500          0.9 
     1245.00        0.767          0.6 
     1246.00        0.367          0.8 
     1247.00        0.333          0.9 
     1248.00        0.400          0.7 
     1249.00        0.367          0.8 
     1250.00        0.333          1.2 
     1251.00        0.383          2.0 
     1252.00        0.600          5.2 
     1253.00        0.567          7.7 
     1254.00        0.467          8.3 
     1255.00        0.433          6.4 
     1256.00        0.367          2.0 
     1257.00        0.333          1.0 
     1258.00        0.350          1.1 
     1259.00        0.300          2.3 
     1260.00        0.233          3.8 
     1261.00        7.467         63.6 
     1262.00        0.433          4.6 
     1263.00        0.433          1.7 
     1264.00        0.533          0.8 
     1265.00        0.650          0.5 
     1266.00        0.500          0.5 
     1267.00        0.367          0.2 
     1268.00        0.367          0.4 
     1269.00        0.433          0.2 
     1270.00        0.300          0.3 
     1271.00        0.300          0.5 
     1272.00        0.300          0.4 
     1273.00        0.300          1.0 
     1274.00        0.333          1.3 
     1275.00        0.317          1.0 
     1276.00        0.333          0.6 
     1277.00        0.267          0.5 
     1278.00        0.400          0.3 
     1279.00        0.367          0.0 
     1280.00        0.500          0.2 
     1281.00        0.400          0.4 
     1282.00        0.400          4.1 
     1283.00        0.450         16.0 
     1284.00        0.433         17.0 
     1285.00        0.400         13.5 
     1286.00        0.367          6.6 
     1287.00        0.400          2.1 
     1288.00        0.200          0.5 
     1289.00        0.267          0.5 
     1290.00        0.267          0.8 
     1291.00        6.833         65.6 
     1292.00        0.533          0.7 
     1293.00        0.583          0.6 
