~Version Information
VERS.                      2.0: CWLS Log ASCII Standard - VERSION 2.0
WRAP.                       NO: One line per depth step
~Well Information Block
STRT.FT               221.2000: 
STOP.FT              2260.4000: 
STEP.FT                 0.1000: 
NULL.                -999.2500: 
COMP.          Petrogulf Corporation: COMPANY
WELL.          Anderson 18-43V: WELL
FLD.           Purgatorie River: FIELD
LOC.           1782' FSL & 887' FEL--: LOCATION
CNTY.               Las Animas: COUNTY
SRVC.                         : SERVICE COMPANY
DATE.          Mon Sep 13 14:11:09 2004: LOG DATE
UWI.                          : UNIQUE WELL ID
STAT.                       CO: STATE
~Curve Information Block
DEPT.FT            0 000 00 00: Depth
TT3.usec                      : CBL 3' Travel Time
AMP3.mV                       : CBL 3' Amplitude
GR.GAPI                       : Gamma Ray
CCL.                          : Casing Collar Locator
~Parameter Information Block
~A  Depth       TT3         AMP3         GR         CCL     
# ...
  1440.6000    648.3651      2.1329    166.9443      0.0000
  1440.7000    648.3651      2.1329    166.9443      0.0000
  1440.8000    650.6636      2.0972    163.2910      0.0000
  1440.9000    650.6636      2.0972    163.2910      0.0000
  1441.0000    656.9562      2.0525    161.3218      0.0000
  1441.1000    656.9562      2.0525    161.3218      0.0000
  1441.2000    656.9562      2.0525    161.3218      0.0000
  1441.3000    663.8086      2.0113    160.9445      0.0000
  1441.4000    663.8086      2.0113    160.9445      0.0000
  1441.5000    668.6528      1.9812    160.8679      0.0000
  1441.6000    668.6528      1.9812    160.8679      0.0000
  1441.7000    668.6528      1.9812    160.8679      0.0000
  1441.8000    670.8779      1.9552    160.5276      0.0000
  1441.9000    670.8779      1.9552    160.5276      0.0000
  1442.0000    671.0637      1.9269    160.1126      0.0000
  1442.1000    671.0637      1.9269    160.1126      0.0000
  1442.2000    671.0637      1.9269    160.1126      0.0000
  1442.3000    669.9011      1.9030    159.5025      0.0000
  1442.4000    669.9011      1.9030    159.5025      0.0000
  1442.5000    667.6677      1.8943    157.8696      0.0000
  1442.6000    667.6677      1.8943    157.8696      0.0000
  1442.7000    667.6677      1.8943    157.8696      0.0000
  1442.8000    664.1647      1.8991    154.2518      0.0000
  1442.9000    664.1647      1.8991    154.2518      0.0000
  1443.0000    659.0073      1.9061    148.5299      0.0000
  1443.1000    659.0073      1.9061    148.5299      0.0000
  1443.2000    659.0073      1.9061    148.5299      0.0000
  1443.3000    652.2718      1.9110    141.9845      0.0000
  1443.4000    652.2718      1.9110    141.9845      0.0000
  1443.5000    644.9990      1.9206    136.8062      0.0000
  1443.6000    644.9990      1.9206    136.8062      0.0000
  1443.7000    644.9990      1.9206    136.8062      0.0000
  1443.8000    638.9169      1.9417    134.7424      0.0000
  1443.9000    638.9169      1.9417    134.7424      0.0000
  1444.0000    635.4745      1.9757    135.8672      0.0000
  1444.1000    635.4745      1.9757    135.8672      0.0000
  1444.2000    635.4745      1.9757    135.8672      0.0000
  1444.3000    634.9538      2.0230    138.4924      0.0000
  1444.4000    634.9538      2.0230    138.4924      0.0000
  1444.5000    636.2839      2.0813    140.3425      0.0000
  1444.6000    636.2839      2.0813    140.3425      0.0000
  1444.7000    636.2839      2.0813    140.3425      0.0000
  1444.8000    637.8117      2.1372    139.9746      0.0000
  1444.9000    637.8117      2.1372    139.9746      0.0000
  1445.0000    638.6992      2.1706    137.3688      0.0000
  1445.1000    638.6992      2.1706    137.3688      0.0000
  1445.2000    638.6992      2.1706    137.3688      0.0000
  1445.3000    639.6616      2.1709    133.5257      0.0000
  1445.4000    639.6616      2.1709    133.5257      0.0000
  1445.5000    641.9607      2.1479    129.7296      0.0000
  1445.6000    641.9607      2.1479    129.7296      0.0000
  1445.7000    641.9607      2.1479    129.7296      0.0000
  1445.8000    645.5349      2.1246    127.0576      0.0000
  1445.9000    645.5349      2.1246    127.0576      0.0000
  1446.0000    648.4789      2.1203    126.3638      0.0000
  1446.1000    648.4789      2.1203    126.3638      0.0000
  1446.2000    648.4789      2.1203    126.3638      0.0000
  1446.3000    648.7621      2.1392    128.4193      0.0000
  1446.4000    648.7621      2.1392    128.4193      0.0000
  1446.5000    646.4214      2.1715    133.6009      0.0000
  1446.6000    646.4214      2.1715    133.6009      0.0000
  1446.7000    646.4214      2.1715    133.6009      0.0000
  1446.8000    643.7220      2.2040    141.2426      0.0000
  1446.9000    643.7220      2.2040    141.2426      0.0000
  1447.0000    642.9663      2.2239    149.5680      0.0000
  1447.1000    642.9663      2.2239    149.5680      0.0000
  1447.2000    642.9663      2.2239    149.5680      0.0000
  1447.3000    644.1912      2.2187    156.5551      0.0000
  1447.4000    644.1912      2.2187    156.5551      0.0000
  1447.5000    645.0840      2.1823    161.2814      0.0000
  1447.6000    645.0840      2.1823    161.2814      0.0000
  1447.7000    645.0840      2.1823    161.2814      0.0000
  1447.8000    643.3745      2.1278    164.8452      0.0000
  1447.9000    643.3745      2.1278    164.8452      0.0000
  1448.0000    639.4340      2.0838    169.4901      0.0000
  1448.1000    639.4340      2.0838    169.4901      0.0000
  1448.2000    639.4340      2.0838    169.4901      0.0000
  1448.3000    636.1942      2.0706    175.9416      0.0000
  1448.4000    636.1942      2.0706    175.9416      0.0000
  1448.5000    636.1679      2.0835    181.8553      0.0000
  1448.6000    636.1679      2.0835    181.8553      0.0000
  1448.7000    636.1679      2.0835    181.8553      0.0000
  1448.8000    638.8912      2.1041    183.7594      0.0000
  1448.9000    638.8912      2.1041    183.7594      0.0000
  1449.0000    641.9020      2.1216    180.1664      0.0000
  1449.1000    641.9020      2.1216    180.1664      0.0000
  1449.2000    641.9020      2.1216    180.1664      0.0000
  1449.3000    643.9686      2.1344    172.0043      0.0000
  1449.4000    643.9686      2.1344    172.0043      0.0000
  1449.5000    646.3687      2.1388    160.9328      0.0000
  1449.6000    646.3687      2.1388    160.9328      0.0000
  1449.7000    646.3687      2.1388    160.9328      0.0000
  1449.8000    650.8503      2.1293    148.6194      0.0000
  1449.9000    650.8503      2.1293    148.6194      0.0000
  1450.0000    657.2139      2.1103    137.2707      0.0000
  1450.1000    657.2139      2.1103    137.2707      0.0000
  1450.2000    657.2139      2.1103    137.2707      0.0000
  1450.3000    663.2435      2.0948    129.6577      0.0000
  1450.4000    663.2435      2.0948    129.6577      0.0000
  1450.5000    666.2614      2.0878    128.2002      0.0000
  1450.6000    666.2614      2.0878    128.2002      0.0000
  1450.7000    666.2614      2.0878    128.2002      0.0000
  1450.8000    664.3224      2.0811    133.6164      0.0000
  1450.9000    664.3224      2.0811    133.6164      0.0000
  1451.0000    656.8694      2.0685    143.9081      0.0000
  1451.1000    656.8694      2.0685    143.9081      0.0000
  1451.2000    656.8694      2.0685    143.9081      0.0000
  1451.3000    645.5696      2.0606    154.8665      0.0000
  1451.4000    645.5696      2.0606    154.8665      0.0000
  1451.5000    634.3929      2.0784    162.4634      0.0000
  1451.6000    634.3929      2.0784    162.4634      0.0000
  1451.7000    634.3929      2.0784    162.4634      0.0000
  1451.8000    627.5217      2.1292    165.3452      0.0000
  1451.9000    627.5217      2.1292    165.3452      0.0000
  1452.0000    626.4595      2.1915    165.1374      0.0000
  1452.1000    626.4595      2.1915    165.1374      0.0000
  1452.2000    626.4595      2.1915    165.1374      0.0000
  1452.3000    629.4739      2.2319    164.4630      0.0000
  1452.4000    629.4739      2.2319    164.4630      0.0000
  1452.5000    633.7473      2.2426    164.6607      0.0000
  1452.6000    633.7473      2.2426    164.6607      0.0000
  1452.7000    633.7473      2.2426    164.6607      0.0000
  1452.8000    637.4899      2.2537    165.4046      0.0000
  1452.9000    637.4899      2.2537    165.4046      0.0000
  1453.0000    640.2466      2.3049    166.2105      0.0000
  1453.1000    640.2466      2.3049    166.2105      0.0000
  1453.2000    640.2466      2.3049    166.2105      0.0000
  1453.3000    642.1680      2.4054    167.7034      0.0000
  1453.4000    642.1680      2.4054    167.7034      0.0000
  1453.5000    643.4890      2.5300    171.3114      0.0000
  1453.6000    643.4890      2.5300    171.3114      0.0000
  1453.7000    643.4890      2.5300    171.3114      0.0000
  1453.8000    644.4452      2.6514    178.2429      0.0000
  1453.9000    644.4452      2.6514    178.2429      0.0000
