~Version Information
VERS.                      2.0: CWLS Log ASCII Standard - VERSION 2.0
WRAP.                       NO: One line per depth step
~Well Information Block
STRT.FT              1736.0000: 
STOP.FT              1964.5000: 
STEP.FT                 0.2500: 
NULL.                -999.2500: 
COMP.          Petrogulf Corporation: COMPANY
WELL.              Royal 8-33R: WELL
FLD.           Purgatorie River: FIELD
LOC.           2401' FSL & 2270' FEL: LOCATION
CNTY.               Las Animas: COUNTY
SRVC.                         : SERVICE COMPANY
DATE.          Mon Apr 26 06:49:48 2004: LOG DATE
UWI.           05 071 08041 00: UNIQUE WELL ID
STAT.                 Colorado: STATE
~Curve Information Block
DEPT.FT            0 000 00 00: Depth
SP.mV                         : DIL Spontaneous Potential
RILD.Ohm-m                    : DIL Deep Resistivity
RILM.Ohm-m                    : DIL Medium Resistivity
RLL3.Ohm-m                    : DIL Shallow Resistivity
GR.GAPI                       : Gamma Ray
~Parameter Information Block
~A  Depth        SP         RILD        RILM        RLL3         GR     
# ...
  1792.0000   2000.0000     37.1890     72.6699   2000.0000     92.6291
  1792.2500   2000.0000     32.6382     64.8523   2000.0000     90.1958
  1792.5000   2000.0000     28.5633     56.0800   2000.0000     90.7742
  1792.7500   2000.0000     25.2084     47.9014   2000.0000     94.0002
  1793.0000   2000.0000     22.5966     41.0566   2000.0000    105.2393
  1793.2500   2000.0000     20.6146     35.6762   2000.0000    118.1711
  1793.5000   2000.0000     19.1105     31.5934   2000.0000    143.4024
  1793.7500   2000.0000     17.9633     28.5500   2000.0000    160.2317
  1794.0000   2000.0000     17.1127     26.2864   2000.0000    179.2190
  1794.2500   2000.0000     16.5508     24.5655   2000.0000    186.3931
  1794.5000   2000.0000     16.2835     23.1701   2000.0000    190.3645
  1794.7500   2000.0000     16.2871     21.9009   2000.0000    190.0964
  1795.0000   2000.0000     16.4814     20.5849   2000.0000    187.5852
  1795.2500   2000.0000     16.7368     19.1037   2000.0000    185.2823
  1795.5000   2000.0000     16.9217     17.4348   2000.0000    181.5727
  1795.7500   2000.0000     16.9620     15.6698   2000.0000    179.1001
  1796.0000   2000.0000     16.8610     13.9728   2000.0000    175.3717
  1796.2500   2000.0000     16.6678     12.4991   2000.0000    172.9076
  1796.5000   2000.0000     16.4354     11.3360   2000.0000    169.9601
  1796.7500   2000.0000     16.2013     10.4990   2000.0000    168.9959
  1797.0000   2000.0000     15.9882      9.9589   2000.0000    168.6885
  1797.2500   2000.0000     15.8082      9.6738   2000.0000    168.2780
  1797.5000   2000.0000     15.6640      9.6119   2000.0000    166.1228
  1797.7500   2000.0000     15.5494      9.7647   2000.0000    163.9179
  1798.0000   2000.0000     15.4536     10.1482   2000.0000    160.5454
  1798.2500   2000.0000     15.3664     10.7898   2000.0000    158.2309
  1798.5000   2000.0000     15.2794     11.6994   2000.0000    153.6740
  1798.7500   2000.0000     15.1823     12.8259   2000.0000    149.9497
  1799.0000   2000.0000     15.0568     14.0220   2000.0000    145.2717
  1799.2500   2000.0000     14.8761     15.0678   2000.0000    144.0061
  1799.5000   2000.0000     14.6167     15.7803   2000.0000    145.4322
  1799.7500   2000.0000     14.2841     16.1239   2000.0000    148.0784
  1800.0000   2000.0000     13.9350     16.2088   2000.0000    153.1990
  1800.2500   2000.0000     13.6725     16.1996   2000.0000    156.4333
  1800.5000   2000.0000     13.6088     16.2385   2000.0000    159.2526
  1800.7500   2000.0000     13.8133     16.4169   2000.0000    159.0259
  1801.0000   2000.0000     14.2644     16.7735   2000.0000    155.5520
  1801.2500   2000.0000     14.8151     17.2996   2000.0000    152.0253
  1801.5000   2000.0000     15.2071     17.9468   2000.0000    146.8075
  1801.7500   2000.0000     15.1904     18.6414   2000.0000    143.6823
  1802.0000   2000.0000     14.6986     19.2986   2000.0000    138.0814
  1802.2500   2000.0000     13.8935     19.8289   2000.0000    132.8344
  1802.5000   2000.0000     13.0265     20.1359   2000.0000    123.8291
  1802.7500   2000.0000     12.2883     20.1219   2000.0000    119.2450
  1803.0000   2000.0000     11.7621     19.7186   2000.0000    117.2067
  1803.2500   2000.0000     11.4491     18.9376   2000.0000    118.4806
  1803.5000   2000.0000     11.3064     17.9025   2000.0000    121.1136
  1803.7500   2000.0000     11.2759     16.8249   2000.0000    122.3499
  1804.0000   2000.0000     11.3009     15.9323   2000.0000    124.7429
  1804.2500   2000.0000     11.3335     15.3947   2000.0000    127.9713
  1804.5000   2000.0000     11.3349     15.2859   2000.0000    134.9798
  1804.7500   2000.0000     11.2744     15.5629   2000.0000    139.0158
  1805.0000   2000.0000     11.1325     16.0420   2000.0000    140.2500
  1805.2500   2000.0000     10.9089     16.4030   2000.0000    137.7859
  1805.5000   2000.0000     10.6256     16.3093   2000.0000    133.2292
  1805.7500   2000.0000     10.3197     15.6287   2000.0000    131.9345
  1806.0000   2000.0000     10.0294     14.5238   2000.0000    132.5765
  1806.2500   2000.0000      9.7818     13.2923   2000.0000    133.2509
  1806.5000   2000.0000      9.5910     12.1656   2000.0000    133.5352
  1806.7500   2000.0000      9.4607     11.2478   2000.0000    133.8400
  1807.0000   2000.0000      9.3894     10.5522   2000.0000    135.5256
  1807.2500   2000.0000      9.3713     10.0520   2000.0000    137.5937
  1807.5000   2000.0000      9.3945      9.7121   2000.0000    142.1828
  1807.7500   2000.0000      9.4407      9.5018   2000.0000    145.9881
  1808.0000   2000.0000      9.4878      9.3969   2000.0000    150.6616
  1808.2500   2000.0000      9.5166      9.3763   2000.0000    151.3093
  1808.5000   2000.0000      9.5176      9.4183   2000.0000    147.7287
  1808.7500   2000.0000      9.4946      9.4988   2000.0000    143.9425
  1809.0000   2000.0000      9.4622      9.5940   2000.0000    140.4904
  1809.2500   2000.0000      9.4407      9.6850   2000.0000    141.1180
  1809.5000   2000.0000      9.4512      9.7628   2000.0000    145.5448
  1809.7500   2000.0000      9.5121      9.8311   2000.0000    149.1792
  1810.0000   2000.0000      9.6358      9.9069   2000.0000    153.7161
  1810.2500   2000.0000      9.8264     10.0186   2000.0000    156.0310
  1810.5000   2000.0000     10.0756     10.2027   2000.0000    158.4589
  1810.7500   2000.0000     10.3611     10.4956   2000.0000    158.5685
  1811.0000   2000.0000     10.6483     10.9234   2000.0000    154.3474
  1811.2500   2000.0000     10.9002     11.4886   2000.0000    148.1898
  1811.5000   2000.0000     11.0906     12.1558   2000.0000    135.4379
  1811.7500   2000.0000     11.2150     12.8427   2000.0000    125.9365
  1812.0000   2000.0000     11.2902     13.4286   2000.0000    111.8041
  1812.2500   2000.0000     11.3445     13.7957   2000.0000    103.2520
  1812.5000   2000.0000     11.4043     13.8860   2000.0000     93.8606
  1812.7500   2000.0000     11.4845     13.7315   2000.0000     91.3978
  1813.0000   2000.0000     11.5849     13.4304   2000.0000     95.0449
  1813.2500   2000.0000     11.6918     13.0938   2000.0000    102.3357
  1813.5000   2000.0000     11.7826     12.8025   2000.0000    118.7646
  1813.7500   2000.0000     11.8333     12.5920   2000.0000    131.4609
  1814.0000   2000.0000     11.8254     12.4561   2000.0000    149.1278
  1814.2500   2000.0000     11.7507     12.3613   2000.0000    158.1489
  1814.5000   2000.0000     11.6136     12.2654   2000.0000    166.7399
  1814.7500   2000.0000     11.4309     12.1365   2000.0000    170.0457
  1815.0000   2000.0000     11.2277     11.9645   2000.0000    173.3523
  1815.2500   2000.0000     11.0317     11.7610   2000.0000    174.9469
  1815.5000   2000.0000     10.8658     11.5504   2000.0000    176.1780
  1815.7500   2000.0000     10.7432     11.3578   2000.0000    176.1919
  1816.0000   2000.0000     10.6666     11.2025   2000.0000    175.5576
  1816.2500     46.2191     10.6309     11.0972     17.0141    174.5963
  1816.5000     45.7504     10.6267     11.0513     17.3862    170.4210
  1816.7500     45.2132     10.6434     11.0722     17.9157    164.6187
  1817.0000     44.6363     10.6711     11.1623     18.5329    152.2635
  1817.2500     44.0523     10.7014     11.3134     19.1244    144.2298
  1817.5000     43.4913     10.7307     11.5037     19.5854    137.6249
  1817.7500     42.9727     10.7620     11.7008     19.9042    137.8084
  1818.0000     42.5035     10.8031     11.8709     20.2005    141.4119
  1818.2500     42.0819     10.8593     11.9866     20.6468    142.6386
  1818.5000     41.6983     10.9227     12.0300     21.2929    140.0363
  1818.7500     41.3367     10.9654     11.9899     21.9268    136.8450
  1819.0000     40.9781     10.9468     11.8595     22.1443    134.7465
  1819.2500     40.6032     10.8376     11.6394     21.6353    136.7205
  1819.5000     40.1868     10.6425     11.3448     20.4465    143.5250
  1819.7500     39.6935     10.4002     11.0082     18.9644    148.6723
