~Version Information
VERS.                      2.0: CWLS Log ASCII Standard - VERSION 2.0
WRAP.                       NO: One line per depth step
~Well Information Block
STRT.FT               930.0000: 
STOP.FT              2783.2500: 
STEP.FT                 0.2500: 
NULL.                -999.2500: 
COMP.          Pioneer Natural Resources: COMPANY
WELL.           Desoto 13-7TR: WELL
FLD.           Purgatoire River: FIELD
LOC.           1404' FSL & 1115' FWL: LOCATION
PROV.                 Colorado: PROVINCE
CNTY.               Las Animas: COUNTRY
SRVC.                Patterson: SERVICE COMPANY
DATE.          Fri Jan 14 11:02:13 2005: LOG DATE
UWI.           05 071 08216 00: UNIQUE WELL ID
~Curve Information Block
DEPT.FT            0 000 00 00: Depth
SN.Ohm-m                      : IEL Short Normal
SP.mV                         : IEL Spontaneous Potential
DIR.Ohm-m                     : IEL Induction Resistivity
GR.GAPI                       : Gamma Ray
~Parameter Information Block
~A  Depth        SN          SP         DIR          GR     
# ...
  1533.0000     46.0391    -32.8644     31.7564    105.3658
  1533.2500     44.9781    -32.9104     32.3860    101.6579
  1533.5000     43.5600    -32.9104     32.6578     97.6553
  1533.7500     42.0643    -32.8787     32.4810     97.2977
  1534.0000     40.7589    -32.8269     31.9294    101.8355
  1534.2500     39.7735    -32.7605     31.1862    108.3082
  1534.5000     39.0470    -32.6790     30.4335    121.4151
  1534.7500     38.3789    -32.5783     29.7588    130.6524
  1535.0000     37.5448    -32.4543     29.1311    142.2988
  1535.2500     36.4021    -32.3068     28.4494    147.5201
  1535.5000     34.9346    -32.1407     27.6219    151.1103
  1535.7500     33.2333    -31.9650     26.6262    151.0583
  1536.0000     31.4355    -31.7898     25.5180    148.7280
  1536.2500     29.6574    -31.6240     24.4019    146.7395
  1536.5000     27.9587    -31.4738     23.3891    144.7017
  1536.7500     26.3654    -31.3433     22.5629    144.5593
  1537.0000     24.9168    -31.2342     21.9577    146.6251
  1537.2500     23.6837    -31.1457     21.5559    149.2927
  1537.5000     22.7400    -31.0714     21.3005    153.7336
  1537.7500     22.1201    -30.9973     21.1218    155.9987
  1538.0000     21.7959    -30.9013     20.9616    157.8427
  1538.2500     21.6867    -30.7576     20.7810    158.4205
  1538.5000     21.6987    -30.5444     20.5504    159.1826
  1538.7500     21.7656    -30.2550     20.2431    160.0531
  1539.0000     21.8585    -29.9049     19.8501    162.4823
  1539.2500     21.9642    -29.5330     19.4002    164.7651
  1539.5000     22.0619    -29.1939     18.9562    167.7958
  1539.7500     22.1242    -28.9427     18.5862    168.3725
  1540.0000     22.1383    -28.8184     18.3367    165.7589
  1540.2500     22.1193    -28.8319     18.2233    161.7609
  1540.5000     22.0957    -28.9643     18.2346    153.7222
  1540.7500     22.0829    -29.1742     18.3382    148.1349
  1541.0000     22.0751    -29.4116     18.4903    141.0800
  1541.2500     22.0623    -29.6314     18.6515    137.7368
  1541.5000     22.0506    -29.8017     18.8025    134.7541
  1541.7500     22.0638    -29.9056     18.9468    133.9030
  1542.0000     22.1286    -29.9389     19.0974    133.9729
  1542.2500     22.2585    -29.9079     19.2631    134.7646
  1542.5000     22.4487    -29.8292     19.4441    136.7750
  1542.7500     22.6835    -29.7287     19.6377    138.3308
  1543.0000     22.9444    -29.6408     19.8421    140.0421
  1543.2500     23.2168    -29.6013     20.0553    140.2404
  1543.5000     23.4951    -29.6385     20.2750    138.9851
  1543.7500     23.7910    -29.7634     20.5031    137.5576
  1544.0000     24.1379    -29.9650     20.7523    135.3574
  1544.2500     24.5834    -30.2123     21.0456    133.9343
  1544.5000     25.1685    -30.4617     21.4088    131.4376
  1544.7500     25.8973    -30.6683     21.8600    129.2446
  1545.0000     26.7088    -30.7965     22.4002    124.6700
  1545.2500     27.4732    -30.8261     23.0035    120.4136
  1545.5000     28.0293    -30.7542     23.6077    112.1464
  1545.7500     28.2579    -30.5919     24.1195    106.2223
  1546.0000     28.1506    -30.3592     24.4452     99.7364
  1546.2500     27.8186    -30.0789     24.5354     98.8249
  1546.5000     27.4222    -29.7726     24.4082    103.7434
  1546.7500     27.0726    -29.4581     24.1302    110.2881
  1547.0000     26.7769    -29.1497     23.7748    121.4252
  1547.2500     26.4570    -28.8586     23.3890    127.4319
  1547.5000     26.0167    -28.5943     22.9847    131.8839
  1547.7500     25.4102    -28.3652     22.5484    131.7957
  1548.0000     24.6761    -28.1784     22.0595    129.0900
  1548.2500     23.9240    -28.0402     21.5138    127.1786
  1548.5000     23.2850    -27.9550     20.9417    126.0848
  1548.7500     22.8531    -27.9251     20.4093    126.6841
  1549.0000     22.6478    -27.9490     19.9968    128.4917
  1549.2500     22.6185    -28.0215     19.7705    129.5795
  1549.5000     22.6892    -28.1329     19.7648    130.5685
  1549.7500     22.8054    -28.2699     19.9795    130.8593
  1550.0000     22.9506    -28.4177     20.3837    130.6406
  1550.2500     23.1336    -28.5613     20.9169    129.7553
  1550.5000     23.3702    -28.6876     21.4926    126.9699
  1550.7500     23.6698    -28.7868     22.0199    124.3426
  1551.0000     24.0310    -28.8529     22.4405    120.2395
  1551.2500     24.4392    -28.8837     22.7543    118.0884
  1551.5000     24.8698    -28.8796     23.0024    116.3862
  1551.7500     25.2942    -28.8431     23.2273    116.0273
  1552.0000     25.6835    -28.7769     23.4449    115.6443
  1552.2500     26.0075    -28.6833     23.6443    115.3116
  1552.5000     26.2310    -28.5644     23.8009    115.7016
  1552.7500     26.3181    -28.4233     23.8895    117.2978
  1553.0000     26.2507    -28.2655     23.8928    121.7942
  1553.2500     26.0450    -28.0999     23.8091    125.4532
  1553.5000     25.7508    -27.9383     23.6560    130.2111
  1553.7500     25.4351    -27.7925     23.4679    132.2009
  1554.0000     25.1679    -27.6709     23.2851    133.3645
  1554.2500     25.0129    -27.5763     23.1458    133.4650
  1554.5000     25.0188    -27.5042     23.0825    133.4437
  1554.7500     25.2078    -27.4450     23.1209    133.2414
  1555.0000     25.5679    -27.3872     23.2770    131.8236
  1555.2500     26.0558    -27.3206     23.5503    129.8473
  1555.5000     26.6138    -27.2398     23.9223    125.7189
  1555.7500     27.1916    -27.1446     24.3610    122.6887
  1556.0000     27.7579    -27.0385     24.8282    118.5732
  1556.2500     28.2946    -26.9273     25.2819    116.6002
  1556.5000     28.7868    -26.8163     25.6740    115.3897
  1556.7500     29.2184    -26.7087     25.9560    115.6211
  1557.0000     29.5699    -26.6051     26.0957    116.4786
  1557.2500     29.8157    -26.5033     26.0950    116.8394
  1557.5000     29.9239    -26.3991     25.9863    117.0574
  1557.7500     29.8624    -26.2874     25.8070    117.3656
  1558.0000     29.6108    -26.1641     25.5732    118.6227
  1558.2500     29.1757    -26.0277     25.2725    120.1311
  1558.5000     28.6011    -25.8799     24.8837    123.3713
  1558.7500     27.9609    -25.7249     24.4087    125.9005
  1559.0000     27.3295    -25.5677     23.8888    129.1998
  1559.2500     26.7475    -25.4110     23.3875    130.4528
  1559.5000     26.2133    -25.2541     22.9536    130.6897
  1559.7500     25.7114    -25.0934     22.5967    130.1219
  1560.0000     25.2495    -24.9236     22.2938    128.8777
  1560.2500     24.8708    -24.7410     22.0204    128.0042
  1560.5000     24.6359    -24.5449     21.7784    127.1521
  1560.7500     24.5897    -24.3376     21.5972    127.4447
  1561.0000     24.7316    -24.1232     21.5130    129.6917
  1561.2500     24.9975    -23.9061     21.5442    131.7991
  1561.5000     25.2678    -23.6897     21.6822    133.2737
  1561.7500     25.4092    -23.4771     21.8951    131.5300
  1562.0000     25.3353    -23.2719     22.1384    124.0373
  1562.2500     25.0573    -23.0781     22.3657    117.0675
  1562.5000     24.6921    -22.9000     22.5380    107.9540
  1562.7500     24.4176    -22.7403     22.6322    105.2532
  1563.0000     24.3965    -22.5995     22.6469    108.1552
  1563.2500     24.7039    -22.4749     22.5982    113.9251
  1563.5000     25.2978    -22.3625     22.5069    124.6415
  1563.7500     26.0456    -22.2589     22.3852    130.8244
  1564.0000     26.7918    -22.1626     22.2373    136.1171
  1564.2500     27.4265    -22.0748     22.0710    136.6396
  1564.5000     27.9143    -21.9981     21.9080    134.0516
  1564.7500     28.2754    -21.9341     21.7795    131.4887
  1565.0000     28.5428    -21.8813     21.7128    128.9299
  1565.2500     28.7335    -21.8344     21.7192    128.7852
  1565.5000     28.8465    -21.7855     21.7922    130.2433
  1565.7500     28.8776    -21.7278     21.9102    131.5017
  1566.0000     28.8356    -21.6600     22.0439    133.1696
  1566.2500     28.7525    -21.5901     22.1658    134.2864
