~Version Information
VERS.                      2.0: CWLS Log ASCII Standard - VERSION 2.0
WRAP.                       NO: One line per depth step
~Well Information Block
STRT.FT               770.0000: 
STOP.FT              1997.7000: 
STEP.FT                 0.1000: 
NULL.                -999.2500: 
COMP.          Pioneer Natural Resources: COMPANY
WELL.          Titan Federal 34-17: WELL
FLD.           Purgatoire River: FIELD
LOC.           321' FSL & 1911' FEL--: LOCATION
STAT.                 Colorado: State
CNTY.               Las Animas: COUNTY
CTRY. USA : Country
SECT. 17 : Section
TOWN. 32S : Township
RANG. 65W : Range
SRVC.                Patterson: SERVICE COMPANY
DATE.          Thu Oct 06 15:09:27 2005: LOG DATE
API.           05 071 08272 00: UNIQUE WELL ID
~Curve Information Block
DEPT.FT            0 000 00 00: Depth
DCAL.in                       : CDL Caliper
RHOB.g/cc                     : CDL Bulk Density
RHOC.g/cc                     : CDL Density Correction
DPOR.pu                       : CDL Density Porosity
NPOR.pu                       : Neutron Porosity
GR.GAPI                       : Gamma Ray
~Parameter Information Block
~A  Depth       DCAL        RHOB        RHOC        DPOR        NPOR         GR     
# ...
  1010.0000      8.1460      2.4181      0.0574     14.0557     17.5310    106.7723
  1010.1000      8.1460      2.4255      0.0217     13.6087     18.3266    107.4902
  1010.2000      8.1460      2.4397      0.0219     12.7469     19.2447    107.5858
  1010.3000      8.1480      2.4640      0.0681     11.2712     19.9687    111.5092
  1010.4000      8.1480      2.4842      0.0712     10.0497     20.1339    115.1876
  1010.5000      8.1502      2.4932      0.0783      9.5025     19.6585    110.5641
  1010.6000      8.1502      2.4915      0.0904      9.6056     19.0237     99.7419
  1010.7000      8.1502      2.4807      0.0758     10.2583     18.8638     94.4201
  1010.8000      8.1496      2.4771      0.0682     10.4761     19.6805     99.9071
  1010.9000      8.1496      2.4928      0.1121      9.5254     21.0542    110.1973
  1011.0000      8.1470      2.5090      0.1327      8.5437     21.9800    119.7016
  1011.1000      8.1470      2.5075      0.0810      8.6349     22.1919    127.2553
  1011.2000      8.1470      2.5032      0.0337      8.8970     22.1321    131.2947
  1011.3000      8.1447      2.5157      0.0556      8.1374     22.0717    128.7375
  1011.4000      8.1447      2.5383      0.0775      6.7699     22.1022    119.4794
  1011.5000      8.1426      2.5549      0.0660      5.7636     22.4246    111.1838
  1011.6000      8.1426      2.5678      0.0747      4.9838     22.8501    109.2823
  1011.7000      8.1426      2.5896      0.0727      3.6610     22.9440    111.3779
  1011.8000      8.1428      2.6163      0.1368      2.0447     22.9286    112.2790
  1011.9000      8.1428      2.6293      0.0973      1.2524     23.3235    106.8315
  1012.0000      8.1459      2.6242      0.0862      1.5618     24.1801     96.3594
  1012.1000      8.1459      2.6097      0.0604      2.4433     25.1916     87.3613
  1012.2000      8.1459      2.5980      0.0360      3.1543     25.9994     83.7483
  1012.3000      8.1475      2.5947      0.0550      3.3524     26.4936     84.8961
  1012.4000      8.1475      2.5861      0.0584      3.8700     26.6912     89.0470
  1012.5000      8.1468      2.5605      0.0331      5.4212     26.7090     94.3156
  1012.6000      8.1468      2.5285      0.0247      7.3650     26.9681     98.8449
  1012.7000      8.1468      2.5051     -0.0224      8.7795     27.4931    103.0232
  1012.8000      8.1455      2.4958      0.0368      9.3481     27.7161    106.8092
  1012.9000      8.1455      2.4953      0.0140      9.3781     27.4618    109.4450
  1013.0000      8.1451      2.4943      0.0405      9.4342     27.1750    111.8535
  1013.1000      8.1451      2.4891      0.0036      9.7516     27.2501    114.3715
  1013.2000      8.1451      2.4879      0.0134      9.8259     27.3436    117.8901
  1013.3000      8.1455      2.4946      0.0338      9.4192     26.8786    121.5333
  1013.4000      8.1455      2.4977      0.0461      9.2326     26.1928    122.2036
  1013.5000      8.1458      2.4915      0.0343      9.6050     26.0554    120.0470
  1013.6000      8.1458      2.4889      0.0202      9.7625     26.4710    116.3462
  1013.7000      8.1458      2.4945      0.0271      9.4213     26.7306    112.7539
  1013.8000      8.1457      2.4883      0.0799      9.8028     26.5017    113.3655
  1013.9000      8.1457      2.4577      0.0189     11.6545     25.8825    119.4324
  1014.0000      8.1459      2.4252      0.0007     13.6266     25.0842    125.6586
  1014.1000      8.1459      2.4136      0.0512     14.3286     24.4694    127.5848
  1014.2000      8.1459      2.4228      0.0334     13.7702     24.0562    127.8375
  1014.3000      8.1462      2.4471      0.0605     12.2999     23.6567    131.3928
  1014.4000      8.1462      2.4735      0.1038     10.6978     23.3582    138.3112
  1014.5000      8.1482      2.4821      0.1088     10.1755     23.3448    140.9423
  1014.6000      8.1482      2.4726      0.0873     10.7524     23.5422    137.0417
  1014.7000      8.1482      2.4633      0.0638     11.3151     23.6713    134.1086
  1014.8000      8.1500      2.4590      0.0904     11.5739     23.6834    132.9063
  1014.9000      8.1500      2.4527      0.0957     11.9553     23.9813    130.7407
  1015.0000      8.1495      2.4486      0.0598     12.2068     24.6953    130.8809
  1015.1000      8.1495      2.4498      0.0928     12.1358     25.2467    134.5686
  1015.2000      8.1495      2.4458      0.0737     12.3783     25.4027    137.9922
  1015.3000      8.1473      2.4254      0.0737     13.6124     25.7121    136.4720
  1015.4000      8.1473      2.3887      0.0611     15.8364     26.2596    131.2572
  1015.5000      8.1444      2.3524      0.0122     18.0377     26.2699    131.4042
  1015.6000      8.1444      2.3368      0.0071     18.9802     25.3760    137.3833
  1015.7000      8.1444      2.3435      0.0229     18.5774     24.2727    137.0008
  1015.8000      8.1450      2.3588      0.0565     17.6483     23.7504    128.8577
  1015.9000      8.1450      2.3732      0.0567     16.7752     23.6609    122.9804
  1016.0000      8.1533      2.3793      0.1338     16.4039     23.2722    123.1611
  1016.1000      8.1533      2.3751      0.0657     16.6603     22.3612    124.7952
  1016.2000      8.1533      2.3795      0.0613     16.3936     21.3027    122.6324
  1016.3000      8.1654      2.4032      0.1197     14.9587     20.7329    117.1141
  1016.4000      8.1654      2.4289      0.1361     13.3976     20.7878    112.6296
  1016.5000      8.1720      2.4446      0.1054     12.4497     20.9955    111.0691
  1016.6000      8.1720      2.4561      0.0984     11.7515     21.1272    112.6667
  1016.7000      8.1720      2.4712      0.0616     10.8387     21.2044    116.8971
  1016.8000      8.1740      2.4912      0.0344      9.6263     21.4221    120.6997
  1016.9000      8.1740      2.5119      0.0560      8.3723     21.8051    123.5723
  1017.0000      8.1760      2.5246      0.0444      7.5984     22.2774    126.4183
  1017.1000      8.1760      2.5284      0.0109      7.3698     23.0005    126.5907
  1017.2000      8.1760      2.5323      0.0260      7.1357     23.7627    123.6009
  1017.3000      8.1799      2.5444     -0.0098      6.4007     24.2589    121.2975
  1017.4000      8.1799      2.5591      0.0652      5.5083     24.7533    121.7167
  1017.5000      8.1842      2.5588      0.0477      5.5258     25.5208    122.5404
  1017.6000      8.1842      2.5445     -0.0107      6.3921     26.3905    122.6230
  1017.7000      8.1842      2.5322      0.0106      7.1406     26.9907    123.5610
  1017.8000      8.1881      2.5289     -0.0134      7.3401     27.3073    124.8510
  1017.9000      8.1881      2.5383     -0.0030      6.7684     27.3557    122.4753
  1018.0000      8.1901      2.5610      0.0252      5.3916     27.0714    115.2602
  1018.1000      8.1901      2.5818      0.0608      4.1351     26.9667    106.7941
  1018.2000      8.1901      2.5841      0.0501      3.9968     27.0873    101.5471
  1018.3000      8.1905      2.5736      0.0333      4.6324     26.8596    102.9529
  1018.4000      8.1905      2.5530      0.0757      5.8766     26.2522    109.8085
  1018.5000      8.1918      2.5099      0.0364      8.4890     25.3311    115.2161
  1018.6000      8.1918      2.4575     -0.0351     11.6670     24.1777    116.1886
  1018.7000      8.1918      2.4249     -0.0368     13.6410     23.2710    115.7905
  1018.8000      8.1915      2.4133     -0.0156     14.3481     22.6819    114.7911
  1018.9000      8.1915      2.4042      0.0019     14.8972     22.1944    113.9134
  1019.0000      8.1895      2.3867      0.0025     15.9555     21.8049    114.4486
  1019.1000      8.1895      2.3687     -0.0461     17.0514     21.5237    116.5386
  1019.2000      8.1895      2.3685     -0.0100     17.0612     21.3611    121.8853
  1019.3000      8.1893      2.3885      0.0239     15.8480     21.3324    126.7725
  1019.4000      8.1893      2.4131      0.0437     14.3556     21.1363    128.0702
  1019.5000      8.1903      2.4279      0.0731     13.4634     20.5475    130.0178
