~Version Information
VERS.                      2.0: CWLS Log ASCII Standard - VERSION 2.0
WRAP.                       NO: One line per depth step
~Well Information Block
STRT.FT                -6.7500: 
STOP.FT              1766.5000: 
STEP.FT                 0.2500: 
NULL.                -999.2500: 
COMP.          Pioneer Natural Resources: COMPANY
WELL.            Hill 33-22 Tr: WELL
FLD.           Purgatorie River: FIELD
LOC.           1573' FSL & 1585' FEL: LOCATION
PROV.                 Colorado: PROVINCE
CNTY.               Las Animas: COUNTRY
SRVC.          Patterson Wireline: SERVICE COMPANY
DATE.          Tue Apr 19 09:26:19 2005: LOG DATE
UWI.           05-071-08316-00: UNIQUE WELL ID
~Curve Information Block
DEPT.FT            0 000 00 00: Depth
CCL.                          : Casing Collar Locator
TT3.usec                      : CBL 3' Travel Time
AMP3.mV                       : CBL 3' Amplitude
GR.GAPI                       : Gamma Ray
~Parameter Information Block
~A  Depth       CCL         TT3         AMP3         GR     
# ...
   797.2500      0.0000    990.9366      7.4273     68.2143
   797.5000      0.0000   1005.6274      7.4403     69.8231
   797.7500      0.0000   1019.0244      7.3882     70.9086
   798.0000      0.0000   1022.6934      7.2418     71.7954
   798.2500      0.0000   1011.2788      7.0263     73.8621
   798.5000      0.0000    982.0763      6.7958     77.3987
   798.7500      0.0000    937.4368      6.5858     80.9143
   799.0000      0.0000    887.7990      6.3992     82.9256
   799.2500      0.0000    848.5023      6.2286     83.6689
   799.5000      0.0000    830.2095      6.0769     84.4708
   799.7500      0.0000    832.4402      5.9559     85.9865
   800.0000      0.0000    847.8606      5.8726     87.6799
   800.2500      0.0000    871.9315      5.8196     88.7161
   800.5000      0.0000    904.9856      5.7798     88.7366
   800.7500      0.0000    945.0887      5.7396     87.7961
   801.0000      0.0000    984.1285      5.6941     85.9706
   801.2500      0.0000   1013.5787      5.6419     83.1880
   801.5000      0.0000   1031.3328      5.5771     79.3399
   801.7500      0.0000   1041.3679      5.4935     74.5806
   802.0000      0.0000   1048.6079      5.3956     69.5096
   802.2500      0.0000   1054.9539      5.3057     64.8738
   802.5000      0.0000   1058.9452      5.2572     61.1464
   802.7500      0.0000   1058.0531      5.2798     58.6541
   803.0000      0.0000   1051.0043      5.3919     57.8481
   803.2500      0.0000   1037.5614      5.5993     58.8790
   803.5000      0.0000   1016.9543      5.8859     61.0116
   803.7500      0.0000    988.4540      6.2024     62.9258
   804.0000      0.0000    953.8863      6.4758     63.5014
   804.2500      0.0000    918.1525      6.6418     62.1714
   804.5000      0.0000    886.5295      6.6771     58.9681
   804.7500      0.0000    861.8112      6.6036     54.6766
   805.0000      0.0000    843.0714      6.4663     50.7642
   805.2500      0.0000    826.5426      6.3044     48.7745
   805.5000      0.0000    809.5840      6.1345     49.6624
   805.7500      0.0000    794.8635      5.9569     53.6132
   806.0000      0.0000    789.3051      5.7791     60.1095
   806.2500      0.0000    798.1889      5.6314     67.8681
   806.5000      0.0000    820.6458      5.5487     75.0862
   806.7500      0.0000    851.2132      5.5301     80.3148
   807.0000      0.0000    885.8063      5.5285     83.0824
   807.2500      0.0000    924.4376      5.4910     83.6476
   807.5000      0.0000    966.4814      5.4079     82.6933
   807.7500      0.0000   1005.2476      5.3205     81.3496
   808.0000      0.0000   1029.6523      5.2868     80.7332
   808.2500      0.0000   1030.2960      5.3460     81.0012
   808.5000      0.0000   1003.6617      5.5109     81.1778
   808.7500      0.0000    953.9543      5.7778     80.1478
   809.0000      0.0000    893.1521      6.1307     77.5954
   809.2500      0.0000    836.7623      6.5305     73.8511
   809.5000      0.0000    795.9520      6.9117     69.1818
   809.7500      0.0000    772.8412      7.2087     63.5857
   810.0000      0.0000    762.9570      7.3949     57.2437
   810.2500      0.0000    760.9438      7.4940     51.0381
   810.5000      0.0000    763.8141      7.5574     46.5169
   810.7500      0.0000    770.3730      7.6323     45.0993
   811.0000      0.0000    779.4470      7.7392     47.0445
   811.2500      0.0000    790.1985      7.8658     51.1158
   811.5000      0.0000    804.6027      7.9807     55.2296
   811.7500      0.0000    827.5995      8.0575     57.6212
   812.0000      0.0000    861.6975      8.0839     57.9626
   812.2500      0.0000    901.0076      8.0527     57.7285
   812.5000      0.0000    932.8221      7.9551     59.0936
   812.7500      0.0000    946.7632      7.7968     62.8898
   813.0000      0.0000    942.6439      7.6140     67.6437
   813.2500      0.0000    930.0079      7.4591     70.8948
   813.5000      0.0000    920.7796      7.3636     71.4106
   813.7500      0.0000    921.8770      7.3197     69.9323
   814.0000      0.0000    932.0210      7.2978     68.0956
   814.2500      0.0000    942.3246      7.2771     67.2959
   814.5000      0.0000    941.3708      7.2601     68.4165
   814.7500      0.0000    924.2542      7.2629     71.4776
   815.0000      0.0000    896.8980      7.2944     75.0555
   815.2500      0.0000    869.0811      7.3455     76.9028
   815.5000      0.0000    845.2690      7.3967     75.7841
   815.7500      0.0000    825.8137      7.4330     72.5600
   816.0000      0.0000    813.8778      7.4548     69.5575
   816.2500      0.0000    815.3484      7.4792     69.1058
   816.5000      0.0000    832.3875      7.5306     72.1484
   816.7500      0.0000    860.7379      7.6246     77.5075
   817.0000      0.0000    892.7144      7.7547     82.4827
   817.2500      0.0000    919.6421      7.8982     84.7182
   817.5000      0.0000    932.1017      8.0315     83.8054
   817.7500      0.0000    922.7095      8.1411     81.0581
   818.0000      0.0000    891.8259      8.2245     77.8330
   818.2500      0.0000    849.7555      8.2843     74.3772
   818.5000      0.0000    811.3832      8.3227     70.3974
   818.7500      0.0000    787.8205      8.3386     66.2600
   819.0000      0.0000    782.2158      8.3289     63.0776
   819.2500      0.0000    790.3558      8.2894     61.7875
   819.5000      0.0000    802.5770      8.2171     62.5622
   819.7500      0.0000    807.4809      8.1108     64.8020
   820.0000      0.0000    798.7742      7.9762     67.2767
   820.2500      0.0000    780.1314      7.8333     68.7231
   820.5000      0.0000    761.8275      7.7155     68.7574
   820.7500      0.0000    752.1006      7.6518     67.8690
   821.0000      0.0000    751.8804      7.6353     66.3452
   821.2500      0.0000    756.3594      7.6002     63.6832
   821.5000      0.0000    760.1607      7.4312     59.3104
   821.7500      0.0000    761.8334      7.0428     53.7594
   822.0000      0.0000    765.4196      6.4930     49.0478
   822.2500      0.0000    779.3985      5.9786     47.6769
   822.5000      0.0000    813.8000      5.6420     50.9907
   822.7500      0.0000    874.4203      5.4095     58.3477
   823.0000      0.0000    955.3381      5.1151     67.4530
   823.2500      0.0000   1037.9958      4.7447     75.2581
   823.5000      0.0000   1102.3589      4.4511     79.3275
   823.7500      5.0000   1139.7096      4.3557     79.3550
   824.0000     -5.0000   1154.2683      4.4338     77.3942
   824.2500     -5.0000   1155.6232      4.5862     76.1266
   824.5000      5.0000   1149.0266      4.7680     76.8218
   824.7500      0.0000   1128.4863      5.0325     78.8948
   825.0000      0.0000   1081.5986      5.4422     80.8983
   825.2500      0.0000   1006.2736      5.9288     81.7158
   825.5000      0.0000    919.6149      6.2939     81.3167
   825.7500      0.0000    845.7004      6.3988     80.7915
   826.0000      0.0000    797.3354      6.3027     81.3931
   826.2500      0.0000    772.0690      6.1708     83.1796
   826.5000      0.0000    760.8246      6.1079     84.8336
   826.7500      0.0000    755.8412      6.1208     85.1369
   827.0000      0.0000    752.7614      6.1780     84.3906
   827.2500      0.0000    749.8304      6.2502     84.0286
   827.5000      0.0000    747.1519      6.3183     85.0258
   827.7500      0.0000    745.8243      6.3742     87.1555
   828.0000      0.0000    746.6001      6.4242     89.7436
   828.2500      0.0000    748.9762      6.4884     92.3657
   828.5000      0.0000    751.6695      6.5906     94.4048
   828.7500      0.0000    753.7361      6.7398     94.6348
   829.0000      0.0000    754.9990      6.9210     92.1208
   829.2500      0.0000    755.6940      7.1070     87.4419
   829.5000      0.0000    756.0530      7.2779     82.4760
   829.7500      0.0000    756.1995      7.4304     78.9177
   830.0000      0.0000    756.2233      7.5741     77.3326
   830.2500      0.0000    756.2206      7.7229     77.6245
   830.5000      0.0000    756.2549      7.8868     79.7513
