~Version Information
VERS.                      2.0: CWLS Log ASCII Standard - VERSION 2.0
WRAP.                       NO: One line per depth step
~Well Information Block
STRT.FT               902.0000: 
STOP.FT              2428.2000: 
STEP.FT                 0.1000: 
NULL.                -999.2500: 
COMP.          Pioneer Natural Resources: COMPANY
WELL.            Victory 12-14: WELL
FLD.           Purgatoire River: FIELD
LOC.           2434' FNL & 188' FWL: LOCATION
PROV.                 Colorado: PROVINCE
CNTY.               Las Animas: COUNTRY
SRVC.                Patterson: SERVICE COMPANY
DATE.          Mon Apr 18 07:24:17 2005: LOG DATE
UWI.           05 071 08332 00: UNIQUE WELL ID
~Curve Information Block
DEPT.FT            0 000 00 00: Depth
DCAL.in                       : CDL Caliper
RHOB.g/cc                     : CDL Bulk Density
RHOC.g/cc                     : CDL Density Correction
DPOR.pu                       : CDL Density Porosity
GR.GAPI                       : Gamma Ray
NPOR.pu                       : Neutron Porosity
~Parameter Information Block
~A  Depth       DCAL        RHOB        RHOC        DPOR         GR         NPOR    
# ...
  2409.2000      7.8789      2.4632      0.0402     11.3239     76.1164     22.1172
  2409.3000      7.8694      2.4706      0.0664     10.8756     78.5563     22.3105
  2409.4000      7.8694      2.4861      0.0700      9.9349     78.5202     22.2107
  2409.5000      7.8653      2.4914      0.1109      9.6135     75.7679     22.3286
  2409.6000      7.8653      2.4723      0.0545     10.7726     71.5862     22.7974
  2409.7000      7.8653      2.4461      0.0227     12.3551     68.1164     22.8694
  2409.8000      7.8649      2.4362      0.0554     12.9566     66.0713     22.0182
  2409.9000      7.8649      2.4410      0.0214     12.6663     64.6004     20.6289
  2410.0000      7.8660      2.4465      0.0528     12.3351     65.4188     19.5476
  2410.1000      7.8660      2.4412      0.0211     12.6529     69.7672     19.7344
  2410.2000      7.8660      2.4346      0.0293     13.0522     73.1423     21.2690
  2410.3000      7.8753      2.4487      0.0420     12.2019     70.9512     23.0784
  2410.4000      7.8753      2.4756      0.1149     10.5698     64.9740     24.2170
  2410.5000      7.8849      2.4830      0.0751     10.1238     56.3866     24.5044
  2410.6000      7.8849      2.4676      0.0716     11.0559     41.1724     23.7322
  2410.7000      7.8849      2.4596      0.0242     11.5373     21.2564     22.3218
  2410.8000      7.8763      2.4738      0.0545     10.6800      6.8021     21.4290
  2410.9000      7.8763      2.4837      0.1080     10.0805      1.2498     21.1670
  2411.0000      7.8787      2.4689      0.0423     10.9764      0.1265     21.0355
  2411.1000      7.8787      2.4492      0.0418     12.1713      0.0067     20.9464
  2411.2000      7.8787      2.4398      0.0805     12.7408      0.0000     21.0173
  2411.3000      7.8824      2.4354      0.0108     13.0042   -999.2500     21.3834
  2411.4000      7.8824      2.4398      0.0370     12.7403   -999.2500     21.5730
  2411.5000      7.8830      2.4568      0.0551     11.7095   -999.2500     21.1708
  2411.6000      7.8830      2.4755      0.0918     10.5787   -999.2500     20.7481
  2411.7000      7.8830      2.4777      0.1118     10.4441   -999.2500     20.7882
  2411.8000      7.8833      2.4590      0.0531     11.5761   -999.2500     21.0581
  2411.9000      7.8833      2.4329      0.0224     13.1589   -999.2500     21.0724
  2412.0000      7.8750      2.4108      0.0106     14.4968   -999.2500     20.6851
  2412.1000      7.8750      2.3966      0.0170     15.3599   -999.2500     20.2495
  2412.2000      7.8750      2.3893      0.0185     15.7989   -999.2500     20.6204
  2412.3000      7.8738      2.3836     -0.0011     16.1468   -999.2500     21.7598
  2412.4000      7.8738      2.3748     -0.0191     16.6794   -999.2500     22.1957
  2412.5000      7.8736      2.3661      0.0009     17.2081   -999.2500     21.7500
  2412.6000      7.8736      2.3656     -0.0152     17.2389   -999.2500     21.5911
  2412.7000      7.8736      2.3772     -0.0554     16.5309   -999.2500     22.1720
  2412.8000      7.8771      2.3893      0.0266     15.7997   -999.2500     22.7919
  2412.9000      7.8771      2.3873      0.0267     15.9185   -999.2500     22.4498
  2413.0000      7.8897      2.3836     -0.0341     16.1450   -999.2500     21.2508
  2413.1000      7.8897      2.3951      0.0256     15.4506   -999.2500     20.3218
  2413.2000      7.8897      2.4142      0.0329     14.2905   -999.2500     20.3747
  2413.3000      7.8882      2.4236      0.0667     13.7233   -999.2500     21.3259
  2413.4000      7.8882      2.4197      0.0394     13.9580   -999.2500     24.1999
  2413.5000      7.8820      2.4175      0.0432     14.0905   -999.2500     31.3174
  2413.6000      7.8820      2.4251      0.0422     13.6301   -999.2500     41.2368
  2413.7000      7.8820      2.4348      0.0362     13.0403   -999.2500     48.0691
  2413.8000      7.8862      2.4397      0.0285     12.7444   -999.2500     50.5033
  2413.9000      7.8862      2.4414      0.0322     12.6431   -999.2500     50.9790
  2414.0000      7.8892      2.4424      0.0368     12.5821   -999.2500     51.0292
  2414.1000      7.8892      2.4453      0.0180     12.4032   -999.2500     51.0321
  2414.2000      7.8892      2.4581      0.0299     11.6284   -999.2500   -999.2500
  2414.3000      7.8835      2.4778      0.0723     10.4338   -999.2500   -999.2500
  2414.4000      7.8835      2.4803      0.0719     10.2856   -999.2500   -999.2500
  2414.5000      7.8881      2.4597     -0.0221     11.5312   -999.2500   -999.2500
  2414.6000      7.8881      2.4413      0.0442     12.6481   -999.2500   -999.2500
  2414.7000      7.8881      2.4375      0.0060     12.8777   -999.2500   -999.2500
  2414.8000      7.8773      2.4421      0.0269     12.5998   -999.2500   -999.2500
  2414.9000      7.8773      2.4493      0.0228     12.1658   -999.2500   -999.2500
  2415.0000      7.8713      2.4581      0.0239     11.6321   -999.2500   -999.2500
  2415.1000      7.8713      2.4665      0.0858     11.1219   -999.2500   -999.2500
  2415.2000      7.8713      2.4661      0.0774     11.1450   -999.2500   -999.2500
  2415.3000      7.8654      2.4541      0.0615     11.8746   -999.2500   -999.2500
  2415.4000      7.8654      2.4420      0.0434     12.6069   -999.2500   -999.2500
  2415.5000      7.8635      2.4379      0.0447     12.8536   -999.2500   -999.2500
  2415.6000      7.8635      2.4393      0.0148     12.7689   -999.2500   -999.2500
  2415.7000      7.8635      2.4422      0.0199     12.5915   -999.2500   -999.2500
  2415.8000      7.8663      2.4406     -0.0161     12.6935   -999.2500   -999.2500
  2415.9000      7.8663      2.4360      0.0245     12.9680   -999.2500   -999.2500
  2416.0000      7.8790      2.4354      0.0294     13.0086   -999.2500   -999.2500
  2416.1000      7.8790      2.4342      0.0365     13.0776   -999.2500   -999.2500
  2416.2000      7.8790      2.4343     -0.0122     13.0730   -999.2500   -999.2500
  2416.3000      7.8853      2.4438      0.0439     12.4986   -999.2500   -999.2500
  2416.4000      7.8853      2.4473      0.0420     12.2860   -999.2500   -999.2500
  2416.5000      7.8833      2.4243      0.0796     13.6772   -999.2500   -999.2500
  2416.6000      7.8833      2.3903     -0.0241     15.7379   -999.2500   -999.2500
  2416.7000      7.8833      2.3840      0.0053     16.1226   -999.2500   -999.2500
  2416.8000      7.8837      2.4141      0.0211     14.2963   -999.2500   -999.2500
  2416.9000      7.8837      2.4563      0.0466     11.7412   -999.2500   -999.2500
  2417.0000      7.8864      2.4798      0.0716     10.3129   -999.2500   -999.2500
  2417.1000      7.8864      2.4721      0.0119     10.7825   -999.2500   -999.2500
  2417.2000      7.8864      2.4486      0.0247     12.2064   -999.2500   -999.2500
  2417.3000      7.8854      2.4333      0.0247     13.1342   -999.2500   -999.2500
  2417.4000      7.8854      2.4380      0.0221     12.8462   -999.2500   -999.2500
  2417.5000      7.8837      2.4481      0.0946     12.2389   -999.2500   -999.2500
  2417.6000      7.8837      2.4435      0.0329     12.5141   -999.2500   -999.2500
  2417.7000      7.8837      2.4313      0.0275     13.2520   -999.2500   -999.2500
  2417.8000      7.8736      2.4257      0.0327     13.5916   -999.2500   -999.2500
  2417.9000      7.8736      2.4307      0.0136     13.2937   -999.2500   -999.2500
  2418.0000      7.8817      2.4403      0.0318     12.7090   -999.2500   -999.2500
  2418.1000      7.8817      2.4414      0.0679     12.6396   -999.2500   -999.2500
  2418.2000      7.8817      2.4287      0.0654     13.4131   -999.2500   -999.2500
  2418.3000      7.8885      2.4108      0.0187     14.4952   -999.2500   -999.2500
  2418.4000      7.8885      2.4018     -0.0170     15.0444   -999.2500   -999.2500
  2418.5000      7.8945      2.4086      0.0233     14.6297   -999.2500   -999.2500
  2418.6000      7.8945      2.4250      0.0502     13.6386   -999.2500   -999.2500
  2418.7000      7.8945      2.4333      0.0831     13.1351   -999.2500   -999.2500
