~Version Information
VERS.                      2.0: CWLS Log ASCII Standard - VERSION 2.0
WRAP.                       NO: One line per depth step
~Well Information Block
STRT.FT               819.0000: 
STOP.FT              2497.0000: 
STEP.FT                 0.2500: 
NULL.                -999.2500: 
COMP.          Petrogulf Corporation: COMPANY
WELL.             State 16-21V: WELL
FLD.           Purgatorie River: FIELD
LOC.           1738' FWL & 332' FNL: LOCATION
PROV.                 Colorado: PROVINCE
CNTY.               Las Animas: COUNTRY
SRVC.          Patterson Wireline: SERVICE COMPANY
DATE.          Sun Jul 13 13:45:48 2003: LOG DATE
UWI.              05-071-07884: UNIQUE WELL ID 05 071 08829 00
~Curve Information Block
DEPT.FT            0 000 00 00: Depth
DCAL.in                       : CDL Caliper
RHOB.g/cc                     : CDL Bulk Density
RHOC.g/cc                     : CDL Density Correction
DPOR.pu                       : CDL Density Porosity
GR.GAPI                       : Gamma Ray
NPOR.pu                       : Neutron Porosity
~Parameter Information Block
~A  Depth       DCAL        RHOB        RHOC        DPOR         GR         NPOR    
# ...
  1731.0000      7.9776      2.5830      0.0889      4.0605     86.9327     19.6309
  1731.2500      7.9689      2.5750      0.0750      4.5434     85.3403     19.4164
  1731.5000      7.9774      2.5550      0.0640      5.7580     85.6989     19.9824
  1731.7500      7.9750      2.5379      0.0655      6.7928     87.9451     20.8683
  1732.0000      7.9456      2.5110      0.0758      8.4260     93.7128     22.5672
  1732.2500      7.9138      2.4953      0.0827      9.3770     98.2174     23.6745
  1732.5000      7.9178      2.4812      0.0882     10.2332    104.0774     24.9573
  1732.7500      7.9578      2.4810      0.0900     10.2440    106.7549     25.4637
  1733.0000      7.9989      2.4965      0.0942      9.3024    109.0383     25.6161
  1733.2500      8.0217      2.5159      0.0990      8.1290    109.7309     25.2822
  1733.5000      8.0286      2.5517      0.1058      5.9595    109.5509     24.1987
  1733.7500      8.0281      2.5751      0.1062      4.5416    108.4076     23.2523
  1734.0000      8.0254      2.6024      0.0981      2.8875    105.3695     21.9083
  1734.2500      8.0187      2.6132      0.0889      2.2303    103.1189     21.2642
  1734.5000      8.0093      2.6184      0.0755      1.9134    100.8248     20.8245
  1734.7500      8.0095      2.6161      0.0691      2.0575    100.5878     20.8771
  1735.0000      8.0187      2.6073      0.0641      2.5883    102.4625     21.4247
  1735.2500      8.0256      2.6001      0.0629      3.0268    105.0346     22.0715
  1735.5000      8.0294      2.5899      0.0622      3.6434    110.2945     23.3226
  1735.7500      8.0323      2.5845      0.0616      3.9670    114.3767     24.1724
  1736.0000      8.0358      2.5792      0.0599      4.2896    120.8211     25.1590
  1736.2500      8.0396      2.5772      0.0583      4.4112    124.9566     25.5615
  1736.5000      8.0483      2.5756      0.0552      4.5066    129.9435     25.9091
  1736.7500      8.0625      2.5751      0.0530      4.5379    131.8298     26.0732
  1737.0000      8.0656      2.5750      0.0514      4.5454    132.2544     26.3044
  1737.2500      8.0543      2.5756      0.0528      4.5094    131.6225     26.4650
  1737.5000      8.0463      2.5780      0.0598      4.3654    131.1489     26.7326
  1737.7500      8.0524      2.5805      0.0675      4.2122    131.7109     26.9270
  1738.0000      8.0602      2.5848      0.0803      3.9535    133.3534     27.2164
  1738.2500      8.0509      2.5870      0.0869      3.8164    134.3817     27.3910
  1738.5000      8.0381      2.5882      0.0899      3.7474    135.3542     27.5858
  1738.7500      8.0335      2.5871      0.0870      3.8120    135.7015     27.6356
  1739.0000      8.0358      2.5833      0.0785      4.0449    136.1667     27.5479
  1739.2500      8.0388      2.5799      0.0726      4.2511    136.6952     27.4016
  1739.5000      8.0373      2.5745      0.0660      4.5780    137.8390     27.1699
  1739.7500      8.0347      2.5708      0.0634      4.8009    138.3944     27.0811
  1740.0000      8.0342      2.5643      0.0623      5.1915    137.8918     27.0853
  1740.2500      8.0379      2.5587      0.0632      5.5344    136.5738     27.1532
  1740.5000      8.0484      2.5476      0.0657      6.2035    134.3458     27.3167
  1740.7500      8.0589      2.5395      0.0685      6.6989    133.6678     27.4801
  1741.0000      8.0630      2.5299      0.0809      7.2810    134.4349     27.8213
  1741.2500      8.0694      2.5281      0.1002      7.3891    135.5607     28.0633
  1741.5000      8.0801      2.5356      0.1450      6.9363    136.6674     28.2787
  1741.7500      8.1152      2.5471      0.1752      6.2368    136.5426     28.2309
  1742.0000      8.2330      2.5703      0.1971      4.8273    135.0479     27.7832
  1742.2500      8.3913      2.5866      0.1886      3.8436    133.1859     27.2224
  1742.5000      8.3914      2.6072      0.1477      2.5917    128.9195     26.0684
  1742.7500      8.2220      2.6169      0.1135      2.0031    125.3037     25.2250
  1743.0000      8.0829      2.6247      0.0714      1.5311    120.1385     24.1790
  1743.2500      8.0373      2.6258      0.0540      1.4673    117.8908     23.7915
  1743.5000      8.0264      2.6224      0.0413      1.6721    117.1484     23.7659
  1743.7500      8.0182      2.6177      0.0380      1.9592    118.1109     24.0474
  1744.0000      8.0111      2.6082      0.0351      2.5316    120.6271     24.6732
  1744.2500      8.0098      2.6011      0.0327      2.9616    122.5621     25.0886
  1744.5000      8.0143      2.5905      0.0276      3.6074    125.5331     25.5600
  1744.7500      8.0172      2.5839      0.0242      4.0040    127.3226     25.7264
  1745.0000      8.0175      2.5756      0.0214      4.5101    129.1446     25.6945
  1745.2500      8.0210      2.5711      0.0214      4.7804    129.7019     25.4737
  1745.5000      8.0183      2.5660      0.0235      5.0900    130.0014     24.9447
  1745.7500      8.0085      2.5635      0.0254      5.2404    130.0746     24.6011
  1746.0000      8.0028      2.5609      0.0290      5.4004    129.9114     24.3378
  1746.2500      8.0022      2.5596      0.0320      5.4794    129.4720     24.3617
  1746.5000      7.9996      2.5577      0.0360      5.5936    128.2717     24.5534
  1746.7500      7.9937      2.5562      0.0374      5.6871    127.3095     24.6874
  1747.0000      7.9875      2.5532      0.0384      5.8644    126.4085     24.8609
  1747.2500      7.9835      2.5511      0.0403      5.9929    126.6476     25.0021
  1747.5000      7.9836      2.5486      0.0476      6.1448    128.2753     25.3412
  1747.7500      7.9852      2.5481      0.0555      6.1779    129.6980     25.6728
  1748.0000      7.9851      2.5498      0.0707      6.0711    131.5173     26.2492
  1748.2500      7.9845      2.5528      0.0828      5.8926    132.4556     26.5614
  1748.5000      7.9854      2.5587      0.1016      5.5344    133.5712     26.6668
  1748.7500      7.9932      2.5623      0.1113      5.3174    133.8397     26.4348
  1749.0000      8.0088      2.5645      0.1151      5.1806    132.5545     25.8243
  1749.2500      8.0223      2.5631      0.1092      5.2688    130.4042     25.4654
  1749.5000      8.0250      2.5570      0.0930      5.6342    126.4452     25.2719
  1749.7500      8.0114      2.5520      0.0829      5.9367    124.4334     25.3639
  1750.0000      7.9986      2.5469      0.0759      6.2509    123.5028     25.6317
  1750.2500      7.9956      2.5469      0.0773      6.2489    124.2056     25.7902
  1750.5000      7.9986      2.5539      0.0844      5.8232    126.1891     25.8959
  1750.7500      8.0025      2.5631      0.0891      5.2651    127.1083     25.8120
  1751.0000      7.9990      2.5818      0.0924      4.1303    125.7438     25.2869
  1751.2500      7.9954      2.5959      0.0911      3.2776    122.0555     24.5915
  1751.5000      7.9941      2.6162      0.0839      2.0471    112.4322     23.0507
  1751.7500      7.9844      2.6275      0.0767      1.3612    104.4144     21.8197
  1752.0000      7.9688      2.6391      0.0648      0.6621     92.5813     20.0167
  1752.2500      7.9569      2.6425      0.0581      0.4528     85.9502     19.0433
  1752.5000      7.9479      2.6416      0.0510      0.5095     78.7621     18.1584
  1752.7500      7.9468      2.6378      0.0483      0.7400     76.0475     18.0194
  1753.0000      7.9498      2.6298      0.0486      1.2247     75.5341     18.5013
  1753.2500      7.9570      2.6245      0.0531      1.5480     77.6899     19.2200
  1753.5000      7.9716      2.6181      0.0666      1.9304     84.2345     20.6690
  1753.7500      7.9833      2.6151      0.0777      2.1125     90.2169     21.7115
  1754.0000      7.9936      2.6112      0.0911      2.3514    100.3746     23.1023
  1754.2500      8.0078      2.6080      0.0952      2.5454    107.2279     23.7959
  1754.5000      8.0234      2.6016      0.0929      2.9363    116.5978     24.4502
  1754.7500      8.0333      2.5965      0.0873      3.2430    121.7877     24.7035
