~Version Information
VERS.                      2.0: CWLS Log ASCII Standard - VERSION 2.0
WRAP.                       NO: One line per depth step
~Well Information Block
STRT.FT               430.0000: 
STOP.FT              2417.0000: 
STEP.FT                 0.1000: 
NULL.                -999.2500: 
COMP.          Evergreen Operating Corporation: COMPANY
WELL.          McCullough 34-32: WELL
FLD.           Purgatorie River: FIELD
LOC.           261' FSL & 2098' FEL: LOCATION
PROV.                 Colorado: PROVINCE
CNTY.               Las Animas: COUNTRY
SRVC.                Patterson: SERVICE COMPANY
DATE.          Mon May 17 11:25:23 2004: LOG DATE
UWI.           05 071 07953 00: UNIQUE WELL ID
~Curve Information Block
DEPT.FT            0 000 00 00: Depth
DCAL.in                       : CDL Caliper
RHOB.g/cc                     : CDL Bulk Density
RHOC.g/cc                     : CDL Density Correction
DPOR.pu                       : CDL Density Porosity
NPOR.pu                       : Neutron Porosity
GR.GAPI                       : Gamma Ray
~Parameter Information Block
~A  Depth       DCAL        RHOB        RHOC        DPOR        NPOR         GR     
# ...
  1342.0000      8.3506      2.6394      0.2062      0.6408     27.3173    132.9103
  1342.1000      8.3506      2.6256      0.0878      1.4763     27.2786    137.5592
  1342.2000      8.3506      2.6284      0.1025      1.3103     27.1639    140.5560
  1342.3000      8.3489      2.6473      0.1200      0.1653     27.0265    140.3139
  1342.4000      8.3489      2.6509      0.1098     -0.0564     27.2431    136.0944
  1342.5000      8.3351      2.6256      0.0610      1.4777     27.6511    131.3977
  1342.6000      8.3351      2.5882      0.0262      3.7463     27.6308    126.8037
  1342.7000      8.3351      2.5720      0.0117      4.7276     27.0462    121.7080
  1342.8000      8.3721      2.5877      0.0030      3.7752     26.4381    120.2062
  1342.9000      8.3721      2.5993      0.0762      3.0700     26.2250    123.3199
  1343.0000      8.4571      2.5768     -0.0184      4.4366     26.3728    126.9544
  1343.1000      8.4571      2.5398     -0.0234      6.6790     27.0549    128.3118
  1343.2000      8.4571      2.5108     -0.0110      8.4338     28.1682    129.8542
  1343.3000      8.5036      2.4938     -0.0494      9.4647     28.8954    135.6048
  1343.4000      8.5036      2.4918      0.0063      9.5853     28.6974    143.1782
  1343.5000      8.5131      2.4988      0.0097      9.1623     28.2479    143.8253
  1343.6000      8.5131      2.5043      0.0626      8.8331     28.6224    135.8392
  1343.7000      8.5131      2.5111      0.0316      8.4174     29.6429    129.5004
  1343.8000      8.5378      2.5282      0.0397      7.3848     30.2087    132.0586
  1343.9000      8.5378      2.5506      0.0995      6.0240     29.9359    139.4050
  1344.0000      8.5138      2.5689      0.0971      4.9137     29.1899    141.1619
  1344.1000      8.5138      2.5762      0.1485      4.4747     28.4072    134.9544
  1344.2000      8.5138      2.5700      0.1356      4.8491     28.0548    128.7628
  1344.3000      8.5071      2.5593      0.1155      5.4958     28.1471    123.2016
  1344.4000      8.5071      2.5511      0.1820      5.9917     28.2309    114.7209
  1344.5000      8.5154      2.5471      0.1417      6.2347     28.0307    109.2718
  1344.6000      8.5154      2.5521      0.1255      5.9325     27.4074    111.1837
  1344.7000      8.5154      2.5692      0.0736      4.8983     26.7333    113.1066
  1344.8000      8.5551      2.5975      0.1023      3.1792     26.7510    110.9256
  1344.9000      8.5551      2.6259      0.0974      1.4629     27.4367    110.8201
  1345.0000      8.5599      2.6381      0.1156      0.7219     28.0614    116.5777
  1345.1000      8.5599      2.6325      0.0675      1.0628     28.3900    124.1192
  1345.2000      8.5599      2.6197      0.0114      1.8371     28.9728    125.6927
  1345.3000      8.5623      2.6049      0.0662      2.7341     29.9624    119.6426
  1345.4000      8.5623      2.5954      0.0302      3.3075     30.5470    114.3312
  1345.5000      8.5679      2.6032      0.0336      2.8358     30.2605    115.0176
  1345.6000      8.5679      2.6225      0.0472      1.6681     29.7099    118.5826
  1345.7000      8.5679      2.6382      0.0299      0.7151     29.5539    119.8802
  1345.8000      8.5642      2.6364      0.0753      0.8221     29.6952    117.6024
  1345.9000      8.5642      2.6113      0.0635      2.3458     29.7787    116.7056
  1346.0000      8.5622      2.5814     -0.0011      4.1573     29.8151    118.9708
  1346.1000      8.5622      2.5696      0.0250      4.8701     29.8711    122.1526
  1346.2000      8.5622      2.5704      0.0636      4.8221     29.6540    129.7180
  1346.3000      8.5717      2.5692      0.0539      4.8975     28.9608    140.8878
  1346.4000      8.5717      2.5700      0.0098      4.8488     28.2707    146.6373
  1346.5000      8.6339      2.5760      0.0700      4.4864     28.3213    144.9272
  1346.6000      8.6339      2.5697      0.0548      4.8645     29.2843    141.8123
  1346.7000      8.6339      2.5407      0.0631      6.6269     30.5307    141.8347
  1346.8000      8.6633      2.5082      0.0487      8.5922     31.3644    142.3471
  1346.9000      8.6633      2.4947      0.0383      9.4099     31.5756    141.9647
  1347.0000      8.6683      2.4939      0.0642      9.4600     31.3891    142.8396
  1347.1000      8.6683      2.4811      0.0548     10.2388     31.3090    143.1666
  1347.2000      8.6683      2.4379      0.0442     12.8575     31.5696    143.4813
  1347.3000      8.6870      2.3602     -0.0062     17.5661     31.9999    144.7293
  1347.4000      8.6870      2.2568     -0.0220     23.8278     32.5734    140.8966
  1347.5000      8.7128      2.1417     -0.0753     30.8060     33.1986    133.7009
  1347.6000      8.7128      2.0228     -0.0614     38.0095     33.8481    130.2650
  1347.7000      8.7128      1.9009     -0.1031     45.4009     34.7145    127.8408
  1347.8000      8.7180      1.7784     -0.1758     52.8272     35.5670    117.9339
  1347.9000      8.7180      1.6590     -0.1368     60.0630     36.0544    100.0097
  1348.0000      8.7503      1.5427     -0.1331     67.1106     36.1128     82.8124
  1348.1000      8.7503      1.4341     -0.1158     73.6895     35.8539     71.9277
  1348.2000      8.7503      1.3388     -0.0442     79.4641     35.7085     64.8209
  1348.3000      8.8295      1.2614      0.0247     84.1563     35.9358     58.9520
  1348.4000      8.8295      1.2102      0.0789     87.2631     36.1283     54.0959
  1348.5000      9.1387      1.1925      0.0771     88.3331     36.0948     50.0185
  1348.6000      9.1387      1.2138      0.0696     87.0395     36.0389     47.8125
  1348.7000      9.1387      1.2714      0.1071     83.5492     35.8234     48.3139
  1348.8000      9.7858      1.3476      0.1237     78.9333     35.3095     51.2232
  1348.9000      9.7858      1.4253      0.1391     74.2270     34.6819     57.2233
  1349.0000     10.7749      1.5027      0.1528     69.5318     34.4516     63.2017
  1349.1000     10.7749      1.5845      0.2084     64.5739     34.7558     66.0213
  1349.2000     10.7749      1.6719      0.1931     59.2788     34.9085     69.2670
  1349.3000     11.3826      1.7621      0.2149     53.8113     34.5621     74.3857
  1349.4000     11.3826      1.8481      0.2057     48.5989     34.2232     79.1867
  1349.5000      9.4134      1.9305      0.1604     43.6031     34.0598     86.4180
  1349.6000      9.4134      2.0153      0.1670     38.4690     33.4733     99.1073
  1349.7000      9.4134      2.0974      0.1092     33.4891     32.2995    111.9916
  1349.8000      8.7655      2.1670      0.1290     29.2718     31.2129    118.2369
  1349.9000      8.7655      2.2191      0.1179     26.1173     30.7304    117.6078
  1350.0000      8.7135      2.2545      0.1423     23.9697     30.8804    118.4733
  1350.1000      8.7135      2.2733      0.1353     22.8278     31.4417    124.8585
  1350.2000      8.7135      2.2809      0.0848     22.3694     31.8976    129.7618
  1350.3000      8.7123      2.2932      0.0706     21.6262     32.1831    131.4327
  1350.4000      8.7123      2.3186      0.1003     20.0879     32.5897    134.8374
  1350.5000      8.6899      2.3440      0.1353     18.5469     33.0008    139.4413
  1350.6000      8.6899      2.3545      0.0895     17.9110     33.2531    141.7827
  1350.7000      8.6899      2.3525      0.0546     18.0276     33.2522    143.0552
  1350.8000      8.6553      2.3422      0.0950     18.6535     33.0040    145.6314
  1350.9000      8.6553      2.3186      0.0977     20.0838     32.9600    146.6840
  1351.0000      8.5740      2.2791      0.0496     22.4788     33.2627    144.1930
  1351.1000      8.5740      2.2211      0.0546     25.9946     33.4160    139.1340
  1351.2000      8.5740      2.1437     -0.0172     30.6845     33.2553    128.6095
  1351.3000      8.5626      2.0546     -0.0265     36.0854     33.3494    114.1997
  1351.4000      8.5626      1.9583     -0.0339     41.9186     34.0043    105.0556
  1351.5000      8.5787      1.8614     -0.0762     47.7929     34.7931    103.3620
