~Version Information
VERS.                      2.0: CWLS Log ASCII Standard - VERSION 2.0
WRAP.                       NO: One line per depth step
~Well Information Block
STRT.FT               260.0000: 
STOP.FT              1199.2000: 
STEP.FT                 0.1000: 
NULL.                -999.2500: 
COMP.          Evergreen Operating Corporation: COMPANY
WELL.             Justin 32-10: WELL
FLD.           Purgatorie River: FIELD
LOC.           2994' FNL & 1449' FEL: LOCATION
PROV.                 Colorado: PROVINCE
CNTY.               Las Animas: COUNTRY
SRVC.                         : SERVICE COMPANY
DATE.          Mon Aug 30 07:14:35 2004: LOG DATE
UWI.           05 071 08053 00: UNIQUE WELL ID
~Curve Information Block
DEPT.FT            0 000 00 00: Depth
LTEN.lb                       : Surface Line Tension
DCAL.in                       : CDL Caliper
RHOB.g/cc                     : CDL Bulk Density
RHOC.g/cc                     : CDL Density Correction
DPOR.pu                       : CDL Density Porosity
GR.GAPI                       : Gamma Ray
NPOR.pu                       : Neutron Porosity
~Parameter Information Block
~A  Depth       LTEN        DCAL        RHOB        RHOC        DPOR         GR         NPOR    
# ...
   881.6000    940.4705      7.9743      2.3486      0.0628     18.2637     62.6945     22.5230
   881.7000    940.4705      7.9743      2.3443      0.0396     18.5262     64.4712     23.0853
   881.8000    899.6486      7.9895      2.3585      0.1053     17.6651     68.5493     22.6611
   881.9000    899.6486      7.9895      2.3833      0.0846     16.1648     73.2085     22.3941
   882.0000    860.5178      7.9954      2.4052      0.0952     14.8358     76.6278     22.5671
   882.1000    860.5178      7.9954      2.4225      0.0828     13.7856     81.3678     22.9205
   882.2000    860.5178      7.9954      2.4431      0.1205     12.5408     86.0358     22.9494
   882.3000    936.7891      7.9688      2.4638      0.1307     11.2840     86.9688     22.5120
   882.4000    936.7891      7.9688      2.4772      0.1128     10.4714     85.0702     22.2731
   882.5000    957.2404      7.9749      2.4865      0.1160      9.9116     84.0172     22.3734
   882.6000    957.2404      7.9749      2.4936      0.0974      9.4762     84.2385     22.6024
   882.7000    957.2404      7.9749      2.4892      0.1130      9.7433     82.3842     22.8858
   882.8000    885.1407      7.9865      2.4701      0.0263     10.9010     78.7424     22.6211
   882.9000    885.1407      7.9865      2.4573     -0.0010     11.6765     78.4273     21.7059
   883.0000    910.9738      7.9635      2.4652      0.0309     11.2004     82.0353     21.1736
   883.1000    910.9738      7.9635      2.4797      0.0664     10.3189     83.8938     21.6712
   883.2000    910.9738      7.9635      2.4832      0.0947     10.1070     79.3764     22.7077
   883.3000    877.2994      7.9521      2.4712      0.0937     10.8334     71.9812     23.2566
   883.4000    877.2994      7.9521      2.4551      0.0498     11.8092     70.0665     23.1317
   883.5000    911.2581      7.9746      2.4510      0.0517     12.0581     71.5719     22.7511
   883.6000    911.2581      7.9746      2.4593      0.0616     11.5590     67.7477     22.2799
   883.7000    911.2581      7.9746      2.4683      0.0920     11.0128     61.3643     21.8902
   883.8000    875.7238      7.9666      2.4764      0.0911     10.5233     60.8383     21.5310
   883.9000    875.7238      7.9666      2.4886      0.1216      9.7808     64.4649     21.0833
   884.0000    923.6020      7.9692      2.5000      0.1192      9.0937     65.4580     20.9541
   884.1000    923.6020      7.9692      2.5060      0.0922      8.7260     65.4155     21.2317
   884.2000    923.6020      7.9692      2.5085      0.0552      8.5756     69.8954     21.2468
   884.3000    872.2568      7.9693      2.5027      0.1059      8.9262     78.1387     20.7466
   884.4000    872.2568      7.9693      2.4885      0.0401      9.7905     83.6175     20.1614
   884.5000    875.8346      7.9725      2.4737      0.0674     10.6833     83.7280     19.8137
   884.6000    875.8346      7.9725      2.4566      0.0464     11.7191     82.5522     19.6289
   884.7000    875.8346      7.9725      2.4351      0.0574     13.0256     80.8672     19.5332
   884.8000    885.8048      7.9619      2.4189     -0.0030     14.0070     78.0769     19.5982
   884.9000    885.8048      7.9619      2.4166      0.0460     14.1434     78.9619     19.6497
   885.0000    871.9969      7.9637      2.4219      0.0752     13.8227     82.5030     19.7414
   885.1000    871.9969      7.9637      2.4245      0.0812     13.6681     80.7718     20.4655
   885.2000    871.9969      7.9637      2.4204      0.0781     13.9162     73.1909     21.4865
   885.3000    915.4596      7.9960      2.4125      0.0372     14.3942     64.9625     21.3995
   885.4000    915.4596      7.9960      2.4057      0.0750     14.8043     58.3195     20.0646
   885.5000    940.7196      7.9750      2.3992      0.0831     15.2004     53.0992     18.8928
   885.6000    940.7196      7.9750      2.3965      0.0916     15.3663     49.8722     19.1084
   885.7000    940.7196      7.9750      2.4067      0.0864     14.7439     49.9861     20.5231
   885.8000    903.2606      7.9654      2.4268      0.1145     13.5262     52.2125     21.4660
   885.9000    903.2606      7.9654      2.4402      0.1325     12.7167     56.0077     20.8909
   886.0000    910.1926      7.9777      2.4411      0.0858     12.6581     60.7860     19.5847
   886.1000    910.1926      7.9777      2.4400      0.1163     12.7264     62.4083     18.8469
   886.2000    910.1926      7.9777      2.4400      0.1351     12.7268     60.9880     19.3551
   886.3000    924.2802      8.0010      2.4356      0.1206     12.9956     59.7917     20.3471
   886.4000    924.2802      8.0010      2.4288      0.0719     13.4043     59.2912     20.7042
   886.5000    924.7558      7.9970      2.4256      0.0927     13.5983     60.3861     20.7133
   886.6000    924.7558      7.9970      2.4230      0.1105     13.7575     62.1139     20.6659
   886.7000    924.7558      7.9970      2.4196      0.1195     13.9610     61.3385     20.1877
   886.8000    938.5403      7.9981      2.4217      0.0815     13.8350     57.4643     19.4272
   886.9000    938.5403      7.9981      2.4212      0.1449     13.8653     53.3489     18.8181
   887.0000    907.1706      7.9777      2.4042      0.0731     14.8966     52.4876     18.4160
   887.1000    907.1706      7.9777      2.3799      0.0905     16.3679     55.0776     17.9160
   887.2000    907.1706      7.9777      2.3684      0.0402     17.0680     58.2218     17.3669
   887.3000    958.5178      7.9835      2.3801      0.0757     16.3581     58.8371     17.4399
   887.4000    958.5178      7.9835      2.4067      0.0768     14.7443     57.9628     18.3300
   887.5000    939.2881      7.9894      2.4314      0.1056     13.2478     59.5884     19.1547
   887.6000    939.2881      7.9894      2.4453      0.1292     12.4050     61.8708     19.2598
   887.7000    939.2881      7.9894      2.4566      0.0742     11.7220     59.4887     19.3978
   887.8000    959.1424      7.9689      2.4757      0.1316     10.5606     54.2856     19.9794
   887.9000    959.1424      7.9689      2.4873      0.1271      9.8634     53.0505     20.2912
   888.0000    951.0786      7.9682      2.4743      0.1124     10.6504     59.5392     20.1706
   888.1000    951.0786      7.9682      2.4477      0.0833     12.2625     66.9866     20.0847
   888.2000    951.0786      7.9682      2.4292      0.0383     13.3822     65.7043     20.0776
   888.3000    924.8701      7.9741      2.4293      0.0273     13.3776     60.1716     19.7498
   888.4000    924.8701      7.9741      2.4404      0.0718     12.7055     58.6389     19.2236
   888.5000    892.4578      7.9914      2.4419      0.1064     12.6107     58.8306     19.1649
   888.6000    892.4578      7.9914      2.4216      0.0803     13.8419     56.3617     19.8938
   888.7000    892.4578      7.9914      2.3933      0.0357     15.5574     52.9325     20.7300
   888.8000    884.5027      7.9735      2.3784      0.0348     16.4614     50.7598     20.3087
   888.9000    884.5027      7.9735      2.3772      0.0556     16.5304     50.1307     18.5045
   889.0000    906.4098      7.9814      2.3797      0.0262     16.3791     52.4589     16.9073
   889.1000    906.4098      7.9814      2.3825      0.0697     16.2142     58.5692     16.5474
   889.2000    906.4098      7.9814      2.3834      0.0498     16.1605     63.6988     16.9535
   889.3000    922.9464      7.9780      2.3826      0.0889     16.2046     62.4894     17.7252
   889.4000    922.9464      7.9780      2.3846      0.0554     16.0820     57.3850     18.7355
   889.5000    910.6785      7.9748      2.3901      0.0623     15.7528     54.5037     19.3314
   889.6000    910.6785      7.9748      2.3913      0.0645     15.6763     53.3917     19.3533
   889.7000    910.6785      7.9748      2.3861      0.0378     15.9961     49.7472     19.3836
   889.8000    955.2506      7.9612      2.3815      0.0589     16.2710     42.8924     19.8245
   889.9000    955.2506      7.9612      2.3796      0.0695     16.3902     37.0032     20.4819
