~Version Information
VERS.                      2.0: CWLS Log ASCII Standard - VERSION 2.0
WRAP.                       NO: One line per depth step
~Well Information Block
STRT.FT               340.0000: 
STOP.FT              1542.5000: 
STEP.FT                 0.2500: 
NULL.                -999.2500: 
COMP.          Petrogulf Corporation: COMPANY
WELL.            Montoya 7-21R: WELL
FLD.           Purgatorie River: FIELD
LOC.           445' FNL & 1942' FWL: LOCATION
PROV.                 Colorado: PROVINCE
CNTY.               Las Animas: COUNTRY
SRVC.                Patterson: SERVICE COMPANY
DATE.          Thu Sep 15 10:37:42 2005: LOG DATE
UWI.                          : UNIQUE WELL ID
~Curve Information Block
DEPT.FT            0 000 00 00: Depth
SP.mV                         : DIL Spontaneous Potential
RILD.Ohm-m                    : DIL Deep Resistivity
RILM.Ohm-m                    : DIL Medium Resistivity
RLL3.Ohm-m                    : DIL Shallow Resistivity
GR.GAPI                       : Gamma Ray
~Parameter Information Block
~A  Depth        SP         RILD        RILM        RLL3         GR     
# ...
   508.0000   2000.0000     23.6701     32.8978   2000.0000    114.4880
   508.2500   2000.0000     22.4112     29.3331   2000.0000    102.8231
   508.5000   2000.0000     21.0515     27.2751   2000.0000    111.3957
   508.7500   2000.0000     20.0419     23.9029   2000.0000    101.3723
   509.0000   2000.0000     18.4530     21.2319   2000.0000    110.9928
   509.2500   2000.0000     17.2396     18.8509   2000.0000    108.4318
   509.5000   2000.0000     16.7628     16.6597   2000.0000     94.7931
   509.7500   2000.0000     15.7778     14.9027   2000.0000    103.0438
   510.0000   2000.0000     15.2640     13.5492   2000.0000    107.3993
   510.2500   2000.0000     14.6533     12.5603   2000.0000    110.4309
   510.5000   2000.0000     14.2753     11.7530   2000.0000    107.5617
   510.7500   2000.0000     13.6226     11.4828   2000.0000    143.6464
   511.0000   2000.0000     13.0236     11.2391   2000.0000    148.3160
   511.2500   2000.0000     12.5600     10.9743   2000.0000    131.2265
   511.5000   2000.0000     12.1513     10.8466   2000.0000    109.8556
   511.7500   2000.0000     11.7010     10.6287   2000.0000    115.4084
   512.0000   2000.0000     11.5085     10.5584   2000.0000    134.9719
   512.2500   2000.0000     11.2327     10.5911   2000.0000    151.8089
   512.5000   2000.0000     11.4166     10.8190   2000.0000    139.5384
   512.7500   2000.0000     11.5193     10.4612   2000.0000    137.1832
   513.0000   2000.0000     11.5797     10.4616   2000.0000    137.9467
   513.2500   2000.0000     11.7586     10.5753   2000.0000    154.3139
   513.5000   2000.0000     12.0493     10.8759   2000.0000    155.2418
   513.7500   2000.0000     12.2138     11.4301   2000.0000    160.6747
   514.0000   2000.0000     12.0867     11.9153   2000.0000    134.2735
   514.2500   2000.0000     12.2628     12.5647   2000.0000    121.3892
   514.5000   2000.0000     12.1291     12.8634   2000.0000    121.9599
   514.7500   2000.0000     11.9714     12.8165   2000.0000    125.5429
   515.0000   2000.0000     11.7962     12.5567   2000.0000    103.3394
   515.2500   2000.0000     11.7738     12.0905   2000.0000    108.8423
   515.5000   2000.0000     11.6693     11.6482   2000.0000    126.8162
   515.7500   2000.0000     11.6596     11.6353   2000.0000    138.9901
   516.0000   2000.0000     11.7666     11.2490   2000.0000    138.5603
   516.2500   2000.0000     11.5712     11.1108   2000.0000    141.1338
   516.5000   2000.0000     11.4259     10.8225   2000.0000    125.4754
   516.7500   2000.0000     11.2680     10.5310   2000.0000    131.6219
   517.0000   2000.0000     11.1148     10.3394   2000.0000    151.7911
   517.2500   2000.0000     11.1296     10.1938   2000.0000    134.5658
   517.5000   2000.0000     11.0106     10.1005   2000.0000    143.8333
   517.7500   2000.0000     10.8146     10.0616   2000.0000    138.5643
   518.0000   2000.0000     10.7663     10.0433   2000.0000    144.1334
   518.2500   2000.0000     10.6537     10.0930   2000.0000    143.1959
   518.5000   2000.0000     10.7418     10.3304   2000.0000    170.9100
   518.7500   2000.0000     10.6866     10.3436   2000.0000    165.5647
   519.0000   2000.0000     10.8126     10.4249   2000.0000    174.4846
   519.2500   2000.0000     10.8388     10.4336   2000.0000    163.8972
   519.5000   2000.0000     10.9896     10.5178   2000.0000    192.2787
   519.7500   2000.0000     11.2149     10.6915   2000.0000    179.0516
   520.0000   2000.0000     11.4092     10.7208   2000.0000    171.7251
   520.2500   2000.0000     11.6825     10.9897   2000.0000    181.0535
   520.5000   2000.0000     11.8984     11.3211   2000.0000    186.0544
   520.7500   2000.0000     12.1549     11.6089   2000.0000    186.6650
   521.0000   2000.0000     12.0761     11.8587   2000.0000    164.3349
   521.2500   2000.0000     12.2904     12.0700   2000.0000    165.0676
   521.5000   2000.0000     12.5489     12.2884   2000.0000    154.8628
   521.7500   2000.0000     12.7551     12.4070   2000.0000    146.5300
   522.0000   2000.0000     13.1194     12.5734   2000.0000    186.6715
   522.2500   2000.0000     13.3885     12.9128   2000.0000    175.6911
   522.5000   2000.0000     13.7942     13.2315   2000.0000    152.6875
   522.7500   2000.0000     14.2140     13.7221   2000.0000    154.9985
   523.0000   2000.0000     14.6699     14.0478   2000.0000    186.3891
   523.2500   2000.0000     15.2155     14.7964   2000.0000    153.0423
   523.5000   2000.0000     15.6576     15.4783   2000.0000    155.0319
   523.7500   2000.0000     16.4002     16.1291   2000.0000    165.7217
   524.0000   2000.0000     17.4481     16.8130   2000.0000    139.6796
   524.2500   2000.0000     18.2320     17.8821   2000.0000    136.7325
   524.5000   2000.0000     19.1347     19.3937   2000.0000    143.1113
   524.7500   2000.0000     19.8516     19.9937   2000.0000    148.3173
   525.0000   2000.0000     21.3960     21.5229   2000.0000    133.0014
   525.2500   2000.0000     22.7892     23.2218   2000.0000    122.9552
   525.5000   2000.0000     24.4323     26.0406   2000.0000    136.6481
   525.7500   2000.0000     26.0948     28.9664   2000.0000    130.2988
   526.0000   2000.0000     28.9049     32.1301   2000.0000    126.6391
   526.2500   2000.0000     30.2857     36.0316   2000.0000    116.9469
   526.5000   2000.0000     32.1283     39.3163   2000.0000    108.3666
   526.7500   2000.0000     34.7179     43.3561   2000.0000     95.8366
   527.0000   2000.0000     38.2505     48.7247   2000.0000     91.2860
   527.2500   2000.0000     40.0995     54.9619   2000.0000     88.6204
   527.5000   2000.0000     42.6103     60.0698   2000.0000     79.2130
   527.7500   2000.0000     44.9169     65.9996   2000.0000     78.0622
   528.0000   2000.0000     45.9817     73.9105   2000.0000     59.5197
   528.2500   2000.0000     46.5747     82.3264   2000.0000     57.8829
   528.5000   2000.0000     45.3099     86.2519   2000.0000     63.9585
   528.7500   2000.0000     44.5316     84.9613   2000.0000     77.9044
   529.0000   2000.0000     41.7448     81.6903   2000.0000     68.8973
   529.2500   2000.0000     37.4821     74.3105   2000.0000     73.3676
   529.5000   2000.0000     33.9941     61.9594   2000.0000     81.2876
   529.7500   2000.0000     31.6914     53.0199   2000.0000     74.2438
   530.0000   2000.0000     28.1029     41.5127   2000.0000     57.4299
   530.2500   2000.0000     26.2075     33.0531   2000.0000     68.0285
   530.5000   2000.0000     23.9378     26.3076   2000.0000     81.0255
   530.7500   2000.0000     22.9208     21.5722   2000.0000     96.8338
   531.0000   2000.0000     21.2673     18.7091   2000.0000    100.9999
   531.2500   2000.0000     20.1645     16.4341   2000.0000    103.4672
   531.5000   2000.0000     18.6668     15.6745   2000.0000    100.7773
   531.7500   2000.0000     17.5638     15.1129   2000.0000    116.5720
   532.0000   2000.0000     16.6655     14.5479   2000.0000    143.7903
   532.2500   2000.0000     15.9497     14.2663   2000.0000    153.4116
   532.5000   2000.0000     15.2150     13.8933   2000.0000    131.7249
   532.7500   2000.0000     14.4343     13.3922   2000.0000    123.6543
   533.0000   2000.0000     14.0630     12.9584   2000.0000    145.4622
   533.2500   2000.0000     13.8611     12.7004   2000.0000    145.7881
   533.5000   2000.0000     13.6687     12.6193   2000.0000    115.9967
   533.7500   2000.0000     13.4473     12.4219   2000.0000    127.6851
   534.0000   2000.0000     13.5614     12.2509   2000.0000    134.4939
   534.2500   2000.0000     13.3157     12.2043   2000.0000    143.9890
   534.5000   2000.0000     13.2220     12.2629   2000.0000    152.1978
   534.7500   2000.0000     13.2195     12.5507   2000.0000    142.5648
   535.0000   2000.0000     13.3574     12.3754   2000.0000    155.2278
   535.2500   2000.0000     12.9850     12.1638   2000.0000    142.3494
   535.5000   2000.0000     12.7854     12.1289   2000.0000    146.1488
   535.7500   2000.0000     12.4038     12.2033   2000.0000    161.4068
