~Version Information
VERS.                      2.0: CWLS Log ASCII Standard - VERSION 2.0
WRAP.                       NO: One line per depth step
~Well Information Block
STRT.FT                -6.2500: 
STOP.FT              2316.0000: 
STEP.FT                 0.2500: 
NULL.                -999.2500: 
COMP.          Pioneer Natural Resources: COMPANY
WELL.             Trimax 44-23: WELL
FLD.           Purgatorie River: FIELD
LOC.           527' FSL & 1064' FEL------: LOCATION
PROV.                       CO: PROVINCE
CNTY.               Las Animas: COUNTRY
SRVC.          Patterson Wireline: SERVICE COMPANY
DATE.          Sat Mar 19 11:18:53 2005: LOG DATE
UWI.           05 071 08326 00: UNIQUE WELL ID
~Curve Information Block
DEPT.FT            0 000 00 00: Depth
CCL.                          : Casing Collar Locator
TT3.usec                      : CBL 3' Travel Time
AMP3.mV                       : CBL 3' Amplitude
GR.GAPI                       : Gamma Ray
~Parameter Information Block
~A  Depth       CCL         TT3         AMP3         GR     
# ...
  2271.7500      0.0000    701.1381      4.7978     64.5740
  2272.0000      0.0000    672.6403      4.7136     65.9619
  2272.2500      0.0000    644.2762      4.5979     67.5267
  2272.5000      0.0000    626.7432      4.4001     69.2479
  2272.7500      0.0000    626.1014      4.1418     70.9151
  2273.0000      0.0000    637.8863      3.9009     72.3335
  2273.2500      0.0000    651.3279      3.7550     73.7084
  2273.5000      0.0000    658.4613      3.7389     75.3741
  2273.7500      0.0000    658.4966      3.8424     77.2878
  2274.0000      0.0000    655.4699      4.0363     79.0387
  2274.2500      0.0000    654.0721      4.2955     80.2169
  2274.5000      0.0000    657.6235      4.6046     80.6454
  2274.7500      0.0000    667.9190      4.9500     80.4743
  2275.0000      0.0000    684.7125      5.3121     80.3054
  2275.2500      0.0000    704.4398      5.6638     80.9954
  2275.5000      0.0000    720.3881      5.9824     82.8213
  2275.7500      0.0000    726.2178      6.2593     84.8056
  2276.0000      0.0000    720.5350      6.4960     85.3364
  2276.2500      0.0000    707.8404      6.6971     83.7021
  2276.5000      0.0000    694.7121      6.8673     80.7582
  2276.7500      0.0000    685.2966      7.0160     78.0582
  2277.0000      0.0000    680.0952      7.1608     76.7507
  2277.2500      0.0000    677.6801      7.3146     77.2826
  2277.5000      0.0000    676.6218      7.4772     79.6638
  2277.7500      0.0000    676.0969      7.6498     83.7418
  2278.0000      0.0000    675.3824      7.8328     89.1646
  2278.2500      0.0000    673.0205      8.0018     94.8978
  2278.5000      0.0000    666.4903      8.1223     98.9312
  2278.7500      0.0000    653.2850      8.1940     99.3055
  2279.0000      0.0000    633.3995      8.2534     96.0112
  2279.2500      0.0000    611.0463      8.3375     91.4102
  2279.5000      0.0000    592.9656      8.4547     88.2770
  2279.7500      0.0000    584.1156      8.5768     87.7107
  2280.0000      0.0000    584.8857      8.6623     89.0207
  2280.2500      0.0000    592.1307      8.6985     90.8939
  2280.5000      0.0000    602.1214      8.7053     92.3108
  2280.7500      0.0000    612.4437      8.6999     92.9016
  2281.0000      0.0000    621.9534      8.6854     92.8998
  2281.2500      0.0000    630.0821      8.6702     92.7087
  2281.5000      0.0000    636.8673      8.6806     92.5011
  2281.7500      0.0000    643.3463      8.7606     92.3673
  2282.0000      0.0000    650.9384      8.9465     92.6365
  2282.2500      0.0000    659.8923      9.2239     93.5768
  2282.5000      0.0000    668.5975      9.5097     94.8440
  2282.7500      0.0000    674.5992      9.6999     95.7870
  2283.0000      0.0000    675.6288      9.7557     96.3537
  2283.2500      0.0000    669.6372      9.7462     97.0387
  2283.5000      0.0000    656.0906      9.7874     97.7578
  2283.7500      0.0000    638.8668      9.9239     97.5116
  2284.0000      0.0000    625.9608     10.0965     95.6493
  2284.2500      0.0000    623.9396     10.2333     92.9475
  2284.5000      0.0000    632.9895     10.3402     90.8616
  2284.7500      0.0000    647.8819     10.4925     89.9163
  2285.0000      0.0000    662.6373     10.7712     89.2363
  2285.2500      0.0000    673.9357     11.2097     87.5582
  2285.5000      0.0000    681.7313     11.7622     84.3923
  2285.7500      0.0000    688.1144     12.3114     80.2736
  2286.0000      0.0000    695.4533     12.7228     76.2357
  2286.2500      0.0000    704.4766     12.9060     73.1694
  2286.5000      0.0000    713.4410     12.8425     71.4146
  2286.7500      0.0000    719.4078     12.5870     70.6700
  2287.0000      0.0000    721.0159     12.2446     70.2832
  2287.2500      0.0000    720.1066     11.9179     69.7889
  2287.5000      0.0000    720.3740     11.6493     69.2029
  2287.7500      0.0000    724.3226     11.4036     68.7041
  2288.0000      0.0000    731.3021     11.0983     68.2635
  2288.2500      0.0000    738.1401     10.6644     67.9200
  2288.5000      0.0000    741.6637     10.1063     68.1230
  2288.7500      0.0000    741.0133      9.4967     69.1508
  2289.0000      0.0000    737.8936      8.8950     70.2488
  2289.2500      0.0000    734.6411      8.2927     69.9812
  2289.5000      0.0000    731.9276      7.6763     67.5969
  2289.7500      0.0000    728.5287      7.1187     63.7796
  2290.0000      0.0000    723.5873      6.7513     60.0926
  2290.2500      0.0000    718.3036      6.6448     57.9368
  2290.5000      1.0000    714.7842      6.7500     57.9051
  2290.7500      1.0000    713.9569      6.9542     59.7333
  2291.0000      0.0000    715.2612      7.1815     62.6473
  2291.2500      0.0000    717.4503      7.4434     65.8203
  2291.5000      0.0000    718.9832      7.7901     68.7339
  2291.7500      0.0000    718.2785      8.1916     71.4048
  2292.0000      0.0000    714.5479      8.5011     74.4735
  2292.2500      0.0000    708.5135      8.6074     78.9250
  2292.5000      0.0000    702.1003      8.5960     85.3258
  2292.7500      0.0000    697.5029      8.6775     93.1561
  2293.0000      0.0000    696.1324      8.9605    101.0747
  2293.2500      0.0000    697.5682      9.3488    107.8868
  2293.5000      0.0000    699.4561      9.6502    113.0019
  2293.7500      0.0000    699.3316      9.7439    115.9556
  2294.0000      0.0000    697.0081      9.6498    115.9652
  2294.2500      0.0000    694.8047      9.4652    112.4804
  2294.5000      0.0000    695.2433      9.2587    106.2952
  2294.7500      0.0000    698.6929      9.0380     99.8423
  2295.0000      0.0000    703.2043      8.8037     95.9187
  2295.2500      0.0000    706.3929      8.5903     95.7197
  2295.5000      0.0000    707.3087      8.4388     98.0631
  2295.7500      0.0000    706.5450      8.3489    100.6512
  2296.0000      0.0000    705.0156      8.2791    101.9098
  2296.2500      0.0000    703.0162      8.1856    101.4648
  2296.5000      0.0000    700.2641      8.0596     99.4470
  2296.7500      0.0000    696.5381      7.9299     96.1230
  2297.0000      0.0000    692.3317      7.8308     92.0905
  2297.2500      0.0000    688.9271      7.7722     88.1863
  2297.5000      0.0000    687.5657      7.7460     84.9638
  2297.7500      0.0000    688.3095      7.7401     82.3541
  2298.0000      0.0000    689.7260      7.7376     79.8909
  2298.2500      0.0000    689.9011      7.7163     77.4263
  2298.5000      0.0000    687.9917      7.6614     75.7760
  2298.7500      0.0000    684.8055      7.5911     76.4375
  2299.0000      0.0000    681.8671      7.5577     80.2790
  2299.2500      0.0000    680.2573      7.5873     86.4542
  2299.5000      0.0000    680.4978      7.6322     92.7195
  2299.7500      0.0000    683.0922      7.6397     96.9211
  2300.0000      0.0000    688.4739      7.6514     98.4266
  2300.2500      0.0000    696.1752      7.7529     98.4153
  2300.5000      0.0000    704.3295      7.9299     98.8290
  2300.7500      0.0000    710.5655      8.0622    100.8864
  2301.0000      0.0000    713.7903      8.0760    104.1175
  2301.2500      0.0000    715.1812      8.0250    106.3729
  2301.5000      0.0000    717.1613      7.9992    104.7730
  2301.7500      0.0000    720.9910      8.0140     97.0242
  2302.0000      0.0000    725.2010      8.0266     82.4296
  2302.2500      0.0000    726.6652      8.0141     62.5457
  2302.5000      0.0000    723.5511      7.9886     41.1876
  2302.7500      0.0000    717.3113      7.9512     22.9119
  2303.0000      0.0000    711.7123      7.8752     10.5281
  2303.2500      0.0000    709.7960      7.7527      3.9286
  2303.5000      0.0000    711.6880      7.6374      1.1754
  2303.7500      0.0000    715.2114      7.6180      0.2792
  2304.0000      0.0000    718.3023      7.7487      0.0518
  2304.2500      0.0000    720.6833      8.0177      0.0070
  2304.5000      0.0000    723.6105      8.3794      0.0000
  2304.7500      0.0000    728.4058      8.7888   -999.2500
  2305.0000      0.0000    735.0273      9.1925   -999.2500
