~Version Information
 VERS.                                  2.0 : CWLS LAS VERSION
 WRAP.                                   NO : WRAPING MODE
 SWARE .                 MController 2.5.0E : SOFTWARE VERSION
~Well Information
 WELL.                        Rimrock 14-29 : WELL
 COMP.             Evergreen Operating Corp : COMPANY
 FLD.                      Purgatorie River : FIELD
 LOC.                SW SW Sec 29 T32S R65W : LOCATION
 DATE.                              9/20/04 : DATE(S) LOGGED
 SRVC.       Blanco Geological Services LLC : SERVICE COMPANY
 STAT.                                   CO : STATE
 CNTY.                           Las Animas : COUNTY
 CTRY.                                  USA : COUNTRY
 API.                       05-071-08136-00 : API NUMBER
 STRT.FT                             517.00 : START DEPTH
 STOP.FT                            1705.00 : STOP DEPTH
 STEP.FT                               1.00 : DEPTH INCREMENT
 NULL.                                -9999 : NULL VALUE
~Curve information
 DEPTH.FT                                   :
 ROP.MIN/FT                                 :
 GAS.UNITS                                  :
~ASCII Log data
# ...
     1317.00        0.333          4.1 
     1318.00        0.333          7.1 
     1319.00        0.133          9.0 
     1320.00        0.233         14.1 
     1321.00        0.233         18.9 
     1322.00        0.133         21.4 
     1323.00        0.217         24.1 
     1324.00        0.200         27.8 
     1325.00        0.200         30.0 
     1326.00        0.167         30.8 
     1327.00        0.233         30.8 
     1328.00        0.200         29.2 
     1329.00        0.233         26.2 
     1330.00        0.233         22.3 
     1331.00        0.200         18.5 
     1332.00        0.167         16.0 
     1333.00        0.133         14.1 
     1334.00        0.200         12.7 
     1335.00        0.167         10.6 
     1336.00        0.167          9.4 
     1337.00        0.167          8.3 
     1338.00        0.200          7.5 
     1339.00        0.233          6.8 
     1340.00        0.250          6.5 
     1341.00        0.167          6.1 
     1342.00        0.167          5.6 
     1343.00        0.200          5.7 
     1344.00        0.167          5.4 
     1345.00        0.200          5.4 
     1346.00        1.667          5.2 
     1347.00        0.400          5.4 
     1348.00        0.350         11.6 
     1349.00        0.433         25.7 
     1350.00        0.233         29.9 
     1351.00        0.267         32.9 
     1352.00        0.267         32.5 
     1353.00        0.233         31.3 
     1354.00        0.267         26.5 
     1355.00        0.233         22.1 
     1356.00        0.200         18.5 
     1357.00        0.233         15.1 
     1358.00        0.233         12.5 
     1359.00        0.233          9.9 
     1360.00        0.233          8.2 
     1361.00        0.217          6.9 
     1362.00        0.200          6.2 
     1363.00        0.200          5.6 
     1364.00        0.267          5.0 
     1365.00        0.300          4.8 
     1366.00        0.267          4.1 
     1367.00        0.233          4.0 
     1368.00        0.267          3.9 
     1369.00        0.267          4.2 
     1370.00        0.267          4.8 
     1371.00        0.267          5.6 
     1372.00        0.333          5.9 
     1373.00        0.300          6.0 
     1374.00        0.250          5.7 
     1375.00        0.200          5.3 
     1376.00        3.683         13.0 
     1377.00        0.233         15.7 
     1378.00        0.167         16.5 
     1379.00        0.133         16.9 
     1380.00        0.233         15.9 
     1381.00        0.267         14.7 
     1382.00        0.333         14.5 
     1383.00        0.300         16.7 
     1384.00        0.333         18.4 
     1385.00        0.333         18.4 
     1386.00        0.233         17.8 
     1387.00        0.150         16.7 
     1388.00        0.133         15.8 
     1389.00        0.267         15.2 
     1390.00        0.300         14.2 
     1391.00        0.433         12.2 
     1392.00        0.333         11.4 
     1393.00        0.300         11.5 
     1394.00        0.333         11.3 
     1395.00        0.367          9.7 
     1396.00        0.333          8.7 
     1397.00        0.333          7.7 
     1398.00        0.350          6.9 
     1399.00        0.333          6.3 
     1400.00        0.300          5.6 
     1401.00        0.333          5.2 
     1402.00        0.133          4.7 
     1403.00        0.167          5.0 
     1404.00        0.167          4.6 
     1405.00        0.300          6.1 
     1406.00        2.983         25.3 
     1407.00        0.367         51.3 
     1408.00        0.433         71.5 
     1409.00        0.233         72.1 
     1410.00        0.300         70.4 
     1411.00        0.267         68.6 
     1412.00        0.250         70.0 
     1413.00        0.267         70.1 
     1414.00        0.233         67.4 
     1415.00        0.233         61.6 
     1416.00        0.167         57.5 
     1417.00        0.133         54.4 
     1418.00        0.167         51.4 
     1419.00        0.167         47.2 
     1420.00        0.133         44.3 
     1421.00        0.167         41.7 
     1422.00        0.200         38.1 
     1423.00        0.200         35.1 
     1424.00        0.200         34.1 
     1425.00        0.233         33.9 
     1426.00        0.200         34.6 
     1427.00        0.200         35.3 
     1428.00        0.233         36.2 
     1429.00        0.217         37.4 
     1430.00        0.133         37.7 
     1431.00        0.133         37.0 
     1432.00        0.167         35.4 
     1433.00        0.167         33.5 
     1434.00        0.200         30.0 
     1435.00        0.200         30.5 
     1436.00        3.017        145.3 
     1437.00        0.367        206.9 
     1438.00        0.367        216.3 
     1439.00        0.333        220.5 
     1440.00        0.367        225.4 
     1441.00        0.267        221.2 
     1442.00        0.333        203.8 
     1443.00        0.333        178.4 
     1444.00        0.350        158.2 
     1445.00        0.333        143.8 
     1446.00        0.333        133.2 
     1447.00        0.333        122.0 
     1448.00        0.333        109.7 
     1449.00        0.367         97.9 
     1450.00        0.400         87.5 
     1451.00        0.400         82.1 
     1452.00        0.333         84.9 
     1453.00        0.333         86.6 
     1454.00        0.250         82.6 
     1455.00        0.300         82.8 
     1456.00        0.300        101.9 
     1457.00        0.267        134.4 
     1458.00        0.267        165.6 
     1459.00        0.300        192.0 
     1460.00        0.333        213.5 
     1461.00        0.333        237.9 
     1462.00        0.400        267.3 
     1463.00        0.367        275.0 
     1464.00        0.383        273.8 
     1465.00        0.233        277.9 
     1466.00        2.500        325.1 
     1467.00        0.433        367.3 
     1468.00        0.383       1564.1 
     1469.00        0.367       1702.3 
     1470.00        0.333       1696.5 
     1471.00        0.267       1563.4 
     1472.00        0.300       1404.4 
     1473.00        0.300       1246.1 
     1474.00        0.300       1120.7 
     1475.00        0.300       1030.8 
     1476.00        0.300        982.6 
     1477.00        0.267        947.6 
     1478.00        0.300        917.6 
     1479.00        0.283        883.6 
     1480.00        0.300        851.9 
     1481.00        0.267        829.3 
     1482.00        0.200        802.4 
     1483.00        0.200        779.4 
     1484.00        0.233        757.5 
     1485.00        0.267        728.9 
     1486.00        0.267        699.6 
     1487.00        0.300        685.4 
     1488.00        0.300        693.2 
     1489.00        0.333        714.4 
     1490.00        0.300        716.1 
     1491.00        0.350        718.5 
     1492.00        0.300        713.1 
     1493.00        0.333        696.9 
     1494.00        0.267        682.4 
     1495.00        0.333        789.6 
     1496.00        5.017       1257.2 
     1497.00        0.317        822.9 
     1498.00        0.333        883.2 
     1499.00        0.333        985.3 
     1500.00        0.267       1029.4 
     1501.00        0.267       1038.9 
     1502.00        0.267       1033.5 
     1503.00        0.233       1006.9 
     1504.00        0.233        974.5 
     1505.00        0.267        938.1 
     1506.00        0.267        896.7 
     1507.00        0.267        867.0 
     1508.00        0.267        847.8 
     1509.00        0.300        847.8 
     1510.00        0.283        848.2 
     1511.00        0.267        846.5 
     1512.00        0.300        842.1 
     1513.00        0.233        839.8 
     1514.00        0.133        822.9 
     1515.00        0.200        810.4 
     1516.00        0.233        791.9 
