~Version Information
VERS.                      2.0: CWLS Log ASCII Standard - VERSION 2.0
WRAP.                       NO: One line per depth step
~Well Information Block
STRT.FT               298.0000: 
STOP.FT              1325.5000: 
STEP.FT                 0.2500: 
NULL.                -999.2500: 
COMP.          Pioneer Natural Resources: COMPANY
WELL.          Santa Fe 43-27 Tr: WELL
FLD.           Purgatoire River: FIELD
LOC.           2018' FSL & 534' FEL: LOCATION
PROV.                 Colorado: PROVINCE
CNTY.               Las Animas: COUNTRY
SRVC.                Patterson: SERVICE COMPANY
DATE.          Tue Mar 08 10:44:11 2005: LOG DATE
UWI.           05 071 08303 00: UNIQUE WELL ID
~Curve Information Block
DEPT.FT            0 000 00 00: Depth
SN.Ohm-m                      : IEL Short Normal
SP.mV                         : IEL Spontaneous Potential
DIR.Ohm-m                     : IEL Induction Resistivity
GR.GAPI                       : Gamma Ray
~Parameter Information Block
~A  Depth        SN          SP         DIR          GR     
# ...
   700.0000   2000.0000   2000.0000     22.1891     63.8520
   700.2500   2000.0000   2000.0000     20.3647     72.1319
   700.5000   2000.0000   2000.0000     18.8000     88.8273
   700.7500   2000.0000   2000.0000     17.4548    102.0309
   701.0000   2000.0000   2000.0000     16.3066    122.3403
   701.2500   2000.0000   2000.0000     15.3386    134.6815
   701.5000   2000.0000   2000.0000     14.5282    149.8831
   701.7500   2000.0000   2000.0000     13.8438    157.6014
   702.0000   2000.0000   2000.0000     13.2508    165.6826
   702.2500   2000.0000   2000.0000     12.7211    168.9190
   702.5000   2000.0000   2000.0000     12.2417    171.1782
   702.7500   2000.0000   2000.0000     11.8163    171.4442
   703.0000   2000.0000   2000.0000     11.4590    170.5734
   703.2500   2000.0000   2000.0000     11.1824    169.3444
   703.5000   2000.0000   2000.0000     10.9886    167.0585
   703.7500   2000.0000   2000.0000     10.8670    165.7083
   704.0000   2000.0000   2000.0000     10.7999    164.5756
   704.2500   2000.0000   2000.0000     10.7713    164.5058
   704.5000   2000.0000   2000.0000     10.7715    165.0617
   704.7500   2000.0000   2000.0000     10.7955    165.3714
   705.0000   2000.0000   2000.0000     10.8362    164.6808
   705.2500   2000.0000   2000.0000     10.8796    163.0488
   705.5000   2000.0000   2000.0000     10.9045    158.8229
   705.7500   2000.0000   2000.0000     10.8901    155.0017
   706.0000   2000.0000   2000.0000     10.8261    148.1358
   706.2500   2000.0000   2000.0000     10.7180    143.2961
   706.5000   2000.0000   2000.0000     10.5841    137.3450
   706.7500   2000.0000   2000.0000     10.4462    135.4174
   707.0000   2000.0000   2000.0000     10.3220    136.7124
   707.2500   2000.0000   2000.0000     10.2222    140.0948
   707.5000   2000.0000   2000.0000     10.1517    147.0007
   707.7500   2000.0000   2000.0000     10.1120    151.3005
   708.0000   2000.0000   2000.0000     10.1017    155.2992
   708.2500   2000.0000   2000.0000     10.1167    156.0261
   708.5000   2000.0000   2000.0000     10.1528    155.1246
   708.7500   2000.0000   2000.0000     10.2089    154.1306
   709.0000   2000.0000   2000.0000     10.2920    153.4356
   709.2500   2000.0000   2000.0000     10.4180    153.8536
   709.5000   2000.0000   2000.0000     10.6085    155.3983
   709.7500   2000.0000   2000.0000     10.8830    156.3498
   710.0000   2000.0000   2000.0000     11.2519    156.3082
   710.2500   2000.0000   2000.0000     11.7123    154.7294
   710.5000   2000.0000   2000.0000     12.2500    149.5930
   710.7500   2000.0000   2000.0000     12.8456    144.4095
   711.0000   2000.0000   2000.0000     13.4824    134.8442
   711.2500   2000.0000   2000.0000     14.1508    128.0331
   711.5000   2000.0000   2000.0000     14.8476    118.3086
   711.7500   2000.0000   2000.0000     15.5716    112.6043
   712.0000   2000.0000   2000.0000     16.3213    105.8069
   712.2500   2000.0000   2000.0000     17.0951    102.6708
   712.5000   2000.0000   2000.0000     17.8877    100.0952
   712.7500   2000.0000   2000.0000     18.6793     99.7235
   713.0000   2000.0000   2000.0000     19.4260    101.0632
   713.2500   2000.0000   2000.0000     20.0646    103.0478
   713.5000   2000.0000   2000.0000     20.5374    107.0990
   713.7500   2000.0000   2000.0000     20.8168    110.1583
   714.0000   2000.0000   2000.0000     20.9074    114.6195
   714.2500   2000.0000   2000.0000     20.8267    116.9572
   714.5000   2000.0000   2000.0000     20.5849    118.5666
   714.7500   2000.0000   2000.0000     20.1824    118.3192
   715.0000   2000.0000   2000.0000     19.6253    117.0918
   715.2500   2000.0000   2000.0000     18.9433    116.6197
   715.5000   2000.0000   2000.0000     18.1960    117.4015
   715.7500   2000.0000   2000.0000     17.4603    119.0925
   716.0000   2000.0000   2000.0000     16.8091    123.6292
   716.2500   2000.0000   2000.0000     16.2943    128.2056
   716.5000   2000.0000   2000.0000     15.9406    137.3412
   716.7500   2000.0000   2000.0000     15.7466    144.4060
   717.0000   2000.0000   2000.0000     15.6911    155.0141
   717.2500   2000.0000   2000.0000     15.7420    161.3566
   717.5000   2000.0000   2000.0000     15.8683    168.9109
   717.7500   2000.0000   2000.0000     16.0532    172.0923
   718.0000   2000.0000   2000.0000     16.2969    172.7615
   718.2500   2000.0000   2000.0000     16.6093    169.7074
   718.5000   2000.0000   2000.0000     16.9995    159.1994
   718.7500   2000.0000   2000.0000     17.4721    148.4143
   719.0000   2000.0000   2000.0000     18.0334    128.2449
   719.2500   2000.0000   2000.0000     18.6983    114.0902
   719.5000   2000.0000   2000.0000     19.4895     95.9685
   719.7500   2000.0000   2000.0000     20.4298     87.8268
   720.0000   2000.0000   2000.0000     21.5331     82.3906
   720.2500   2000.0000   2000.0000     22.7931     82.5159
   720.5000   2000.0000   2000.0000     24.1694     85.8114
   720.7500   2000.0000   2000.0000     25.5699     88.5258
   721.0000   2000.0000   2000.0000     26.8440     91.6964
   721.2500   2000.0000   2000.0000     27.8027     93.1039
   721.5000   2000.0000   2000.0000     28.2712     94.7690
   721.7500   2000.0000   2000.0000     28.1513     95.7610
   722.0000   2000.0000   2000.0000     27.4558     96.8425
   722.2500   2000.0000   2000.0000     26.2957     97.2828
   722.5000   2000.0000   2000.0000     24.8383     98.2753
   722.7500   2000.0000   2000.0000     23.2599     99.7627
   723.0000   2000.0000   2000.0000     21.7083    103.6324
   723.2500   2000.0000   2000.0000     20.2814    107.1191
   723.5000   2000.0000   2000.0000     19.0245    113.4208
   723.7500   2000.0000   2000.0000     17.9431    118.4043
   724.0000   2000.0000   2000.0000     17.0207    127.1011
   724.2500   2000.0000   2000.0000     16.2321    133.4500
   724.5000   2000.0000   2000.0000     15.5521    143.0561
   724.7500   2000.0000   2000.0000     14.9603    149.0766
   725.0000   2000.0000   2000.0000     14.4433    156.6499
   725.2500   2000.0000   2000.0000     13.9935    160.1241
   725.5000   2000.0000   2000.0000     13.6066    162.2866
   725.7500   2000.0000   2000.0000     13.2797    161.7831
   726.0000   2000.0000   2000.0000     13.0156    158.9857
   726.2500   2000.0000   2000.0000     12.8274    156.3666
   726.5000   2000.0000   2000.0000     12.7389    151.9631
   726.7500   2000.0000   2000.0000     12.7780    148.8167
   727.0000   2000.0000   2000.0000     12.9661    143.8832
   727.2500   2000.0000   2000.0000     13.3128    140.7193
   727.5000   2000.0000   2000.0000     13.8171    136.8545
   727.7500   2000.0000   2000.0000     14.4724    135.0192
   728.0000   2000.0000   2000.0000     15.2703    132.8234
   728.2500   2000.0000   2000.0000     16.1993    131.2139
   728.5000   2000.0000   2000.0000     17.2413    128.1201
   728.7500   2000.0000   2000.0000     18.3692    125.6792
   729.0000   2000.0000   2000.0000     19.5487    121.9062
   729.2500   2000.0000   2000.0000     20.7399    119.6502
   729.5000   2000.0000   2000.0000     21.8992    117.1596
   729.7500   2000.0000   2000.0000     22.9762    116.1865
   730.0000   2000.0000   2000.0000     23.9089    115.4651
   730.2500   2000.0000   2000.0000     24.6217    115.2549
   730.5000   2000.0000   2000.0000     25.0356    115.3745
   730.7500   2000.0000   2000.0000     25.0918    115.9690
   731.0000   2000.0000   2000.0000     24.7753    117.9162
   731.2500   2000.0000   2000.0000     24.1242    119.9289
   731.5000   2000.0000   2000.0000     23.2173    123.9419
   731.7500   2000.0000   2000.0000     22.1484    127.1472
   732.0000   2000.0000   2000.0000     20.9986    132.2095
   732.2500   2000.0000   2000.0000     19.8201    135.4318
   732.5000   2000.0000   2000.0000     18.6386    140.1075
   732.7500   2000.0000   2000.0000     17.4701    143.5574
   733.0000   2000.0000   2000.0000     16.3359    149.7600
   733.2500   2000.0000   2000.0000     15.2650    154.1845
