~Version Information
VERS.                      2.0: CWLS Log ASCII Standard - VERSION 2.0
WRAP.                       NO: One line per depth step
~Well Information Block
STRT.FT               451.7500: 
STOP.FT              1387.0000: 
STEP.FT                 0.2500: 
NULL.                -999.2500: 
COMP.          Petrogulf Corporation: COMPANY
WELL.          Great Plains 22-22R: WELL
FLD.           Purgatoire River: FIELD
LOC.           2042' FNL & 1657' FWL--: LOCATION
PROV.                 Colorado: PROVINCE
CNTY.               Las Animas: COUNTRY
SRVC.                Patterson: SERVICE COMPANY
DATE.          Fri Sep 09 10:42:01 2005: LOG DATE
UWI.           05 071 08028 00: UNIQUE WELL ID
~Curve Information Block
DEPT.FT            0 000 00 00: Depth
SP.mV                         : DIL Spontaneous Potential
RILD.Ohm-m                    : DIL Deep Resistivity
RILM.Ohm-m                    : DIL Medium Resistivity
RLL3.Ohm-m                    : DIL Shallow Resistivity
GR.GAPI                       : Gamma Ray
~Parameter Information Block
~A  Depth        SP         RILD        RILM        RLL3         GR     
# ...
   619.7500     49.7402 100000.0000     32.7802     27.9277    136.3726
   620.0000     49.7335 100000.0000     32.2470     25.5401    138.0836
   620.2500     49.5058 100000.0000     32.1116     26.1746    136.7986
   620.5000     49.0764 100000.0000     32.0889     28.0888    132.9088
   620.7500     48.4592 100000.0000     32.2596     30.2712    130.2212
   621.0000     47.6648 100000.0000     32.4812     32.0951    128.0780
   621.2500     46.6964 100000.0000     32.8638     33.0066    128.4916
   621.5000     45.5425    231.2332     33.7002     32.5362    131.2964
   621.7500     44.1718     87.5298     35.5209     30.6278    133.6571
   622.0000     42.5316    102.8802     39.3065     27.9413    136.1410
   622.2500     40.5479 100000.0000     47.3349     25.7349    136.2802
   622.5000     38.1305 100000.0000     67.3653     25.2964    133.5516
   622.7500     35.1770 100000.0000    159.0660     27.2911    130.0006
   623.0000     31.5717 100000.0000 100000.0000     31.4079    123.5193
   623.2500     27.1767 100000.0000 100000.0000     36.4432    119.5507
   623.5000     21.8180 100000.0000 100000.0000     40.7598    115.7668
   623.7500     15.2710 100000.0000 100000.0000     42.9169    115.2717
   624.0000      7.2454 100000.0000 100000.0000     42.1971    117.8350
   624.2500     -2.6226 100000.0000 100000.0000     38.8456    121.4492
   624.5000    -14.7435 100000.0000 100000.0000     33.9801    128.4148
   624.7500    -29.4853      5.6528     13.9298     29.1759    133.0642
   625.0000    -47.0347      1.6407      4.0639     25.8030    138.8470
   625.2500    -67.2999      0.9171      1.8927     24.3959    141.9252
   625.5000    -89.9714      0.6511      1.0712     24.4267    146.0023
   625.7500   -114.7716      0.5461      0.6871     24.6389    148.3592
   626.0000   -141.7051      0.5368      0.4864     23.7440    150.5515
   626.2500   -170.9526      0.6208      0.3758     21.0826    150.7391
   626.5000   -202.2351      0.8453      0.3154     16.9002    149.2737
   626.7500   -234.0825      1.3682      0.2873     12.1263    147.4147
   627.0000   -263.8271      2.7608      0.2843      7.8392    143.1176
   627.2500   -288.6146      8.3678      0.3068      4.7656    138.5715
   627.5000   -306.7323 100000.0000      0.3633      3.0590    127.9946
   627.7500   -318.2400 100000.0000      0.4781      2.3760    118.4678
   628.0000   -324.5666 100000.0000      0.7173      2.1479    102.4595
   628.2500   -327.5679 100000.0000      1.3077      1.9061     92.4595
   628.5000   -328.7356 100000.0000      3.7267      1.4917     80.9801
   628.7500   -328.8523 100000.0000 100000.0000      1.0330     76.1109
   629.0000   -327.9667 100000.0000 100000.0000      0.7500     71.8987
   629.2500   -325.5111 100000.0000 100000.0000      0.7926     69.9599
   629.5000   -320.6025 100000.0000 100000.0000      1.2652     66.7494
   629.7500   -312.6247 100000.0000 100000.0000      2.3792     64.2548
   630.0000   -301.8484 100000.0000 100000.0000      4.4969     60.8583
   630.2500   -289.5566 100000.0000 100000.0000      7.8811     59.4223
   630.5000   -277.4904 100000.0000 100000.0000     12.4115     58.8609
   630.7500   -267.0930 100000.0000 100000.0000     17.9269     59.3902
   631.0000   -259.1362 100000.0000 100000.0000     25.2884     61.1797
   631.2500   -253.8084 100000.0000     10.5346     36.9233     62.9181
   631.5000   -250.9686 100000.0000      3.6202     55.4924     65.9231
   631.7500   -250.3498 100000.0000      2.0765     81.3577     67.6055
   632.0000   -251.6880 100000.0000      1.4233    111.3292     68.5461
   632.2500   -254.8032 100000.0000      1.0895    140.1440     68.0166
   632.5000   -259.6219     13.0984      0.9110    163.4176     66.5401
   632.7500   -266.1315      3.5780      0.8200    179.5799     65.8978
   633.0000   -274.2697      2.0933      0.7782    189.5224     66.0502
   633.2500   -283.7702      1.5623      0.7536    194.6545     66.7413
   633.5000   -294.0214      1.3239      0.7144    195.0710     68.0617
   633.7500   -304.0606      1.2224      0.6416    189.1833     68.8498
   634.0000   -312.8088      1.2305      0.5447    174.9759     69.7655
   634.2500   -319.4792      1.3896      0.4498    151.9079     70.2167
   634.5000   -323.8923      1.8409      0.3756    122.0889     70.1844
   634.7500   -326.4505      3.0278      0.3276     89.8919     69.0027
   635.0000   -327.8121      6.6816      0.3050     60.2329     64.5330
   635.2500   -328.5462     20.3639      0.3071     36.6308     59.9619
   635.5000   -328.9899     34.3146      0.3374     20.2325     52.2890
   635.7500   -329.2909     19.4963      0.4086     10.1709     47.6292
   636.0000   -329.5014     18.8673      0.5528      4.6617     42.3845
   636.2500   -329.6391 100000.0000      0.8596      1.9703     40.2608
   636.5000   -329.7107 100000.0000      1.6498      0.8379     38.7960
   636.7500   -329.7213 100000.0000      5.2111      0.4838     38.3227
   637.0000   -329.6748 100000.0000 100000.0000      0.4649     37.0819
   637.2500   -329.5598 100000.0000 100000.0000      0.5494     35.7610
   637.5000   -329.2943 100000.0000 100000.0000      0.6364     34.6661
   637.7500   -328.6162 100000.0000 100000.0000      0.6959     36.1693
   638.0000   -326.9615 100000.0000 100000.0000      0.7233     43.8950
   638.2500   -323.5098 100000.0000     47.9617      0.7165     52.6932
   638.5000   -317.6163 100000.0000      5.6338      0.6727     69.1334
   638.7500   -309.5429 100000.0000      2.7742      0.5949     80.2885
   639.0000   -300.8947 100000.0000      1.8577      0.5002     94.2399
   639.2500   -294.1530 100000.0000      1.5153      0.4229    100.4931
   639.5000   -291.4587 100000.0000      1.4749      0.4034    104.3661
   639.7500   -293.5301 100000.0000      1.7303      0.4603    103.2684
   640.0000   -299.4333 100000.0000      2.5796      0.5687     96.9198
   640.2500   -307.1724      7.7085      6.2258      0.6700     90.5229
   640.5000   -314.5721      2.1311 100000.0000      0.7100     80.0384
   640.7500   -319.9406      1.2254 100000.0000      0.6713     73.9432
   641.0000   -322.2551      0.9541 100000.0000      0.5717     68.1040
   641.2500   -320.9424      0.9469 100000.0000      0.4412     66.9428
   641.5000   -315.5994      1.2097 100000.0000      0.3053     69.4254
   641.7500   -305.9814      2.1696 100000.0000      0.1892     73.8932
   642.0000   -292.2585      9.3266 100000.0000      0.1287     84.7416
   642.2500   -275.2280 100000.0000 100000.0000      0.1761     94.1365
   642.5000   -256.1446 100000.0000 100000.0000      0.4096    108.7182
   642.7500   -236.1325     33.8740 100000.0000      0.9773    116.5570
   643.0000   -215.5678      1.7010 100000.0000      2.1862    122.7238
   643.2500   -193.9858      0.5950 100000.0000      4.5594    122.9882
   643.5000   -170.6822      0.2804      3.6524      8.6871    119.8245
   643.7500   -145.5484      0.1579      1.2550     14.7991    117.1168
   644.0000   -119.4560      0.1139      0.6862     22.3293    114.3278
   644.2500    -93.9307      0.1114      0.4645     29.9733    113.7801
   644.5000    -70.4589      0.1473      0.3668     36.4453    114.4517
   644.7500    -49.9576      0.2503      0.3297     41.5220    114.8670
   645.0000    -32.6520      0.5213      0.3320     46.6037    112.8359
   645.2500    -18.2553      1.6550      0.3691     54.1570    108.6442
   645.5000     -6.2348 100000.0000      0.4475     65.8885     99.0661
   645.7500      3.9713 100000.0000      0.5872     80.4754     92.8110
   646.0000     12.8255 100000.0000      0.8380     92.8508     88.5473
   646.2500     20.6380 100000.0000      1.3422     96.7473     90.9517
   646.5000     27.5652 100000.0000      2.6797     89.3064    101.9155
   646.7500     33.6474 100000.0000     12.0397     73.6078    111.8455
   647.0000     38.8719 100000.0000 100000.0000     56.3800    125.7018
   647.2500     43.2388 100000.0000 100000.0000     43.1917    132.3155
   647.5000     46.7979 100000.0000 100000.0000     35.7203    137.8436
