~Version Information
VERS.                      2.0: CWLS Log ASCII Standard - VERSION 2.0
WRAP.                       NO: One line per depth step
~Well Information Block
STRT.FT               758.7500: 
STOP.FT              2420.7500: 
STEP.FT                 0.2500: 
NULL.                -999.2500: 
COMP.          Petrogulf Corporation: COMPANY
WELL.            Montoya 7-21V: WELL
FLD.           Purgatorie River: FIELD
LOC.           738' FSL & 2070' FWL: LOCATION
CNTY.               Las Animas: COUNTY
SRVC.                         : SERVICE COMPANY
DATE.          Fri Aug 20 07:13:07 2004: LOG DATE
UWI.           05 071 08018 00: UNIQUE WELL ID
STAT.                 Colorado: STATE
~Curve Information Block
DEPT.FT            0 000 00 00: Depth
SP.mV                         : DIL Spontaneous Potential
RILD.Ohm-m                    : DIL Deep Resistivity
RILM.Ohm-m                    : DIL Medium Resistivity
RLL3.Ohm-m                    : DIL Shallow Resistivity
GR.GAPI                       : Gamma Ray
~Parameter Information Block
~A  Depth        SP         RILD        RILM        RLL3         GR     
# ...
  1962.7500      4.6487     26.2905     23.1315     34.1423    107.0786
  1963.0000      4.6518     26.1663     23.3915     35.9671    104.0190
  1963.2500      4.6428     26.0273     23.5778     37.4395    100.7014
  1963.5000      4.6232     25.8914     23.6910     37.9519     95.9492
  1963.7500      4.5990     25.7636     23.7436     37.1655     94.2865
  1964.0000      4.5795     25.6398     23.7587     35.1748     95.6156
  1964.2500      4.5750     25.5150     23.7660     32.4678     99.1085
  1964.5000      4.5950     25.3894     23.7953     29.7254    106.5567
  1964.7500      4.6461     25.2700     23.8709     27.5743    111.3596
  1965.0000      4.7312     25.1674     24.0059     26.4046    116.0419
  1965.2500      4.8482     25.0923     24.1998     26.3084    117.0861
  1965.5000      4.9903     25.0499     24.4378     27.1230    116.2538
  1965.7500      5.1463     25.0396     24.6933     28.5194    114.7617
  1966.0000      5.3026     25.0547     24.9318     30.0941    111.8586
  1966.2500      5.4447     25.0814     25.1175     31.4598    109.6121
  1966.5000      5.5589     25.0968     25.2177     32.3344    105.7709
  1966.7500      5.6342     25.0662     25.2069     32.6079    103.0078
  1967.0000      5.6629     24.9436     25.0676     32.3443     99.2809
  1967.2500      5.6412     24.6787     24.7890     31.7044     97.7106
  1967.5000      5.5689     24.2314     24.3660     30.8355     97.5439
  1967.7500      5.4487     23.5878     23.7997     29.8061     98.9172
  1968.0000      5.2860     22.7684     23.0982     28.6205    102.4230
  1968.2500      5.0882     21.8233     22.2790     27.2753    105.0009
  1968.5000      4.8645     20.8152     21.3682     25.7955    108.2877
  1968.7500      4.6256     19.8010     20.3983     24.2310    110.0729
  1969.0000      4.3833     18.8214     19.4030     22.6426    112.7617
  1969.2500      4.1503     17.8991     18.4135     21.1038    114.7691
  1969.5000      3.9388     17.0434     17.4542     19.7058    117.5646
  1969.7500      3.7607     16.2558     16.5424     18.5426    118.7227
  1970.0000      3.6267     15.5351     15.6887     17.6726    118.9861
  1970.2500      3.5452     14.8806     14.8994     17.0795    118.4642
  1970.5000      3.5215     14.2930     14.1778     16.6614    117.5091
  1970.7500      3.5564     13.7746     13.5263     16.2597    117.0870
  1971.0000      3.6448     13.3262     12.9466     15.7188    116.9198
  1971.2500      3.7764     12.9453     12.4399     14.9528    117.1844
  1971.5000      3.9363     12.6248     12.0067     13.9877    118.3252
  1971.7500      4.1079     12.3545     11.6455     12.9559    119.4598
  1972.0000      4.2760     12.1236     11.3534     12.0435    120.9444
  1972.2500      4.4300     11.9235     11.1250     11.4173    121.3463
  1972.5000      4.5650     11.7490     10.9531     11.1687    121.0621
  1972.7500      4.6825     11.5974     10.8290     11.2950    120.6549
  1973.0000      4.7889     11.4666     10.7431     11.7157    120.2145
  1973.2500      4.8929     11.3530     10.6854     12.3034    119.9194
  1973.5000      5.0028     11.2519     10.6469     12.9186    118.8661
  1973.7500      5.1243     11.1576     10.6194     13.4418    117.5720
  1974.0000      5.2586     11.0647     10.5962     13.7972    115.0790
  1974.2500      5.4023     10.9686     10.5720     13.9636    113.4393
  1974.5000      5.5484     10.8668     10.5427     13.9686    111.5346
  1974.7500      5.6870     10.7581     10.5050     13.8684    110.8051
  1975.0000      5.8077     10.6425     10.4563     13.7246    110.6604
  1975.2500      5.9004     10.5216     10.3941     13.5840    111.0987
  1975.5000      5.9566     10.3972     10.3168     13.4671    112.0306
  1975.7500      5.9700     10.2717     10.2232     13.3654    112.5464
  1976.0000      5.9372     10.1470     10.1137     13.2494    113.1212
  1976.2500      5.8580     10.0242      9.9900     13.0834    113.4935
  1976.5000      5.7358      9.9041      9.8557     12.8451    113.9250
  1976.7500      5.5774      9.7879      9.7157     12.5396    113.8711
  1977.0000      5.3924      9.6774      9.5761     12.1999    113.1649
  1977.2500      5.1917      9.5749      9.4434     11.8717    112.6824
  1977.5000      4.9860      9.4836      9.3239     11.5934    112.9697
  1977.7500      4.7839      9.4066      9.2232     11.3818    114.0400
  1978.0000      4.5909      9.3473      9.1462     11.2323    116.2409
  1978.2500      4.4087      9.3091      9.0974     11.1295    117.4754
  1978.5000      4.2357      9.2950      9.0803     11.0618    118.5217
  1978.7500      4.0681      9.3077      9.0984     11.0359    118.8290
  1979.0000      3.9015      9.3481      9.1544     11.0846    119.1066
  1979.2500      3.7330      9.4147      9.2503     11.2661    119.2910
  1979.5000      3.5627      9.5032      9.3864     11.6540    119.4908
  1979.7500      3.3940      9.6077      9.5605     12.3257    119.3500
  1980.0000      3.2337      9.7222      9.7678     13.3490    118.1923
  1980.2500      3.0909      9.8429      9.9999     14.7564    116.5878
  1980.5000      2.9747      9.9692     10.2457     16.4977    112.8123
  1980.7500      2.8930     10.1035     10.4928     18.3830    109.3566
  1981.0000      2.8511     10.2508     10.7302     20.0656    103.2072
  1981.2500      2.8510     10.4175     10.9513     21.1227     99.2957
  1981.5000      2.8923     10.6104     11.1564     21.2317     95.5834
  1981.7500      2.9731     10.8361     11.3530     20.3492     95.2178
  1982.0000      3.0922     11.0982     11.5552     18.7718     97.7428
  1982.2500      3.2504     11.3945     11.7803     17.0369    100.9076
  1982.5000      3.4516     11.7138     12.0447     15.7667    106.4753
  1982.7500      3.7027     12.0347     12.3607     15.5831    109.7994
  1983.0000      4.0114     12.3282     12.7324     17.1288    112.5997
  1983.2500      4.3838     12.5643     13.1527     21.0684    112.2106
  1983.5000      4.8212     12.7215     13.6016     27.8742    107.5805
  1983.7500      5.3179     12.7946     14.0460     37.3362    102.1051
  1984.0000      5.8601     12.7964     14.4434     48.0628     92.0744
  1984.2500      6.4262     12.7529     14.7500     57.4913     85.6578
  1984.5000      6.9895     12.6934     14.9315     62.7540     79.1362
  1984.7500      7.5219     12.6411     14.9728     62.0691     78.2094
  1985.0000      7.9983     12.6063     14.8811     55.7294     83.1516
  1985.2500      8.4007     12.5850     14.6822     45.9290     90.3175
  1985.5000      8.7204     12.5604     14.4101     35.5627    104.3141
  1985.7500      8.9589     12.5094     14.0980     26.8950    113.6269
  1986.0000      9.1257     12.4104     13.7710     20.9144    124.0567
  1986.2500      9.2355     12.2508     13.4447     17.4988    127.4676
  1986.5000      9.3045     12.0325     13.1261     15.9695    127.5520
  1986.7500      9.3470     11.7717     12.8177     15.5741    125.6532
  1987.0000      9.3736     11.4943     12.5207     15.7171    122.8156
  1987.2500      9.3906     11.2291     12.2383     15.9974    121.9132
  1987.5000      9.3998     11.0013     11.9771     16.1698    121.7020
  1987.7500      9.4000     10.8285     11.7472     16.1066    121.3908
  1988.0000      9.3873     10.7200     11.5604     15.7829    119.2123
  1988.2500      9.3563     10.6776     11.4293     15.2743    116.3538
  1988.5000      9.3004     10.6992     11.3654     14.7405    110.6189
  1988.7500      9.2131     10.7817     11.3778     14.3808    106.5924
  1989.0000      9.0890     10.9228     11.4733     14.3669    101.5178
  1989.2500      8.9252     11.1210     11.6560     14.7826     99.1122
  1989.5000      8.7221     11.3747     11.9274     15.6095     96.3185
  1989.7500      8.4845     11.6807     12.2866     16.7685     94.0074
  1990.0000      8.2210     12.0343     12.7299     18.1916     88.3393
  1990.2500      7.9436     12.4291     13.2503     19.8721     83.0371
  1990.5000      7.6659     12.8565     13.8369     21.8546     74.2475
