~Version Information
VERS.                      2.0: CWLS Log ASCII Standard - VERSION 2.0
WRAP.                       NO: One line per depth step
~Well Information Block
STRT.FT               698.9000: 
STOP.FT              2459.5000: 
STEP.FT                 0.1000: 
NULL.                -999.2500: 
COMP.          Petrogulf Corporation: COMPANY
WELL.             State 16-23V: WELL
FLD.           Purgatorie River: FIELD
LOC.           2414' FSL & 2215' FWL: LOCATION
PROV.                 Colorado: PROVINCE
CNTY.               Las Animas: COUNTRY
SRVC.                         : SERVICE COMPANY
DATE.          Mon Jun 09 12:47:39 2003: LOG DATE
UWI.           05 071 07865 00: UNIQUE WELL ID
~Curve Information Block
DEPT.FT            0 000 00 00: Depth
SP.mV                         : DIL Spontaneous Potential
RILD.Ohm-m                    : DIL Deep Resistivity
RILM.Ohm-m                    : DIL Medium Resistivity
RLL3.Ohm-m                    : DIL Shallow Resistivity
GR.GAPI                       : Gamma Ray
~Parameter Information Block
~A  Depth        SP         RILD        RILM        RLL3         GR     
# ...
  1057.3000   2000.0000     11.2136     11.9952   1998.0000    146.2794
  1057.4000   2000.0000     11.2136     11.9952   1998.0000    145.6325
  1057.5000   2000.0000     11.1451     12.1947   1998.0000    144.9687
  1057.6000   2000.0000     11.1451     12.1947   1998.0000    144.3410
  1057.7000   2000.0000     11.1451     12.1947   1998.0000    143.8085
  1057.8000   2000.0000     11.0526     12.4678   1998.0000    143.4277
  1057.9000   2000.0000     11.0526     12.4678   1998.0000    143.2406
  1058.0000   2000.0000     10.9712     12.7962   1998.0000    143.2687
  1058.1000   2000.0000     10.9712     12.7962   1998.0000    143.5137
  1058.2000   2000.0000     10.9712     12.7962   1998.0000    143.9600
  1058.3000   2000.0000     10.9331     13.1414   1998.0000    144.5809
  1058.4000   2000.0000     10.9331     13.1414   1998.0000    145.3469
  1058.5000   2000.0000     10.9452     13.4556   1998.0000    146.2294
  1058.6000   2000.0000     10.9452     13.4556   1998.0000    147.2007
  1058.7000   2000.0000     10.9452     13.4556   1998.0000    148.2316
  1058.8000   2000.0000     10.9895     13.6948   1998.0000    149.2888
  1058.9000   2000.0000     10.9895     13.6948   1998.0000    150.3262
  1059.0000   2000.0000     11.0426     13.8308   1998.0000    151.2908
  1059.1000   2000.0000     11.0426     13.8308   1998.0000    152.1253
  1059.2000   2000.0000     11.0426     13.8308   1998.0000    152.7772
  1059.3000   2000.0000     11.0991     13.8618   1998.0000    153.2073
  1059.4000   2000.0000     11.0991     13.8618   1998.0000    153.4018
  1059.5000   2000.0000     11.1804     13.8105   1998.0000    153.3715
  1059.6000   2000.0000     11.1804     13.8105   1998.0000    153.1557
  1059.7000   2000.0000     11.1804     13.8105   1998.0000    152.8121
  1059.8000   2000.0000     11.3142     13.7089   1998.0000    152.4105
  1059.9000   2000.0000     11.3142     13.7089   1998.0000    152.0242
  1060.0000   2000.0000     11.5019     13.5841   1998.0000    151.7178
  1060.1000   2000.0000     11.5019     13.5841   1998.0000    151.5471
  1060.2000   2000.0000     11.5019     13.5841   1998.0000    151.5505
  1060.3000   2000.0000     11.7039     13.4584   1998.0000    151.7502
  1060.4000   2000.0000     11.7039     13.4584   1998.0000    152.1531
  1060.5000   2000.0000     11.8660     13.3600   1998.0000    152.7521
  1060.6000   2000.0000     11.8660     13.3600   1998.0000    153.5267
  1060.7000   2000.0000     11.8660     13.3600   1998.0000    154.4487
  1060.8000   2000.0000     11.9651     13.3301   1998.0000    155.4817
  1060.9000   2000.0000     11.9651     13.3301   1998.0000    156.5869
  1061.0000   2000.0000     12.0271     13.4146   1998.0000    157.7204
  1061.1000   2000.0000     12.0271     13.4146   1998.0000    158.8380
  1061.2000   2000.0000     12.0271     13.4146   1998.0000    159.8904
  1061.3000   2000.0000     12.0976     13.6477   1998.0000    160.8246
  1061.4000   2000.0000     12.0976     13.6477   1998.0000    161.5862
  1061.5000   2000.0000     12.2028     14.0437   1998.0000    162.1140
  1061.6000   2000.0000     12.2028     14.0437   1998.0000    162.3514
  1061.7000   2000.0000     12.2028     14.0437   1998.0000    162.2407
  1061.8000   2000.0000     12.3365     14.6044   1998.0000    161.7316
  1061.9000   2000.0000     12.3365     14.6044   1998.0000    160.7789
  1062.0000   2000.0000     12.4743     15.3306   1998.0000    159.3509
  1062.1000   2000.0000     12.4743     15.3306   1998.0000    157.4240
  1062.2000   2000.0000     12.4743     15.3306   1998.0000    154.9902
  1062.3000   2000.0000     12.5989     16.2172   1998.0000    152.0617
  1062.4000   2000.0000     12.5989     16.2172   1998.0000    148.6744
  1062.5000   2000.0000     12.7147     17.2274   1998.0000    144.8953
  1062.6000   2000.0000     12.7147     17.2274   1998.0000    140.8251
  1062.7000   2000.0000     12.7147     17.2274   1998.0000    136.5945
  1062.8000   2000.0000     12.8416     18.2586   1998.0000    132.3605
  1062.9000   2000.0000     12.8416     18.2586   1998.0000    128.2901
  1063.0000   2000.0000     12.9915     19.1374   1998.0000    124.5494
  1063.1000   2000.0000     12.9915     19.1374   1998.0000    121.2838
  1063.2000   2000.0000     12.9915     19.1374   1998.0000    118.6084
  1063.3000   2000.0000     13.1496     19.6791   1998.0000    116.5991
  1063.4000   2000.0000     13.1496     19.6791   1998.0000    115.2855
  1063.5000   2000.0000     13.2813     19.7874   1998.0000    114.6560
  1063.6000   2000.0000     13.2813     19.7874   1998.0000    114.6637
  1063.7000   2000.0000     13.2813     19.7874   1998.0000    115.2335
  1063.8000   2000.0000     13.3599     19.5101   1998.0000    116.2714
  1063.9000   2000.0000     13.3599     19.5101   1998.0000    117.6760
  1064.0000   2000.0000     13.3908     18.9960   1998.0000    119.3432
  1064.1000   2000.0000     13.3908     18.9960   1998.0000    121.1766
  1064.2000   2000.0000     13.3908     18.9960   1998.0000    123.0893
  1064.3000   2000.0000     13.4037     18.4083   1998.0000    125.0061
  1064.4000   2000.0000     13.4037     18.4083   1998.0000    126.8676
  1064.5000   2000.0000     13.4273     17.8655   1998.0000    128.6254
  1064.6000   2000.0000     13.4273     17.8655   1998.0000    130.2462
  1064.7000   2000.0000     13.4273     17.8655   1998.0000    131.7065
  1064.8000   2000.0000     13.4701     17.4266   1998.0000    132.9883
  1064.9000   2000.0000     13.4701     17.4266   1998.0000    134.0824
  1065.0000   2000.0000     13.5079     17.1010   1998.0000    134.9838
  1065.1000   2000.0000     13.5079     17.1010   1998.0000    135.6978
  1065.2000   2000.0000     13.5079     17.1010   1998.0000    136.2345
  1065.3000   2000.0000     13.4837     16.8676   1998.0000    136.6163
  1065.4000   2000.0000     13.4837     16.8676   1998.0000    136.8759
  1065.5000   2000.0000     13.3499     16.6995   1998.0000    137.0561
  1065.6000   2000.0000     13.3499     16.6995   1998.0000    137.2097
  1065.7000   2000.0000     13.3499     16.6995   1998.0000    137.3854
  1065.8000   2000.0000     13.1208     16.5863   1998.0000    137.6319
  1065.9000   2000.0000     13.1208     16.5863   1998.0000    137.9827
  1066.0000   2000.0000     12.8622     16.5365   1998.0000    138.4515
  1066.1000   2000.0000     12.8622     16.5365   1998.0000    139.0285
  1066.2000   2000.0000     12.8622     16.5365   1998.0000    139.6832
  1066.3000   2000.0000     12.6309     16.5503   1998.0000    140.3644
  1066.4000   2000.0000     12.6309     16.5503   1998.0000    141.0080
  1066.5000   2000.0000     12.4505     16.5949   1998.0000    141.5485
  1066.6000   2000.0000     12.4505     16.5949   1998.0000    141.9235
  1066.7000   2000.0000     12.4505     16.5949   1998.0000    142.0878
  1066.8000   2000.0000     12.3318     16.6192   1998.0000    142.0181
  1066.9000   2000.0000     12.3318     16.6192   1998.0000    141.7145
  1067.0000   2000.0000     12.2838     16.5928   1998.0000    141.2025
  1067.1000   2000.0000     12.2838     16.5928   1998.0000    140.5264
  1067.2000   2000.0000     12.2838     16.5928   1998.0000    139.7416
  1067.3000   2000.0000     12.3028     16.5214   1998.0000    138.9046
  1067.4000   2000.0000     12.3028     16.5214   1998.0000    138.0656
  1067.5000   2000.0000     12.3693     16.4271   1998.0000    137.2647
  1067.6000   2000.0000     12.3693     16.4271   1998.0000    136.5273
  1067.7000   2000.0000     12.3693     16.4271   1998.0000    135.8677
  1067.8000   2000.0000     12.4624     16.3287   1998.0000    135.2935
  1067.9000   2000.0000     12.4624     16.3287   1998.0000    134.8132
  1068.0000   2000.0000     12.5658     16.2412   1998.0000    134.4335
  1068.1000   2000.0000     12.5658     16.2412   1998.0000    134.1654
  1068.2000   2000.0000     12.5658     16.2412   1998.0000    134.0189
  1068.3000   2000.0000     12.6588     16.1758   1998.0000    133.9983
  1068.4000   2000.0000     12.6588     16.1758   1998.0000    134.1004
