~Version Information
 VERS.                                  2.0 : CWLS LAS VERSION
 WRAP.                                   NO : WRAPING MODE
 SWARE .                 MController 2.5.0J : SOFTWARE VERSION
~Well Information
 WELL.                       Beacon 11-18TR : WELL
 COMP.        Pioneer Natural Resources Inc : COMPANY
 FLD.                      Purgatoire River : FIELD
 LOC.                NW/NW Sec 18 T32S R66W : LOCATION
 DATE.                           1/15-16/05 : DATE(S) LOGGED
 SRVC.       Blanco Geological Services LLC : SERVICE COMPANY
 STAT.                                   CO : STATE
 CNTY.                           Las Animas : COUNTY
 CTRY.                                  USA : COUNTRY
 API.                          05-071-08251 : API NUMBER
 STRT.FT                             283.00 : START DEPTH
 STOP.FT                            2753.00 : STOP DEPTH
 STEP.FT                               1.00 : DEPTH INCREMENT
 NULL.                                -9999 : NULL VALUE
~Curve information
 DEPTH.FT                                   :
 ROP.MIN/FT                                 :
 GAS.UNITS                                  :
~ASCII Log data
# ...
       683.0         0.42        232.7 
       684.0         0.33        176.7 
       685.0         0.30        155.0 
       686.0         0.30        144.4 
       687.0         2.65       2411.3 
       688.0         0.30        863.2 
       689.0         0.33        726.5 
       690.0         0.27        598.0 
       691.0         0.23        487.4 
       692.0         0.23        454.2 
       693.0         0.23        440.0 
       694.0         0.20        200.2 
       695.0         0.27        198.9 
       696.0         0.20        198.5 
       697.0         0.27        195.9 
       698.0         0.25        192.7 
       699.0         0.27        191.4 
       700.0         0.23        189.5 
       701.0         0.27        188.6 
       702.0         0.23        186.1 
       703.0         0.23        193.3 
       704.0         0.27        193.4 
       705.0         0.23        192.9 
       706.0         0.23        195.4 
       707.0         0.27        195.7 
       708.0         0.23        192.5 
       709.0         0.33        187.5 
       710.0         0.25        192.9 
       711.0         0.27        224.6 
       712.0         0.23        224.1 
       713.0         0.23        209.7 
       714.0         0.23        182.7 
       715.0         0.23        158.4 
       716.0         0.33        135.7 
       717.0         2.88        459.8 
       718.0         0.37        385.6 
       719.0         0.33        348.2 
       720.0         0.30        283.8 
       721.0         0.27        247.7 
       722.0         0.37        216.0 
       723.0         0.25        190.8 
       724.0         0.23        189.4 
       725.0         0.23        192.7 
       726.0         0.23        194.4 
       727.0         0.23        194.2 
       728.0         0.23        192.7 
       729.0         0.23        186.9 
       730.0         0.37        180.2 
       731.0         0.30        174.9 
       732.0         0.27        157.0 
       733.0         0.23        167.8 
       734.0         0.23        161.7 
       735.0         0.28        115.3 
       736.0         0.23        114.6 
       737.0         0.30        133.4 
       738.0         0.27        146.6 
       739.0         0.27        175.5 
       740.0         0.27        207.4 
       741.0         0.23        205.0 
       742.0         0.27        193.0 
       743.0         0.23        163.4 
       744.0         0.23        137.5 
       745.0         0.30        118.3 
       746.0         0.30        104.7 
       747.0         2.72        376.8 
       748.0         0.40        337.6 
       749.0         0.32        315.3 
       750.0         0.27        282.6 
       751.0         0.33        253.9 
       752.0         0.23        214.8 
       753.0         0.23        202.6 
       754.0         0.20        193.8 
       755.0         0.23        184.0 
       756.0         0.27        186.2 
       757.0         0.20        182.7 
       758.0         0.23        175.9 
       759.0         0.23        171.8 
       760.0         0.20        165.7 
       761.0         0.33        171.0 
       762.0         0.28        173.6 
       763.0         0.23        171.8 
       764.0         0.30        177.5 
       765.0         0.27        176.5 
       766.0         0.40        178.4 
       767.0         0.20        174.7 
       768.0         0.27        175.6 
       769.0         0.30        221.2 
       770.0         0.27        212.9 
       771.0         0.23        192.8 
       772.0         0.27        165.5 
       773.0         0.20        132.0 
       774.0         0.28        110.8 
       775.0         0.20         91.7 
       776.0         0.23         88.1 
       777.0         3.02       2002.1 
       778.0         0.30        775.5 
       779.0         0.30        680.1 
       780.0         0.40        593.1 
       781.0         0.23        494.8 
       782.0         0.30        445.2 
       783.0         0.30        209.3 
       784.0         0.27        191.0 
       785.0         0.27        176.2 
       786.0         0.27        172.5 
       787.0         0.25        169.9 
       788.0         0.17        169.7 
       789.0         0.23        169.7 
       790.0         0.23        172.5 
       791.0         0.33        171.9 
       792.0         0.20        164.5 
       793.0         0.27        164.8 
       794.0         0.23        164.0 
       795.0         0.20        166.0 
       796.0         0.27        165.7 
       797.0         0.20        173.6 
       798.0         0.20        190.4 
       799.0         0.23        188.9 
       800.0         0.20        181.3 
       801.0         0.22        166.3 
       802.0         0.20        147.8 
       803.0         0.20        137.5 
       804.0         0.20        126.7 
       805.0         0.23        114.8 
       806.0         0.20        102.3 
       807.0         2.62        370.3 
       808.0         0.30        317.4 
       809.0         0.30        311.1 
       810.0         0.40        286.4 
       811.0         0.37        237.3 
       812.0         0.23        199.2 
       813.0         0.23        182.8 
       814.0         0.20        174.0 
       815.0         0.20        174.4 
       816.0         0.20        172.0 
       817.0         0.18        170.3 
       818.0         0.27        163.9 
       819.0         0.23        158.7 
       820.0         0.20        156.4 
       821.0         0.23        156.1 
       822.0         0.20        157.6 
       823.0         0.20        157.9 
       824.0         0.20        159.1 
       825.0         0.20        159.6 
       826.0         0.23        158.3 
       827.0         0.23        180.4 
       828.0         0.23        177.4 
       829.0         0.17        167.1 
       830.0         0.20        163.0 
       831.0         0.20        146.6 
       832.0         0.22        131.2 
       833.0         0.17        117.6 
       834.0         0.20        107.9 
       835.0         0.20         97.8 
       836.0         0.13         94.4 
       837.0         2.33        380.5 
       838.0         0.32        333.4 
       839.0         0.23        310.5 
       840.0         0.33        297.6 
       841.0         0.27        270.4 
       842.0         0.27        249.0 
       843.0         0.20        226.3 
       844.0         0.23        207.7 
       845.0         0.20        191.4 
       846.0         0.23        177.6 
       847.0         0.20        167.0 
       848.0         0.17        163.3 
       849.0         0.20        160.8 
       850.0         0.20        154.5 
       851.0         0.17        148.9 
       852.0         0.18        146.0 
       853.0         0.17        147.9 
       854.0         0.17        149.5 
       855.0         0.17        149.3 
       856.0         0.23        158.8 
       857.0         0.20        184.2 
       858.0         0.13        185.2 
       859.0         0.17        181.3 
       860.0         0.17        166.8 
       861.0         0.30        156.2 
       862.0         0.23        156.0 
       863.0         0.20        142.3 
       864.0         0.20        126.3 
       865.0         0.17        127.1 
       866.0         0.13        129.2 
       867.0     38342.23       6308.5 
       868.0         0.53          4.7 
       869.0         0.10          4.2 
       870.0         0.07          4.4 
       871.0         0.20          4.4 
       872.0         0.27          4.5 
       873.0         0.13          3.9 
       874.0         0.13          4.5 
       875.0         0.10          4.0 
       876.0         0.13          4.3 
       877.0         0.13          4.0 
       878.0         0.10          4.2 
       879.0         0.13          4.3 
       880.0         0.13          4.1 
       881.0         0.32          4.1 
       882.0         0.30          4.2 
