~Version Information
VERS.                      2.0: CWLS Log ASCII Standard - VERSION 2.0
WRAP.                       NO: One line per depth step
~Well Information Block
STRT.FT               185.5000: 
STOP.FT              2039.2500: 
STEP.FT                 0.2500: 
NULL.                -999.2500: 
COMP.          Petrogulf Corporation: COMPANY
WELL.            Montoya 7-12R: WELL
FLD.           Purgatorie River: FIELD
LOC.           1769' FNL & 658' FWL--: LOCATION
PROV.                       CO: PROVINCE
CNTY.               Las Animas: COUNTRY
SRVC.                         : SERVICE COMPANY
DATE.          Wed Feb 09 09:05:42 2005: LOG DATE
UWI.         005 071 08240  : UNIQUE WELL ID
~Curve Information Block
DEPT.FT            0 000 00 00: Depth
CCL.                          : Casing Collar Locator
CCLRT.                        : CCLRT
TT3.usec                      : CBL 3' Travel Time
AMP3.mV                       : CBL 3' Amplitude
GR.GAPI                       : Gamma Ray
~Parameter Information Block
~A  Depth       CCL        CCLRT        TT3         AMP3         GR     
# ...
   801.5000      0.0000   -999.2500    691.9790      4.3307    114.0494
   801.7500      0.0000   -999.2500    700.5281      4.5400    112.1987
   802.0000      0.0000   -999.2500    709.9610      4.6696    106.5217
   802.2500      0.0000   -999.2500    716.5053      4.7338     97.7051
   802.5000      0.0000   -999.2500    718.2076      4.7801     88.6594
   802.7500      0.0000   -999.2500    715.9578      4.8565     82.5249
   803.0000      0.0000   -999.2500    711.9375      4.9866     80.6782
   803.2500      0.0000   -999.2500    707.8674      5.1686     82.7848
   803.5000      0.0000   -999.2500    705.1467      5.3897     88.2320
   803.7500      0.0000   -999.2500    705.6967      5.6411     96.7561
   804.0000      0.0000   -999.2500    711.2749      5.9198    107.5454
   804.2500      0.0000   -999.2500    721.7335      6.2232    118.3827
   804.5000      0.0000   -999.2500    734.3729      6.5487    126.2786
   804.7500      0.0000   -999.2500    745.1042      6.8924    129.1813
   805.0000      0.0000   -999.2500    750.4093      7.2352    127.3133
   805.2500      0.0000   -999.2500    748.8545      7.5336    122.9621
   805.5000      0.0000   -999.2500    741.5254      7.7382    118.8275
   805.7500      0.0000   -999.2500    731.1592      7.8276    116.5247
   806.0000      0.0000   -999.2500    720.4547      7.8244    116.4562
   806.2500      0.0000   -999.2500    710.9041      7.7823    118.3970
   806.5000      0.0000   -999.2500    702.7449      7.7515    121.8697
   806.7500      0.0000   -999.2500    695.3089      7.7504    126.2570
   807.0000      0.0000   -999.2500    687.3762      7.7679    130.8210
   807.2500      0.0000   -999.2500    677.9330      7.7939    134.6710
   807.5000      0.0000   -999.2500    666.8732      7.8384    136.9872
   807.7500      0.0000   -999.2500    654.9503      7.9176    137.3803
   808.0000      0.0000   -999.2500    643.5611      8.0260    135.9213
   808.2500      0.0000   -999.2500    635.0327      8.1289    133.0116
   808.5000      0.0000   -999.2500    632.2131      8.1833    129.3787
   808.7500      0.0000   -999.2500    636.4244      8.1683    126.0095
   809.0000      0.0000   -999.2500    645.8643      8.1008    123.9544
   809.2500      0.0000   -999.2500    656.6691      8.0176    124.2743
   809.5000      0.0000   -999.2500    665.5475      7.9394    127.8019
   809.7500      0.0000   -999.2500    671.5366      7.8546    134.3125
   810.0000      0.0000   -999.2500    676.1808      7.7440    141.9465
   810.2500      0.0000   -999.2500    682.2864      7.6230    148.1290
   810.5000      0.0000   -999.2500    691.3251      7.5491    151.3802
   810.7500      0.0000   -999.2500    701.0120      7.5791    152.1680
   811.0000      0.0000   -999.2500    706.1742      7.7135    152.2271
   811.2500      0.0000   -999.2500    703.3423      7.8896    153.1319
   811.5000      0.0000   -999.2500    694.8164      8.0306    155.1589
   811.7500      0.0000   -999.2500    688.0771      8.0953    157.2855
   812.0000      0.0000   -999.2500    690.9376      8.0836    158.2487
   812.2500      0.0000   -999.2500    705.7939      8.0132    157.5531
   812.5000      0.0000   -999.2500    727.1904      7.8984    155.7124
   812.7500      0.0000   -999.2500    745.6049      7.7434    153.9384
   813.0000      0.0000   -999.2500    755.0016      7.5538    153.3225
   813.2500      0.0000   -999.2500    756.8781      7.3550    153.7020
   813.5000      0.0000   -999.2500    757.1741      7.1919    153.5304
   813.7500      0.0000   -999.2500    760.1600      7.1010    151.3710
   814.0000      0.0000   -999.2500    765.4780      7.0839    147.3350
   814.2500      0.0000   -999.2500    770.0392      7.1087    142.7820
   814.5000      0.0000   -999.2500    771.8223      7.1338    138.8647
   814.7500      0.0000   -999.2500    771.4702      7.1348    135.8607
   815.0000      0.0000   -999.2500    770.7078      7.1172    133.9990
   815.2500      0.0000   -999.2500    770.0640      7.1014    134.2798
   815.5000      0.0000   -999.2500    768.4175      7.0926    137.7506
   815.7500      0.0000   -999.2500    764.4280      7.0712    144.1574
   816.0000      0.0000   -999.2500    758.1210      7.0183    151.7985
   816.2500      0.0000   -999.2500    750.7866      6.9463    158.5447
   816.5000      0.0000   -999.2500    743.2816      6.8966    162.6737
   816.7500      0.0000   -999.2500    734.7791      6.9007    163.2401
   817.0000      0.0000   -999.2500    723.3992      6.9432    160.4517
   817.2500      0.0000   -999.2500    707.9673      6.9698    155.7839
   817.5000      0.0000   -999.2500    689.4578      6.9381    151.3005
   817.7500      0.0000   -999.2500    670.9944      6.8531    148.5376
   818.0000      0.0000   -999.2500    656.4536      6.7494    147.7995
   818.2500      0.0000   -999.2500    649.0920      6.6480    148.2782
   818.5000      0.0000   -999.2500    651.1096      6.5373    148.8871
   818.7500      0.0000   -999.2500    663.0154      6.3861    149.0162
   819.0000      0.0000   -999.2500    682.0642      6.1645    148.2610
   819.2500      0.0000   -999.2500    701.8897      5.8581    145.7117
   819.5000      0.0000   -999.2500    715.8591      5.4746    140.6042
   819.7500      0.0000   -999.2500    721.8636      5.0410    133.9951
   820.0000      0.0000   -999.2500    723.0457      4.5899    128.5514
   820.2500      0.0000   -999.2500    723.5836      4.1475    125.6598
   820.5000      0.0000   -999.2500    724.6204      3.7328    123.4052
   820.7500      0.0000   -999.2500    724.2319      3.3618    118.4337
   821.0000      0.0000   -999.2500    720.1932      3.0496    109.3891
   821.2500      0.0000   -999.2500    712.3615      2.8067     97.8387
   821.5000      0.0000   -999.2500    702.8401      2.6356     86.5724
   821.7500      0.0000   -999.2500    694.2327      2.5333     77.8171
   822.0000      0.0000   -999.2500    687.9125      2.4984     72.3423
   822.2500      0.0000   -999.2500    683.7958      2.5340     69.1576
   822.5000      0.0000   -999.2500    681.2574      2.6423     66.1459
   822.7500      0.0000   -999.2500    680.0547      2.8143     61.7551
   823.0000      0.0000   -999.2500    680.6859      3.0271     56.4223
   823.2500      0.0000   -999.2500    684.1773      3.2512     52.3729
   823.5000      0.0000   -999.2500    691.3328      3.4636     52.0212
   823.7500      0.0000   -999.2500    701.6716      3.6571     56.3232
   824.0000      0.0000   -999.2500    712.7842      3.8502     64.2713
   824.2500      0.0000   -999.2500    721.1402      4.0910     73.7113
   824.5000      0.0000   -999.2500    724.4460      4.4370     82.7671
   824.7500      0.0000   -999.2500    723.5837      4.9154     90.8651
   825.0000      2.0000   -999.2500    721.7829      5.5064     98.6798
   825.2500      2.0000   -999.2500    721.6338      6.1661    107.2118
   825.5000      0.0000   -999.2500    723.1205      6.8547    116.9137
   825.7500      0.0000   -999.2500    724.4744      7.5373    127.3269
   826.0000      0.0000   -999.2500    724.5486      8.1561    136.9862
   826.2500      0.0000   -999.2500    724.3033      8.6207    143.6927
   826.5000      0.0000   -999.2500    726.0213      8.8619    145.5992
   826.7500      0.0000   -999.2500    731.0544      8.9214    142.6298
   827.0000      0.0000   -999.2500    738.5444      8.9617    136.7859
   827.2500      0.0000   -999.2500    746.4063      9.1343    130.8254
   827.5000      0.0000   -999.2500    753.0374      9.4343    126.7048
   827.7500      0.0000   -999.2500    758.1149      9.7257    125.2712
   828.0000      0.0000   -999.2500    762.3995      9.9092    126.8421
   828.2500      0.0000   -999.2500    766.7253     10.0183    131.2912
   828.5000      0.0000   -999.2500    770.7734     10.1479    137.4332
   828.7500      0.0000   -999.2500    773.0377     10.3208    143.0679
   829.0000      0.0000   -999.2500    772.0341     10.4382    146.2292
   829.2500      0.0000   -999.2500    767.3094     10.3500    146.3329
