~Version Information
VERS.                      2.0: CWLS Log ASCII Standard - VERSION 2.0
WRAP.                       NO: One line per depth step
~Well Information Block
STRT.FT               577.0000: 
STOP.FT              2643.2000: 
STEP.FT                 0.1000: 
NULL.                -999.2500: 
COMP.          Petrogulf Corporation: COMPANY
WELL.           Montoya 12-41V: WELL
FLD.           Purgatorie River: FIELD
LOC.           1081' FNL & 605' FEL: LOCATION
CNTY.               Las Animas: COUNTY
SRVC.                         : SERVICE COMPANY
DATE.          Tue Aug 10 14:17:12 2004: LOG DATE
UWI.           05 071 08094 00: UNIQUE WELL ID
STAT.                 Colorado: STATE
~Curve Information Block
DEPT.FT            0 000 00 00: Depth
DCAL.in                       : CDL Caliper
RHOB.g/cc                     : CDL Bulk Density
RHOC.g/cc                     : CDL Density Correction
DPOR.pu                       : CDL Density Porosity
GR.GAPI                       : Gamma Ray
NPOR.pu                       : Neutron Porosity
~Parameter Information Block
~A  Depth       DCAL        RHOB        RHOC        DPOR         GR         NPOR    
# ...
  1268.2000      8.1112      2.5960      0.1433      3.2746    138.0991     31.7522
  1268.3000      8.1120      2.6124      0.1949      2.2803    129.4756     31.9320
  1268.4000      8.1120      2.6203      0.2150      1.8002    128.6286     31.4799
  1268.5000      8.1134      2.6077      0.2070      2.5642    133.7290     30.4987
  1268.6000      8.1134      2.5873      0.1204      3.8005    137.1148     29.6573
  1268.7000      8.1134      2.5771      0.1140      4.4179    139.1870     29.0468
  1268.8000      8.1242      2.5724      0.0810      4.7028    140.0703     28.6342
  1268.9000      8.1242      2.5639      0.0938      5.2179    137.0216     29.0818
  1269.0000      8.1075      2.5521      0.0920      5.9358    134.2203     30.1356
  1269.1000      8.1075      2.5533      0.0008      5.8586    136.7416     30.4280
  1269.2000      8.1075      2.5844      0.0852      3.9737    143.7008     29.8868
  1269.3000      8.1044      2.6253      0.1045      1.4943    150.4205     29.6737
  1269.4000      8.1044      2.6413      0.0982      0.5301    153.4610     29.9771
  1269.5000      8.1041      2.6274      0.0710      1.3718    153.8768     29.6621
  1269.6000      8.1041      2.6036      0.0567      2.8125    153.3627     28.4252
  1269.7000      8.1041      2.5826      0.0651      4.0822    148.4895     27.2793
  1269.8000      8.1055      2.5642      0.0416      5.2024    137.8208     27.0425
  1269.9000      8.1055      2.5516     -0.0004      5.9628    131.0597     27.6859
  1270.0000      8.1056      2.5493      0.0165      6.1018    132.6082     28.7284
  1270.1000      8.1056      2.5434      0.0134      6.4603    132.8546     29.6734
  1270.2000      8.1056      2.5116      0.0011      8.3896    129.2143     30.2610
  1270.3000      8.0962      2.4599     -0.0663     11.5201    131.3018     30.7738
  1270.4000      8.0962      2.4208     -0.0344     13.8912    140.4330     31.3232
  1270.5000      8.0980      2.4101      0.0419     14.5373    147.2556     31.6470
  1270.6000      8.0980      2.4211     -0.0012     13.8747    147.7792     31.3645
  1270.7000      8.0980      2.4454      0.0311     12.3972    145.2821     30.1935
  1270.8000      8.0999      2.4755      0.0614     10.5765    140.1160     28.9928
  1270.9000      8.0999      2.5059      0.0697      8.7322    134.7389     28.8950
  1271.0000      8.1083      2.5316      0.1116      7.1730    133.6969     29.2210
  1271.1000      8.1083      2.5462      0.1503      6.2926    132.7561     29.2233
  1271.2000      8.1083      2.5515      0.1112      5.9721    128.7653     29.4611
  1271.3000      8.0890      2.5544      0.0852      5.7925    125.6551     29.5996
  1271.4000      8.0890      2.5570      0.0800      5.6350    124.1896     28.8973
  1271.5000      8.0838      2.5617      0.0418      5.3522    124.2721     28.1197
  1271.6000      8.0838      2.5691      0.0350      4.9002    127.4632     28.1788
  1271.7000      8.0838      2.5750      0.0644      4.5484    130.8403     28.6517
  1271.8000      8.0787      2.5839      0.0323      4.0089    130.4141     28.5339
  1271.9000      8.0787      2.6068      0.0295      2.6193    126.3568     27.7513
  1272.0000      8.0522      2.6320      0.0851      1.0922    121.7134     26.8601
  1272.1000      8.0522      2.6364      0.0184      0.8240    123.0192     26.1700
  1272.2000      8.0522      2.6230      0.0414      1.6349    130.9539     25.8954
  1272.3000      8.0466      2.6110     -0.0384      2.3623    135.8033     25.7580
  1272.4000      8.0466      2.6112      0.0125      2.3503    134.8758     25.3411
  1272.5000      8.0373      2.6178      0.0341      1.9517    133.2575     25.0434
  1272.6000      8.0373      2.6196      0.0102      1.8441    130.5977     24.9770
  1272.7000      8.0373      2.6103      0.0033      2.4072    126.9898     24.4443
  1272.8000      8.0289      2.5942     -0.0655      3.3826    126.2144     23.4315
  1272.9000      8.0289      2.5863     -0.0283      3.8587    125.6435     22.7527
  1273.0000      8.0131      2.5898      0.0367      3.6460    119.0825     22.6980
  1273.1000      8.0131      2.5909      0.0161      3.5810    108.2767     22.8830
  1273.2000      8.0131      2.5809      0.0009      4.1904     99.8421     22.7061
  1273.3000      8.0066      2.5626     -0.0038      5.2985     94.4596     21.8960
  1273.4000      8.0066      2.5427     -0.0092      6.5031     91.2881     21.0801
  1273.5000      7.9908      2.5291      0.0252      7.3275     92.6883     20.8379
  1273.6000      7.9908      2.5325     -0.0104      7.1206     93.1516     20.7720
  1273.7000      7.9908      2.5568     -0.0023      5.6468     87.8996     20.5906
  1273.8000      7.9858      2.5877      0.0203      3.7730     84.1498     20.7397
  1273.9000      7.9858      2.6059      0.0315      2.6752     87.7486     21.0862
  1274.0000      7.9702      2.6034      0.0649      2.8240     95.6852     20.9378
  1274.1000      7.9702      2.5913      0.0461      3.5586    101.0046     20.3328
  1274.2000      7.9702      2.5902      0.0271      3.6227    101.2288     19.5636
  1274.3000      7.9647      2.6063      0.0657      2.6474     98.2170     18.7139
  1274.4000      7.9647      2.6275      0.0820      1.3638     92.9036     18.2708
  1274.5000      7.9664      2.6383      0.0988      0.7091     86.7459     18.7837
  1274.6000      7.9664      2.6321      0.0849      1.0822     84.1208     20.0098
  1274.7000      7.9664      2.6110      0.0913      2.3627     88.1399     21.1065
  1274.8000      7.9665      2.5859      0.0641      3.8819     93.6619     21.4738
  1274.9000      7.9665      2.5683      0.0772      4.9534     94.0048     21.4348
  1275.0000      7.9661      2.5488      0.0717      6.1354     92.3632     21.7997
  1275.1000      7.9661      2.5190     -0.0048      7.9364     92.5266     22.5866
  1275.2000      7.9661      2.5015     -0.0088      9.0003     92.2623     23.3479
  1275.3000      7.9704      2.5138      0.0368      8.2542     91.9782     24.4101
  1275.4000      7.9704      2.5391      0.0782      6.7205     95.5505     25.9777
  1275.5000      7.9728      2.5521      0.1267      5.9312    102.3821     27.2767
  1275.6000      7.9728      2.5425      0.1052      6.5160    109.1589     27.7899
  1275.7000      7.9728      2.5095      0.1481      8.5125    116.8092     27.8423
  1275.8000      7.9684      2.4586      0.1088     11.6021    127.2133     27.8512
  1275.9000      7.9684      2.4071      0.0654     14.7219    133.5209     27.7569
  1276.0000      7.9695      2.3745      0.0204     16.6992    129.2376     27.5588
  1276.1000      7.9695      2.3701      0.0192     16.9662    123.6500     27.5747
  1276.2000      7.9695      2.3964     -0.0054     15.3695    124.3683     28.0413
  1276.3000      7.9668      2.4518      0.0349     12.0092    126.7099     28.5451
  1276.4000      7.9668      2.5253      0.0759      7.5566    129.8093     28.5567
  1276.5000      7.9717      2.6000      0.1054      3.0300    135.5105     28.3707
  1276.6000      7.9717      2.6549      0.1548     -0.2982    139.5983     28.3237
  1276.7000      7.9717      2.6702      0.1636     -1.2238    140.5874     28.0245
  1276.8000      8.0040      2.6548      0.1535     -0.2920    140.5186     27.4112
  1276.9000      8.0040      2.6444      0.0505      0.3378    140.4533     27.1789
  1277.0000      7.9904      2.6494      0.0792      0.0340    139.7616     27.4203
  1277.1000      7.9904      2.6466     -0.0027      0.2038    138.0096     27.6614
  1277.2000      7.9904      2.6290     -0.0822      1.2697    136.8688     27.3329
  1277.3000      8.0050      2.6065     -0.0703      2.6335    135.2255     26.0381
  1277.4000      8.0050      2.5850     -0.0872      3.9374    128.5379     24.1565
  1277.5000      8.0140      2.5752     -0.0563      4.5320    118.1921     22.4211
  1277.6000      8.0140      2.5835      0.0496      4.0286    111.4678     21.2562
  1277.7000      8.0140      2.5950      0.0814      3.3340    113.0050     20.7773
