~Version Information
VERS.                      2.0: CWLS Log ASCII Standard - VERSION 2.0
WRAP.                       NO: One line per depth step
~Well Information Block
STRT.FT               605.6000: 
STOP.FT              1938.0000: 
STEP.FT                 0.1000: 
NULL.                -999.2500: 
COMP.          Petrogulf Corporation: COMPANY
WELL.              Graff 9-31R: WELL
FLD.           Purgatorie River: FIELD
LOC.           707' FNL & 1713' FEL: LOCATION
CNTY.               Las Animas: COUNTY
SRVC.                         : SERVICE COMPANY
DATE.          Mon Oct 25 06:13:30 2004: LOG DATE
UWI.           05 071 08037 00: UNIQUE WELL ID
STAT.                 Colorado: STATE
~Curve Information Block
DEPT.FT            0 000 00 00: Depth
DCAL.in                       : CDL Caliper
RHOB.g/cc                     : CDL Bulk Density
RHOC.g/cc                     : CDL Density Correction
DPOR.pu                       : CDL Density Porosity
GR.GAPI                       : Gamma Ray
NPOR.pu                       : Neutron Porosity
~Parameter Information Block
~A  Depth       DCAL        RHOB        RHOC        DPOR         GR         NPOR    
# ...
  1488.8000      7.8638      2.7423      0.0474     -5.5950     74.8028     24.5625
  1488.9000      7.8638      2.7533      0.0253     -6.2597     76.0365     23.6517
  1489.0000      7.8696      2.7571      0.0486     -6.4907     74.8501     22.9637
  1489.1000      7.8696      2.7399      0.0219     -5.4465     74.1284     22.8194
  1489.2000      7.8696      2.6883      0.0449     -2.3221     77.7446     22.7028
  1489.3000      7.8648      2.6121     -0.0107      2.2975     84.6287     22.0737
  1489.4000      7.8648      2.5501     -0.0694      6.0573     92.7945     21.3491
  1489.5000      7.8725      2.5242     -0.0388      7.6226    102.6086     21.0281
  1489.6000      7.8725      2.5198     -0.0562      7.8919    113.2877     21.0850
  1489.7000      7.8725      2.5249     -0.0010      7.5792    122.2668     21.2332
  1489.8000      7.8783      2.5336      0.0834      7.0515    131.0434     21.3232
  1489.9000      7.8783      2.5418      0.0564      6.5559    140.3954     21.4524
  1490.0000      7.8913      2.5471      0.0754      6.2373    145.1288     21.7311
  1490.1000      7.8913      2.5419      0.0502      6.5520    143.7234     22.2515
  1490.2000      7.8913      2.5307      0.0651      7.2316    140.9267     23.0633
  1490.3000      7.9147      2.5248      0.0602      7.5880    142.0067     24.0891
  1490.4000      7.9147      2.5248      0.0871      7.5870    148.2127     25.0400
  1490.5000      7.9173      2.5226      0.0931      7.7192    151.4986     25.5694
  1490.6000      7.9173      2.5170      0.0610      8.0599    146.9966     25.7920
  1490.7000      7.9173      2.5227      0.0151      7.7137    143.7402     25.7694
  1490.8000      7.8829      2.5542      0.0874      5.8043    146.0972     25.5051
  1490.9000      7.8829      2.6007      0.1473      2.9849    146.0896     25.3565
  1491.0000      7.8736      2.6361      0.1733      0.8397    141.4217     25.5394
  1491.1000      7.8736      2.6516      0.1374     -0.0943    136.0755     25.7901
  1491.2000      7.8736      2.6575      0.1346     -0.4532    129.7099     25.7183
  1491.3000      7.8576      2.6575      0.1185     -0.4558    123.4119     25.4234
  1491.4000      7.8576      2.6454      0.1415      0.2783    118.6743     25.2756
  1491.5000      7.8096      2.6243      0.0224      1.5592    113.4273     25.2117
  1491.6000      7.8096      2.6116      0.0160      2.3263    105.8694     25.0058
  1491.7000      7.8096      2.6129      0.0577      2.2482     96.7552     24.6980
  1491.8000      7.8097      2.6207      0.0448      1.7750     89.1308     24.1954
  1491.9000      7.8097      2.6266      0.0773      1.4155     84.2058     23.4179
  1492.0000      7.8140      2.6207      0.0557      1.7787     79.5105     22.8167
  1492.1000      7.8140      2.6082      0.0368      2.5340     73.4268     22.7324
  1492.2000      7.8140      2.6029     -0.0180      2.8565     68.0826     22.7560
  1492.3000      7.7731      2.6017      0.0559      2.9264     67.4460     22.5328
  1492.4000      7.7731      2.5971      0.0181      3.2035     69.8285     22.2132
  1492.5000      7.7810      2.5901      0.0447      3.6318     69.2466     21.7829
  1492.6000      7.7810      2.5803      0.0066      4.2252     66.8117     21.0610
  1492.7000      7.7810      2.5724     -0.0045      4.7026     68.1711     20.4549
  1492.8000      7.7838      2.5804      0.0183      4.2170     73.2644     20.4845
  1492.9000      7.7838      2.6046      0.0046      2.7507     76.2834     20.7868
  1493.0000      7.7920      2.6161      0.0668      2.0516     74.6478     20.9415
  1493.1000      7.7920      2.5977     -0.0233      3.1703     71.2263     21.0738
  1493.2000      7.7920      2.5783     -0.0111      4.3461     68.3894     21.1078
  1493.3000      7.8010      2.5809      0.0373      4.1873     68.8859     21.1143
  1493.4000      7.8010      2.5977      0.0230      3.1727     73.9257     21.3734
  1493.5000      7.7801      2.6188      0.0583      1.8919     80.4278     21.5737
  1493.6000      7.7801      2.6366      0.0465      0.8111     84.4789     21.5203
  1493.7000      7.7801      2.6411      0.0729      0.5410     83.2307     21.5517
  1493.8000      7.7733      2.6277      0.0634      1.3520     78.3623     21.6007
  1493.9000      7.7733      2.6060      0.0602      2.6672     74.7190     21.3680
  1494.0000      7.7611      2.5876      0.0623      3.7810     75.4352     20.8608
  1494.1000      7.7611      2.5831     -0.0061      4.0552     79.8407     20.2478
  1494.2000      7.7611      2.5960      0.0500      3.2723     82.7301     19.7262
  1494.3000      7.7778      2.6001      0.0723      3.0237     80.9742     19.1097
  1494.4000      7.7778      2.5757      0.0056      4.5006     77.8552     18.0824
  1494.5000      7.7796      2.5414     -0.0001      6.5814     76.3154     17.3197
  1494.6000      7.7796      2.5097      0.0373      8.5041     77.0052     17.5484
  1494.7000      7.7796      2.4815     -0.0338     10.2148     81.7377     18.2928
  1494.8000      7.7776      2.4804     -0.0540     10.2785     88.1955     18.6173
  1494.9000      7.7776      2.5232      0.0418      7.6828     90.5740     18.3070
  1495.0000      7.7762      2.5812      0.0997      4.1721     88.0239     17.8255
  1495.1000      7.7762      2.6184      0.1266      1.9174     85.0821     17.7305
  1495.2000      7.7762      2.6302      0.1328      1.2010     84.8878     18.4665
  1495.3000      7.7668      2.6265      0.1610      1.4271     85.2865     19.8403
  1495.4000      7.7668      2.6153      0.1068      2.1058     86.3814     21.0833
  1495.5000      7.7365      2.6041      0.0859      2.7827     90.8708     21.8561
  1495.6000      7.7365      2.5971      0.0502      3.2053     95.5348     22.3159
  1495.7000      7.7365      2.5933      0.0777      3.4339     95.3430     22.5274
  1495.8000      7.7567      2.5780      0.1391      4.3620     90.2912     22.4422
  1495.9000      7.7567      2.5404      0.0601      6.6440     85.8881     21.9111
  1496.0000      7.7585      2.5104     -0.0154      8.4600     87.0450     21.1513
  1496.1000      7.7585      2.5248      0.0528      7.5852     90.0894     20.5986
  1496.2000      7.7585      2.5684      0.1188      4.9458     89.6961     20.4616
  1496.3000      7.7574      2.5984      0.1127      3.1259     88.6370     20.6485
  1496.4000      7.7574      2.6058      0.1335      2.6791     91.1066     20.9935
  1496.5000      7.7610      2.6151      0.1368      2.1147     97.7353     21.3795
  1496.6000      7.7610      2.6370      0.2277      0.7863    102.3249     21.4126
  1496.7000      7.7610      2.6490      0.2613      0.0576     99.3743     21.2694
  1496.8000      7.7537      2.6325      0.1971      1.0630     95.3619     21.3774
  1496.9000      7.7537      2.6041      0.0594      2.7828     95.6875     21.5838
  1497.0000      7.7310      2.5880      0.0817      3.7597     96.6572     21.7899
  1497.1000      7.7310      2.5844      0.0421      3.9739     95.3984     22.1807
  1497.2000      7.7310      2.5812      0.0632      4.1700     95.9571     22.8031
  1497.3000      7.7685      2.5650      0.0479      5.1492    101.3876     23.3300
  1497.4000      7.7685      2.5376     -0.0050      6.8113    106.3725     23.4062
  1497.5000      7.8691      2.5205      0.0111      7.8484    107.7570     23.2819
  1497.6000      7.8691      2.5244      0.0268      7.6098    108.4476     23.3828
  1497.7000      7.8691      2.5320      0.0183      7.1534    112.0492     23.7631
  1497.8000      7.8837      2.5247      0.0450      7.5964    120.4359     24.4641
  1497.9000      7.8837      2.5076      0.0144      8.6331    128.0412     25.4386
  1498.0000      7.8998      2.5017      0.0077      8.9868    128.9612     26.2411
  1498.1000      7.8998      2.5191      0.0339      7.9329    126.1408     26.4244
  1498.2000      7.8998      2.5455      0.0580      6.3353    126.3952     26.2280
  1498.3000      7.9126      2.5567      0.0221      5.6557    131.5548     26.3438
