~Version Information
VERS.                      2.0: CWLS Log ASCII Standard - VERSION 2.0
WRAP.                       NO: One line per depth step
~Well Information Block
STRT.FT                -8.5000: 
STOP.FT              1597.7500: 
STEP.FT                 0.2500: 
NULL.                -999.2500: 
COMP.          Pioneer Natural Resources: COMPANY
WELL.          Dude Canyon 22-32 Tr: WELL
FLD.           Purgatorie River: FIELD
LOC.           1741' FnL & 2331' FWL--: LOCATION
PROV.                       CO: PROVINCE
CNTY.               Las Animas: COUNTRY
SRVC.          Patterson Wireline: SERVICE COMPANY
DATE.          Fri Jul 15 14:44:37 2005: LOG DATE
UWI.           05 071 08421 00: UNIQUE WELL ID
~Curve Information Block
DEPT.FT            0 000 00 00: Depth
CCL.                          : Casing Collar Locator
TT3.usec                      : CBL 3' Travel Time
AMP3.mV                       : CBL 3' Amplitude
GR.GAPI                       : Gamma Ray
~Parameter Information Block
~A  Depth       CCL         TT3         AMP3         GR     
# ...
   427.0000      0.0000    740.8082      8.8960    110.6806
   427.2500      0.0000    740.7629      8.9018    111.3559
   427.5000      0.0000    740.6468      8.9205    112.5830
   427.7500      0.0000    740.4825      8.9400    113.7964
   428.0000      0.0000    740.3418      8.9408    114.0871
   428.2500      0.0000    740.3055      8.9187    112.4306
   428.5000      0.0000    740.4127      8.8930    108.3680
   428.7500      0.0000    740.6409      8.8895    102.6375
   429.0000      0.0000    740.9226      8.9162     96.9645
   429.2500      0.0000    741.1486      8.9562     92.7676
   429.5000      0.0000    741.1359      8.9854     89.9263
   429.7500      0.0000    740.5641      8.9921     87.0724
   430.0000      0.0000    739.0245      8.9814     83.0011
   430.2500      0.0000    736.3298      8.9650     77.4854
   430.5000      0.0000    732.9518      8.9548     71.0562
   430.7500      0.0000    730.0834      8.9609     64.5437
   431.0000      0.0000    729.0371      8.9882     58.7084
   431.2500      0.0000    730.3941      9.0331     53.9066
   431.5000      0.0000    733.5946      9.0855     50.1268
   431.7500      0.0000    737.3062      9.1369     47.4708
   432.0000      0.0000    740.2971      9.1813     46.3440
   432.2500      0.0000    742.0934      9.2138     46.9030
   432.5000      0.0000    742.9356      9.2328     48.3876
   432.7500      0.0000    743.3008      9.2417     49.3099
   433.0000      0.0000    743.5344      9.2428     48.5917
   433.2500      0.0000    743.7626      9.2308     46.5585
   433.5000      0.0000    743.9280      9.1947     44.8238
   433.7500      0.0000    743.7762      9.1302     45.1975
   434.0000      0.0000    742.7896      9.0463     48.4777
   434.2500      0.0000    740.1983      8.9620     53.8561
   434.5000      0.0000    735.3694      8.8966     59.2752
   434.7500      0.0000    728.5898      8.8633     62.5722
   435.0000      0.0000    721.5892      8.8660     62.6557
   435.2500      0.0000    716.9754      8.9005     59.9546
   435.5000      0.0000    716.6881      8.9557     55.9975
   435.7500      0.0000    720.6389      9.0166     52.5042
   436.0000      0.0000    726.6307      9.0672     50.5046
   436.2500      0.0000    731.7123      9.0933     49.9088
   436.5000      0.0000    734.0540      9.0879     49.6449
   436.7500      0.0000    733.8766      9.0533     48.3488
   437.0000      0.0000    732.7337      8.9997     45.4292
   437.2500      0.0000    732.0717      8.9369     41.7491
   437.5000      0.0000    732.6389      8.8718     39.1608
   437.7500      0.0000    734.8854      8.8110     39.1231
   438.0000      0.0000    739.2095      8.7643     41.4763
   438.2500      0.0000    745.5441      8.7420     44.4266
   438.5000      0.0000    752.7032      8.7494     45.9598
   438.7500      0.0000    757.9907      8.7834     45.5167
   439.0000      0.0000    757.9938      8.8315     44.2938
   439.2500      0.0000    750.9238      8.8785     43.9651
   439.5000      0.0000    738.4736      8.9157     45.2279
   439.7500      0.0000    724.8568      8.9457     47.4312
   440.0000      0.0000    713.9346      8.9768     49.3440
   440.2500      0.0000    707.3328      9.0112     50.2463
   440.5000      0.0000    704.7219      9.0385     50.3568
   440.7500      0.0000    705.0108      9.0420     50.2026
   441.0000      0.0000    706.9660      9.0152     49.7676
   441.2500      0.0000    709.1736      8.9700     48.5368
   441.5000      0.0000    710.3525      8.9261     46.3552
   441.7500      0.0000    710.3107      8.8959     43.9553
   442.0000      0.0000    710.3586      8.8801     42.5031
   442.2500      0.0000    712.1195      8.8719     42.7223
   442.5000      0.0000    715.7420      8.8593     44.6145
   442.7500      0.0000    719.6501      8.8306     47.9361
   443.0000      0.0000    722.3648      8.7840     52.5709
   443.2500      0.0000    724.2873      8.7300     58.1589
   443.5000      0.0000    727.1243      8.6812     63.6012
   443.7500      0.0000    731.8767      8.6411     67.5078
   444.0000      0.0000    738.2374      8.6038     69.3090
   444.2500      0.0000    745.6436      8.5634     69.4145
   444.5000      0.0000    753.8145      8.5188     68.1229
   444.7500      0.0000    762.3094      8.4736     65.0250
   445.0000      0.0000    770.5170      8.4348     59.8741
   445.2500      0.0000    777.8719      8.4105     53.5681
   445.5000      0.0000    783.5366      8.4056     47.8686
   445.7500      0.0000    786.5568      8.4158     44.2747
   446.0000      0.0000    786.6525      8.4276     43.2251
   446.2500      0.0000    783.8139      8.4264     44.1014
   446.5000      0.0000    777.0366      8.4079     45.7183
   446.7500      0.0000    765.0392      8.3809     46.7872
   447.0000      0.0000    748.8469      8.3577     46.3210
   447.2500      0.0000    732.7034      8.3419     44.2011
   447.5000      0.0000    721.8091      8.3262     41.4825
   447.7500      0.0000    719.4728      8.3030     39.6933
   448.0000      0.0000    726.0292      8.2733     39.6252
   448.2500      0.0000    739.2896      8.2449     40.9488
   448.5000      0.0000    755.5331      8.2212     42.8488
   448.7500      0.0000    770.6951      8.1963     44.7495
   449.0000      0.0000    781.4112      8.1600     46.5686
   449.2500      0.0000    785.6717      8.1110     48.4774
   449.5000      0.0000    783.6460      8.0596     50.3449
   449.7500      0.0000    778.4422      8.0173     51.4728
   450.0000      0.0000    774.9759      7.9862     51.1128
   450.2500      0.0000    776.6919      7.9631     49.2808
   450.5000      0.0000    782.9848      7.9468     46.8929
   450.7500      0.0000    789.7364      7.9373     44.9454
   451.0000      0.0000    792.5282      7.9288     43.6886
   451.2500      0.0000    790.0203      7.9088     42.8392
   451.5000      0.0000    784.6906      7.8690     42.4206
   451.7500      0.0000    780.3835      7.8172     42.8582
   452.0000      0.0000    779.1703      7.7771     44.2626
   452.2500      0.0000    780.4389      7.7698     46.1156
   452.5000      0.0000    782.3710      7.7938     47.7303
   452.7500      0.0000    783.7017      7.8235     48.8188
   453.0000      0.0000    784.2115      7.8301     49.7990
   453.2500      0.0000    784.2549      7.8018     51.8036
   453.5000      0.0000    784.2426      7.7458     56.1556
   453.7500      0.0000    784.4370      7.6775     63.4949
   454.0000      0.0000    784.9048      7.6145     73.1783
   454.2500      0.0000    785.5268      7.5735     83.3487
   454.5000      0.0000    786.1008      7.5615     91.7890
   454.7500      0.0000    786.4652      7.5689     97.1311
   455.0000      0.0000    786.5222      7.5688     99.3036
   455.2500      0.0000    786.1516      7.5211     98.8654
   455.5000      0.0000    785.2652      7.3797     96.3463
   455.7500      0.0000    784.2241      7.1207     92.2977
   456.0000      0.0000    784.1893      6.7820     87.5246
   456.2500      0.0000    786.4973      6.4564     83.0913
   456.5000      0.0000    791.3469      6.2078     80.0782
   456.7500      0.0000    797.6448      6.0047     78.9479
   457.0000      0.0000    804.5432      5.7778     78.9535
   457.2500      0.0000    812.3199      5.5242     78.6678
   457.5000      0.0000    820.9869      5.3070     77.3450
   457.7500      0.0000    828.7144      5.1704     75.4864
   458.0000     -2.0000    832.3986      5.1007     74.0974
   458.2500      0.0000    829.7029      5.0647     73.8136
   458.5000      0.0000    820.1797      5.0612     74.7210
   458.7500      0.0000    804.9415      5.1335     76.6134
   459.0000      0.0000    786.4781      5.3306     79.3078
   459.2500      0.0000    769.2642      5.6442     82.7636
   459.5000      0.0000    758.9407      5.9914     86.7360
   459.7500      0.0000    758.5757      6.2751     90.3058
   460.0000      0.0000    765.6533      6.4523     92.2716
   460.2500      0.0000    774.1240      6.5374     92.4159
