~Version Information
VERS.                      2.0: CWLS Log ASCII Standard - VERSION 2.0
WRAP.                       NO: One line per depth step
~Well Information Block
STRT.FT               -12.5000: 
STOP.FT              2742.5000: 
STEP.FT                 0.2500: 
NULL.                -999.2500: 
COMP.          Pioneer Natural Resources: COMPANY
WELL.            Rangely 22-28: WELL
FLD.           Purgatorie River: FIELD
LOC.           720' FSL & 1036' FEL--: LOCATION
PROV.                       CO: PROVINCE
CNTY.               Las Animas: COUNTRY
SRVC.                         : SERVICE COMPANY
DATE.          Wed Nov 10 08:59:10 2004: LOG DATE
UWI.                          : UNIQUE WELL ID
~Curve Information Block
DEPT.FT            0 000 00 00: Depth
GR.GAPI                       : Gamma Ray
CCL.                          : Casing Collar Locator
TT3.usec                      : CBL 3' Travel Time
AMP3.mV                       : CBL 3' Amplitude
~Parameter Information Block
~A  Depth        GR         CCL         TT3         AMP3    
# ...
   356.0000     52.0804      0.0000    792.1628      2.5088
   356.2500     53.9634      0.0000    792.8857      2.5453
   356.5000     55.5648      0.0000    796.7974      2.5739
   356.7500     56.7128      0.0000    803.4443      2.5960
   357.0000     57.1519      0.0000    810.3590      2.6201
   357.2500     56.6208      0.0000    813.9129      2.6626
   357.5000     55.1939      0.0000    812.0992      2.7319
   357.7500     53.5703      0.0000    806.5099      2.8168
   358.0000     53.0357      0.0000    800.9171      2.8947
   358.2500     54.7859      0.0000    798.0054      2.9464
   358.5000     58.7618      0.0000    797.8786      2.9647
   358.7500     63.3029      0.0000    799.2586      2.9526
   359.0000     66.4090      0.0000    801.2676      2.9141
   359.2500     67.3188      0.0000    804.0134      2.8512
   359.5000     66.7207      0.0000    807.9935      2.7745
   359.7500     65.7787      0.0000    813.0185      2.7073
   360.0000     65.1878      0.0000    817.5200      2.6704
   360.2500     64.7779      0.0000    819.3083      2.6654
   360.5000     63.6655      0.0000    817.5613      2.6741
   360.7500     61.0153      0.0000    814.0237      2.6678
   361.0000     56.8833      0.0000    811.9794      2.6218
   361.2500     52.2043      0.0000    813.9232      2.5325
   361.5000     47.9976      0.0000    819.7498      2.4193
   361.7500     44.8070      0.0000    827.1364      2.3089
   362.0000     42.7833      0.0000    834.5361      2.2173
   362.2500     41.8914      0.0000    843.5646      2.1448
   362.5000     41.8431      0.0000    856.6506      2.0815
   362.7500     42.1284      0.0000    872.3275      2.0196
   363.0000     42.4329      0.0000    884.9648      1.9595
   363.2500     42.9501      0.0000    889.8556      1.9061
   363.5000     44.1405      0.0000    887.3096      1.8609
   363.7500     46.3862      0.0000    881.5025      1.8221
   364.0000     49.7143      0.0000    876.4271      1.7948
   364.2500     53.2938      0.0000    873.3085      1.8015
   364.5000     55.3621      0.0000    870.8575      1.8786
   364.7500     54.6475      0.0000    867.0854      2.0477
   365.0000     52.1850      0.0000    861.4015      2.2803
   365.2500     50.9755      0.0000    855.7604      2.5011
   365.5000     53.2748      0.0000    853.1713      2.6396
   365.7500     58.3855      0.0000    854.3713      2.6853
   366.0000     63.3737      0.0000    856.4332      2.6912
   366.2500     65.7975      0.0000    854.5137      2.7269
   366.5000     65.5168      0.0000    844.1447      2.8287
   366.7500     64.0050      0.0000    822.3853      2.9866
   367.0000     62.4893      0.0000    788.3041      3.1653
   367.2500     61.1667      0.0000    743.2333      3.3250
   367.5000     59.8008      0.0000    691.1656      3.4244
   367.7500     58.4044      0.0000    639.0138      3.4244
   368.0000     57.2197      0.0000    594.6262      3.3122
   368.2500     56.3652      0.0000    562.6015      3.1227
   368.5000     55.7088      0.0000    542.4348      2.9210
   368.7500     55.1525      0.0000    531.4930      2.7535
   369.0000     54.9434      0.0000    529.0991      2.6238
   369.2500     55.5310      0.0000    537.0786      2.5072
   369.5000     57.0197      0.0000    556.6354      2.3798
   369.7500     58.7785      0.0000    584.9406      2.2361
   370.0000     59.6319      0.0000    614.7147      2.0939
   370.2500     58.5683      0.0000    637.7344      1.9823
   370.5000     55.5257      0.0000    649.9142      1.9149
   370.7500     51.6720      0.0000    653.6844      1.8688
   371.0000     48.8420      0.0000    655.5934      1.7933
   371.2500     48.4121      0.0000    661.6273      1.6453
   371.5000     50.4944      0.0000    674.5400      1.4283
   371.7500     54.1128      0.0000    694.0684      1.2059
   372.0000     58.0305      0.0000    717.2942      1.0709
   372.2500     61.3859      0.0000    738.9518      1.0815
   372.5000     63.7359      0.0000    754.3425      1.2163
   372.7500     64.8471      0.0000    763.1348      1.3969
   373.0000     64.7226      0.0000    769.0753      1.5566
   373.2500     63.8558      0.0000    776.6491      1.6831
   373.5000     63.1330      2.0000    789.5618      1.7942
   373.7500     63.1243      0.0000    809.7565      1.8994
   374.0000     63.5634      0.0000    834.1077      1.9954
   374.2500     63.7704      0.0000    853.4084      2.0735
   374.5000     63.3992      0.0000    857.5869      2.1063
   374.7500     62.5780      0.0000    842.4404      2.0596
   375.0000     61.5162      0.0000    812.2426      1.9547
   375.2500     60.1186      0.0000    777.6802      1.8876
   375.5000     58.0155      0.0000    750.6337      1.9447
   375.7500     55.0992      0.0000    738.5842      2.1190
   376.0000     52.0581      0.0000    742.3345      2.3311
   376.2500     50.0146      0.0000    757.4579      2.5046
   376.5000     49.4445      0.0000    776.5358      2.6048
   376.7500     49.6628      0.0000    790.7162      2.6350
   377.0000     49.4057      0.0000    791.7815      2.6247
   377.2500     47.7314      0.0000    775.4032      2.6123
   377.5000     44.6114      0.0000    744.2535      2.6195
   377.7500     41.0656      0.0000    708.0021      2.6441
   378.0000     38.6938      0.0000    678.5107      2.6811
   378.2500     38.6690      0.0000    663.4276      2.7435
   378.5000     40.9420      0.0000    663.9194      2.8471
   378.7500     44.3742      0.0000    677.6937      2.9801
   379.0000     47.6211      0.0000    702.5932      3.1029
   379.2500     49.9891      0.0000    736.4697      3.1793
   379.5000     51.7940      0.0000    774.8320      3.2047
   379.7500     54.2621      0.0000    810.7053      3.2077
   380.0000     58.8325      0.0000    837.5167      3.2235
   380.2500     65.7583      0.0000    851.4865      3.2574
   380.5000     73.1752      0.0000    851.7986      3.2699
   380.7500     78.0532      0.0000    840.4898      3.2077
   381.0000     78.4092      0.0000    823.3510      3.0546
   381.2500     74.6162      0.0000    808.9268      2.8523
   381.5000     68.8484      0.0000    803.5705      2.6646
   381.7500     63.5968      0.0000    806.6674      2.5254
   382.0000     60.4288      0.0000    812.0316      2.4267
   382.2500     59.4120      0.0000    814.4904      2.3518
   382.5000     59.3739      0.0000    814.4449      2.3071
   382.7500     58.9557      0.0000    815.8264      2.3180
   383.0000     57.6798      0.0000    820.4971      2.4089
   383.2500     55.9621      0.0000    825.9241      2.5966
   383.5000     54.2527      0.0000    828.1624      2.8860
   383.7500     52.6718      0.0000    825.4039      3.2477
   384.0000     51.4571      0.0000    818.0217      3.6108
   384.2500     51.1142      0.0000    806.5660      3.8995
   384.5000     51.9172      0.0000    791.2110      4.0786
   384.7500     53.5433      0.0000    773.6182      4.1586
   385.0000     55.2404      0.0000    758.7538      4.1717
   385.2500     56.2150      0.0000    752.8884      4.1507
   385.5000     56.0621      0.0000    758.1287      4.1153
   385.7500     55.0660      0.0000    769.0679      4.0576
   386.0000     53.9189      0.0000    776.1721      3.9437
   386.2500     53.0072      0.0000    773.6615      3.7413
   386.5000     52.1960      0.0000    765.0328      3.4471
   386.7500     51.4160      0.0000    760.9683      3.0926
   387.0000     51.0741      0.0000    770.4801      2.7328
   387.2500     51.5193      0.0000    793.2504      2.4273
   387.5000     52.2607      0.0000    820.8005      2.2169
   387.7500     52.0750      0.0000    844.2335      2.1116
   388.0000     49.9789      0.0000    859.7064      2.0996
   388.2500     46.1619      0.0000    868.0376      2.1674
   388.5000     42.1008      0.0000    871.7766      2.3031
   388.7500     39.6406      0.0000    873.1917      2.4861
   389.0000     39.6944      0.0000    873.7015      2.6889
   389.2500     41.6043      0.0000    874.0507      2.8928
