~Version Information
 VERS.                                  2.0 : CWLS LAS VERSION
 WRAP.                                   NO : WRAPING MODE
 SWARE .                 MController 2.5.0J : SOFTWARE VERSION
~Well Information
 WELL.                      McDaniel 09-34V : WELL
 COMP.                Petrogulf Corporation : COMPANY
 FLD.                      Purgatoire River : FIELD
 LOC.                SW/SE Sec 09 T33S R67W : LOCATION
 DATE.                             09/27/05 : DATE(S) LOGGED
 SRVC.       BLANCO Geological Services LLC : SERVICE COMPANY
 STAT.                                   CO : STATE
 CNTY.                           Las Animas : COUNTY
 CTRY.                                  USA : COUNTRY
 API.                       05-071-08333-00 : API NUMBER
 STRT.FT                               0.00 : START DEPTH
 STOP.FT                             2433.0 : STOP DEPTH 775.00
 STEP.FT                               1.00 : DEPTH INCREMENT
 NULL.                                -9999 : NULL VALUE
~Curve information
 DEPTH.FT                                   :
 ROP.MIN/FT                                 :
 GAS.UNITS                                  :
~ASCII Log data
# ...
      1800.0         0.37        677.1 
      1801.0         0.40        550.5 
      1802.0         3.58       1569.9 
      1803.0         0.20       1239.5 
      1804.0         0.30       1132.6 
      1805.0         0.33        992.0 
      1806.0         0.30        890.4 
      1807.0         0.32        856.1 
      1808.0         0.27        852.6 
      1809.0         0.33        879.3 
      1810.0         0.30        877.7 
      1811.0         0.40        845.3 
      1812.0         0.47        766.0 
      1813.0         0.47        749.2 
      1814.0         0.33        762.8 
      1815.0         0.30        784.7 
      1816.0         0.32        817.7 
      1817.0         0.27        830.4 
      1818.0         0.27        839.0 
      1819.0         0.23        845.0 
      1820.0         0.23        845.7 
      1821.0         0.23        846.3 
      1822.0         0.23        843.1 
      1823.0         0.23        838.4 
      1824.0         0.27        835.5 
      1825.0         0.23        833.9 
      1826.0         0.27        836.1 
      1827.0         0.27        831.1 
      1828.0         0.35        750.1 
      1829.0         0.20        647.9 
      1830.0         0.30        700.6 
      1831.0         0.33        832.6 
      1832.0         2.62       2117.4 
      1833.0         0.40       1312.2 
      1834.0         0.40       1038.9 
      1835.0         0.37        901.5 
      1836.0         0.40        866.3 
      1837.0         0.40        880.6 
      1838.0         0.53        875.8 
      1839.0         0.43        859.9 
      1840.0         0.38        858.4 
      1841.0         0.37        849.2 
      1842.0         0.30        836.1 
      1843.0         0.27        829.2 
      1844.0         0.27        833.0 
      1845.0         0.27        837.4 
      1846.0         0.27        842.5 
      1847.0         0.27        843.4 
      1848.0         0.27        848.2 
      1849.0         0.23        848.8 
      1850.0         0.23        848.5 
      1851.0         0.23        849.5 
      1852.0         0.25        841.5 
      1853.0         0.23        838.7 
      1854.0         0.27        840.3 
      1855.0         0.20        847.6 
      1856.0         0.23        846.6 
      1857.0         0.23        778.1 
      1858.0         0.23        644.4 
      1859.0         0.27        609.8 
      1860.0         0.33        691.4 
      1861.0         0.30        803.1 
      1862.0         2.32       1746.4 
      1863.0         0.53       1147.8 
      1864.0         0.40        988.2 
      1865.0         0.53        939.9 
      1866.0         0.45        886.0 
      1867.0         0.43        862.5 
      1868.0         0.17        918.7 
      1869.0         0.47       1009.4 
      1870.0         0.37       1019.3 
      1871.0         0.30       1012.0 
      1872.0         0.37        973.2 
      1873.0         0.37        900.6 
      1874.0         0.33        830.7 
      1875.0         0.35        786.3 
      1876.0         0.37        759.3 
      1877.0         0.30        738.4 
      1878.0         0.30        722.8 
      1879.0         0.30        705.1 
      1880.0         0.30        720.9 
      1881.0         0.33        746.6 
      1882.0         0.30        754.6 
      1883.0         0.27        755.2 
      1884.0         0.37        741.2 
      1885.0         0.45        727.9 
      1886.0         0.30        729.5 
      1887.0         0.30        730.1 
      1888.0         0.27        726.6 
      1889.0         0.33        678.1 
      1890.0         0.33        567.6 
      1891.0         0.33        640.3 
      1892.0         4.50       3886.5 
      1893.0         0.30       1036.1 
      1894.0         0.37        792.3 
      1895.0         0.43        857.7 
      1896.0         0.40        894.5 
      1897.0         0.37        923.4 
      1898.0         0.40        931.4 
      1899.0         0.30        924.1 
      1900.0         0.32        934.5 
      1901.0         0.30        952.0 
      1902.0         0.30        953.3 
      1903.0         0.33        947.9 
      1904.0         0.30        927.2 
      1905.0         0.27        902.5 
      1906.0         0.23        904.1 
      1907.0         0.43        911.0 
      1908.0         0.27        907.9 
      1909.0         0.20        903.4 
      1910.0         0.20        895.2 
      1911.0         0.22        877.4 
      1912.0         0.23        849.5 
      1913.0         0.20        823.1 
      1914.0         0.27        802.8 
      1915.0         0.23        810.7 
      1916.0         0.27        845.7 
      1917.0         0.20        851.7 
      1918.0         0.20        835.8 
      1919.0         0.27        748.2 
      1920.0         0.20        644.1 
      1921.0         0.27        630.5 
      1922.0         2.85       2158.7 
      1923.0         0.40       1836.2 
      1924.0         0.43       1450.6 
      1925.0         0.35       1096.4 
      1926.0         0.40        918.0 
      1927.0         0.53        887.9 
      1928.0         0.50        875.2 
      1929.0         0.43        952.6 
      1930.0         0.40        990.4 
      1931.0         0.37        991.3 
      1932.0         0.37        976.4 
      1933.0         0.35        935.8 
      1934.0         0.23        906.3 
      1935.0         0.23        899.6 
      1936.0         0.30        897.7 
      1937.0         0.27        896.1 
      1938.0         0.30        897.1 
      1939.0         0.20        887.9 
      1940.0         0.30        865.0 
      1941.0         0.30        849.2 
      1942.0         0.37        847.6 
      1943.0         0.43        827.9 
      1944.0         0.48        811.7 
      1945.0         0.40        755.5 
      1946.0         0.27        773.9 
      1947.0         0.23        776.5 
      1948.0         0.23        734.9 
      1949.0         0.20        629.5 
      1950.0         0.20        579.7 
      1951.0         0.23        594.6 
      1952.0         2.75       1848.3 
      1953.0         0.50       1556.3 
      1954.0         0.40       1200.2 
      1955.0         0.33        932.3 
      1956.0         0.27        866.0 
      1957.0         0.23        892.6 
      1958.0         0.28        952.0 
      1959.0         0.43        967.2 
      1960.0         0.37        965.3 
      1961.0         0.23        902.8 
      1962.0         0.40        799.0 
      1963.0         0.27        779.3 
      1964.0         0.17        798.4 
      1965.0         0.17        814.9 
      1966.0         0.43        838.0 
      1967.0         0.30        827.9 
      1968.0         0.35        810.4 
      1969.0         0.30        826.9 
      1970.0         0.53        860.6 
      1971.0         0.23        876.1 
      1972.0         0.23        875.8 
      1973.0         0.23        862.2 
      1974.0         0.23        830.7 
      1975.0         0.23        829.2 
      1976.0         0.20        846.0 
      1977.0         0.20        851.1 
      1978.0         0.20        845.7 
      1979.0         0.23        769.5 
      1980.0         0.27        647.6 
      1981.0         0.28        608.6 
      1982.0         7.20       1711.8 
      1983.0         0.40       1691.5 
      1984.0         0.13       1684.8 
      1985.0         0.10       1653.7 
      1986.0         0.33       1612.5 
      1987.0         0.33       1413.1 
      1988.0         0.37       1184.9 
      1989.0         0.40        940.9 
      1990.0         0.38        802.2 
      1991.0         0.33        930.7 
      1992.0         0.33        951.7 
      1993.0         0.50        917.4 
      1994.0         0.40        729.2 
      1995.0         0.60        632.4 
      1996.0         0.40        577.2 
      1997.0         0.45        587.3 
      1998.0         0.40        597.5 
      1999.0         0.43        649.8 
