~Version Information
 VERS.                      2.0: CWLS Log ASCII Standard - VERSION 2.0
 WRAP.                       NO: One line per depth step
 ~Well Information Block
 STRT.FT               886.1000: 
 STOP.FT              2599.0000: 
 STEP.FT                 0.1000: 
 NULL.                -999.2500: 
 COMP.          Petrogulf Corporation: COMPANY
 WELL.               YWAM 7-23V: WELL
 FLD.           Purgatorie River: FIELD
 LOC.           230' FSL & 225' FWL: LOCATION
 CNTY.               Las Animas: COUNTY
 SRVC.                         : SERVICE COMPANY
 DATE.          Sat Oct 30 10:42:52 2004: LOG DATE
 UWI.           05 071 08227 00: UNIQUE WELL ID
 STAT.                 Colorado: STATE
 PROV.                         :Province
 ~Curve Information Block
 DEPT.FT            0 000 00 00: Depth
 DCAL.in                       : CDL Caliper
 RHOB.g/cc                     : CDL Bulk Density
 RHOC.g/cc                     : CDL Density Correction
 DPOR.pu                       : CDL Density Porosity
 GR.GAPI                       : Gamma Ray
 NPOR.pu                       : Neutron Porosity
 ~Parameter Information Block
 ~A  Depth       DCAL        RHOB        RHOC        DPOR         GR         NPOR    
# ...
  1356.5000      8.1665      1.2495      0.0078     84.8817     75.2251     34.5481
  1356.6000      8.1665      1.2155      0.0166     86.9408     68.2744     34.6450
  1356.7000      8.1665      1.1733      0.0058     89.4948     61.6232     34.3657
  1356.8000      8.3464      1.1308     -0.0636     92.0715     55.0844     34.7646
  1356.9000      8.3464      1.1063     -0.0218     93.5593     47.4476     35.8998
  1357.0000      9.3156      1.0968     -0.0541     94.1361     39.7186     36.7733
  1357.1000      9.3156      1.0960     -0.0421     94.1830     34.7645     36.6121
  1357.2000      9.3156      1.1076     -0.0620     93.4777     33.4475     36.3217
  1357.3000     11.9804      1.1294     -0.0061     92.1550     33.1501     36.9552
  1357.4000     11.9804      1.1450      0.0334     91.2109     31.1779     37.8974
  1357.5000     15.9534      1.1442      0.0044     91.2603     27.7484     38.0848
  1357.6000     15.9534      1.1347     -0.0054     91.8338     24.5957     37.5328
  1357.7000     15.9534      1.1258     -0.0102     92.3736     21.8753     36.9959
  1357.8000     16.8244      1.1214     -0.0249     92.6452     18.7178     36.8940
  1357.9000     16.8244      1.1243     -0.0258     92.4668     16.1349     36.6198
  1358.0000     17.0471      1.1321     -0.0133     91.9927     15.8304     36.0427
  1358.1000     17.0471      1.1353      0.0028     91.8019     18.2035     36.0067
  1358.2000     17.0471      1.1301     -0.0267     92.1176     22.2390     36.3063
  1358.3000     16.9667      1.1259     -0.0398     92.3680     25.3102     36.1012
  1358.4000     16.9667      1.1285     -0.0020     92.2106     25.5001     35.3104
  1358.5000     16.9684      1.1332     -0.0006     91.9273     25.3310     34.4052
  1358.6000     16.9684      1.1417      0.0086     91.4108     27.0605     34.3579
  1358.7000     16.9684      1.1680     -0.0187     89.8188     29.6714     35.3197
  1358.8000     16.9589      1.2225     -0.0034     86.5161     33.5937     36.1642
  1358.9000     16.9589      1.2973      0.0017     81.9842     39.6531     36.1289
  1359.0000     16.9378      1.3851      0.0104     76.6632     45.7133     35.3497
  1359.1000     16.9378      1.5009      0.0454     69.6441     53.4657     34.8241
  1359.2000     16.9378      1.6527      0.1097     60.4406     64.6484     35.2760
  1359.3000     16.8031      1.8026      0.2086     51.3558     73.4069     35.9240
  1359.4000     16.8031      1.8953      0.2619     45.7365     77.6552     36.1298
  1359.5000     16.1524      1.9205      0.2138     44.2145     81.2607     36.5449
  1359.6000     16.1524      1.9061      0.1984     45.0853     84.2901     37.4157
  1359.7000     16.1524      1.8750      0.1384     46.9670     86.6853     37.4449
  1359.8000     14.7985      1.8423      0.0814     48.9525     88.5354     35.7032
  1359.9000     14.7985      1.8186      0.0822     50.3868     87.7610     33.4123
  1360.0000     14.2127      1.8143      0.0509     50.6502     86.4854     31.8090
  1360.1000     14.2127      1.8496      0.0405     48.5087     88.7312     30.6714
  1360.2000     14.2127      1.9307      0.1426     43.5931     94.0117     30.3808
  1360.3000     13.2839      2.0234      0.3125     37.9783    103.0819     31.4720
  1360.4000     13.2839      2.0967      0.3077     33.5335    113.7231     32.7417
  1360.5000     12.2759      2.1697      0.2744     29.1082    119.8240     33.0790
  1360.6000     12.2759      2.2628      0.3108     23.4655    120.6916     32.7349
  1360.7000     12.2759      2.3452      0.3239     18.4754    117.8303     32.2616
  1360.8000      8.6513      2.3848      0.1870     16.0733    113.5999     31.9608
  1360.9000      8.6513      2.4047      0.1661     14.8655    112.2270     31.4939
  1361.0000      7.9375      2.4448      0.1857     12.4389    113.2749     30.3827
  1361.1000      7.9375      2.5051      0.2455      8.7822    113.3641     29.1812
  1361.2000      7.9375      2.5546      0.2658      5.7824    114.0640     28.4681
  1361.3000      7.7282      2.5763      0.1457      4.4695    118.1040     27.9845
  1361.4000      7.7282      2.5722      0.1768      4.7179    123.1567     27.7141
  1361.5000      7.7143      2.5491      0.0868      6.1129    125.9290     27.5827
  1361.6000      7.7143      2.5232      0.0771      7.6877    125.9290     27.2274
  1361.7000      7.7143      2.5006      0.0607      9.0520    123.1124     26.6815
  1361.8000      7.7313      2.4832      0.0486     10.1112    117.9511     26.4494
  1361.9000      7.7313      2.4809      0.0747     10.2464    114.0626     26.6275
  1362.0000      7.7601      2.4973      0.0545      9.2534    115.7157     26.6768
  1362.1000      7.7601      2.5248      0.0553      7.5863    122.7238     26.2062
  1362.2000      7.7601      2.5526      0.0791      5.9015    131.5511     25.3743
  1362.3000      7.7307      2.5691      0.1094      4.9036    137.7765     24.4162
  1362.4000      7.7307      2.5671      0.0847      5.0224    137.1544     23.3961
  1362.5000      7.7184      2.5583      0.0658      5.5582    130.7799     22.6818
  1362.6000      7.7184      2.5569      0.1142      5.6446    126.7606     22.4532
  1362.7000      7.7184      2.5618      0.1027      5.3480    129.3272     22.2706
  1362.8000      7.7131      2.5742      0.1125      4.5909    136.7353     21.9028
  1362.9000      7.7131      2.5928      0.0980      3.4694    145.4196     21.7740
  1363.0000      7.6978      2.6014      0.1318      2.9438    149.4124     22.4615
  1363.1000      7.6978      2.5896      0.1227      3.6601    145.9021     23.7641
  1363.2000      7.6978      2.5665      0.0938      5.0615    140.9320     24.6358
  1363.3000      7.7149      2.5508      0.0693      6.0098    141.8092     24.7614
  1363.4000      7.7149      2.5444      0.1281      6.4002    144.0511     24.7394
  1363.5000      7.7517      2.5329      0.0913      7.0950    140.9560     24.7734
  1363.6000      7.7517      2.5158      0.0854      8.1361    136.5156     24.7140
  1363.7000      7.7517      2.4977      0.0991      9.2330    139.0990     24.7670
  1363.8000      7.8726      2.4785      0.0439     10.3965    150.5374     25.2412
  1363.9000      7.8726      2.4614      0.0497     11.4290    161.8322     26.0660
  1364.0000      7.8963      2.4454      0.0490     12.4006    161.2469     26.9156
  1364.1000      7.8963      2.4353      0.0081     13.0100    151.9802     27.4292
  1364.2000      7.8963      2.4489      0.0354     12.1881    145.3635     27.3968
  1364.3000      7.9127      2.4882      0.1008      9.8074    141.1742     26.8127
  1364.4000      7.9127      2.5334      0.1056      7.0651    135.5646     25.6154
  1364.5000      7.9160      2.5681      0.1537      4.9657    132.7778     24.7377
  1364.6000      7.9160      2.5912      0.1220      3.5626    135.7759     25.1096
  1364.7000      7.9160      2.6106      0.1404      2.3898    137.7687     25.4370
  1364.8000      7.8892      2.6382      0.1314      0.7173    134.6637     24.5146
  1364.9000      7.8892      2.6725      0.2340     -1.3646    130.0565     23.2498
  1365.0000      7.8717      2.6875      0.1492     -2.2719    121.3574     22.5238
  1365.1000      7.8717      2.6657      0.1411     -0.9527    106.6244     22.2400
  1365.2000      7.8717      2.6220      0.0789      1.6984     94.0488     21.9475
  1365.3000      7.8828      2.5895      0.0343      3.6674     88.4752     21.6055
  1365.4000      7.8828      2.5827      0.0805      4.0761     88.4876     21.8926
  1365.5000      7.9163      2.5879      0.0666      3.7614     91.4397     22.6449
  1365.6000      7.9163      2.5953      0.0209      3.3153     92.3891     22.5563
  1365.7000      7.9163      2.5998      0.0735      3.0444     90.9125     21.5972
  1365.8000      7.9592      2.5881      0.0661      3.7539     89.1714     20.9461
  1365.9000      7.9592      2.5625     -0.0040      5.3008     85.0143     20.6344
  1366.0000      7.9617      2.5504      0.0000      6.0391     77.7859     20.1424
