~Version Information
VERS.                      2.0: CWLS Log ASCII Standard - VERSION 2.0
WRAP.                       NO: One line per depth step
~Well Information Block
STRT.FT               423.0000: 
STOP.FT              2306.0000: 
STEP.FT                 0.1000: 
NULL.                -999.2500: 
COMP.          Pioneer Natural Resources: COMPANY
WELL.             Culver 14-12: WELL
FLD.           Purgatoire River: FIELD
LOC.           913' FSL & 1140' FWL: LOCATION
PROV.                 Colorado: PROVINCE
CNTY.               Las Animas: COUNTRY
SRVC.                Patterson: SERVICE COMPANY
DATE.          Tue Jun 07 09:21:05 2005: LOG DATE
UWI.           05 071 08386 00: UNIQUE WELL ID
~Curve Information Block
DEPT.FT            0 000 00 00: Depth
DCAL.in                       : CDL Caliper
RHOB.g/cc                     : CDL Bulk Density
RHOC.g/cc                     : CDL Density Correction
DPOR.pu                       : CDL Density Porosity
GR.GAPI                       : Gamma Ray
NPOR.pu                       : Neutron Porosity
~Parameter Information Block
~A  Depth       DCAL        RHOB        RHOC        DPOR         GR         NPOR    
# ...
   672.6000      8.2305      2.5873      0.0707      3.7995    116.5669     26.2236
   672.7000      8.2305      2.5984      0.0510      3.1277    117.1877     26.0244
   672.8000      8.2300      2.5940      0.0501      3.3917    118.4763     25.7500
   672.9000      8.2300      2.5793      0.0284      4.2827    119.4868     25.5861
   673.0000      8.2331      2.5692      0.0567      4.8951    116.5323     25.5233
   673.1000      8.2331      2.5652      0.0405      5.1393    110.4571     25.3871
   673.2000      8.2331      2.5629      0.0486      5.2807    106.8370     25.2925
   673.3000      8.2319      2.5670      0.0113      5.0278    104.5080     25.4784
   673.4000      8.2319      2.5801      0.0432      4.2384    101.0086     25.6445
   673.5000      8.2193      2.5859      0.0903      3.8843     99.1894     25.3557
   673.6000      8.2193      2.5728      0.0671      4.6778     99.6223     24.6618
   673.7000      8.2193      2.5545      0.0189      5.7877     98.5163     23.7045
   673.8000      8.2146      2.5444      0.0071      6.3984     94.5606     22.5478
   673.9000      8.2146      2.5397     -0.0332      6.6873     90.2102     21.5501
   674.0000      8.2123      2.5341      0.0713      7.0226     86.9712     21.1781
   674.1000      8.2123      2.5265      0.0145      7.4820     83.1519     21.3652
   674.2000      8.2123      2.5268      0.0164      7.4684     78.5701     21.5072
   674.3000      8.2116      2.5296      0.0773      7.2959     77.8657     21.2986
   674.4000      8.2116      2.5179      0.0265      8.0043     82.2961     21.0756
   674.5000      8.2115      2.5027      0.0164      8.9286     86.1926     20.9922
   674.6000      8.2115      2.5067      0.0073      8.6879     85.2278     20.9311
   674.7000      8.2115      2.5328      0.0356      7.1052     82.2492     21.0946
   674.8000      8.2086      2.5636      0.0682      5.2339     80.3063     21.4054
   674.9000      8.2086      2.5761      0.0541      4.4759     75.6834     21.3382
   675.0000      8.2139      2.5621      0.0107      5.3287     66.9245     20.9468
   675.1000      8.2139      2.5338      0.0153      7.0398     60.0738     20.6171
   675.2000      8.2139      2.5019      0.0070      8.9773     59.5550     20.5705
   675.3000      8.2156      2.4736      0.0204     10.6897     63.3250     20.9617
   675.4000      8.2156      2.4520      0.0299     11.9991     67.3659     21.5858
   675.5000      8.2154      2.4382     -0.0253     12.8352     70.1556     21.8061
   675.6000      8.2154      2.4421     -0.0090     12.6020     71.7855     21.2898
   675.7000      8.2154      2.4614      0.0458     11.4296     71.3424     20.5523
   675.8000      8.2104      2.4803      0.0324     10.2853     69.2650     20.2532
   675.9000      8.2104      2.4875      0.0568      9.8480     67.6281     20.3348
   676.0000      8.2133      2.4842      0.0423     10.0509     69.2941     20.5709
   676.1000      8.2133      2.4813      0.0544     10.2254     75.4610     20.8781
   676.2000      8.2133      2.4815      0.0291     10.2142     79.0759     21.0207
   676.3000      8.2146      2.4743      0.0655     10.6509     73.6646     20.8911
   676.4000      8.2146      2.4512      0.0926     12.0464     64.5829     20.6577
   676.5000      8.2224      2.4253      0.0504     13.6203     59.2602     20.3426
   676.6000      8.2224      2.4188      0.0300     14.0122     58.6481     19.8450
   676.7000      8.2224      2.4389      0.0083     12.7966     60.4990     19.3816
   676.8000      8.2172      2.4753      0.0793     10.5888     62.9215     19.1384
   676.9000      8.2172      2.5072      0.0654      8.6568     65.1020     19.1627
   677.0000      8.2242      2.5145      0.0630      8.2116     66.4157     19.3828
   677.1000      8.2242      2.5012      0.0373      9.0199     66.5372     19.6907
   677.2000      8.2242      2.4939      0.0394      9.4631     65.8393     19.9659
   677.3000      8.2222      2.5027      0.0527      8.9294     64.1880     20.2202
   677.4000      8.2222      2.5160      0.0638      8.1225     63.1986     20.6971
   677.5000      8.2289      2.5274      0.0852      7.4305     66.8861     20.9703
   677.6000      8.2289      2.5381      0.0711      6.7791     72.3598     20.4874
   677.7000      8.2289      2.5526      0.0402      5.9001     71.9914     19.9448
   677.8000      8.2470      2.5745      0.0820      4.5745     66.3967     20.1679
   677.9000      8.2470      2.5962      0.0677      3.2595     61.5939     20.8077
   678.0000      8.2433      2.6045      0.0827      2.7585     59.6032     21.2077
   678.1000      8.2433      2.5923      0.0958      3.4947     58.5850     21.2286
   678.2000      8.2433      2.5678      0.0255      4.9790     59.6486     20.9389
   678.3000      8.2418      2.5466      0.0637      6.2689     66.0399     20.6261
   678.4000      8.2418      2.5358      0.0410      6.9200     73.1529     20.5902
   678.5000      8.2359      2.5359      0.0170      6.9126     73.4383     20.6766
   678.6000      8.2359      2.5438      0.0311      6.4343     68.8505     20.5184
   678.7000      8.2359      2.5466      0.0780      6.2649     66.4757     20.2514
   678.8000      8.2339      2.5218      0.0826      7.7685     69.2905     20.1359
   678.9000      8.2339      2.4708      0.0310     10.8629     73.6277     20.0145
   679.0000      8.2344      2.4277      0.0102     13.4728     75.9809     19.8324
   679.1000      8.2344      2.4130     -0.0264     14.3626     77.7774     19.5526
   679.2000      8.2344      2.4100      0.0338     14.5453     80.3201     19.0042
   679.3000      8.2328      2.4032     -0.0162     14.9581     81.8039     18.4806
   679.4000      8.2328      2.4050     -0.0068     14.8492     82.2221     18.3232
   679.5000      8.2335      2.4188      0.0453     14.0149     82.0175     18.3485
   679.6000      8.2335      2.4211      0.0674     13.8736     79.5757     18.3245
   679.7000      8.2335      2.3987      0.0507     15.2276     74.8025     18.2182
   679.8000      8.2304      2.3692     -0.0124     17.0170     69.3244     18.0347
   679.9000      8.2304      2.3573      0.0060     17.7403     65.5637     17.8203
   680.0000      8.2300      2.3671      0.0303     17.1483     63.7809     17.7224
   680.1000      8.2300      2.3922      0.0405     15.6261     61.1360     17.8062
   680.2000      8.2300      2.4238      0.0764     13.7107     56.7064     17.8282
   680.3000      8.2347      2.4426      0.0907     12.5680     55.0675     17.5819
   680.4000      8.2347      2.4359      0.0609     12.9731     58.6902     17.2321
   680.5000      8.2435      2.4093      0.0667     14.5876     61.8610     17.0039
   680.6000      8.2435      2.3767      0.0221     16.5653     62.1290     16.8487
   680.7000      8.2435      2.3556      0.0331     17.8419     62.6268     16.6644
   680.8000      8.2504      2.3574      0.0713     17.7320     62.7123     16.3995
   680.9000      8.2504      2.3809      0.0349     16.3089     60.2731     15.9248
   681.0000      8.2563      2.4146      0.0869     14.2637     57.4974     15.3148
   681.1000      8.2563      2.4410      0.0948     12.6684     57.5810     14.8598
   681.2000      8.2563      2.4474      0.0814     12.2785     58.3378     14.7139
   681.3000      8.2846      2.4389      0.0795     12.7929     56.6921     14.7035
   681.4000      8.2846      2.4272      0.0592     13.5056     54.2244     14.7583
   681.5000      8.3150      2.4179      0.0908     14.0678     52.2477     14.9675
   681.6000      8.3150      2.4191      0.0515     13.9965     50.8619     15.2690
   681.7000      8.3150      2.4394      0.0984     12.7617     51.0722     15.4380
   681.8000      8.3225      2.4617      0.1289     11.4143     53.3616     15.2258
   681.9000      8.3225      2.4554      0.1457     11.7958     55.2518     14.8467
   682.0000      8.3283      2.4206      0.0871     13.9059     54.6142     14.8281
   682.1000      8.3283      2.3861      0.0678     15.9963     53.6112     15.2172
