~Version Information
VERS.                      2.0: CWLS Log ASCII Standard - VERSION 2.0
WRAP.                       NO: One line per depth step
~Well Information Block
STRT.FT               -19.5000: 
STOP.FT              2456.0000: 
STEP.FT                 0.2500: 
NULL.                -999.2500: 
COMP.          Petrogulf Corporation: COMPANY
WELL.           Montoya 12-44V: WELL
FLD.           Purgatorie River: FIELD
LOC.           698' FSL & 599' FEL: LOCATION
CNTY.               Las Animas: COUNTY
SRVC.                         : SERVICE COMPANY
DATE.          Mon Sep 13 13:44:10 2004: LOG DATE
UWI.           05-071-08094-00: UNIQUE WELL ID
STAT.                 Colorado: STATE
~Curve Information Block
DEPT.FT            0 000 00 00: Depth
TT3.usec                      : CBL 3' Travel Time
AMP3.mV                       : CBL 3' Amplitude
GR.GAPI                       : Gamma Ray
CCL.                          : Casing Collar Locator
~Parameter Information Block
~A  Depth       TT3         AMP3         GR         CCL     
# ...
  1119.5000    333.5304     17.6786    133.2323      0.0000
  1119.7500    333.6237     17.3081    133.4802      0.0000
  1120.0000    333.7870     16.9678    133.4190      0.0000
  1120.2500    334.0010     16.5684    132.7183      0.0000
  1120.5000    334.2207     16.0631    131.2479      0.0000
  1120.7500    334.4135     15.4386    129.6485      0.0000
  1121.0000    334.5877     14.7366    129.3455      0.0000
  1121.2500    334.7870     14.0414    131.5150      0.0000
  1121.5000    335.0361     13.4125    135.9989      0.0000
  1121.7500    335.3312     12.8453    141.4276      0.0000
  1122.0000    335.6362     12.2983    146.3116      0.0000
  1122.2500    335.9060     11.7260    149.7354      0.0000
  1122.5000    336.1913     11.0931    151.2010      0.0000
  1122.7500    336.6368     10.4132    150.5132      0.0000
  1123.0000    337.3438      9.7621    148.0205      0.0000
  1123.2500    338.5977      9.2057    144.5400      0.0000
  1123.5000    342.2647      8.7162    140.8555      0.0000
  1123.7500    353.6273      8.1952    137.4929      0.0000
  1124.0000    378.3585      7.6114    134.8862      0.0000
  1124.2500    410.1731      7.0642    133.3036      0.0000
  1124.5000    426.2503      6.6602    132.4054      0.0000
  1124.7500    411.8348      6.3948    131.1111      0.0000
  1125.0000    381.1850      6.1944    128.2467      0.0000
  1125.2500    357.3333      6.0151    123.5366      0.0000
  1125.5000    347.7403      5.8582    118.0386      0.0000
  1125.7500    348.8660      5.7141    113.5165      0.0000
  1126.0000    356.8696      5.5439    111.2328      0.0000
  1126.2500    367.7962      5.3256    111.2091      0.0000
  1126.5000    376.8602      5.0721    112.5544      0.0000
  1126.7500    381.7341      4.8110    114.4832      0.0000
  1127.0000    383.4279      4.5776    117.0233      0.0000
  1127.2500    383.7126      4.4187    120.6889      0.0000
  1127.5000    383.3202      4.3805    125.4907      0.0000
  1127.7500    381.6467      4.4853    130.4421      0.0000
  1128.0000    376.9307      4.7155    134.0505      0.0000
  1128.2500    367.8340      5.0219    135.1759      0.0000
  1128.5000    356.3072      5.3464    133.5545      0.0000
  1128.7500    346.7403      5.6553    129.9362      0.0000
  1129.0000    341.2542      5.9645    126.0489      0.0000
  1129.2500    338.6053      6.3164    124.0413      0.0000
  1129.5000    336.9966      6.7533    125.0991      0.0000
  1129.7500    335.5789      7.3386    128.3306      0.0000
  1130.0000    334.2097      8.1547    131.4702      0.0000
  1130.2500    333.0629      9.2203    132.8325      0.0000
  1130.5000    332.3058     10.4096    132.3926      0.0000
  1130.7500    331.9311     11.5060    131.2195      0.0000
  1131.0000    331.8631     12.3639    130.4099      0.0000
  1131.2500    332.0025     13.0034    130.5070      0.0000
  1131.5000    332.1579     13.5529    131.4896      0.0000
  1131.7500    332.1857     14.1194    133.2260      0.0000
  1132.0000    332.1464     14.7263    135.9305      0.0000
  1132.2500    332.1880     15.3572    139.8756      0.0000
  1132.5000    332.3669     15.9813    144.5048      0.0000
  1132.7500    332.5980     16.5365    148.1480      0.0000
  1133.0000    332.7367     16.9803    148.9372      0.0000
  1133.2500    332.7423     17.3579    146.1898      0.0000
  1133.5000    332.7253     17.7214    141.1375      0.0000
  1133.7500    332.7859     18.0303    136.3366      0.0000
  1134.0000    332.8906     18.2331    133.9441      0.0000
  1134.2500    332.9641     18.3528    134.2123      0.0000
  1134.5000    332.9935     18.4053    135.6369      0.0000
  1134.7500    333.0077     18.3343    136.5453      0.0000
  1135.0000    333.0447     18.0692    136.4661      0.0000
  1135.2500    333.1551     17.5687    136.0273      0.0000
  1135.5000    333.3747     16.8457    135.7871      0.0000
  1135.7500    333.6701     16.0123    135.4895      0.0000
  1136.0000    333.9640     15.2303    134.7321      0.0000
  1136.2500    334.2130     14.5707    134.1021      0.0000
  1136.5000    334.4113     13.9854    134.9774      0.0000
  1136.7500    334.5789     13.4152    137.9994      0.0000
  1137.0000    334.7476     12.8407    142.1365      0.0000
  1137.2500    334.9476     12.2539    145.4549      0.0000
  1137.5000    335.5003     11.6646    146.6585      0.0000
  1137.7500    338.0276     11.0864    146.0095      0.0000
  1138.0000    347.5415     10.4575    145.1241      0.0000
  1138.2500    374.5486      9.6463    145.7489      0.0000
  1138.5000    432.6223      8.5964    148.3165      0.0000
  1138.7500    525.1884      7.4096    151.6553      0.0000
  1139.0000    630.4575      6.2443    154.2431      0.0000
  1139.2500    713.2438      5.1934    155.6122      0.0000
  1139.5000    757.4449      4.2820    156.3821      0.0000
  1139.7500    773.1300      3.5472    156.9431      0.0000
  1140.0000    777.6808      3.0707    156.2796      0.0000
  1140.2500    785.4966      2.8468    152.3655      0.0000
  1140.5000    806.9063      2.7069    143.9644      0.0000
  1140.7500    838.7117      2.5535    132.0915      0.0000
  1141.0000    860.2822      2.5129    119.6154      0.0000
  1141.2500    858.0061      2.7241    109.3992      0.0000
  1141.5000    842.2316      3.1859    102.6667      1.6617
  1141.7500    821.7109      3.8223     98.5315      2.6688
  1142.0000    787.0172      4.5256     94.5072      0.0000
  1142.2500    740.1533      5.1345     87.9207      0.0000
  1142.5000    709.1194      5.5176     77.8441      0.0000
  1142.7500    701.8576      5.7504     65.9014      0.0000
  1143.0000    691.4492      5.9844     54.9869      0.0000
  1143.2500    675.6420      6.1221     47.3040      0.0000
  1143.5000    672.3029      6.0272     43.5095      0.0000
  1143.7500    665.6931      5.8914     42.8910      0.0000
  1144.0000    632.6706      5.9797     43.8768      0.0000
  1144.2500    570.9415      6.3564     44.9471      0.0000
  1144.5000    488.0165      6.9823     45.6355      0.0000
  1144.7500    408.6109      7.7368     46.6566      0.0000
  1145.0000    358.9033      8.4092     49.0919      0.0000
  1145.2500    338.9259      8.8735     53.5554      0.0000
  1145.5000    333.6654      9.2070     59.7043      0.0000
  1145.7500    332.6443      9.5596     66.0244      0.0000
  1146.0000    332.3375      9.9758     70.1987      0.0000
  1146.2500    332.1390     10.4300     70.2657      0.0000
  1146.5000    332.0065     10.9790     65.9119      0.0000
  1146.7500    331.8895     11.7517     58.9213      0.0000
  1147.0000    331.7358     12.7682     52.3787      0.0000
  1147.2500    331.5441     13.8806     49.3286      0.0000
  1147.5000    331.3107     14.9396     51.9236      0.0000
  1147.7500    331.0447     15.9058     61.0870      0.0000
  1148.0000    330.8488     16.7955     76.1360      0.0000
  1148.2500    330.7827     17.6352     94.5475      0.0000
  1148.5000    330.5747     18.4056    112.5292      0.0000
  1148.7500    329.3011     19.0190    126.4826      0.0000
  1149.0000    325.2403     19.4743    134.6888      0.0000
  1149.2500    317.2293     19.9448    137.8962      0.0000
  1149.5000    307.1034     20.5748    137.9980      0.0000
  1149.7500    298.8594     21.2504    136.3350      0.0000
  1150.0000    294.6011     21.6964    133.8551      0.0000
  1150.2500    293.5661     21.7706    132.3936      0.0000
  1150.5000    294.9031     21.5400    134.1983      0.0000
  1150.7500    299.4034     21.1270    139.5894      0.0000
  1151.0000    307.8458     20.6133    146.1055      0.0000
  1151.2500    318.1483     20.0456    150.8321      0.0000
  1151.5000    326.3286     19.4440    153.0138      0.0000
  1151.7500    330.5850     18.8286    153.8516      0.0000
  1152.0000    332.0876     18.2486    154.5967      0.0000
  1152.2500    332.5013     17.7391    155.7145      0.0000
  1152.5000    332.6210     17.2578    157.2851      0.0000
  1152.7500    332.6242     16.7463    159.1229      0.0000
