~Version Information
 VERS.                                  2.0 : CWLS LAS VERSION
 WRAP.                                   NO : WRAPING MODE
 SWARE .                 MController 2.5.0J : SOFTWARE VERSION
~Well Information
 WELL.                        Desoto 13-7TR : WELL
 COMP.        Pioneer Natural Resources Inc : COMPANY
 FLD.                      Purgatoire River : FIELD
 LOC.                 NW/SW Sec 7 T32S R66W : LOCATION
 DATE.                           1/13-14/05 : DATE(S) LOGGED
 SRVC.       Blanco Geological Services LLC : SERVICE COMPANY
 STAT.                                   CO : STATE
 CNTY.                           Las Animas : COUNTY
 CTRY.                                  USA : COUNTRY
 API.                          05-071-08216 : API NUMBER
 STRT.FT                             945.00 : START DEPTH
 STOP.FT                            2785.00 : STOP DEPTH
 STEP.FT                               1.00 : DEPTH INCREMENT
 NULL.                                -9999 : NULL VALUE
~Curve information
 DEPTH.FT                                   :
 ROP.MIN/FT                                 :
 GAS.UNITS                                  :
~ASCII Log data
# ...
      1945.0         0.43        201.9 
      1946.0         0.43        208.8 
      1947.0         0.27        207.4 
      1948.0         0.30        204.7 
      1949.0         0.27        199.0 
      1950.0         0.27        197.5 
      1951.0         0.32        192.7 
      1952.0         0.23        187.5 
      1953.0         0.27        187.5 
      1954.0         0.27        186.4 
      1955.0         0.23        185.5 
      1956.0         0.23        183.7 
      1957.0         0.23        178.1 
      1958.0         0.20        176.8 
      1959.0         0.23        176.2 
      1960.0         0.20        175.1 
      1961.0         0.23        170.5 
      1962.0         0.33        172.5 
      1963.0         0.30        470.6 
      1964.0         0.25        470.6 
      1965.0         0.23        465.1 
      1966.0         0.27        450.3 
      1967.0         0.37        422.0 
      1968.0         0.20        415.1 
      1969.0         0.20        376.8 
      1970.0         0.23        358.9 
      1971.0         0.23        316.6 
      1972.0         0.23        273.5 
      1973.0         0.23        268.8 
      1974.0         0.27        240.2 
      1975.0         0.27        222.5 
      1976.0         0.27        217.7 
      1977.0         0.37        216.9 
      1978.0         0.20        216.0 
      1979.0         0.23        214.9 
      1980.0         0.35        206.2 
      1981.0         0.30        200.9 
      1982.0         0.33        196.6 
      1983.0         0.30        190.4 
      1984.0         0.23        186.3 
      1985.0         0.30        180.2 
      1986.0         0.27        177.7 
      1987.0         0.27        175.3 
      1988.0         0.23        174.4 
      1989.0         0.23        167.0 
      1990.0         0.27        166.3 
      1991.0         0.23        171.4 
      1992.0         0.23        178.2 
      1993.0         0.28        886.7 
      1994.0         0.23        805.2 
      1995.0         0.33        757.2 
      1996.0         0.20        659.3 
      1997.0         0.20        636.6 
      1998.0         0.23        632.1 
      1999.0         0.23        627.0 
      2000.0         0.27        603.3 
      2001.0         0.23        579.7 
      2002.0         0.27        526.6 
      2003.0         0.23        498.8 
      2004.0         0.30        447.3 
      2005.0         0.30        227.7 
      2006.0         0.40        221.6 
      2007.0         0.30        215.4 
      2008.0         0.40        212.7 
      2009.0         0.33        205.9 
      2010.0         0.33        194.0 
      2011.0         0.17        193.0 
      2012.0         0.23        190.8 
      2013.0         0.27        187.7 
      2014.0         0.33        186.1 
      2015.0         0.28        183.5 
      2016.0         0.27        177.6 
      2017.0         0.23        175.3 
      2018.0         0.27        176.2 
      2019.0         0.30        178.0 
      2020.0         0.30        179.1 
      2021.0         0.30        194.2 
      2022.0         0.33        203.4 
      2023.0         0.20       1706.7 
      2024.0         0.20        694.8 
      2025.0         0.20        588.9 
      2026.0         0.23        576.8 
      2027.0         0.23        447.6 
      2028.0         0.25        440.0 
      2029.0         0.20        223.1 
      2030.0         0.23        220.5 
      2031.0         0.23        203.7 
      2032.0         0.27        200.8 
      2033.0         0.27        202.3 
      2034.0         0.23        211.1 
      2035.0         6.17        218.6 
      2036.0         0.17        227.1 
      2037.0         0.27        226.1 
      2038.0         0.30        199.7 
      2039.0         0.23        184.6 
      2040.0         0.33        190.6 
      2041.0         0.30        184.7 
      2042.0         0.37        182.4 
      2043.0         0.30        162.8 
      2044.0         0.35        164.3 
      2045.0         0.40        168.5 
      2046.0         0.37        171.5 
      2047.0         0.37        177.2 
      2048.0         0.33        178.2 
      2049.0         0.37        177.8 
      2050.0         0.33        176.0 
      2051.0         0.37        174.5 
      2052.0         0.40        174.0 
      2053.0         0.38        175.6 
      2054.0         0.37        176.2 
      2055.0         0.40        178.9 
      2056.0         0.37        173.8 
      2057.0         0.33        201.4 
      2058.0         0.40        256.1 
      2059.0         0.37        268.1 
      2060.0         0.37        278.3 
      2061.0         0.37        295.0 
      2062.0         0.35        308.4 
      2063.0         0.33        311.4 
      2064.0         0.23        310.1 
      2065.0         0.25        289.7 
      2066.0         0.27        288.8 
      2067.0         0.23        289.8 
      2068.0         0.27        295.5 
      2069.0         0.30        300.9 
      2070.0         0.23        305.8 
      2071.0         0.20        305.8 
      2072.0         0.30        292.9 
      2073.0         0.23        273.6 
      2074.0         0.27        270.5 
      2075.0         0.37        269.9 
      2076.0         0.33        262.5 
      2077.0         0.38        250.1 
      2078.0         0.27        231.1 
      2079.0         0.47        222.3 
      2080.0         0.50        211.8 
      2081.0         0.23        202.3 
      2082.0         0.37        201.2 
      2083.0         0.33        189.1 
      2084.0         0.33        184.8 
      2085.0         0.40        213.5 
      2086.0         0.32          0.8 
      2087.0         0.27          1.0 
      2088.0         0.27          1.5 
      2089.0         0.27          0.5 
      2090.0         0.27          0.9 
      2091.0         0.23          0.9 
      2092.0         0.20          1.4 
      2093.0         0.23          4.4 
      2094.0         0.27         15.7 
      2095.0         0.23        110.8 
      2096.0         0.23        152.6 
      2097.0         0.30        196.3 
      2098.0         0.43        213.8 
      2099.0         0.37        215.2 
      2100.0         0.40        215.0 
      2101.0         0.30        210.4 
      2102.0         0.27        206.9 
      2103.0         0.27        203.7 
      2104.0         0.32        199.5 
      2105.0         0.30        197.3 
      2106.0         0.27        193.7 
      2107.0         0.27        193.1 
      2108.0         0.27        191.6 
      2109.0         0.30        190.4 
      2110.0         0.30        187.1 
      2111.0         0.33        186.7 
      2112.0         0.33        182.1 
      2113.0         0.30        179.6 
      2114.0         0.33        182.0 
      2115.0         0.32        185.2 
      2116.0         0.27        313.6 
      2117.0         0.33         63.3 
      2118.0         0.30        165.4 
      2119.0         0.33        242.5 
      2120.0         0.33        301.4 
      2121.0         0.33        319.3 
      2122.0         0.37        320.1 
      2123.0         0.37        296.2 
      2124.0         0.37        275.1 
      2125.0         0.28        258.3 
      2126.0         0.33        261.4 
      2127.0         0.37        261.4 
      2128.0         0.40        246.7 
      2129.0         0.33        234.1 
      2130.0         0.33        230.0 
      2131.0         0.38        222.7 
      2132.0         0.27        212.6 
      2133.0         0.30        207.9 
      2134.0         0.27        201.9 
      2135.0         0.30        194.7 
      2136.0         0.30        186.6 
      2137.0         0.27        176.5 
      2138.0         0.37        174.4 
      2139.0         0.43        179.8 
      2140.0         0.30        181.5 
      2141.0         0.20        179.6 
      2142.0         0.32        179.4 
      2143.0         0.20        230.0 
      2144.0         0.20        257.8 
