~Version Information
VERS.                      2.0: CWLS Log ASCII Standard - VERSION 2.0
WRAP.                       NO: One line per depth step
~Well Information Block
STRT.FT               954.4000: 
STOP.FT              2380.0000: 
STEP.FT                 0.1000: 
NULL.                -999.2500: 
COMP.          Petrogulf Corporation: COMPANY
WELL.             State 16-24V: WELL
FLD.           Purgatorie River: FIELD
LOC.           481' FSL & 2419' FWL: LOCATION
CNTY.               Las Animas: COUNTY
SRVC.                         : SERVICE COMPANY
DATE.          Tue May 04 07:31:25 2004: LOG DATE
UWI.           05 071 08014 00: UNIQUE WELL ID
STAT.                 Colorado: STATE
~Curve Information Block
DEPT.FT            0 000 00 00: Depth
DCAL.in                       : CDL Caliper
RHOB.g/cc                     : CDL Bulk Density
RHOC.g/cc                     : CDL Density Correction
DPOR.pu                       : CDL Density Porosity
GR.GAPI                       : Gamma Ray
~Parameter Information Block
~A  Depth       DCAL        RHOB        RHOC        DPOR         GR     
# ...
  1895.2000      7.7946      2.6062      0.3338      2.6532     94.0731
  1895.3000      7.7563      2.6185      0.2063      1.9113     76.5919
  1895.4000      7.7563      2.6457      0.3305      0.2598     60.4742
  1895.5000      7.7275      2.6762      0.2906     -1.5906     59.7909
  1895.6000      7.7275      2.6834      0.2181     -2.0217     77.6653
  1895.7000      7.7275      2.6642      0.2348     -0.8607    102.0381
  1895.8000      7.7270      2.6161      0.3068      2.0575    119.9570
  1895.9000      7.7270      2.5458      0.1163      6.3177    128.6112
  1896.0000      7.8607      2.4920      0.0908      9.5756    128.1827
  1896.1000      7.8607      2.4730      0.1080     10.7288    122.5471
  1896.2000      7.8607      2.4727     -0.0030     10.7480    116.6948
  1896.3000      7.8897      2.4785      0.1465     10.3925    107.8640
  1896.4000      7.8897      2.4738      0.1496     10.6798     96.9685
  1896.5000      7.8801      2.4434      0.0757     12.5239     91.6673
  1896.6000      7.8801      2.4007      0.0169     15.1092     93.2650
  1896.7000      7.8801      2.3651      0.1081     17.2682    104.0215
  1896.8000      7.9039      2.3335      0.0357     19.1792    121.6209
  1896.9000      7.9039      2.3084     -0.0257     20.7004    134.0795
  1897.0000      7.9128      2.3050      0.0066     20.9072    137.7229
  1897.1000      7.9128      2.3458      0.0017     18.4350    140.3743
  1897.2000      7.9128      2.4304      0.1053     13.3073    143.9621
  1897.3000      7.9437      2.5012      0.2039      9.0201    143.4584
  1897.4000      7.9437      2.5128      0.1566      8.3133    138.6350
  1897.5000      7.9349      2.4940      0.0751      9.4567    135.2584
  1897.6000      7.9349      2.4716      0.1549     10.8149    139.8534
  1897.7000      7.9349      2.4318      0.1112     13.2230    146.5932
  1897.8000      7.9258      2.3899      0.0334     15.7622    147.7655
  1897.9000      7.9258      2.3802      0.0542     16.3528    147.0378
  1898.0000      7.8937      2.3985      0.1051     15.2439    149.4005
  1898.1000      7.8937      2.4130      0.0852     14.3622    155.9734
  1898.2000      7.8937      2.4070      0.0669     14.7279    164.9770
  1898.3000      7.8983      2.3928      0.0743     15.5888    168.0155
  1898.4000      7.8983      2.3925     -0.0310     15.6074    159.4160
  1898.5000      7.9209      2.4059      0.1051     14.7966    147.3238
  1898.6000      7.9209      2.4018      0.0689     15.0432    135.2341
  1898.7000      7.9209      2.3615      0.1156     17.4842    123.8060
  1898.8000      7.9181      2.2984      0.0423     21.3086    120.2056
  1898.9000      7.9181      2.2241      0.0486     25.8104    125.7299
  1899.0000      7.9168      2.1302     -0.0022     31.5016    132.4159
  1899.1000      7.9168      2.0096     -0.0831     38.8098    135.8259
  1899.2000      7.9168      1.8642     -0.0158     47.6257    139.8518
  1899.3000      7.9147      1.7074     -0.0616     57.1255    141.9495
  1899.4000      7.9147      1.5699     -0.0231     65.4626    138.5520
  1899.5000      7.9246      1.4684     -0.0167     71.6116    135.1001
  1899.6000      7.9246      1.4017     -0.0526     75.6558    127.9260
  1899.7000      7.9246      1.3783     -0.0516     77.0697    111.5632
  1899.8000      7.9005      1.3970      0.1650     75.9390     94.4557
  1899.9000      7.9005      1.4238      0.2536     74.3166     87.7226
  1900.0000      7.8980      1.4280      0.2291     74.0576     91.1461
  1900.1000      7.8980      1.4087      0.1802     75.2287     95.1057
  1900.2000      7.8980      1.3726      0.2077     77.4178     91.8086
  1900.3000      7.9712      1.3199      0.1406     80.6143     80.4408
  1900.4000      7.9712      1.2658      0.1001     83.8936     68.9265
  1900.5000      7.9565      1.2447      0.0099     85.1702     67.8514
  1900.6000      7.9565      1.2722      0.1116     83.5040     74.9872
  1900.7000      7.9565      1.3199      0.1880     80.6139     76.2801
  1900.8000      8.0077      1.3542      0.1595     78.5353     65.0922
  1900.9000      8.0077      1.3739      0.1862     77.3409     52.5361
  1901.0000      8.0313      1.3948      0.3068     76.0735     49.7675
  1901.1000      8.0313      1.4225      0.3392     74.3944     50.3866
  1901.2000      8.0313      1.4491      0.3284     72.7829     42.9221
  1901.3000      8.0453      1.4599      0.3214     72.1281     33.4594
  1901.4000      8.0453      1.4420      0.3384     73.2122     33.9468
  1901.5000      8.1721      1.4032      0.1812     75.5651     43.2820
  1901.6000      8.1721      1.3704      0.1483     77.5503     57.5416
  1901.7000      8.1721      1.3537      0.1411     78.5633     72.6010
  1901.8000      8.3328      1.3463      0.0707     79.0127     77.9031
  1901.9000      8.3328      1.3491      0.0432     78.8437     72.5451
  1902.0000      8.3953      1.3668      0.0420     77.7682     69.0476
  1902.1000      8.3953      1.3951      0.1068     76.0546     68.3868
  1902.2000      8.3953      1.4214      0.1722     74.4585     65.8832
  1902.3000      8.2739      1.4485      0.1126     72.8210     65.1751
  1902.4000      8.2739      1.4868      0.1709     70.4976     65.9654
  1902.5000      8.0732      1.5206      0.2290     68.4469     65.0183
  1902.6000      8.0732      1.5294      0.2236     67.9137     61.2689
  1902.7000      8.0732      1.5296      0.0739     67.9040     55.3223
  1902.8000      7.9785      1.5468      0.1695     66.8623     52.7567
  1902.9000      7.9785      1.5794      0.0902     64.8855     60.0073
  1903.0000      8.0340      1.6253      0.0620     62.1024     75.3262
  1903.1000      8.0340      1.6720      0.2210     59.2704     87.4709
  1903.2000      8.0340      1.6843      0.1971     58.5248     93.1549
  1903.3000      7.9852      1.6600      0.1019     60.0001     97.1029
  1903.4000      7.9852      1.6324      0.0874     61.6715     95.9210
  1903.5000      7.9525      1.6291      0.1281     61.8723     87.6606
  1903.6000      7.9525      1.6646      0.1493     59.7231     83.2050
  1903.7000      7.9525      1.7280      0.2085     55.8800     93.5643
  1903.8000      7.9448      1.7915      0.1922     52.0312    112.9466
  1903.9000      7.9448      1.8486      0.2373     48.5673    127.4743
  1904.0000      7.8964      1.9110      0.2159     44.7895    127.1560
  1904.1000      7.8964      1.9869      0.2163     40.1898    116.5329
  1904.2000      7.8964      2.0750      0.1817     34.8488    111.4111
  1904.3000      7.9405      2.1678      0.2132     29.2258    109.6987
  1904.4000      7.9405      2.2620      0.1663     23.5170    101.7399
  1904.5000      8.0741      2.3469      0.2608     18.3686     96.2104
  1904.6000      8.0741      2.4000      0.1272     15.1532    101.5858
  1904.7000      8.0741      2.4225      0.0333     13.7896    112.0345
  1904.8000      8.0046      2.4357      0.0711     12.9882    122.3028
  1904.9000      8.0046      2.4538      0.0449     11.8936    130.9999
  1905.0000      7.8814      2.4699      0.1236     10.9155    134.8630
  1905.1000      7.8814      2.4686      0.0844     10.9933    130.2132
  1905.2000      7.8814      2.4576      0.1175     11.6576    119.2035
  1905.3000      7.8666      2.4432      0.1488     12.5326    110.8261
  1905.4000      7.8666      2.4283     -0.0244     13.4365    112.2969
  1905.5000      7.8654      2.4254      0.0863     13.6129    118.2578
  1905.6000      7.8654      2.4139      0.1153     14.3064    119.1688
  1905.7000      7.8654      2.3734      0.0904     16.7648    117.6522
  1905.8000      7.8771      2.3406     -0.0809     18.7525    117.7594
  1905.9000      7.8771      2.3446      0.1214     18.5105    116.6072
  1906.0000      7.8798      2.3604      0.0969     17.5518    113.1029
  1906.1000      7.8798      2.3784      0.0671     16.4580    108.1279
  1906.2000      7.8798      2.4080      0.1552     14.6679    104.2602
  1906.3000      7.8755      2.4273      0.2224     13.4980    105.4392
