~Version Information
VERS.                      2.0: CWLS Log ASCII Standard - VERSION 2.0
WRAP.                       NO: One line per depth step
~Well Information Block
STRT.FT                -8.2500: 
STOP.FT               836.2500: 
STEP.FT                 0.2500: 
NULL.                -999.2500: 
COMP.          Pioneer Natural Res.: COMPANY
WELL.            Hustler 12-17: WELL
FLD.           Purgatorie River: FIELD
LOC.           2150' FNL & 450' FWL----------: LOCATION
PROV.                       CO: PROVINCE
CNTY.               Las Animas: COUNTRY
SRVC.                Patterson: SERVICE COMPANY
DATE.          Wed Dec 29 13:37:10 2004: LOG DATE
UWI.           05 071 08236 00: UNIQUE WELL ID
~Curve Information Block
DEPT.FT            0 000 00 00: Depth
AMP3.mV                       : CBL 3' Amplitude
CCL.                          : Casing Collar Locator
GR.GAPI                       : Gamma Ray
TT3.usec                      : CBL 3' Travel Time
~Parameter Information Block
~A  Depth       AMP3        CCL          GR         TT3     
# ...
   192.7500      8.0453      0.0000     70.2803    970.6126
   193.0000      8.7561      0.0000     69.8095    953.2638
   193.2500      9.1367      0.0000     70.8742    941.7827
   193.5000      9.1856      0.0000     73.5595    940.3774
   193.7500      9.0327      0.0000     76.4212    950.1863
   194.0000      8.8113      0.0000     77.6291    966.6674
   194.2500      8.6055      0.0000     76.4643    979.7756
   194.5000      8.4675      0.0000     73.6685    979.8487
   194.7500      8.4181      0.0000     70.5028    964.6380
   195.0000      8.4287      0.0000     67.7468    940.8192
   195.2500      8.4363      0.0000     65.6557    918.3427
   195.5000      8.3935      0.0000     64.5026    902.4185
   195.7500      8.3047      0.0000     64.6570    890.9144
   196.0000      8.2128      0.0000     65.9922    879.4704
   196.2500      8.1568      0.0000     67.4689    867.2930
   196.5000      8.1431      0.0000     67.7454    856.8951
   196.7500      8.1435      0.0000     66.4390    850.1924
   197.0000      8.1145      0.0000     64.5875    846.7984
   197.2500      8.0300      0.0000     63.5360    845.2386
   197.5000      7.9097      0.0000     63.5067    844.3585
   197.7500      7.8055      0.0000     63.6098    843.6054
   198.0000      7.7519      0.0000     63.0394    842.6822
   198.2500      7.7333      0.0000     61.8720    841.2032
   198.5000      7.7059      0.0000     60.9316    838.5995
   198.7500      7.6462      0.0000     61.2476    834.5214
   199.0000      7.5756      0.0000     63.3512    829.5060
   199.2500      7.5396      0.0000     66.7060    824.9379
   199.5000      7.5619      0.0000     69.9975    821.6446
   199.7500      7.6223      0.0000     72.2746    818.5062
   200.0000      7.6863      0.0000     73.6761    813.2095
   200.2500      7.7602      0.0000     74.8111    804.8289
   200.5000      7.9062      0.0000     75.6757    795.4374
   200.7500      8.1897      0.0000     75.6097    788.9752
   201.0000      8.6024      0.0000     74.2211    788.4003
   201.2500      9.0428      0.0000     71.9108    793.5743
   201.5000      9.3871      0.0000     69.3709    801.6614
   201.7500      9.5839      0.0000     67.0008    809.5961
   202.0000      9.6754      0.0000     65.1939    816.1698
   202.2500      9.7383      0.0000     64.8081    821.6927
   202.5000      9.8248      0.0000     66.5769    826.1407
   202.7500      9.9642      0.0000     69.9613    828.4509
   203.0000     10.1977      0.0000     73.1731    827.6636
   203.2500     10.5774      0.0000     74.6117    823.9869
   203.5000     11.1076      0.0000     73.9969    818.5477
   203.7500     11.6828      0.0000     72.0186    812.6978
   204.0000     12.1159      0.0000     69.3457    807.6987
   204.2500     12.2625      0.0000     66.3977    804.5528
   204.5000     12.1244      0.0000     63.8221    803.7509
   204.7500     11.8236      0.0000     62.5060    805.1113
   205.0000     11.4914      0.0000     62.8398    807.7237
   205.2500     11.2007      0.0000     64.3682    810.1059
   205.5000     10.9795      0.0000     66.3610    810.8134
   205.7500     10.8432      0.0000     68.3589    809.2528
   206.0000     10.7916      0.0000     70.1012    806.0746
   206.2500     10.7768      0.0000     71.4608    802.7811
   206.5000     10.6878      0.0000     72.5492    800.9261
   206.7500     10.4053      0.0000     73.4422    801.5715
   207.0000      9.9016      0.0000     73.7460    805.1188
   207.2500      9.2844      0.0000     72.8915    810.9900
   207.5000      8.7265      0.0000     71.0519    817.3457
   207.7500      8.3522      0.0000     69.4783    821.7733
   208.0000      8.1789      0.0000     69.6693    822.8094
   208.2500      8.1435      0.0000     72.2898    820.8044
   208.5000      8.1707      0.0000     76.8273    817.4678
   208.7500      8.2277      0.0000     81.9830    814.9931
   209.0000      8.3236      0.0000     86.3843    815.2454
   209.2500      8.4643      0.0000     89.2366    818.7126
   209.5000      8.6269      0.0000     90.5260    823.8779
   209.7500      8.7817      0.0000     90.7270    828.2245
   210.0000      8.9178      0.0000     90.4955    830.1603
   210.2500      9.0371      0.0000     90.5539    829.6530
   210.5000      9.1402      0.0000     91.5867    827.2511
   210.7500      9.2268      0.0000     94.2493    823.5333
   211.0000      9.2980      0.0000     99.3954    819.7814
   211.2500      9.3506      0.0000    107.7995    817.9710
   211.5000      9.3716      0.0000    118.9691    819.1919
   211.7500      9.3364      0.0000    130.3533    822.5873
   212.0000      9.2198      0.0000    138.3217    826.4805
   212.2500      9.0233      0.0000    140.2924    830.0685
   212.5000      8.7893      0.0000    136.2767    833.4470
   212.7500      8.5696      0.0000    128.7595    836.5115
   213.0000      8.3780      0.0000    120.9649    838.6393
   213.2500      8.1916      0.0000    114.7607    839.3038
   213.5000      7.9981      0.0000    110.0780    838.4412
   213.7500      7.8263      0.0000    106.1746    836.2853
   214.0000      7.7246      0.0000    102.9562    833.3456
   214.2500      7.7131      0.0000    100.9633    830.6585
   214.5000      7.7607      0.0000    100.6720    829.5256
   214.7500      7.8106      0.0000    102.1113    830.5089
   215.0000      7.8301      0.0000    104.8912    832.8365
   215.2500      7.8305      0.0000    108.2612    835.1070
   215.5000      7.8349      0.0000    111.1159    836.4022
   215.7500      7.8380      0.0000    112.1450    836.5137
   216.0000      7.8112      0.0000    110.4411    835.3444
   216.2500      7.7408      0.0000    106.2860    832.4753
   216.5000      7.6407      0.0000    101.2049    827.5096
   216.7500      7.5276      0.0000     97.0266    820.9442
   217.0000      7.4023      0.0000     94.9288    814.5085
   217.2500      7.2669      0.0000     95.2124    810.1125
   217.5000      7.1379      0.0000     97.4667    808.1915
   217.7500      7.0247      0.0000    100.6687    807.4235
   218.0000      6.9048      0.0000    103.5291    806.2465
   218.2500      6.7411      0.0000    105.3089    804.2898
   218.5000      6.5235      0.0000    106.4373    802.2213
   218.7500      6.2935      0.0000    108.1659    800.7291
   219.0000      6.1325      0.0000    111.4465    799.9795
   219.2500      6.1158      0.0000    115.8623    799.7535
   219.5000      6.2619      0.0000    119.5094    799.7459
   219.7500      6.5323      0.0000    120.1764    799.7469
   220.0000      6.8842      0.0000    116.9835    799.6465
   220.2500      7.3013      0.0000    111.1140    799.2751
   220.5000      7.7590      0.0000    105.0306    798.1764
   220.7500      8.1868      0.0000    100.7674    795.7633
   221.0000      8.5042      0.0000     98.6477    792.2775
   221.2500      8.6998      0.0000     97.7216    789.7815
   221.5000      8.8476      0.0000     97.4620    791.3657
   221.7500      9.0328      0.0000     98.4964    798.4957
   222.0000      9.2750      0.0000    101.3697    809.4724
   222.2500      9.5250      0.0000    105.2267    820.7914
   222.5000      9.7223      0.0000    108.4778    829.1841
   222.7500      9.8396      0.0000    110.4438    832.2520
   223.0000      9.8801      0.0000    111.6901    828.9465
   223.2500      9.8475      0.0000    113.0468    820.7918
   223.5000      9.7320      0.0000    115.0228    811.8220
   223.7500      9.5318      0.0000    117.9582    805.8372
   224.0000      9.2823      0.0000    121.8371    803.4273
   224.2500      9.0502      0.0000    125.7079    802.2520
   224.5000      8.8895      0.0000    127.8815    800.1898
   224.7500      8.8058      0.0000    127.2222    797.3072
   225.0000      8.7586      0.0000    124.1964    794.5839
   225.2500      8.6885      0.0000    120.5421    792.0192
   225.5000      8.5541      0.0000    117.9963    788.8958
   225.7500      8.3648      0.0000    117.3440    785.2183
   226.0000      8.1812      0.0000    118.5123    782.1787
