~Version Information
 VERS.                      2.0: CWLS Log ASCII Standard - VERSION 2.0
 WRAP.                       NO: One line per depth step
 ~Well Information Block
 STRT.FT               887.5000: 
 STOP.FT              2605.5000: 
 STEP.FT                 0.2500: 
 NULL.                -999.2500: 
 COMP.          Petrogulf Corporation: COMPANY
 WELL.               YWAM 7-23V: WELL
 FLD.           Purgatorie River: FIELD
 LOC.           230' FSL & 225' FWL: LOCATION
 CNTY.               Las Animas: COUNTY
 SRVC.                         : SERVICE COMPANY
 DATE.          Sat Oct 30 08:34:45 2004: LOG DATE
 UWI.           05 071 08227 00: UNIQUE WELL ID
 STAT.                 Colorado: STATE
 PROV.                         :Province
 ~Curve Information Block
 DEPT.FT            0 000 00 00: Depth
 SP.mV                         : DIL Spontaneous Potential
 RILD.Ohm-m                    : DIL Deep Resistivity
 RILM.Ohm-m                    : DIL Medium Resistivity
 RLL3.Ohm-m                    : DIL Shallow Resistivity
 GR.GAPI                       : Gamma Ray
 ~Parameter Information Block
 ~A  Depth        SP         RILD        RILM        RLL3         GR     
# ...
  2007.5000    -95.1305     10.1484     10.7249     11.2788    127.7954
  2007.7500    -94.5926     10.2207     10.8087     11.2982    125.3279
  2008.0000    -93.9351     10.2846     10.8899     11.3195    123.4834
  2008.2500    -93.1399     10.3394     10.9674     11.3539    123.6334
  2008.5000    -92.2164     10.3847     11.0389     11.4106    124.2580
  2008.7500    -91.2028     10.4202     11.1013     11.4937    123.6172
  2009.0000    -90.1551     10.4463     11.1515     11.6030    120.4788
  2009.2500    -89.1369     10.4644     11.1868     11.7363    118.0166
  2009.5000    -88.2199     10.4765     11.2059     11.8913    116.4947
  2009.7500    -87.4750     10.4852     11.2085     12.0656    117.8162
  2010.0000    -86.9771     10.4941     11.1961     12.2539    122.7150
  2010.2500    -86.7960     10.5069     11.1712     12.4461    126.6859
  2010.5000    -86.9905     10.5273     11.1375     12.6267    131.4342
  2010.7500    -87.5864     10.5592     11.0997     12.7789    133.1244
  2011.0000    -88.5631     10.6062     11.0630     12.8890    133.9008
  2011.2500    -89.8348     10.6720     11.0338     12.9535    134.0521
  2011.5000    -91.2569     10.7600     11.0193     12.9818    134.8175
  2011.7500    -92.6398     10.8739     11.0279     12.9990    135.7471
  2012.0000    -93.7838     11.0175     11.0687     13.0500    137.0775
  2012.2500    -94.5289     11.1948     11.1520     13.2125    137.4681
  2012.5000    -94.7917     11.4105     11.2883     13.6217    137.1490
  2012.7500    -94.5884     11.6692     11.4890     14.5143    136.7097
  2013.0000    -94.0366     11.9755     11.7651     16.2971    136.7498
  2013.2500    -93.3228     12.3338     12.1278     19.6300    137.6084
  2013.5000    -92.6599     12.7471     12.5879     25.4942    139.5977
  2013.7500    -92.2348     13.2157     13.1558     35.1952    140.4495
  2014.0000    -92.1636     13.7366     13.8404     50.2377    139.3230
  2014.2500    -92.4667     14.3010     14.6478     72.0138    136.4619
  2014.5000    -93.0697     14.8935     15.5793    101.2961    129.0659
  2014.7500    -93.8268     15.4918     16.6268    137.6248    122.2510
  2015.0000    -94.5592     16.0676     17.7677    178.7946    109.0702
  2015.2500    -95.1035     16.5898     18.9589    220.7146     98.1930
  2015.5000    -95.3487     17.0284     20.1318    257.8694     79.8535
  2015.7500    -95.2542     17.3596     21.1944    284.4148     67.9910
  2016.0000    -94.8473     17.5690     22.0425    295.6532     54.1120
  2016.2500    -94.2032     17.6530     22.5815    289.3912     48.6720
  2016.5000    -93.4160     17.6173     22.7542    266.6471     46.5535
  2016.7500    -92.5758     17.4741     22.5575    231.3962     48.7997
  2017.0000    -91.7587     17.2390     22.0420    189.4377     56.8454
  2017.2500    -91.0180     16.9281     21.2931    146.8307     64.7812
  2017.5000    -90.3828     16.5568     20.4054    108.4816     79.1603
  2017.7500    -89.8542     16.1396     19.4621     77.3289     89.2112
  2018.0000    -89.4081     15.6899     18.5245     54.2564    102.6923
  2018.2500    -88.9971     15.2206     17.6314     38.5671    109.7067
  2018.5000    -88.5697     14.7440     16.8029     28.6974    117.3169
  2018.7500    -88.0883     14.2716     16.0464     22.8756    121.2275
  2019.0000    -87.5537     13.8135     15.3619     19.5585    126.7275
  2019.2500    -87.0162     13.3780     14.7453     17.6208    130.4390
  2019.5000    -86.5714     12.9716     14.1916     16.3610    135.4802
  2019.7500    -86.3350     12.5987     13.6954     15.4122    137.8255
  2020.0000    -86.4204     12.2619     13.2513     14.6257    139.2339
  2020.2500    -86.9057     11.9626     12.8540     13.9666    139.0625
  2020.5000    -87.8133     11.7016     12.4986     13.4386    137.9473
  2020.7500    -89.1023     11.4788     12.1804     13.0430    136.6892
  2021.0000    -90.6775     11.2941     11.8960     12.7623    133.6626
  2021.2500    -92.3947     11.1466     11.6434     12.5622    131.0541
  2021.5000    -94.0886     11.0350     11.4226     12.4040    127.4354
  2021.7500    -95.5854     10.9572     11.2359     12.2620    125.8123
  2022.0000    -96.7292     10.9099     11.0868     12.1362    124.4467
  2022.2500    -97.3998     10.8887     10.9800     12.0560    123.7104
  2022.5000    -97.5298     10.8883     10.9195     12.0725    122.2291
  2022.7500    -97.1071     10.9027     10.9078     12.2409    121.1122
  2023.0000    -96.1859     10.9258     10.9445     12.5974    119.8240
  2023.2500    -94.8703     10.9520     11.0259     13.1404    119.2314
  2023.5000    -93.3011     10.9764     11.1440     13.8205    117.8809
  2023.7500    -91.6302     10.9956     11.2866     14.5457    116.1045
  2024.0000    -90.0013     11.0069     11.4384     15.2007    111.9320
  2024.2500    -88.5267     11.0086     11.5818     15.6750    108.5533
  2024.5000    -87.2840     10.9994     11.6994     15.8893    103.8454
  2024.7500    -86.3196     10.9778     11.7760     15.8144    101.7261
  2025.0000    -85.6641     10.9426     11.8009     15.4746    100.7536
  2025.2500    -85.3372     10.8931     11.7691     14.9370    101.4002
  2025.5000    -85.3626     10.8296     11.6814     14.2921    103.7074
  2025.7500    -85.7619     10.7533     11.5434     13.6290    106.1282
  2026.0000    -86.5447     10.6674     11.3644     13.0167    111.5842
  2026.2500    -87.6935     10.5759     11.1556     12.4920    116.4158
  2026.5000    -89.1484     10.4837     10.9288     12.0588    124.1016
  2026.7500    -90.7970     10.3958     10.6955     11.6963    128.3264
  2027.0000    -92.4732     10.3171     10.4667     11.3720    132.0057
  2027.2500    -93.9722     10.2517     10.2524     11.0552    132.6849
  2027.5000    -95.0790     10.2029     10.0621     10.7276    131.7392
  2027.7500    -95.6106     10.1735      9.9043     10.3894    130.1963
  2028.0000    -95.4548     10.1657      9.7869     10.0624    127.2249
  2028.2500    -94.6058     10.1810      9.7171      9.7906    125.5233
  2028.5000    -93.1724     10.2207      9.7009      9.6376    125.0199
  2028.7500    -91.3627     10.2861      9.7435      9.6792    126.5509
  2029.0000    -89.4417     10.3781      9.8481      9.9899    130.3951
  2029.2500    -87.6760     10.4976     10.0166     10.6229    132.1969
  2029.5000    -86.2891     10.6452     10.2485     11.5905    131.0363
  2029.7500    -85.4183     10.8214     10.5408     12.8513    127.3969
  2030.0000    -85.1051     11.0264     10.8881     14.3108    119.3634
  2030.2500    -85.3025     11.2600     11.2821     15.8380    113.7302
  2030.5000    -85.9033     11.5216     11.7122     17.2920    106.5431
  2030.7500    -86.7736     11.8099     12.1665     18.5511    102.8440
  2031.0000    -87.7898     12.1228     12.6318     19.5324     98.5752
  2031.2500    -88.8576     12.4573     13.0960     20.1990     96.3085
  2031.5000    -89.9283     12.8088     13.5480     20.5540     93.5195
  2031.7500    -90.9869     13.1706     13.9796     20.6301     92.0009
  2032.0000    -92.0402     13.5344     14.3849     20.4785     90.2613
  2032.2500    -93.0945     13.8900     14.7605     20.1623     89.6097
  2032.5000    -94.1401     14.2264     15.1048     19.7516     89.7784
  2032.7500    -95.1392     14.5334     15.4170     19.3186     90.8119
  2033.0000    -96.0337     14.8032     15.6971     18.9314     93.6721
  2033.2500    -96.7521     15.0319     15.9454     18.6473     96.1303
  2033.5000    -97.2336     15.2202     16.1630     18.5076     99.7637
  2033.7500    -97.4430     15.3739     16.3525     18.5358    101.7623
  2034.0000    -97.3878     15.5020     16.5184     18.7356    104.0613
  2034.2500    -97.1135     15.6163     16.6673     19.0902    105.2068
  2034.5000    -96.6995     15.7290     16.8077     19.5612    106.0164
  2034.7500    -96.2258     15.8522     16.9501     20.0936    105.5337
  2035.0000    -95.7521     15.9970     17.1063     20.6264    103.0938
  2035.2500    -95.2939     16.1724     17.2893     21.1285    100.9907
