~Version Information
VERS.                      2.0: CWLS Log ASCII Standard - VERSION 2.0
WRAP.                       NO: One line per depth step
~Well Information Block
STRT.FT               950.0000: 
STOP.FT              2417.7000: 
STEP.FT                 0.1000: 
NULL.                -999.2500: 
COMP.          Pioneer Natural Resources: COMPANY
WELL.            Chevron 13-13: WELL
FLD.           Purgatoire River: FIELD
LOC.           1560' FSL & 711' FWL--: LOCATION
CNTY.               Las Animas: COUNTY
SRVC.          Superior Well Services: SERVICE COMPANY
DATE.          Mon Feb 12 14:55:24 2007: LOG DATE
UWI.           05 071 08319 00: UNIQUE WELL ID
STAT.                 Colorado: STATE
~Curve Information Block
DEPT.FT            0 000 00 00: Depth
DCAL.in                       : CDL Caliper
RHOB.g/cc                     : CDL Bulk Density
RHOC.g/cc                     : CDL Density Correction
DPOR.pu                       : CDL Density Porosity
GR.GAPI                       : Gamma Ray
~Parameter Information Block
~A  Depth       DCAL        RHOB        RHOC        DPOR         GR     
   950.0000      8.0085      2.5052     -0.1969      8.7780     70.1540
   950.1000      8.0085      2.5002     -0.2119      9.0798     71.1168
   950.2000      8.0085      2.4915     -0.2815      9.6058     70.9944
   950.3000      8.0111      2.5058     -0.3203      8.7377     69.5142
   950.4000      8.0111      2.5362     -0.2690      6.8983     70.7137
   950.5000      8.0126      2.5447     -0.2225      6.3846     76.0553
   950.6000      8.0126      2.5136     -0.2468      8.2683     80.7904
   950.7000      8.0126      2.4665     -0.3347     11.1199     80.3738
   950.8000      8.0125      2.4392     -0.3033     12.7748     74.2988
   950.9000      8.0125      2.4358     -0.3042     12.9809     68.9167
   951.0000      8.0132      2.4332     -0.2472     13.1377     71.9795
   951.1000      8.0132      2.4181     -0.2469     14.0528     81.1434
   951.2000      8.0132      2.4120     -0.3471     14.4253     86.1866
   951.3000      8.0130      2.4360     -0.2413     12.9693     83.6255
   951.4000      8.0130      2.4637     -0.2239     11.2883     80.4906
   951.5000      8.0110      2.4624     -0.2239     11.3667     82.8666
   951.6000      8.0110      2.4413     -0.2443     12.6501     86.3178
   951.7000      8.0110      2.4282     -0.2606     13.4430     85.5666
   951.8000      8.0100      2.4349     -0.2728     13.0361     82.0083
   951.9000      8.0100      2.4555     -0.2607     11.7898     78.0917
   952.0000      8.0119      2.4795     -0.2162     10.3323     75.5437
   952.1000      8.0119      2.5036     -0.2727      8.8738     72.2640
   952.2000      8.0119      2.5259     -0.2637      7.5192     65.6175
   952.3000      8.0124      2.5396     -0.2416      6.6903     61.6688
   952.4000      8.0124      2.5508     -0.2739      6.0140     65.2429
   952.5000      8.0109      2.5708     -0.1889      4.8017     70.5675
   952.6000      8.0109      2.5915     -0.2200      3.5453     74.5278
   952.7000      8.0109      2.5995     -0.1713      3.0587     79.6342
   952.8000      8.0100      2.5942     -0.2033      3.3825     83.6630
   952.9000      8.0100      2.5785     -0.2177      4.3322     81.7390
   953.0000      8.0083      2.5523     -0.2444      5.9202     75.0052
   953.1000      8.0083      2.5323     -0.3136      7.1322     69.1494
   953.2000      8.0083      2.5453     -0.2643      6.3461     66.7650
   953.3000      8.0076      2.5846     -0.2249      3.9651     65.4909
   953.4000      8.0076      2.6134     -0.2103      2.2197     62.8218
   953.5000      8.0080      2.6101     -0.2098      2.4183     59.7614
   953.6000      8.0080      2.5908     -0.2327      3.5886     60.5125
   953.7000      8.0080      2.5804     -0.2462      4.2167     65.0436
   953.8000      8.0067      2.5788     -0.2363      4.3181     68.5070
   953.9000      8.0067      2.5699     -0.2232      4.8573     70.5717
   954.0000      8.0062      2.5476     -0.2239      6.2085     71.4565
   954.1000      8.0062      2.5207     -0.2646      7.8369     69.5231
   954.2000      8.0062      2.5078     -0.3206      8.6162     65.6783
   954.3000      8.0084      2.5166     -0.2415      8.0840     60.8907
   954.4000      8.0084      2.5317     -0.2650      7.1700     56.7297
   954.5000      8.0089      2.5393     -0.1682      6.7113     57.2020
   954.6000      8.0089      2.5326     -0.2249      7.1127     61.7347
   954.7000      8.0089      2.5092     -0.2471      8.5315     64.0268
   954.8000      8.0075      2.4755     -0.2683     10.5728     62.1596
   954.9000      8.0075      2.4498     -0.2709     12.1326     61.0459
   955.0000      8.0077      2.4512     -0.3432     12.0512     63.7439
   955.1000      8.0077      2.4687     -0.1982     10.9904     67.6687
   955.2000      8.0077      2.4845     -0.3152     10.0332     68.9942
   955.3000      8.0089      2.5097     -0.2749      8.5021     66.9766
   955.4000      8.0089      2.5395     -0.2588      6.6986     64.3240
   955.5000      8.0098      2.5471     -0.2047      6.2378     64.1308
   955.6000      8.0098      2.5375     -0.3050      6.8204     67.7160
   955.7000      8.0098      2.5434     -0.2299      6.4590     73.8579
   955.8000      8.0109      2.5712     -0.2560      4.7755     77.5531
   955.9000      8.0109      2.6022     -0.1908      2.8947     75.0350
   956.0000      8.0108      2.6130     -0.2153      2.2399     70.8348
   956.1000      8.0108      2.5887     -0.1915      3.7163     70.1873
   956.2000      8.0108      2.5364     -0.2280      6.8823     71.7235
   956.3000      8.0088      2.4884     -0.3258      9.7917     72.7399
   956.4000      8.0088      2.4672     -0.3154     11.0778     71.8494
   956.5000      8.0053      2.4580     -0.2847     11.6360     69.7104
   956.6000      8.0053      2.4470     -0.3338     12.3016     69.2883
   956.7000      8.0053      2.4403     -0.3212     12.7075     70.5402
   956.8000      8.0016      2.4301     -0.2482     13.3271     72.0091
   956.9000      8.0016      2.4004     -0.2808     15.1271     74.0363
   957.0000      7.9997      2.3544     -0.2878     17.9135     76.0381
   957.1000      7.9997      2.3039     -0.3223     20.9750     76.8003
   957.2000      7.9997      2.2524     -0.3124     24.0979     75.3668
   957.3000      8.0032      2.2046     -0.3826     26.9911     71.4055
   957.4000      8.0032      2.1731     -0.3428     28.9021     68.8520
   957.5000      8.0090      2.1598     -0.3855     29.7064     70.9890
   957.6000      8.0090      2.1560     -0.3067     29.9423     73.7265
   957.7000      8.0090      2.1551     -0.4163     29.9944     73.1731
   957.8000      8.0121      2.1705     -0.4180     29.0617     70.4388
   957.9000      8.0121      2.2173     -0.3657     26.2227     67.9421
   958.0000      8.0115      2.2916     -0.3689     21.7194     66.4992
   958.1000      8.0115      2.3705     -0.2520     16.9401     65.2193
   958.2000      8.0115      2.4272     -0.2862     13.5020     62.7770
   958.3000      8.0096      2.4611     -0.3016     11.4479     58.8802
   958.4000      8.0096      2.4970     -0.4081      9.2739     57.5132
   958.5000      8.0073      2.5365     -0.2377      6.8800     60.9791
   958.6000      8.0073      2.5405     -0.2521      6.6374     64.3062
   958.7000      8.0073      2.4968     -0.3047      9.2851     64.1989
   958.8000      8.0051      2.4410     -0.3404     12.6644     63.1513
   958.9000      8.0051      2.4131     -0.3911     14.3573     64.4183
   959.0000      8.0057      2.4244     -0.3381     13.6728     68.1202
   959.1000      8.0057      2.4538     -0.3186     11.8905     72.2055
   959.2000      8.0057      2.4710     -0.2922     10.8472     73.7215
   959.3000      8.0092      2.4548     -0.2536     11.8278     71.0907
   959.4000      8.0092      2.4134     -0.3080     14.3370     67.8640
   959.5000      8.0134      2.3876     -0.3855     15.9027     68.2213
   959.6000      8.0134      2.4003     -0.2761     15.1330     70.4044
   959.7000      8.0134      2.4361     -0.2685     12.9626     68.7015
   959.8000      8.0166      2.4813     -0.2803     10.2244     64.3305
   959.9000      8.0166      2.5320     -0.2499      7.1537     64.1355
   960.0000      8.0171      2.5675     -0.2151      4.9978     67.2789
   960.1000      8.0171      2.5657     -0.2349      5.1076     65.8898
   960.2000      8.0171      2.5442     -0.3294      6.4099     59.1029
   960.3000      8.0171      2.5374     -0.2854      6.8246     55.1221
   960.4000      8.0171      2.5391     -0.2813      6.7199     54.9285
   960.5000      8.0174      2.5308     -0.3157      7.2250     52.4918
   960.6000      8.0174      2.5254     -0.2986      7.5495     50.1022
   960.7000      8.0174      2.5326     -0.2337      7.1178     52.4248
   960.8000      8.0156      2.5366     -0.2535      6.8704     57.0033
   960.9000      8.0156      2.5362     -0.2955      6.8986     61.1683
   961.0000      8.0127      2.5410     -0.2018      6.6057     62.0670
   961.1000      8.0127      2.5452     -0.2570      6.3497     56.2821
