~Version Information
 VERS.                                  2.0 : CWLS LAS VERSION
 WRAP.                                   NO : WRAPING MODE
 SWARE .                 MController 2.5.0E : SOFTWARE VERSION
~Well Information
 WELL.                        Labrador 34-30: WELL
 COMP.             Pioneer Natural Resources: COMPANY
 FLD.                       Purgatoire River: FIELD
 LOC.                SW/SE Sec 30 T34S R65W : LOCATION
 DATE.                            12/05/2004: DATE(S) LOGGED
 SRVC.       Blanco Geological Services LLC : SERVICE COMPANY
 STAT.                                    CO: STATE
 CNTY.                            Las Animas: COUNTY
 CTRY.                                   USA: COUNTRY
 API.                           05-071-08202: API NUMBER
 STRT.FT                             302.00 : START DEPTH
 STOP.FT                            1765.00 : STOP DEPTH
 STEP.FT                               1.00 : DEPTH INCREMENT
 NULL.                                -9999 : NULL VALUE
~Curve information
 DEPTH.FT                                   :
 ROP.MIN/FT                                 :
 GAS.UNITS                                  :
~ASCII Log data
# ...
      702.00        0.167          2.5 
      703.00        0.200          2.6 
      704.00        0.200          2.2 
      705.00        0.167          2.3 
      706.00        0.200          2.6 
      707.00        0.200          2.4 
      708.00        0.267          1.9 
      709.00        0.200          2.1 
      710.00        0.167          2.0 
      711.00        0.200          2.1 
      712.00        0.233          2.3 
      713.00        0.200          2.3 
      714.00        0.200          2.1 
      715.00        0.233          2.3 
      716.00        3.083          2.6 
      717.00        0.167          2.5 
      718.00        0.200          2.5 
      719.00        0.183          2.2 
      720.00        0.233          4.1 
      721.00        0.200          4.9 
      722.00        0.300          7.3 
      723.00        0.267          7.0 
      724.00        0.267          5.6 
      725.00        0.233          5.1 
      726.00        0.267          4.1 
      727.00        0.367          3.6 
      728.00        0.267          3.0 
      729.00        0.167          2.6 
      730.00        0.200          2.1 
      731.00        0.333          2.8 
      732.00        0.750          2.6 
      733.00        0.267          2.6 
      734.00        0.167          2.5 
      735.00        0.233          2.5 
      736.00        0.233          2.5 
      737.00        0.167          2.1 
      738.00        0.267          2.7 
      739.00        0.200          2.2 
      740.00        0.167          2.3 
      741.00        0.333          2.5 
      742.00        0.167          2.7 
      743.00        0.167          2.1 
      744.00        0.267          2.8 
      745.00        0.183          2.9 
      746.00        4.283         71.1 
      747.00        0.367         39.9 
      748.00        0.200         31.7 
      749.00        0.300         29.9 
      750.00        0.167         31.4 
      751.00        0.233         31.3 
      752.00        0.267         31.3 
      753.00        0.167         27.2 
      754.00        0.200         25.8 
      755.00        0.200         23.4 
      756.00        0.167         22.8 
      757.00        0.183         22.5 
      758.00        0.200         24.1 
      759.00        0.167         22.5 
      760.00        0.333         18.6 
      761.00        0.233         15.7 
      762.00        0.167         14.2 
      763.00        0.233         14.4 
      764.00        0.200         14.0 
      765.00        0.167         13.4 
      766.00        0.300         13.1 
      767.00        0.167         11.8 
      768.00        0.167         10.9 
      769.00        0.167         11.1 
      770.00        0.200         16.6 
      771.00        0.233         32.7 
      772.00        0.200         63.3 
      773.00        0.183        101.7 
      774.00        0.167        133.7 
      775.00        0.400        162.9 
      776.00        1.433        161.7 
      777.00        0.167         28.8 
      778.00        0.300         26.7 
      779.00        0.200         26.0 
      780.00        0.333         24.6 
      781.00        0.317         20.4 
      782.00        0.167         18.7 
      783.00        0.200         22.2 
      784.00        0.167         25.4 
      785.00        0.167         26.0 
      786.00        0.233         22.8 
      787.00        0.167         19.4 
      788.00        0.167         17.8 
      789.00        0.167         16.5 
      790.00        0.167         14.9 
      791.00        0.167         14.7 
      792.00        0.167         13.2 
      793.00        0.300         12.6 
      794.00        0.233          9.9 
      795.00        0.233         14.6 
      796.00        0.233         33.4 
      797.00        0.200         89.8 
      798.00        0.183        103.7 
      799.00        0.167        105.2 
      800.00        0.267        105.9 
      801.00        0.233         95.5 
      802.00        0.233         73.4 
      803.00        0.233         51.3 
      804.00        0.233         42.5 
      805.00        0.233         37.2 
      806.00        0.933         34.5 
      807.00        0.233         24.9 
      808.00        0.167         23.5 
      809.00        0.100         22.4 
      810.00        0.100         21.0 
      811.00        0.250         22.1 
      812.00        0.200         22.7 
      813.00        0.200         23.2 
      814.00        0.167         23.9 
      815.00        0.200         24.4 
      816.00        0.167         23.6 
      817.00        0.167         19.3 
      818.00        0.167         16.9 
      819.00        0.167         16.8 
      820.00        0.200         16.3 
      821.00        0.167         16.4 
      822.00        0.200         16.0 
      823.00        0.167         16.1 
      824.00        0.200         15.7 
      825.00        0.167         14.7 
      826.00        0.167         13.4 
      827.00        0.167         13.3 
      828.00        0.200         17.2 
      829.00        0.217         29.4 
      830.00        0.167         49.8 
      831.00        0.167         76.3 
      832.00        0.167        114.1 
      833.00        0.167        151.8 
      834.00        0.100        171.9 
      835.00        0.100        187.2 
      836.00        1.933        201.7 
      837.00        0.300         19.7 
      838.00        0.317         15.5 
      839.00        0.267         16.1 
      840.00        0.200         15.4 
      841.00        0.233         17.7 
      842.00        0.200         20.1 
      843.00        0.133         22.0 
      844.00        0.200         32.2 
      845.00        0.133         34.8 
      846.00        0.133         35.0 
      847.00        0.100         33.7 
      848.00        0.133         32.8 
      849.00        0.167         30.8 
      850.00        0.167         27.9 
      851.00        0.100         24.4 
      852.00        0.133         23.3 
      853.00        0.100         21.7 
      854.00        0.067         19.9 
      855.00        0.100         19.7 
      856.00        0.167         19.1 
      857.00        0.300         17.4 
      858.00        0.283         14.0 
      859.00        0.167         20.3 
      860.00        0.100         26.3 
      861.00        0.167         46.6 
      862.00        0.100         65.5 
      863.00        0.133        102.7 
      864.00        0.200        144.4 
      865.00        0.200        157.0 
      866.00        2.550        158.1 
      867.00        0.233         25.9 
      868.00        0.267         24.5 
      869.00        0.233         22.2 
      870.00        0.233         23.3 
      871.00        0.167         21.6 
      872.00        0.100         20.9 
      873.00        0.100         21.7 
      874.00        0.200         21.4 
      875.00        0.233         21.9 
      876.00        0.233         21.2 
      877.00        0.200         23.5 
      878.00        0.200         22.6 
      879.00        0.167         19.5 
      880.00        0.250         15.9 
      881.00        0.200         14.9 
      882.00        0.267         14.1 
      883.00        0.200         12.2 
      884.00        0.233         11.1 
      885.00        0.167          9.6 
      886.00        0.200         10.3 
      887.00        0.200         18.1 
      888.00        0.200         30.8 
      889.00        0.200         53.8 
      890.00        0.133         64.5 
      891.00        0.167         60.0 
      892.00        0.167         94.2 
      893.00        0.133        129.3 
      894.00        0.100        142.8 
      895.00        0.100        145.2 
      896.00        2.583        131.9 
      897.00        0.433          7.1 
      898.00        0.300          6.3 
      899.00        0.267          4.3 
      900.00        0.133          3.1 
      901.00        0.133          3.1 
