~Version Information
VERS.                      2.0: CWLS Log ASCII Standard - VERSION 2.0
WRAP.                       NO: One line per depth step
~Well Information Block
STRT.FT                -7.7500: 
STOP.FT              1532.2500: 
STEP.FT                 0.2500: 
NULL.                -999.2500: 
COMP.          Pioneer Natural Resources: COMPANY
WELL.          Big Cat Federal 44-1: WELL
FLD.           Purgatorie River: FIELD
LOC.           197' FSL & 973' FEL--: LOCATION
CNTY.               Las Animas: COUNTY
SRVC.          Patterson Wireline: SERVICE COMPANY
DATE.          Fri Apr 28 12:21:06 2006: LOG DATE
UWI.           05 071 08042 00: UNIQUE WELL ID
STAT.                       CO: STATE
~Curve Information Block
DEPT.FT            0 000 00 00: Depth
CCL.                          : Casing Collar Locator
TT3.usec                      : CBL 3' Travel Time
AMP3.mV                       : CBL 3' Amplitude
GR.GAPI                       : Gamma Ray
~Parameter Information Block
~A  Depth       CCL         TT3         AMP3         GR     
# ...
   997.2500      0.0000    811.6187      9.5314    121.3638
   997.5000      0.0000    813.1523      9.5414    117.0595
   997.7500      0.0000    814.4282      9.5653    113.8546
   998.0000      0.0000    815.5842      9.5901    112.2608
   998.2500      0.0000    816.5265      9.6044    111.3551
   998.5000      0.0000    817.1215      9.6065    110.1634
   998.7500      0.0000    817.3505      9.6040    108.8439
   999.0000      0.0000    817.3127      9.6063    108.6199
   999.2500      0.0000    817.1315      9.6162    110.8913
   999.5000      0.0000    816.9084      9.6239    116.2959
   999.7500      0.0000    816.7436      9.6109    124.0611
  1000.0000      0.0000    816.7476      9.5587    131.9187
  1000.2500      0.0000    816.9919      9.4604    137.2049
  1000.5000      0.0000    817.4425      9.3302    138.8055
  1000.7500      0.0000    817.9554      9.2044    137.9622
  1001.0000      0.0000    818.3226      9.1284    136.9492
  1001.2500      0.0000    818.2534      9.1326    137.2009
  1001.5000      0.0000    817.2490      9.2185    138.4259
  1001.7500      0.0000    814.6174      9.3630    138.8505
  1002.0000      0.0000    809.9425      9.5323    136.6464
  1002.2500      0.0000    803.7615      9.6930    132.1020
  1002.5000      0.0000    797.3652      9.8222    128.3724
  1002.7500      0.0000    791.4110      9.9164    129.1323
  1003.0000      0.0000    785.2073      9.9944    134.9986
  1003.2500      0.0000    778.2628     10.0857    142.5160
  1003.5000      0.0000    772.0060     10.2098    146.7629
  1003.7500      0.0000    768.6989     10.3569    144.7932
  1004.0000      0.0000    768.9954     10.4896    136.9228
  1004.2500      0.0000    771.7910     10.5686    125.6676
  1004.5000      0.0000    776.1734     10.5797    113.9818
  1004.7500      0.0000    782.3466     10.5337    103.9428
  1005.0000      0.0000    790.5128     10.4463     96.3774
  1005.2500      0.0000    799.6213     10.3261     91.4970
  1005.5000      0.0000    807.7050     10.1828     89.7226
  1005.7500      0.0000    813.2242     10.0365     91.5381
  1006.0000      0.0000    815.7289      9.9075     96.6396
  1006.2500      0.0000    815.3277      9.7948    103.8032
  1006.5000      0.0000    812.1240      9.6719    111.8111
  1006.7500      0.0000    806.6667      9.5091    120.0971
  1007.0000      0.0000    800.6262      9.3006    128.0441
  1007.2500      0.0000    795.8660      9.0690    133.9359
  1007.5000      0.0000    792.2351      8.8389    135.4494
  1007.7500      0.0000    787.6184      8.6032    131.4554
  1008.0000      0.0000    781.7657      8.3245    123.0052
  1008.2500      0.0000    779.1775      7.9833    112.5708
  1008.5000      0.0000    785.9966      7.6218    102.6650
  1008.7500      0.0000    803.6974      7.3306     95.0457
  1009.0000      0.0000    826.9711      7.1939     90.6350
  1009.2500      0.0000    847.2762      7.2429     89.8162
  1009.5000      0.0000    857.0833      7.4492     92.8926
  1009.7500      0.0000    852.4341      7.7583    100.2677
  1010.0000      2.0000    834.6849      8.1310    112.0136
  1010.2500      0.0000    809.7125      8.5543    127.0837
  1010.5000      0.0000    782.5170      9.0394    143.0035
  1010.7500      0.0000    753.0825      9.6288    156.8940
  1011.0000      0.0000    720.5117     10.3577    167.1776
  1011.2500      0.0000    690.3414     11.1587    173.9114
  1011.5000      0.0000    673.3316     11.8466    177.1356
  1011.7500      0.0000    675.5661     12.2718    175.5824
  1012.0000      0.0000    692.5244     12.4528    167.7946
  1012.2500      0.0000    714.0438     12.5047    154.3137
  1012.5000      0.0000    732.2950     12.4912    138.4754
  1012.7500      0.0000    744.0992     12.4004    125.1453
  1013.0000      0.0000    749.3622     12.2188    118.2653
  1013.2500      0.0000    749.8350     11.9758    118.7263
  1013.5000      0.0000    747.6454     11.7264    124.1083
  1013.7500      0.0000    742.3088     11.5206    130.4997
  1014.0000      0.0000    728.8401     11.3890    135.0145
  1014.2500      0.0000    700.6417     11.3419    137.1441
  1014.5000      0.0000    656.3177     11.3730    137.9651
  1014.7500      0.0000    604.7434     11.4590    138.2314
  1015.0000      0.0000    562.5990     11.5626    137.5949
  1015.2500      0.0000    545.6406     11.6403    135.5533
  1015.5000      0.0000    560.6088     11.6545    132.5298
  1015.7500      0.0000    602.1432     11.5871    130.1457
  1016.0000      0.0000    655.0466     11.4517    130.8765
  1016.2500      0.0000    701.6451     11.2994    136.6601
  1016.5000      0.0000    730.9093     11.2066    146.7015
  1016.7500      0.0000    742.6801     11.2425    156.9662
  1017.0000      0.0000    744.4059     11.4317    162.7354
  1017.2500      0.0000    744.5330     11.7427    161.7019
  1017.5000      0.0000    747.7939     12.1156    154.6748
  1017.7500      0.0000    754.3918     12.4999    144.0465
  1018.0000      0.0000    762.2866     12.8676    132.1295
  1018.2500      0.0000    769.9788     13.2007    120.5703
  1018.5000      0.0000    777.3091     13.4755    110.5097
  1018.7500      0.0000    784.1882     13.6680    102.7553
  1019.0000      0.0000    789.6740     13.7775     97.8854
  1019.2500      0.0000    793.0117     13.8464     96.5458
  1019.5000      0.0000    795.1105     13.9424     99.6054
  1019.7500      0.0000    797.8998     14.1041    107.3994
  1020.0000      0.0000    802.0948     14.3022    118.6035
  1020.2500      0.0000    806.3403     14.4601    130.3191
  1020.5000      0.0000    808.7035     14.5113    139.5986
  1020.7500      0.0000    808.5427     14.4327    145.0222
  1021.0000      0.0000    806.8769     14.2344    147.1403
  1021.2500      0.0000    805.1498     13.9360    147.6756
  1021.5000      0.0000    803.5975     13.5582    148.1730
  1021.7500      0.0000    800.9628     13.1285    149.1495
  1022.0000      0.0000    796.1616     12.6836    150.2615
  1022.2500      0.0000    790.0972     12.2631    150.9307
  1022.5000      0.0000    785.3944     11.8977    150.7222
  1022.7500      0.0000    784.1324     11.5995    149.4018
  1023.0000      0.0000    785.7671     11.3591    147.0952
  1023.2500      0.0000    787.1498     11.1513    144.6777
  1023.5000      0.0000    784.8055     10.9499    143.7476
  1023.7500      0.0000    777.5837     10.7423    145.4090
  1024.0000      0.0000    767.4006     10.5286    148.6383
  1024.2500      0.0000    757.7646     10.3114    150.3642
  1024.5000      0.0000    751.7432     10.0948    147.7243
  1024.7500      0.0000    750.6129      9.8911    140.2437
  1025.0000      0.0000    753.3433      9.7189    129.9884
  1025.2500      0.0000    757.2342      9.5887    120.2619
  1025.5000      0.0000    759.8655      9.4980    114.0537
  1025.7500      0.0000    760.9194      9.4414    112.7444
  1026.0000      0.0000    762.0248      9.4207    115.6494
  1026.2500      0.0000    764.9397      9.4412    120.7255
  1026.5000      0.0000    770.1586      9.5009    125.6767
  1026.7500      0.0000    776.8719      9.5919    128.7153
  1027.0000      0.0000    783.3572      9.7152    129.1895
  1027.2500      0.0000    787.3752      9.8881    128.0207
  1027.5000      0.0000    787.3311     10.1277    127.2591
  1027.7500      0.0000    783.6987     10.4253    128.7215
  1028.0000      0.0000    778.9099     10.7406    132.7334
  1028.2500      0.0000    775.5794     11.0258    138.1507
  1028.5000      0.0000    774.9525     11.2501    143.6094
  1028.7500      0.0000    776.6516     11.4072    148.5005
  1029.0000      0.0000    779.2196     11.5049    152.4873
  1029.2500      0.0000    781.1500     11.5477    154.6743
  1029.5000      0.0000    782.0830     11.5260    154.0134
  1029.7500      0.0000    782.9661     11.4303    150.4438
  1030.0000      0.0000    784.6461     11.2841    145.2408
  1030.2500      0.0000    786.5502     11.1505    140.2128
  1030.5000      0.0000    787.1308     11.0884    136.5718
