~Version Information
VERS.                      2.0: CWLS Log ASCII Standard - VERSION 2.0
WRAP.                       NO: One line per depth step
~Well Information Block
STRT.FT               395.0000: 
STOP.FT              1998.0000: 
STEP.FT                 0.1000: 
NULL.                -999.2500: 
COMP.          Pioneer Natural Resources: COMPANY
WELL.          Easton 12-30 Tr: WELL
FLD.           Purgatoire River: FIELD
LOC.           549' FWL & 2416' FNL--: LOCATION
PROV.                 Colorado: PROVINCE
CNTY.               Las Animas: COUNTRY
SRVC.                Patterson: SERVICE COMPANY
DATE.          Thu Jun 02 09:14:44 2005: LOG DATE
UWI.           05 071 08379 00: UNIQUE WELL ID
~Curve Information Block
DEPT.FT            0 000 00 00: Depth
DCAL.in                       : CDL Caliper
RHOB.g/cc                     : CDL Bulk Density
RHOC.g/cc                     : CDL Density Correction
DPOR.pu                       : CDL Density Porosity
NPOR.pu                       : Neutron Porosity
GR.GAPI                       : Gamma Ray
~Parameter Information Block
~A  Depth       DCAL        RHOB        RHOC        DPOR        NPOR         GR     
# ...
   923.0000      8.0562      2.6877     -0.0607     -2.2873     30.9351    106.5198
   923.1000      8.0562      2.7030     -0.0365     -3.2105     30.8972    105.8105
   923.2000      8.0562      2.7258     -0.0309     -4.5953     30.5282    108.9994
   923.3000      8.0502      2.7406      0.0371     -5.4881     29.9159    114.4036
   923.4000      8.0502      2.7284      0.0834     -4.7516     29.2040    118.8352
   923.5000      8.0495      2.6887      0.0960     -2.3433     28.8107    120.5776
   923.6000      8.0495      2.6438      0.0997      0.3742     28.9358    120.7217
   923.7000      8.0495      2.6200      0.0579      1.8188     29.0933    122.1013
   923.8000      8.0514      2.6257      0.0638      1.4711     28.7409    125.7870
   923.9000      8.0514      2.6447      0.0709      0.3210     27.8278    129.6320
   924.0000      8.0528      2.6509      0.0672     -0.0560     26.7409    131.8573
   924.1000      8.0528      2.6329      0.0634      1.0357     25.8292    134.3994
   924.2000      8.0528      2.6026      0.0401      2.8737     25.1711    137.5985
   924.3000      8.0534      2.5781      0.0492      4.3553     24.7848    137.8689
   924.4000      8.0534      2.5665      0.0458      5.0626     24.6655    134.4308
   924.5000      8.0534      2.5540      0.0960      5.8165     24.7116    129.3015
   924.6000      8.0534      2.5255      0.0250      7.5431     24.7405    122.7130
   924.7000      8.0534      2.4956      0.0163      9.3587     24.6248    117.0368
   924.8000      8.0536      2.4869      0.0115      9.8878     24.2591    116.0369
   924.9000      8.0536      2.4972      0.0505      9.2578     23.6025    116.3700
   925.0000      8.0525      2.5105      0.0423      8.4533     22.8083    113.6808
   925.1000      8.0525      2.5167      0.0487      8.0812     22.1461    110.9391
   925.2000      8.0525      2.5145      0.0842      8.2140     22.0034    110.4286
   925.3000      8.0496      2.5074      0.0504      8.6398     22.5566    110.9190
   925.4000      8.0496      2.5029      0.0156      8.9159     23.2947    111.1393
   925.5000      8.0426      2.5057      0.0337      8.7459     23.7020    111.9791
   925.6000      8.0426      2.5112      0.0603      8.4100     23.8142    114.9742
   925.7000      8.0426      2.5186      0.0194      7.9663     23.7214    119.4134
   925.8000      8.0331      2.5356      0.0438      6.9325     23.5529    122.6251
   925.9000      8.0331      2.5630      0.0676      5.2748     23.7636    121.2259
   926.0000      8.0273      2.5884      0.0855      3.7339     24.2619    114.1576
   926.1000      8.0273      2.5995      0.0909      3.0631     24.3808    107.9644
   926.2000      8.0273      2.5959      0.0722      3.2777     24.1580    109.0804
   926.3000      8.0255      2.5907      0.0426      3.5944     24.1000    113.9864
   926.4000      8.0255      2.5933      0.0734      3.4375     24.2488    117.0691
   926.5000      8.0263      2.5932      0.0548      3.4435     24.3101    116.7221
   926.6000      8.0263      2.5779      0.0517      4.3726     24.3575    112.2812
   926.7000      8.0263      2.5622     -0.0113      5.3184     24.7861    107.2316
   926.8000      8.0270      2.5669      0.0278      5.0351     25.6465    106.5790
   926.9000      8.0270      2.5785      0.0801      4.3308     26.5201    110.3014
   927.0000      8.0261      2.5803      0.0276      4.2244     26.9303    118.5083
   927.1000      8.0261      2.5779      0.0362      4.3701     26.8844    129.3099
   927.2000      8.0261      2.5700      0.0547      4.8496     26.7830    132.4840
   927.3000      8.0229      2.5569     -0.0038      5.6421     26.7654    125.8869
   927.4000      8.0229      2.5514      0.0303      5.9778     26.6286    118.7763
   927.5000      8.0173      2.5536      0.0407      5.8441     26.3907    115.3717
   927.6000      8.0173      2.5586      0.0356      5.5399     26.1507    114.7498
   927.7000      8.0173      2.5722      0.0220      4.7127     25.7340    115.9024
   927.8000      8.0125      2.5950      0.0407      3.3357     25.1668    118.4689
   927.9000      8.0125      2.6065      0.1054      2.6391     24.9819    123.1919
   928.0000      8.0107      2.5938      0.0486      3.4057     25.4382    127.6523
   928.1000      8.0107      2.5762      0.0304      4.4726     26.1356    127.3411
   928.2000      8.0107      2.5666      0.0661      5.0529     26.7191    125.2828
   928.3000      8.0088      2.5563      0.0416      5.6795     26.9810    126.8054
   928.4000      8.0088      2.5413      0.0328      6.5879     26.8771    129.4370
   928.5000      8.0069      2.5257      0.0324      7.5346     26.6317    131.0248
   928.6000      8.0069      2.5192      0.0277      7.9243     26.4092    133.3583
   928.7000      8.0069      2.5271      0.0270      7.4466     26.4139    135.1890
   928.8000      8.0066      2.5379      0.0259      6.7954     26.7331    132.3835
   928.9000      8.0066      2.5410      0.0366      6.6040     26.8979    126.0481
   929.0000      8.0079      2.5497      0.0030      6.0798     26.6776    121.9726
   929.1000      8.0079      2.5799      0.0695      4.2496     26.4802    122.3685
   929.2000      8.0079      2.6118      0.1025      2.3126     26.3861    127.4868
   929.3000      8.0095      2.6156      0.0889      2.0824     26.1474    133.9395
   929.4000      8.0095      2.5965      0.0637      3.2454     25.7537    131.5760
   929.5000      8.0092      2.5791      0.0689      4.2947     25.4865    119.1149
   929.6000      8.0092      2.5709      0.0673      4.7917     25.5381    107.3116
   929.7000      8.0092      2.5618      0.0576      5.3473     25.3935    103.7588
   929.8000      8.0082      2.5481      0.0448      6.1772     24.7856    106.2096
   929.9000      8.0082      2.5386      0.0414      6.7516     24.2289    110.2919
   930.0000      8.0082      2.5342      0.0666      7.0204     23.8579    111.2159
   930.1000      8.0082      2.5265      0.0284      7.4841     23.4529    105.8582
   930.2000      8.0082      2.5183      0.0337      7.9795     23.1345    100.3999
   930.3000      8.0096      2.5194      0.0233      7.9167     23.1686    100.5692
   930.4000      8.0096      2.5279      0.0704      7.3976     23.4812    105.0347
   930.5000      8.0103      2.5351      0.0578      6.9661     23.7243    110.5243
   930.6000      8.0103      2.5411      0.1119      6.6014     23.6895    114.7733
   930.7000      8.0103      2.5475      0.0814      6.2139     23.5520    114.4124
   930.8000      8.0097      2.5524      0.0830      5.9180     23.6035    108.7579
   930.9000      8.0097      2.5589      0.0611      5.5232     23.6602    104.3907
   931.0000      8.0087      2.5696      0.1454      4.8733     23.5030    103.3601
   931.1000      8.0087      2.5775      0.1163      4.3912     23.6073    103.4979
   931.2000      8.0087      2.5742      0.1285      4.5959     24.3893    104.6862
   931.3000      8.0077      2.5607      0.0622      5.4126     25.3479    104.4455
   931.4000      8.0077      2.5513      0.0731      5.9829     25.8531    103.0322
   931.5000      8.0075      2.5570      0.0821      5.6346     25.7992    101.8446
   931.6000      8.0075      2.5705      0.1379      4.8170     25.1098     98.5467
   931.7000      8.0075      2.5735      0.1296      4.6346     24.1372     95.6227
   931.8000      8.0074      2.5649      0.1060      5.1604     23.4141     97.6187
   931.9000      8.0074      2.5612      0.0969      5.3832     22.8259    103.1696
   932.0000      8.0079      2.5750      0.0749      4.5431     22.0118    105.1408
   932.1000      8.0079      2.6001      0.0837      3.0266     20.9815     98.2244
   932.2000      8.0079      2.6134      0.0893      2.2197     20.1389     87.5264
   932.3000      8.0082      2.6042      0.0846      2.7751     19.9098     81.0176
   932.4000      8.0082      2.5844      0.0654      3.9769     20.3891     79.5034
   932.5000      8.0050      2.5700      0.0217      4.8491     21.2665     81.5463
