~Version Information
VERS.                      2.0: CWLS Log ASCII Standard - VERSION 2.0
WRAP.                       NO: One line per depth step
~Well Information Block
STRT.FT               300.0000: 
STOP.FT               871.2000: 
STEP.FT                 0.1000: 
NULL.                -999.2500: 
COMP.          Pioneer Natural Resources: COMPANY
WELL.            Hustler 12-17: WELL
FLD.           Purgatoire River: FIELD
LOC.           2150' FNL & 450' FWL: LOCATION
PROV.                 Colorado: PROVINCE
CNTY.               Las Animas: COUNTRY
SRVC.                Patterson: SERVICE COMPANY
DATE.          Mon Dec 20 11:14:19 2004: LOG DATE
UWI.           05 071 08236 00: UNIQUE WELL ID
~Curve Information Block
DEPT.FT            0 000 00 00: Depth
DCAL.in                       : CDL Caliper
RHOB.g/cc                     : CDL Bulk Density
RHOC.g/cc                     : CDL Density Correction
DPOR.pu                       : CDL Density Porosity
NPOR.pu                       : Neutron Porosity
GR.GAPI                       : Gamma Ray
~Parameter Information Block
~A  Depth       DCAL        RHOB        RHOC        DPOR        NPOR         GR     
# ...
   482.4000      8.0160      2.5130     -0.0086      8.3031     17.6443     59.5589
   482.5000      8.0192      2.5137     -0.0533      8.2604     17.6489     56.7906
   482.6000      8.0192      2.5256      0.0442      7.5418     17.6691     54.5810
   482.7000      8.0192      2.5407      0.0217      6.6226     17.6259     54.9303
   482.8000      8.0249      2.5585      0.0482      5.5455     17.7434     56.2628
   482.9000      8.0249      2.5683      0.0735      4.9503     18.0909     55.7838
   483.0000      8.0276      2.5640      0.0007      5.2145     18.4136     54.2927
   483.1000      8.0276      2.5655      0.0023      5.1212     18.5464     53.7137
   483.2000      8.0276      2.5845      0.0389      3.9688     18.5195     53.9253
   483.3000      8.0278      2.6018      0.0867      2.9207     18.3954     55.2831
   483.4000      8.0278      2.5993      0.0185      3.0746     18.2912     56.8810
   483.5000      8.0287      2.5810      0.0609      4.1823     18.2856     57.4010
   483.6000      8.0287      2.5598      0.0336      5.4681     18.2468     58.8917
   483.7000      8.0287      2.5531      0.0008      5.8753     18.2093     62.3760
   483.8000      8.0268      2.5607      0.0607      5.4132     18.5309     65.4051
   483.9000      8.0268      2.5653      0.0536      5.1315     19.0642     65.5188
   484.0000      8.0286      2.5638      0.0349      5.2237     19.3411     62.0446
   484.1000      8.0286      2.5575      0.0571      5.6061     19.5289     57.1142
   484.2000      8.0286      2.5421      0.0254      6.5370     20.1126     54.0268
   484.3000      8.0330      2.5304     -0.0062      7.2506     21.0090     55.1200
   484.4000      8.0330      2.5490     -0.0112      6.1197     21.7027     60.5915
   484.5000      8.0307      2.5963      0.0516      3.2575     21.9849     66.5883
   484.6000      8.0307      2.6322      0.0999      1.0795     21.9410     69.8834
   484.7000      8.0307      2.6289      0.1112      1.2788     21.8869     70.1023
   484.8000      8.0225      2.5995      0.0391      3.0616     22.0389     68.5253
   484.9000      8.0225      2.5745      0.0400      4.5775     22.0948     68.5682
   485.0000      8.0170      2.5725     -0.0076      4.6946     21.7376     72.4435
   485.1000      8.0170      2.5876      0.0992      3.7816     21.1337     80.8411
   485.2000      8.0170      2.5939      0.0861      3.3981     20.6963     91.0368
   485.3000      8.0155      2.5796      0.0711      4.2686     20.9234     95.7900
   485.4000      8.0155      2.5549      0.0421      5.7633     21.6678     92.9778
   485.5000      8.0148      2.5326      0.0420      7.1152     22.0882     89.9064
   485.6000      8.0148      2.5164      0.0286      8.0943     22.0178     91.4116
   485.7000      8.0148      2.5045      0.0460      8.8191     21.9929     94.7748
   485.8000      8.0128      2.4900      0.1041      9.6996     22.1976     97.4512
   485.9000      8.0128      2.4706      0.0372     10.8752     22.3277    100.3223
   486.0000      8.0089      2.4579      0.0201     11.6402     22.2907    102.7189
   486.1000      8.0089      2.4620      0.0138     11.3936     22.2525    102.1760
   486.2000      8.0089      2.4826      0.0444     10.1451     22.2394     99.1325
   486.3000      7.9992      2.5098      0.0517      8.4980     22.2049     96.1716
   486.4000      7.9992      2.5282      0.0993      7.3835     22.0497     95.0166
   486.5000      7.9925      2.5324      0.0688      7.1261     21.5977     95.2176
   486.6000      7.9925      2.5259      0.0820      7.5226     20.8508     94.5428
   486.7000      7.9925      2.5102      0.0690      8.4738     20.2483     91.8132
   486.8000      8.0014      2.4965      0.0348      9.3003     20.1667     88.4206
   486.9000      8.0014      2.5028      0.0347      8.9208     20.2654     85.7269
   487.0000      8.0115      2.5268      0.0790      7.4654     20.0780     82.5431
   487.1000      8.0115      2.5480      0.0821      6.1788     19.8139     79.8716
   487.2000      8.0115      2.5580      0.0643      5.5747     19.8313     80.5451
   487.3000      8.0169      2.5598      0.0690      5.4640     20.0339     82.9485
   487.4000      8.0169      2.5552      0.0678      5.7482     20.4246     84.9739
   487.5000      8.0184      2.5515      0.0710      5.9704     21.0578     85.3989
   487.6000      8.0184      2.5501      0.0669      6.0554     21.3434     81.0571
   487.7000      8.0184      2.5358      0.0538      6.9226     20.8207     74.3257
   487.8000      8.0142      2.5060      0.0307      8.7296     20.1986     71.4178
   487.9000      8.0142      2.4842     -0.0102     10.0467     20.0928     74.5164
   488.0000      8.0117      2.4826      0.0364     10.1457     20.2514     82.1607
   488.1000      8.0117      2.4827      0.0442     10.1396     20.3909     88.3372
   488.2000      8.0117      2.4698      0.0371     10.9188     20.4565     88.2326
   488.3000      8.0140      2.4533     -0.0109     11.9222     20.3905     84.4042
   488.4000      8.0140      2.4493     -0.0170     12.1635     20.2694     82.6232
   488.5000      8.0175      2.4600      0.0053     11.5143     20.4534     85.5671
   488.6000      8.0175      2.4744      0.0207     10.6403     20.9194     90.5642
   488.7000      8.0175      2.4810      0.0430     10.2401     21.2583     93.5573
   488.8000      8.0239      2.4856     -0.0047      9.9636     21.4511     92.2694
   488.9000      8.0239      2.5057      0.0247      8.7441     21.7381     87.8455
   489.0000      8.0342      2.5327      0.0871      7.1104     22.1192     85.4642
   489.1000      8.0342      2.5444      0.0356      6.4028     22.3606     88.1291
   489.2000      8.0342      2.5384      0.0374      6.7661     22.2764     91.9837
   489.3000      8.0396      2.5138      0.0182      8.2575     21.8962     93.6179
   489.4000      8.0396      2.4759     -0.0120     10.5533     21.5076     94.8046
   489.5000      8.0425      2.4553     -0.0058     11.8012     21.3562     95.8234
   489.6000      8.0425      2.4666      0.0400     11.1165     21.3311     92.5602
   489.7000      8.0425      2.4870      0.0207      9.8783     21.2787     83.8323
   489.8000      8.0479      2.5004      0.0605      9.0684     21.0491     74.8957
   489.9000      8.0479      2.5144      0.0306      8.2192     20.6040     70.3331
   490.0000      8.0465      2.5386      0.0430      6.7485     20.2761     69.6044
   490.1000      8.0465      2.5666      0.0571      5.0541     20.3061     70.7690
   490.2000      8.0465      2.5770      0.1039      4.4249     20.4166     72.1180
   490.3000      8.0406      2.5577      0.0631      5.5957     20.3437     71.6104
   490.4000      8.0406      2.5297      0.0031      7.2934     20.2927     68.3154
   490.5000      8.0385      2.5225      0.0201      7.7277     20.3790     64.4322
   490.6000      8.0385      2.5276      0.0535      7.4160     20.4498     62.5907
   490.7000      8.0385      2.5107      0.0571      8.4453     20.2087     61.9459
   490.8000      8.0395      2.4640     -0.0289     11.2733     19.6418     60.4591
   490.9000      8.0395      2.4089     -0.0447     14.6143     19.1561     57.3921
   491.0000      8.0395      2.3562     -0.0523     17.8072     18.6201     53.6908
   491.1000      8.0395      2.3102     -0.0651     20.5935     17.9419     52.0651
   491.2000      8.0395      2.2799     -0.0633     22.4319     17.5577     53.0765
   491.3000      8.0382      2.2667     -0.0353     23.2284     17.3919     54.3090
   491.4000      8.0382      2.2701     -0.0451     23.0236     16.9317     54.3726
   491.5000      8.0379      2.2936      0.0045     21.5978     16.0917     52.6289
   491.6000      8.0379      2.3266      0.0750     19.5994     15.1826     48.7947
   491.7000      8.0379      2.3456      0.0810     18.4495     14.4297     46.5616
   491.8000      8.0389      2.3428      0.0874     18.6171     13.9000     48.5146
   491.9000      8.0389      2.3310      0.0924     19.3307     13.6563     51.2742
