~Version Information
VERS.                      2.0: CWLS Log ASCII Standard - VERSION 2.0
WRAP.                       NO: One line per depth step
~Well Information Block
STRT.FT               745.0000: 
STOP.FT              2945.7000: 
STEP.FT                 0.1000: 
NULL.                -999.2500: 
COMP.          Pioneer Natural Resources: COMPANY
WELL.          Old Yeller 31-32: WELL
FLD.           Purgatoire River: FIELD
LOC.           1832' FEL & 793' FNL--: LOCATION
STAT.                 Colorado: State
CNTY.               Las Animas: COUNTY
CTRY. USA : Country
SECT. 32 : Section
TOWN. 32S : Township
RANG. 67W : Range
SRVC.                Patterson: SERVICE COMPANY
DATE.          Mon Aug 29 11:12:35 2005: LOG DATE
API.           05 071 08356 00: UNIQUE WELL ID
~Curve Information Block
DEPT.FT            0 000 00 00: Depth
DCAL.in                       : CDL Caliper
RHOB.g/cc                     : CDL Bulk Density
RHOC.g/cc                     : CDL Density Correction
DPOR.pu                       : CDL Density Porosity
NPOR.pu                       : Neutron Porosity
GR.GAPI                       : Gamma Ray
~Parameter Information Block
~A  Depth       DCAL        RHOB        RHOC        DPOR        NPOR         GR     
# ...
  1177.0000      8.0432      2.5375      0.0514      6.8168     22.4210     74.0328
  1177.1000      8.0432      2.5269      0.0011      7.4631     22.0220     75.1740
  1177.2000      8.0432      2.5391      0.0558      6.7183     21.9615     73.2659
  1177.3000      8.0438      2.5603      0.0472      5.4345     22.2757     68.1334
  1177.4000      8.0438      2.5756      0.0877      4.5089     22.4654     62.7547
  1177.5000      8.0424      2.5766      0.0841      4.4515     22.3752     59.3619
  1177.6000      8.0424      2.5588      0.0547      5.5270     22.3385     59.6035
  1177.7000      8.0424      2.5370      0.0158      6.8510     22.1649     61.6961
  1177.8000      8.0419      2.5236      0.0099      7.6584     21.5936     60.8518
  1177.9000      8.0419      2.5091      0.0147      8.5408     21.2156     56.5588
  1178.0000      8.0466      2.4919     -0.0330      9.5844     21.5743     52.6193
  1178.1000      8.0466      2.4959     -0.0254      9.3378     22.2210     49.7060
  1178.2000      8.0466      2.5282      0.0402      7.3795     22.2697     47.3837
  1178.3000      8.0537      2.5628      0.0634      5.2830     21.5948     46.9177
  1178.4000      8.0537      2.5730      0.1012      4.6666     20.9118     47.2148
  1178.5000      8.0582      2.5565      0.0408      5.6677     20.6685     47.8132
  1178.6000      8.0582      2.5353      0.0367      6.9494     20.8334     51.7728
  1178.7000      8.0582      2.5230      0.0353      7.6996     21.3152     58.5283
  1178.8000      8.0592      2.5200      0.0050      7.8784     21.6577     62.0705
  1178.9000      8.0592      2.5298      0.0133      7.2855     21.3449     61.7885
  1179.0000      8.0593      2.5488      0.0405      6.1363     20.6203     61.4891
  1179.1000      8.0593      2.5676      0.0495      4.9958     19.9980     61.5071
  1179.2000      8.0593      2.5832      0.0681      4.0465     19.5236     62.6133
  1179.3000      8.0586      2.5906      0.1098      3.5991     19.1211     65.1429
  1179.4000      8.0586      2.5838      0.0798      4.0127     18.9452     64.6174
  1179.5000      8.0569      2.5695      0.0539      4.8776     19.3634     61.3512
  1179.6000      8.0569      2.5578      0.0331      5.5854     20.7243     62.6751
  1179.7000      8.0569      2.5517      0.0554      5.9597     22.5650     67.5716
  1179.8000      8.0564      2.5575      0.0138      5.6038     23.7077     69.7494
  1179.9000      8.0564      2.5808      0.0746      4.1952     23.5640     70.4232
  1180.0000      8.0568      2.6024      0.0940      2.8867     22.7311     71.6255
  1180.1000      8.0568      2.6046      0.0643      2.7527     22.1959     73.5221
  1180.2000      8.0568      2.5973      0.0566      3.1919     22.2395     77.2960
  1180.3000      8.0577      2.6009      0.0238      2.9763     22.5891     82.0361
  1180.4000      8.0577      2.6226      0.0324      1.6617     22.9395     87.6713
  1180.5000      8.0579      2.6363      0.0996      0.8292     23.1034     96.3046
  1180.6000      8.0579      2.6149      0.0529      2.1277     23.1284    106.1269
  1180.7000      8.0579      2.5822      0.0168      4.1066     22.9437    110.1775
  1180.8000      8.0561      2.5762     -0.0196      4.4708     22.6723    104.5875
  1180.9000      8.0561      2.5956      0.0138      3.2955     22.5397     93.7872
  1181.0000      8.0531      2.6193      0.0219      1.8604     22.3807     87.3977
  1181.1000      8.0531      2.6420      0.0529      0.4822     21.9949     90.3152
  1181.2000      8.0531      2.6628      0.0845     -0.7775     21.4861     94.9451
  1181.3000      8.0524      2.6709      0.0748     -1.2670     21.2090     95.0349
  1181.4000      8.0524      2.6706      0.0361     -1.2484     21.0394     92.1311
  1181.5000      8.0551      2.6760      0.0691     -1.5750     20.3657     89.5491
  1181.6000      8.0551      2.6796      0.0848     -1.7969     19.3626     87.2021
  1181.7000      8.0551      2.6689      0.0613     -1.1476     18.8366     82.6029
  1181.8000      8.0594      2.6448      0.0567      0.3138     19.2420     77.8628
  1181.9000      8.0594      2.6171      0.0472      1.9968     20.0052     74.6499
  1182.0000      8.0612      2.6047      0.0097      2.7462     20.1783     70.4162
  1182.1000      8.0612      2.6131      0.0588      2.2358     19.8766     64.5903
  1182.2000      8.0612      2.6202      0.0479      1.8049     19.7996     61.4763
  1182.3000      8.0596      2.6121      0.0495      2.2980     20.1916     62.2348
  1182.4000      8.0596      2.6006     -0.0162      2.9917     20.6353     63.1725
  1182.5000      8.0571      2.5980      0.0370      3.1538     20.7790     63.5371
  1182.6000      8.0571      2.6008      0.0204      2.9812     20.6424     65.2369
  1182.7000      8.0571      2.6092      0.0488      2.4726     20.4864     68.5500
  1182.8000      8.0565      2.6262      0.0806      1.4449     20.6804     73.5751
  1182.9000      8.0565      2.6404      0.0913      0.5808     20.9357     79.4457
  1183.0000      8.0571      2.6392      0.0858      0.6563     20.7610     82.9652
  1183.1000      8.0571      2.6304      0.0856      1.1908     20.4615     81.9582
  1183.2000      8.0571      2.6361      0.0305      0.8440     20.6130     77.8059
  1183.3000      8.0571      2.6571      0.0741     -0.4306     21.3026     74.8954
  1183.4000      8.0571      2.6625      0.0764     -0.7559     22.1059     75.1003
  1183.5000      8.0578      2.6374      0.0309      0.7661     22.3039     76.2764
  1183.6000      8.0578      2.6042      0.0237      2.7779     22.0002     76.0452
  1183.7000      8.0578      2.5859      0.0349      3.8870     21.7474     76.9893
  1183.8000      8.0577      2.5837      0.0168      4.0153     21.4774     81.8460
  1183.9000      8.0577      2.5757      0.0500      4.5038     21.3042     84.8109
  1184.0000      8.0559      2.5454      0.0116      6.3383     21.4531     81.9644
  1184.1000      8.0559      2.5162     -0.0737      8.1091     21.4302     77.9421
  1184.2000      8.0559      2.5106      0.0181      8.4512     21.1583     76.7968
  1184.3000      8.0548      2.5186     -0.0063      7.9648     21.2029     76.4858
  1184.4000      8.0548      2.5276      0.0158      7.4202     21.3557     72.8264
  1184.5000      8.0546      2.5356      0.0112      6.9327     21.2554     66.9466
  1184.6000      8.0546      2.5454      0.0465      6.3404     21.2179     62.8915
  1184.7000      8.0546      2.5546      0.0803      5.7832     21.3300     62.6861
  1184.8000      8.0552      2.5575      0.0274      5.6075     21.2402     64.7351
  1184.9000      8.0552      2.5531      0.0459      5.8747     20.8032     64.1866
  1185.0000      8.0564      2.5434      0.0204      6.4579     20.3089     59.6639
  1185.1000      8.0564      2.5321      0.0371      7.1434     19.9060     54.5139
  1185.2000      8.0564      2.5254     -0.0512      7.5488     19.3546     50.8617
  1185.3000      8.0559      2.5262      0.0054      7.5053     18.8220     48.8361
  1185.4000      8.0559      2.5288     -0.0231      7.3453     18.9266     48.3488
  1185.5000      8.0546      2.5388     -0.0114      6.7415     19.5887     50.4389
  1185.6000      8.0546      2.5621      0.0440      5.3280     20.0450     55.9285
  1185.7000      8.0546      2.5883      0.0517      3.7419     19.9377     61.3946
  1185.8000      8.0559      2.5997      0.1140      3.0463     19.7390     63.6558
  1185.9000      8.0559      2.5877      0.0893      3.7784     20.0671     65.3693
  1186.0000      8.0583      2.5686      0.0135      4.9357     20.8209     69.8254
  1186.1000      8.0583      2.5617      0.0150      5.3529     21.3545     74.1056
  1186.2000      8.0583      2.5609      0.0655      5.4009     21.4291     72.1160
  1186.3000      8.0590      2.5527      0.0508      5.8957     21.3853     64.7811
  1186.4000      8.0590      2.5414      0.0113      6.5822     21.5152     60.1933
  1186.5000      8.0589      2.5403      0.0444      6.6483     21.5873     61.4444
