~Version Information
VERS.                      2.0: CWLS Log ASCII Standard - VERSION 2.0
WRAP.                       NO: One line per depth step
~Well Information Block
STRT.FT               234.0000: 
STOP.FT              1773.2000: 
STEP.FT                 0.1000: 
NULL.                -999.2500: 
COMP.          Pioneer Natural Resources: COMPANY
WELL.             Tami J 23-18: WELL
FLD.           Purgatorie River: FIELD
LOC.           2250' FSL & 2400' FWL: LOCATION
PROV.                 Colorado: PROVINCE
CNTY.               Las Animas: COUNTRY
SRVC.                         : SERVICE COMPANY
DATE.          Mon Dec 13 07:02:50 2004: LOG DATE
UWI.           05 071 08073 00: UNIQUE WELL ID
~Curve Information Block
DEPT.FT            0 000 00 00: Depth
LTEN.lb                       : Surface Line Tension
DCAL.in                       : CDL Caliper
RHOB.g/cc                     : CDL Bulk Density
RHOC.g/cc                     : CDL Density Correction
DPOR.pu                       : CDL Density Porosity
GR.GAPI                       : Gamma Ray
NPOR.pu                       : Neutron Porosity
~Parameter Information Block
~A  Depth       LTEN        DCAL        RHOB        RHOC        DPOR         GR         NPOR    
# ...
  1662.0000   1153.0173      7.9353      2.3532      0.0132     17.9905     71.9861     13.9244
  1662.1000   1153.0173      7.9353      2.3558      0.0230     17.8293     69.4345     13.8819
  1662.2000   1153.0173      7.9353      2.3542      0.0095     17.9253     69.3585     13.7439
  1662.3000   1152.3591      7.9357      2.3583      0.0243     17.6799     72.2852     13.7205
  1662.4000   1152.3591      7.9357      2.3790      0.0393     16.4269     75.3767     14.0184
  1662.5000   1135.7491      7.9359      2.4089      0.0809     14.6139     77.0541     14.3763
  1662.6000   1135.7491      7.9359      2.4284      0.0772     13.4286     78.2318     14.2961
  1662.7000   1135.7491      7.9359      2.4359      0.0305     12.9755     78.7239     13.9467
  1662.8000   1126.4977      7.9359      2.4522      0.0377     11.9853     79.3912     13.8131
  1662.9000   1126.4977      7.9359      2.4834      0.0842     10.0988     80.8022     14.0210
  1663.0000   1132.4828      7.9351      2.5106      0.0949      8.4462     81.0693     14.5467
  1663.1000   1132.4828      7.9351      2.5211      0.1023      7.8137     79.8039     15.1750
  1663.2000   1132.4828      7.9351      2.5264      0.0458      7.4932     77.8748     15.6614
  1663.3000   1140.5317      7.9345      2.5434      0.0553      6.4605     74.4288     15.8391
  1663.4000   1140.5317      7.9345      2.5601      0.0875      5.4494     69.5227     15.5807
  1663.5000   1153.5748      7.9341      2.5535      0.0858      5.8503     66.2144     15.2177
  1663.6000   1153.5748      7.9341      2.5274      0.0291      7.4306     66.8803     15.0784
  1663.7000   1153.5748      7.9341      2.5045      0.0399      8.8196     69.7626     15.0458
  1663.8000   1163.8058      7.9337      2.4934      0.0391      9.4894     71.7264     14.8478
  1663.9000   1163.8058      7.9337      2.4843      0.0569     10.0418     71.8522     14.6242
  1664.0000   1154.9905      7.9337      2.4653      0.0674     11.1963     72.2435     14.4868
  1664.1000   1154.9905      7.9337      2.4395      0.0269     12.7602     75.3864     14.3215
  1664.2000   1154.9905      7.9337      2.4278      0.0206     13.4690     81.5444     14.3895
  1664.3000   1160.7482      7.9341      2.4387      0.0557     12.8070     85.7105     14.7425
  1664.4000   1160.7482      7.9341      2.4487      0.1051     12.2014     83.7473     15.0705
  1664.5000   1149.9474      7.9351      2.4386      0.0266     12.8096     80.6969     15.3167
  1664.6000   1149.9474      7.9351      2.4231      0.0330     13.7486     81.1689     15.2320
  1664.7000   1149.9474      7.9351      2.4173      0.0513     14.1046     81.7016     14.8143
  1664.8000   1159.5179      7.9357      2.4194      0.0368     13.9758     79.4571     14.5554
  1664.9000   1159.5179      7.9357      2.4223      0.0427     13.8008     76.7620     14.5232
  1665.0000   1150.9337      7.9359      2.4176      0.0562     14.0871     75.3343     14.3666
  1665.1000   1150.9337      7.9359      2.4072      0.0340     14.7127     75.2289     14.1164
  1665.2000   1150.9337      7.9359      2.4000      0.0399     15.1513     75.2471     13.8891
  1665.3000   1139.8195      7.9357      2.3978      0.0354     15.2872     75.1062     13.6960
  1665.4000   1139.8195      7.9357      2.4012      0.0364     15.0783     77.1206     13.9165
  1665.5000   1158.6587      7.9352      2.4074      0.0475     14.7005     80.6365     14.5821
  1665.6000   1158.6587      7.9352      2.4111      0.0335     14.4761     82.3820     15.1146
  1665.7000   1158.6587      7.9352      2.4186      0.0294     14.0262     82.4870     15.2258
  1665.8000   1169.2186      7.9348      2.4372      0.0486     12.8976     83.8643     14.9146
  1665.9000   1169.2186      7.9348      2.4564      0.0827     11.7361     87.0370     14.2392
  1666.0000   1167.3436      7.9347      2.4595      0.0642     11.5433     89.1210     13.9758
  1666.1000   1167.3436      7.9347      2.4510      0.0371     12.0635     88.1291     14.8551
  1666.2000   1167.3436      7.9347      2.4530      0.0009     11.9372     84.2447     16.3157
  1666.3000   1152.6945      7.9347      2.4700      0.0841     10.9112     80.6175     17.2364
  1666.4000   1152.6945      7.9347      2.4765      0.1040     10.5122     81.6551     17.3543
  1666.5000   1171.3629      7.9350      2.4642      0.0353     11.2578     88.6868     17.2309
  1666.6000   1171.3629      7.9350      2.4528      0.0146     11.9540     96.7203     17.1315
  1666.7000   1171.3629      7.9350      2.4528      0.0510     11.9491     98.1630     17.2041
  1666.8000   1157.9443      7.9353      2.4599      0.0267     11.5228     94.5159     17.4437
  1666.9000   1157.9443      7.9353      2.4693      0.0580     10.9536     92.6047     17.4269
  1667.0000   1161.6605      7.9356      2.4759      0.0398     10.5501     92.1511     16.7313
  1667.1000   1161.6605      7.9356      2.4697      0.0802     10.9281     90.7524     15.5249
  1667.2000   1161.6605      7.9356      2.4499      0.0238     12.1303     90.5991     14.7445
  1667.3000   1145.5779      7.9359      2.4349      0.0292     13.0370     91.5622     14.9324
  1667.4000   1145.5779      7.9359      2.4359     -0.0109     12.9766     90.0754     15.7583
  1667.5000   1148.6454      7.9357      2.4445      0.0260     12.4516     86.0491     16.5799
  1667.6000   1148.6454      7.9357      2.4497      0.0223     12.1399     80.9914     16.7358
  1667.7000   1148.6454      7.9357      2.4501      0.0279     12.1126     76.2376     16.0988
  1667.8000   1134.9672      7.9355      2.4464      0.0618     12.3413     74.4667     15.3465
  1667.9000   1134.9672      7.9355      2.4347      0.0539     13.0496     77.5452     14.8500
  1668.0000   1157.5853      7.9356      2.4232      0.0375     13.7446     83.8386     14.4530
  1668.1000   1157.5853      7.9356      2.4268      0.0475     13.5253     89.2093     14.0709
  1668.2000   1157.5853      7.9356      2.4385      0.0934     12.8193     92.3884     13.8903
  1668.3000   1153.2211      7.9357      2.4400      0.0589     12.7300     94.0249     14.0590
  1668.4000   1153.2211      7.9357      2.4310      0.0652     13.2721     93.1906     14.3137
  1668.5000   1160.1387      7.9359      2.4209      0.0526     13.8877     90.0581     14.4451
  1668.6000   1160.1387      7.9359      2.4185      0.0572     14.0298     88.8568     14.6066
  1668.7000   1160.1387      7.9359      2.4315      0.0600     13.2406     91.1171     14.8954
  1668.8000   1152.6233      7.9360      2.4525      0.0740     11.9678     91.6448     14.9742
  1668.9000   1152.6233      7.9360      2.4610      0.0684     11.4552     87.5131     14.5194
  1669.0000   1144.5098      7.9359      2.4496      0.0704     12.1426     81.4491     13.9496
  1669.1000   1144.5098      7.9359      2.4339      0.0501     13.0994     76.8614     13.6699
  1669.2000   1144.5098      7.9359      2.4308      0.0289     13.2858     76.6013     13.4230
  1669.3000   1157.6327      7.9355      2.4383      0.0537     12.8291     79.8227     12.9279
  1669.4000   1157.6327      7.9355      2.4415      0.0486     12.6364     82.5061     12.6612
  1669.5000   1129.3909      7.9351      2.4362      0.0326     12.9568     83.1488     13.3338
  1669.6000   1129.3909      7.9351      2.4289      0.0649     13.4000     83.1469     14.5773
  1669.7000   1129.3909      7.9351      2.4195      0.0674     13.9706     83.0855     15.1912
  1669.8000   1164.0350      7.9356      2.4080      0.0466     14.6670     83.4995     14.8255
  1669.9000   1164.0350      7.9356      2.4045      0.0261     14.8813     85.5386     14.1411
  1670.0000   1123.5283      7.9361      2.4166      0.0393     14.1427     86.5210     13.7760
  1670.1000   1123.5283      7.9361      2.4347      0.0532     13.0481     84.0202     13.7359
  1670.2000   1123.5283      7.9361      2.4410      0.0749     12.6683     79.3262     13.8147
  1670.3000   1162.9019      7.9359      2.4320      0.0691     13.2147     74.7213     13.9697
