~Version Information
VERS.                      2.0: CWLS Log ASCII Standard - VERSION 2.0
WRAP.                       NO: One line per depth step
~Well Information Block
STRT.FT               260.0000: 
STOP.FT              2272.0000: 
STEP.FT                 0.2500: 
NULL.                -999.2500: 
COMP.          Pioneer Natural Resources: COMPANY
WELL.            Moo Moo 31-36: WELL
FLD.           Purgatoire River: FIELD
LOC.           612' FNL & 2326' FEL: LOCATION
PROV.                 Colorado: PROVINCE
CNTY.               Las Animas: COUNTRY
SRVC.                Patterson: SERVICE COMPANY
DATE.          Fri Jun 17 07:45:39 2005: LOG DATE
UWI.           05 071 08395 00: UNIQUE WELL ID
~Curve Information Block
DEPT.FT            0 000 00 00: Depth
DIR.Ohm-m                     : IEL Induction Resistivity
SN.Ohm-m                      : IEL Short Normal
SP.mV                         : IEL Spontaneous Potential
GR.GAPI                       : Gamma Ray
~Parameter Information Block
~A  Depth       DIR          SN          SP          GR     
# ...
  1064.0000     18.1130     21.7146    168.8477    106.2508
  1064.2500     17.2253     21.3290    168.6381    102.6655
  1064.5000     16.3873     21.2195    168.5225     97.5162
  1064.7500     15.6152     21.2834    168.5757     93.8176
  1065.0000     14.9146     21.3256    168.7679     88.2123
  1065.2500     14.2874     21.1058    169.0100     85.8092
  1065.5000     13.7306     20.4441    169.2159     87.3156
  1065.7500     13.2353     19.4611    169.3283     92.5247
  1066.0000     12.7901     18.5182    169.3242    104.9528
  1066.2500     12.3849     17.7864    169.2255    114.2468
  1066.5000     12.0100     17.1097    169.1022    126.4968
  1066.7500     11.6535     16.2903    169.0476    132.5354
  1067.0000     11.2995     15.3511    169.1334    138.2760
  1067.2500     10.9329     14.5124    169.3720    140.4411
  1067.5000     10.5475     13.9494    169.7091    142.4587
  1067.7500     10.1492     13.6214    170.0576    143.6025
  1068.0000      9.7537     13.3645    170.3506    145.3995
  1068.2500      9.3784     13.1586    170.5788    146.3569
  1068.5000      9.0365     13.1730    170.7835    146.6871
  1068.7500      8.7350     13.4109    171.0155    146.1342
  1069.0000      8.4763     13.5400    171.2997    144.7384
  1069.2500      8.2602     13.2919    171.6286    143.6882
  1069.5000      8.0849     12.7911    171.9697    141.9683
  1069.7500      7.9453     12.3045    172.2759    140.8079
  1070.0000      7.8321     11.9319    172.5096    139.7079
  1070.2500      7.7325     11.6670    172.6758    139.9256
  1070.5000      7.6343     11.5013    172.8277    141.9904
  1070.7500      7.5303     11.3703    173.0126    144.1259
  1071.0000      7.4201     11.1614    173.2074    147.5140
  1071.2500      7.3096     10.8468    173.3156    149.8115
  1071.5000      7.2082     10.5238    173.2417    153.8033
  1071.7500      7.1256     10.3172    172.9693    156.6228
  1072.0000      7.0699     10.2758    172.5692    159.2140
  1072.2500      7.0469     10.3576    172.1485    158.7069
  1072.5000      7.0608     10.5064    171.8031    154.6787
  1072.7500      7.1137     10.6866    171.6007    151.1753
  1073.0000      7.2057     10.8863    171.5737    147.4589
  1073.2500      7.3337     11.1609    171.7086    146.8373
  1073.5000      7.4928     11.5498    171.9415    148.2391
  1073.7500      7.6778     11.9502    172.1829    149.7502
  1074.0000      7.8844     12.2269    172.3725    150.9443
  1074.2500      8.1097     12.3432    172.5248    150.2131
  1074.5000      8.3500     12.2960    172.7163    146.6997
  1074.7500      8.5992     12.1054    173.0150    143.4725
  1075.0000      8.8473     11.8951    173.4090    139.1530
  1075.2500      9.0819     11.8148    173.7971    137.5140
  1075.5000      9.2903     11.8596    174.0532    137.6535
  1075.7500      9.4612     11.9204    174.1112    139.4133
  1076.0000      9.5854     11.9900    174.0005    143.6565
  1076.2500      9.6570     12.1475    173.8072    146.7051
  1076.5000      9.6743     12.3586    173.6147    150.2325
  1076.7500      9.6421     12.4585    173.4803    151.5713
  1077.0000      9.5711     12.4038    173.4474    152.7690
  1077.2500      9.4756     12.3250    173.5468    153.8873
  1077.5000      9.3703     12.2811    173.7671    156.9841
  1077.7500      9.2683     12.2111    174.0347    159.6882
  1078.0000      9.1782     12.1131    174.2426    163.0762
  1078.2500      9.1021     12.1019    174.3140    164.0345
  1078.5000      9.0373     12.2607    174.2399    163.1351
  1078.7500      8.9792     12.5089    174.0650    161.2807
  1079.0000      8.9251     12.6685    173.8560    157.5417
  1079.2500      8.8763     12.6098    173.6884    155.0599
  1079.5000      8.8374     12.3435    173.6357    152.2869
  1079.7500      8.8139     12.0190    173.7391    151.1916
  1080.0000      8.8099     11.8122    173.9709    149.9859
  1080.2500      8.8265     11.7997    174.2364    148.9153
  1080.5000      8.8623     11.9244    174.4222    146.6433
  1080.7500      8.9144     12.0569    174.4525    145.1103
  1081.0000      8.9787     12.1147    174.3210    143.7525
  1081.2500      9.0496     12.1390    174.0890    143.5921
  1081.5000      9.1192     12.2103    173.8512    143.8180
  1081.7500      9.1801     12.2859    173.6851    143.9227
  1082.0000      9.2281     12.2555    173.6211    144.0628
  1082.2500      9.2640     12.1282    173.6465    144.3199
  1082.5000      9.2928     12.0135    173.7212    145.0760
  1082.7500      9.3206     11.9535    173.7936    145.9644
  1083.0000      9.3513     11.9234    173.8235    148.3679
  1083.2500      9.3852     11.9441    173.8048    150.7758
  1083.5000      9.4190     12.0254    173.7660    154.7035
  1083.7500      9.4488     12.1118    173.7515    156.4418
  1084.0000      9.4744     12.1700    173.8064    155.7576
  1084.2500      9.5009     12.1828    173.9711    152.5752
  1084.5000      9.5377     12.1211    174.2770    144.8090
  1084.7500      9.5943     12.0144    174.7309    139.2988
  1085.0000      9.6753     11.9353    175.2937    133.4445
  1085.2500      9.7761     11.9194    175.8726    131.9159
  1085.5000      9.8831     11.9942    176.3506    132.6984
  1085.7500      9.9780     12.1772    176.6478    134.4969
  1086.0000     10.0446     12.3790    176.7621    137.6394
  1086.2500     10.0747     12.4938    176.7462    139.1941
  1086.5000     10.0691     12.5547    176.6542    140.0368
  1086.7500     10.0352     12.5985    176.5163    140.1733
  1087.0000      9.9831     12.5558    176.3479    141.8664
  1087.2500      9.9226     12.4289    176.1606    144.7379
  1087.5000      9.8619     12.3465    175.9617    150.4683
  1087.7500      9.8073     12.3467    175.7578    153.5614
  1088.0000      9.7623     12.2903    175.5645    155.1726
  1088.2500      9.7274     12.0663    175.4158    154.4765
  1088.5000      9.7009     11.7551    175.3636    152.4529
  1088.7500      9.6801     11.5108    175.4545    151.1047
  1089.0000      9.6618     11.4053    175.6880    149.3242
  1089.2500      9.6418     11.4322    175.9907    148.4361
  1089.5000      9.6161     11.5171    176.2472    148.0871
  1089.7500      9.5834     11.5206    176.3722    148.7273
  1090.0000      9.5474     11.3450    176.3596    150.8403
  1090.2500      9.5164     10.9889    176.2695    152.6355
  1090.5000      9.5007     10.4987    176.1730    155.1057
  1090.7500      9.5078      9.9886    176.1045    156.3015
  1091.0000      9.5402      9.6208    176.0553    157.3558
  1091.2500      9.5944      9.5169    176.0091    157.6396
  1091.5000      9.6638      9.8019    175.9834    157.5909
  1091.7500      9.7407     10.5465    176.0390    157.4096
  1092.0000      9.8192     11.5135    176.2389    157.1873
  1092.2500      9.8965     12.2767    176.5896    157.0583
  1092.5000      9.9735     12.6744    177.0237    156.8375
  1092.7500     10.0540     12.8561    177.4448    156.8811
  1093.0000     10.1416     12.9443    177.7848    157.8148
  1093.2500     10.2363     12.9427    178.0189    159.1708
  1093.5000     10.3352     12.8840    178.1490    162.0534
  1093.7500     10.4372     12.7916    178.1902    164.1841
  1094.0000     10.5453     12.6001    178.1730    166.9072
  1094.2500     10.6639     12.2928    178.1477    167.9030
  1094.5000     10.7906     11.9910    178.1716    167.3654
  1094.7500     10.9131     11.8316    178.2746    165.4332
  1095.0000     11.0137     11.8619    178.4296    160.5004
  1095.2500     11.0818     12.0633    178.5658    156.3795
  1095.5000     11.1228     12.3708    178.6201    150.2521
  1095.7500     11.1558     12.6993    178.5798    147.1977
  1096.0000     11.2036     13.0124    178.4824    145.7305
  1096.2500     11.2808     13.3199    178.3845    147.1222
  1096.5000     11.3903     13.5900    178.3279    151.7682
  1096.7500     11.5260     13.7603    178.3180    155.4346
  1097.0000     11.6793     13.8328    178.3252    160.0238
  1097.2500     11.8424     13.8132    178.3113    161.9935
