~Version Information
VERS.                      2.0: CWLS Log ASCII Standard - VERSION 2.0
WRAP.                       NO: One line per depth step
~Well Information Block
STRT.FT                -9.7500: 
STOP.FT              2158.2500: 
STEP.FT                 0.2500: 
NULL.                -999.2500: 
COMP.          Petrogulf Corporation: COMPANY
WELL.             State 16-41V: WELL
FLD.           Purgatoire River: FIELD
LOC.           335' FNL & 823' FEL--: LOCATION
PROV.                 Colorado: PROVINCE
CNTY.               Las Animas: COUNTRY
SRVC.                Patterson: SERVICE COMPANY
DATE.          Wed Aug 17 12:15:10 2005: LOG DATE
UWI.           05 071 08344 00: UNIQUE WELL ID
~Curve Information Block
DEPT.FT            0 000 00 00: Depth
CCL.                          : Casing Collar Locator
TT3.usec                      : CBL 3' Travel Time
AMP3.mV                       : CBL 3' Amplitude
GR.GAPI                       : Gamma Ray
~Parameter Information Block
~A  Depth       CCL         TT3         AMP3         GR     
# ...
  1564.7500      0.0000    737.3487      4.5071     67.3713
  1565.0000      0.0000    742.4996      4.8128     69.3186
  1565.2500      0.0000    739.0513      5.1320     70.4842
  1565.5000      0.0000    729.1066      5.4637     70.8643
  1565.7500      0.0000    717.1143      5.7952     70.1907
  1566.0000      0.0000    706.6854      6.0965     68.2703
  1566.2500      0.0000    699.1913      6.3324     65.6849
  1566.5000      0.0000    694.3457      6.4803     63.8566
  1566.7500      0.0000    691.0905      6.5337     64.2716
  1567.0000      0.0000    688.2574      6.4984     67.5934
  1567.2500      0.0000    685.2702      6.3960     73.2033
  1567.5000      0.0000    682.6315      6.2687     79.2661
  1567.7500      0.0000    681.5356      6.1695     83.3422
  1568.0000      0.0000    682.8014      6.1364     83.5979
  1568.2500      0.0000    686.2925      6.1708     80.0043
  1568.5000      0.0000    691.4066      6.2468     74.3519
  1568.7500      0.0000    697.7394      6.3481     68.8266
  1569.0000      0.0000    705.0650      6.4944     64.5812
  1569.2500      0.0000    713.2424      6.7218     61.5989
  1569.5000      0.0000    722.4514      7.0401     59.4386
  1569.7500      0.0000    732.4751      7.4155     57.7992
  1570.0000      0.0000    740.7426      7.8041     56.7033
  1570.2500      0.0000    741.8932      8.2006     56.3730
  1570.5000      0.0000    731.0850      8.6389     56.6431
  1570.7500      0.0000    708.4441      9.1298     56.4800
  1571.0000      0.0000    680.2970      9.6048     54.5609
  1571.2500      0.0000    655.9095      9.9449     50.5401
  1571.5000      0.0000    642.0573     10.0741     45.6055
  1571.7500      0.0000    639.6100     10.0142     41.6944
  1572.0000      0.0000    644.8151      9.8455     40.0796
  1572.2500      0.0000    653.3265      9.6267     40.5500
  1572.5000      0.0000    662.7770      9.3587     41.8594
  1572.7500      0.0000    672.3708      9.0181     42.9062
  1573.0000      0.0000    681.3126      8.6088     43.3782
  1573.2500      0.0000    688.3260      8.1791     43.3783
  1573.5000      0.0000    692.5624      7.7995     42.9009
  1573.7500      0.0000    694.7430      7.5296     41.9706
  1574.0000      0.0000    697.3544      7.3960     41.1001
  1574.2500      0.0000    702.9400      7.3910     41.2345
  1574.5000      0.0000    711.0579      7.4898     43.0048
  1574.7500      0.0000    717.1622      7.6740     45.9190
  1575.0000      0.0000    716.3699      7.9450     48.4213
  1575.2500      0.0000    708.6933      8.3214     49.0994
  1575.5000      0.0000    699.0415      8.8209     47.9669
  1575.7500      0.0000    692.0444      9.4372     46.4569
  1576.0000      0.0000    688.5760     10.1301     46.1867
  1576.2500      0.0000    687.1061     10.8426     47.7856
  1576.5000      0.0000    686.0980     11.5361     50.7492
  1576.7500      0.0000    684.5601     12.1976     54.1732
  1577.0000      0.0000    682.0319     12.7750     57.6171
  1577.2500      0.0000    679.1108     13.1067     61.4825
  1577.5000      0.0000    677.5219     13.0055     66.6077
  1577.7500      0.0000    678.8868     12.4756     73.1578
  1578.0000      0.0000    683.0361     11.7848     79.6841
  1578.2500      0.0000    687.5522     11.2478     83.5679
  1578.5000      0.0000    689.6197     10.9735     82.9052
  1578.7500      2.0000    688.9184     10.8612     78.2492
  1579.0000      2.0000    688.6727     10.7849     72.5609
  1579.2500      0.0000    692.8300     10.7263     69.2803
  1579.5000      0.0000    701.8525     10.7547     70.2251
  1579.7500      0.0000    712.3224     10.9281     75.1159
  1580.0000      0.0000    720.5730     11.2200     82.5316
  1580.2500      0.0000    725.2522     11.5472     90.5859
  1580.5000      0.0000    727.3920     11.8768     96.7966
  1580.7500      0.0000    730.6863     12.2673     98.3804
  1581.0000      0.0000    740.8250     12.7724     93.6955
  1581.2500      0.0000    761.0153     13.3563     83.6234
  1581.5000      0.0000    786.8135     13.9403     71.3577
  1581.7500      0.0000    806.9158     14.4841     60.5360
  1582.0000      0.0000    810.7462     14.9906     53.1726
  1582.2500      0.0000    796.1612     15.4614     49.0572
  1582.5000      0.0000    770.5362     15.8709     46.9057
  1582.7500      0.0000    744.8676     16.1819     45.8451
  1583.0000      0.0000    726.7390     16.3878     45.7954
  1583.2500      0.0000    717.8411     16.5521     46.8307
  1583.5000      0.0000    716.0510     16.8008     48.5813
  1583.7500      0.0000    717.8469     17.2636     50.2828
  1584.0000      0.0000    718.6611     18.0127     51.2991
  1584.2500      0.0000    712.7678     19.0397     51.5412
  1584.5000      0.0000    694.8937     20.2672     51.3952
  1584.7500      0.0000    663.2608     21.5680     51.3215
  1585.0000      0.0000    622.0018     22.7886     51.5187
  1585.2500      0.0000    580.8147     23.7816     51.7752
  1585.5000      0.0000    550.9843     24.4457     51.5242
  1585.7500      0.0000    539.8953     24.7583     50.1794
  1586.0000      0.0000    547.7300     24.7830     47.6339
  1586.2500      0.0000    567.3557     24.6390     44.5553
  1586.5000      0.0000    586.4288     24.4481     42.1754
  1586.7500      0.0000    592.1326     24.2962     41.6899
  1587.0000      0.0000    577.9708     24.2293     43.6518
  1587.2500      0.0000    548.4007     24.2665     47.7739
  1587.5000      0.0000    516.8973     24.4142     53.3618
  1587.7500      0.0000    497.5048     24.6748     60.1783
  1588.0000      0.0000    494.9942     25.0473     68.9765
  1588.2500      0.0000    501.3600     25.5256     80.8724
  1588.5000      0.0000    502.4279     26.1165     95.9281
  1588.7500      0.0000    488.4067     26.8823    112.4290
  1589.0000      0.0000    458.8553     27.9510    127.6802
  1589.2500      0.0000    420.3192     29.4481    139.3692
  1589.5000      0.0000    381.4522     31.3917    146.2462
  1589.7500      0.0000    349.1637     33.6476    148.2224
  1590.0000      0.0000    326.6664     35.9865    146.4103
  1590.2500      0.0000    313.4807     38.1844    142.8656
  1590.5000      0.0000    306.9695     40.0882    139.8465
  1590.7500      0.0000    304.2312     41.6227    138.9323
  1591.0000      0.0000    303.2138     42.7679    140.4790
  1591.2500      0.0000    302.8646     43.5482    143.7854
  1591.5000      0.0000    302.7612     44.0391    147.6646
  1591.7500      0.0000    302.7510     44.3645    150.7105
  1592.0000      0.0000    302.7755     44.6490    151.4435
  1592.2500      0.0000    302.8116     44.9486    149.0496
  1592.5000      0.0000    302.8630     45.2279    144.2384
  1592.7500      0.0000    302.9390     45.4079    138.9492
  1593.0000      0.0000    303.0316     45.4284    134.8623
  1593.2500      0.0000    303.1158     45.2651    132.0856
  1593.5000      0.0000    303.1711     44.9298    129.1800
  1593.7500      0.0000    303.1932     44.4989    124.3988
  1594.0000      0.0000    303.1830     44.1350    116.9720
  1594.2500      0.0000    303.1351     44.0240    107.4323
  1594.5000      0.0000    303.0465     44.2585     97.0822
  1594.7500      0.0000    302.9277     44.7805     87.3494
  1595.0000      0.0000    302.8022     45.4304     79.3593
  1595.2500      0.0000    302.6985     46.0393     73.5923
  1595.5000      0.0000    302.6387     46.4973     69.7383
  1595.7500      0.0000    302.6302     46.7788     67.0018
  1596.0000      0.0000    302.6663     46.9109     64.6966
  1596.2500      0.0000    302.7381     46.9080     62.5689
  1596.5000      0.0000    302.8379     46.7456     60.5380
  1596.7500      0.0000    302.9507     46.4074     58.3618
  1597.0000      0.0000    303.0521     45.9248     55.8415
  1597.2500      0.0000    303.1248     45.3375     53.1960
  1597.5000      0.0000    303.1774     44.6367     50.8205
  1597.7500      0.0000    303.2564     43.7700     48.7452
  1598.0000      0.0000    303.5257     42.6882     46.7766
