~Version Information
 VERS.                                  2.0 : CWLS LAS VERSION
 WRAP.                                   NO : WRAPING MODE
 SWARE .                 MController 2.5.0J : SOFTWARE VERSION
~Well Information
 WELL.                         Sliva 01-43V : WELL
 COMP.                Petrogulf Corporation : COMPANY
 FLD.                      Purgatoire River : FIELD
 LOC.                 NE/SE Sec 1 T33S R68W : LOCATION
 DATE.                          08/26-27/05 : DATE(S) LOGGED
 SRVC.       BLANCO Geological Services LLC : SERVICE COMPANY
 STAT.                                   CO : STATE
 CNTY.                           Las Animas : COUNTY
 CTRY.                                  USA : COUNTRY
 API.                       05-071-08371-00 : API NUMBER
 STRT.FT                             503.00 : START DEPTH
 STOP.FT                            2764.00 : STOP DEPTH
 STEP.FT                               1.00 : DEPTH INCREMENT
 NULL.                                -9999 : NULL VALUE
~Curve information
 DEPTH.FT                                   :
 ROP.MIN/FT                                 :
 GAS.UNITS                                  :
~ASCII Log data
# ...
      1103.0         0.17         15.1 
      1104.0         0.13         22.5 
      1105.0         0.13         31.7 
      1106.0         0.23         55.0 
      1107.0         0.20         64.7 
      1108.0         1.93         65.5 
      1109.0         0.37          9.7 
      1110.0         0.32          8.1 
      1111.0         0.23          7.5 
      1112.0         0.23          6.2 
      1113.0         0.27          6.0 
      1114.0         0.23          5.5 
      1115.0         0.23          5.7 
      1116.0         0.20          5.5 
      1117.0         0.20          5.8 
      1118.0         0.27          6.1 
      1119.0         0.20          6.3 
      1120.0         0.20          6.3 
      1121.0         0.17          6.7 
      1122.0         0.17          6.2 
      1123.0         0.13          6.1 
      1124.0         0.10          5.8 
      1125.0         0.17          5.8 
      1126.0         0.22          6.2 
      1127.0         0.17          5.9 
      1128.0         0.20          6.3 
      1129.0         0.17          5.9 
      1130.0         0.17          6.1 
      1131.0         0.17          7.4 
      1132.0         0.17          9.1 
      1133.0         0.17         13.2 
      1134.0         0.10         18.9 
      1135.0         0.10         27.7 
      1136.0         0.20         45.7 
      1137.0         0.20         56.2 
      1138.0         1.72         56.9 
      1139.0         0.30          8.1 
      1140.0         0.20          8.7 
      1141.0         0.40          8.4 
      1142.0         0.27          6.8 
      1143.0         0.27          5.6 
      1144.0         0.27          5.6 
      1145.0         0.37          5.8 
      1146.0         0.23          6.8 
      1147.0         0.20          7.1 
      1148.0         0.20          7.2 
      1149.0         0.22          6.6 
      1150.0         0.20          5.7 
      1151.0         0.20          5.6 
      1152.0         0.20          5.3 
      1153.0         0.17          5.3 
      1154.0         0.17          5.3 
      1155.0         0.13          4.9 
      1156.0         0.17          5.2 
      1157.0         0.17          5.2 
      1158.0         0.13          5.1 
      1159.0         0.07          5.3 
      1160.0         0.13          5.1 
      1161.0         0.13          5.8 
      1162.0         0.20          6.1 
      1163.0         0.17          7.8 
      1164.0         0.20         15.7 
      1165.0         0.17         28.0 
      1166.0         0.17         40.3 
      1167.0         0.17         46.7 
      1168.0         1.65         47.2 
      1169.0         0.27          5.9 
      1170.0         0.27          7.1 
      1171.0         0.23          6.8 
      1172.0         0.17          7.3 
      1173.0         0.20          6.4 
      1174.0         0.20          6.1 
      1175.0         0.20          5.9 
      1176.0         0.25          5.9 
      1177.0         0.30          5.8 
      1178.0         0.27          5.7 
      1179.0         0.37          5.7 
      1180.0         0.27          5.9 
      1181.0         0.20          5.8 
      1182.0         0.27          6.1 
      1183.0         0.23          5.9 
      1184.0         0.17          6.1 
      1185.0         0.17          5.8 
      1186.0         0.17          6.1 
      1187.0         0.17          6.2 
      1188.0         0.17          5.6 
      1189.0         0.17          6.2 
      1190.0         0.17          6.2 
      1191.0         0.22          6.5 
      1192.0         0.20          7.1 
      1193.0         0.17          9.0 
      1194.0         0.20         14.2 
      1195.0         0.17         21.5 
      1196.0         0.17         29.4 
      1197.0         0.13         33.7 
      1198.0         1.57         36.7 
      1199.0         0.30         10.4 
      1200.0         0.38          8.5 
      1201.0         0.40          6.8 
      1202.0         0.20          6.1 
      1203.0         0.27          6.1 
      1204.0         0.23          6.1 
      1205.0         0.27          6.4 
      1206.0         0.30          6.7 
      1207.0         0.30          6.4 
      1208.0         0.23          6.2 
      1209.0         0.27          6.1 
      1210.0         0.27          6.4 
      1211.0         0.20          6.4 
      1212.0         0.22          5.9 
      1213.0         0.23          6.4 
      1214.0         0.33          6.2 
      1215.0         0.20          5.8 
      1216.0         0.30          5.8 
      1217.0         0.23          6.4 
      1218.0         0.37          6.4 
      1219.0         0.27          7.4 
      1220.0         0.23          6.9 
      1221.0         0.23          6.8 
      1222.0         0.20          6.4 
      1223.0         0.27          6.2 
      1224.0         0.27          6.4 
      1225.0         0.28          7.5 
      1226.0         0.33         15.8 
      1227.0         0.33         43.4 
      1228.0         2.25         56.6 
      1229.0         0.53          9.9 
      1230.0         0.33          9.2 
      1231.0         0.43         10.4 
      1232.0         0.43         10.1 
      1233.0         0.43          9.4 
      1234.0         0.40          8.1 
      1235.0         0.58          8.8 
      1236.0         0.53          8.2 
      1237.0         0.37          7.3 
      1238.0         0.17          7.0 
      1239.0         0.20          7.4 
      1240.0         0.20          7.3 
      1241.0         0.30          7.5 
      1242.0         0.23          6.8 
      1243.0         0.23          7.6 
      1244.0         0.23          7.6 
      1245.0         0.23          6.9 
      1246.0         0.20          6.5 
      1247.0         0.23          6.6 
      1248.0         0.18          6.4 
      1249.0         0.20          6.5 
      1250.0         0.20          7.0 
      1251.0         0.17          7.7 
      1252.0         0.20         10.0 
      1253.0         0.27         21.1 
      1254.0         0.20         39.0 
      1255.0         0.10         48.7 
      1256.0         0.13         59.9 
      1257.0         0.17         65.9 
      1258.0         1.62         66.4 
      1259.0         0.33          9.6 
      1260.0         0.33          8.2 
      1261.0         0.27          6.7 
      1262.0         0.23          7.1 
      1263.0         0.23          7.4 
      1264.0         0.23          6.9 
      1265.0         0.23          7.0 
      1266.0         0.23          6.7 
      1267.0         0.23          6.4 
      1268.0         0.23          5.9 
      1269.0         0.23          6.2 
      1270.0         0.23          5.8 
      1271.0         0.22          6.0 
      1272.0         0.13          5.6 
      1273.0         0.20          5.8 
      1274.0         0.17          6.0 
      1275.0         0.20          6.0 
      1276.0         0.23          6.2 
      1277.0         0.20          5.8 
      1278.0         0.20          6.5 
      1279.0         0.20          6.3 
      1280.0         0.17          6.6 
      1281.0         0.17          6.5 
      1282.0         0.20          6.6 
      1283.0         0.23          7.9 
      1284.0         0.17         10.2 
      1285.0         0.27         25.6 
      1286.0         0.20         43.4 
      1287.0         0.20         48.8 
      1288.0         2.45         49.0 
      1289.0         0.37          7.6 
      1290.0         0.37          6.6 
      1291.0         0.32          6.2 
      1292.0         0.37          6.3 
      1293.0         0.27          6.3 
      1294.0         0.27          5.9 
      1295.0         0.23          6.6 
      1296.0         0.23          6.4 
      1297.0         0.23          6.3 
      1298.0         0.23          6.2 
      1299.0         0.23          6.3 
      1300.0         0.20          6.5 
      1301.0         0.20          7.0 
      1302.0         0.20          6.7 
