~Version Information
VERS.                      2.0: CWLS Log ASCII Standard - VERSION 2.0
WRAP.                       NO: One line per depth step
~Well Information Block
STRT.FT               780.0000: 
STOP.FT              1557.5000: 
STEP.FT                 0.1000: 
NULL.                -999.2500: 
COMP.          Pioneer Natural Resources: COMPANY
WELL.          Bunner's 13-26 Tr: WELL
FLD.           Purgatoire River: FIELD
LOC.           1843' FSL & 456' FWL----: LOCATION
PROV.                 Colorado: PROVINCE
CNTY.               Las Animas: COUNTRY
SRVC.                Patterson: SERVICE COMPANY
DATE.          Tue Mar 29 07:41:16 2005: LOG DATE
UWI.           05 071 08331 00: UNIQUE WELL ID
~Curve Information Block
DEPT.FT            0 000 00 00: Depth
DCAL.in                       : CDL Caliper
RHOB.g/cc                     : CDL Bulk Density
RHOC.g/cc                     : CDL Density Correction
DPOR.pu                       : CDL Density Porosity
NPOR.pu                       : Neutron Porosity
GR.GAPI                       : Gamma Ray
~Parameter Information Block
~A  Depth       DCAL        RHOB        RHOC        DPOR        NPOR         GR     
# ...
  1480.8000      7.8172      2.5229      0.0784      7.7028     16.9895    123.8175
  1480.9000      7.8172      2.5287      0.0816      7.3511     17.0505    128.9574
  1481.0000      7.8121      2.5494      0.0644      6.0955     16.9127    136.6009
  1481.1000      7.8121      2.5802      0.1174      4.2304     16.3006    141.0694
  1481.2000      7.8121      2.6014      0.1173      2.9469     15.3156    140.3806
  1481.3000      7.8097      2.5999      0.1247      3.0334     13.8256    137.2595
  1481.4000      7.8097      2.5843      0.0759      3.9811     12.1412    134.1162
  1481.5000      7.8093      2.5763      0.0538      4.4697     11.6896    132.2355
  1481.6000      7.8093      2.5868      0.0747      3.8280     14.1902    131.1807
  1481.7000      7.8093      2.6068      0.0781      2.6196     21.4372    130.7916
  1481.8000      7.8110      2.6207      0.0980      1.7752     32.7205    131.6241
  1481.9000      7.8110      2.6194      0.1180      1.8545     43.1828    131.4561
  1482.0000      7.8125      2.6097      0.0535      2.4398     49.7702    127.4318
  1482.1000      7.8125      2.6067      0.0960      2.6270     53.8317    119.7095
  1482.2000      7.8125      2.6057      0.0991      2.6837     56.9786    110.4003
  1482.3000      7.8119      2.5951      0.0822      3.3261     59.3466    102.4977
  1482.4000      7.8119      2.5841      0.0665      3.9940     20.5541     97.8695
  1482.5000      7.8110      2.5908      0.0893      3.5908     23.9698     98.9041
  1482.6000      7.8110      2.6075      0.1145      2.5760     25.2695    106.8377
  1482.7000      7.8110      2.6147      0.0933      2.1410     25.5085    115.5783
  1482.8000      7.8130      2.6100      0.0915      2.4239     25.2177    118.9763
  1482.9000      7.8130      2.6038      0.0709      2.7991     24.6329    117.5317
  1483.0000      7.8145      2.6128      0.0003      2.2523     24.4939    112.5127
  1483.1000      7.8145      2.6376      0.1113      0.7504     24.6515    105.6515
  1483.2000      7.8145      2.6556      0.0809     -0.3404     24.1872    100.7675
  1483.3000      7.8135      2.6636      0.0499     -0.8257     23.2761     99.3051
  1483.4000      7.8135      2.6761      0.0638     -1.5832     22.7493     98.3340
  1483.5000      7.8130      2.6893      0.1037     -2.3841     22.7943     96.3969
  1483.6000      7.8130      2.6874      0.1390     -2.2662     22.9176     96.5983
  1483.7000      7.8130      2.6701      0.0926     -1.2187     22.8860     99.9296
  1483.8000      7.8125      2.6520      0.0934     -0.1231     22.9869    102.7277
  1483.9000      7.8125      2.6464      0.0546      0.2201     23.1263    101.7814
  1484.0000      7.8103      2.6526      0.0946     -0.1583     23.0578     97.2060
  1484.1000      7.8103      2.6565      0.0681     -0.3923     23.0586     89.6080
  1484.2000      7.8103      2.6509      0.0651     -0.0524     23.1821     83.1948
  1484.3000      7.8089      2.6411      0.0425      0.5403     23.1698     84.3149
  1484.4000      7.8089      2.6391      0.0435      0.6626     23.0337     91.3160
  1484.5000      7.8093      2.6512      0.0229     -0.0756     22.8195     97.6772
  1484.6000      7.8093      2.6597      0.0957     -0.5863     22.8484     99.5848
  1484.7000      7.8093      2.6404      0.0784      0.5833     23.1994     99.3501
  1484.8000      7.8106      2.6057      0.0122      2.6852     23.2984     99.9623
  1484.9000      7.8106      2.5802      0.0623      4.2275     23.0448     97.5619
  1485.0000      7.8129      2.5664     -0.0148      5.0661     22.8709     90.6824
  1485.1000      7.8129      2.5665     -0.0062      5.0605     22.9569     87.0954
  1485.2000      7.8129      2.5829      0.0297      4.0668     23.1185     90.3246
  1485.3000      7.8087      2.6018      0.0580      2.9212     23.0533     94.8017
  1485.4000      7.8087      2.6046      0.0916      2.7519     22.7070     96.9192
  1485.5000      7.7819      2.5920      0.0737      3.5137     22.3234     98.4383
  1485.6000      7.7819      2.5814      0.0691      4.1600     22.1615     99.8812
  1485.7000      7.7819      2.5796      0.0930      4.2668     22.4841     99.2751
  1485.8000      7.7408      2.5819      0.1090      4.1297     23.1980     96.4757
  1485.9000      7.7408      2.5875      0.1153      3.7850     23.5984     91.5914
  1486.0000      7.7199      2.5977      0.1428      3.1700     23.2777     84.0481
  1486.1000      7.7199      2.6089      0.1498      2.4917     22.4353     78.4551
  1486.2000      7.7199      2.6174      0.1742      1.9743     21.6677     79.6473
  1486.3000      7.7227      2.6241      0.1265      1.5681     21.4352     84.0925
  1486.4000      7.7227      2.6365      0.1311      0.8180     21.6062     86.5726
  1486.5000      7.7472      2.6521      0.1330     -0.1273     22.0950     87.3657
  1486.6000      7.7472      2.6578      0.1316     -0.4732     22.8960     88.5199
  1486.7000      7.7472      2.6536      0.0782     -0.2158     23.2291     88.1961
  1486.8000      7.7859      2.6498      0.1195      0.0112     22.3667     85.2864
  1486.9000      7.7859      2.6500      0.0502      0.0022     21.0891     83.1043
  1487.0000      7.8110      2.6550      0.0778     -0.3010     20.5207     82.6736
  1487.1000      7.8110      2.6626      0.0786     -0.7649     20.5297     83.7546
  1487.2000      7.8110      2.6699      0.0768     -1.2037     20.3667     86.8335
  1487.3000      7.8198      2.6735      0.0898     -1.4258     19.8982     89.9477
  1487.4000      7.8198      2.6624      0.1218     -0.7496     19.6004     91.6888
  1487.5000      7.8221      2.6314      0.0690      1.1279     19.9758     93.6146
  1487.6000      7.8221      2.6041     -0.0009      2.7794     20.8535     95.1588
  1487.7000      7.8221      2.6090      0.0296      2.4869     21.5875     94.2289
  1487.8000      7.8217      2.6405      0.0631      0.5781     22.0459     91.9930
  1487.9000      7.8217      2.6673      0.0725     -1.0464     22.2256     91.8032
  1488.0000      7.8211      2.6696      0.0542     -1.1908     21.9506     94.9610
  1488.1000      7.8211      2.6565      0.0558     -0.3954     21.5611    100.5102
  1488.2000      7.8211      2.6438      0.0583      0.3750     21.6180    106.8928
  1488.3000      7.8219      2.6374      0.0441      0.7611     22.2537    109.7202
  1488.4000      7.8219      2.6390      0.0533      0.6692     22.8316    105.7654
  1488.5000      7.8229      2.6450      0.0483      0.3006     22.6960     99.5061
  1488.6000      7.8229      2.6452      0.0462      0.2928     22.2367     96.5571
  1488.7000      7.8229      2.6327      0.0652      1.0500     22.0456     97.0278
  1488.8000      7.8188      2.6171      0.0468      1.9933     22.1008     97.7188
  1488.9000      7.8188      2.6171      0.0349      1.9946     22.3819     95.1268
  1489.0000      7.8039      2.6350      0.0573      0.9081     22.8315     90.5797
  1489.1000      7.8039      2.6482      0.0990      0.1102     23.1484     89.8313
  1489.2000      7.8039      2.6484      0.0434      0.0964     23.0331     93.4022
  1489.3000      7.7838      2.6555      0.0665     -0.3324     22.7174     96.3380
  1489.4000      7.7838      2.6694      0.0999     -1.1757     22.7044     96.1186
  1489.5000      7.7728      2.6719      0.0897     -1.3293     22.7274     92.5885
  1489.6000      7.7728      2.6634      0.0973     -0.8138     22.3019     87.9729
  1489.7000      7.7728      2.6540      0.0919     -0.2438     21.5742     84.9991
  1489.8000      7.7691      2.6450      0.0656      0.3056     20.9334     83.5525
  1489.9000      7.7691      2.6386      0.0644      0.6883     20.7757     82.1604
  1490.0000      7.7677      2.6470      0.0493      0.1839     21.0169     78.7894
  1490.1000      7.7677      2.6718      0.1010     -1.3220     21.0326     75.8074
  1490.2000      7.7677      2.6934      0.0964     -2.6322     20.4781     78.3455
  1490.3000      7.7682      2.6918      0.0989     -2.5330     19.6754     85.2494
