~Version Information
 VERS.                                  2.0 : CWLS LAS VERSION
 WRAP.                                   NO : WRAPING MODE
 SWARE .                 MController 2.5.0E : SOFTWARE VERSION
~Well Information
 WELL.                                  N/A : WELL
 COMP.                                  N/A : COMPANY
 FLD.                                   N/A : FIELD
 LOC.                                   N/A : LOCATION
 DATE.                                  N/A : DATE(S) LOGGED
 SRVC.                                  N/A : SERVICE COMPANY
 STAT.                                  N/A : STATE
 CNTY.                                  N/A : COUNTY
 CTRY.                                  N/A : COUNTRY
 API.                                   N/A : API NUMBER
 STRT.FT                            1016.00 : START DEPTH
 STOP.FT                            2595.00 : STOP DEPTH
 STEP.FT                               1.00 : DEPTH INCREMENT
 NULL.                                -9999 : NULL VALUE
~Curve information
 DEPTH.FT                                   :
 ROP.MIN/FT                                 :
 GAS.UNITS                                  :
~ASCII Log data
# ...
     1216.00        0.200         27.1 
     1217.00        0.200         25.8 
     1218.00        0.233         20.7 
     1219.00        0.267         17.7 
     1220.00        0.233         17.3 
     1221.00        0.200         17.8 
     1222.00        0.267         19.2 
     1223.00        0.233         19.2 
     1224.00        0.267         19.9 
     1225.00        0.200         20.1 
     1226.00        4.567        108.7 
     1227.00        0.567         97.4 
     1228.00        0.400         74.3 
     1229.00        0.433         66.3 
     1230.00        0.400         71.1 
     1231.00        0.400         68.3 
     1232.00        0.333         66.2 
     1233.00        0.350         59.8 
     1234.00        0.233         50.7 
     1235.00        0.233         49.3 
     1236.00        0.200         44.3 
     1237.00        0.200         42.4 
     1238.00        0.233         39.4 
     1239.00        0.200         38.2 
     1240.00        0.200         38.2 
     1241.00        0.200         36.0 
     1242.00        0.167         35.4 
     1243.00        0.200         34.7 
     1244.00        0.267         33.0 
     1245.00        0.267         31.7 
     1246.00        0.333         30.2 
     1247.00        0.350         29.8 
     1248.00        0.267         28.6 
     1249.00        0.267         28.5 
     1250.00        0.533         29.1 
     1251.00        0.533         27.9 
     1252.00        0.267         26.7 
     1253.00        0.333         27.0 
     1254.00        0.567         28.2 
     1255.00        0.550         25.8 
     1256.00        1.867         23.5 
     1257.00        0.733         15.4 
     1258.00        0.683        127.6 
     1259.00        0.567        120.3 
     1260.00        0.333         87.0 
     1261.00        0.267         77.0 
     1262.00        0.400         69.4 
     1263.00        0.300         68.7 
     1264.00        0.267         65.4 
     1265.00        0.233         65.8 
     1266.00        0.300         65.3 
     1267.00        0.233         63.2 
     1268.00        0.483         61.4 
     1269.00        0.267         55.0 
     1270.00        0.600         43.2 
     1271.00        0.267         33.8 
     1272.00        0.467         31.6 
     1273.00        0.267         28.5 
     1274.00        0.567         27.3 
     1275.00        0.267         18.0 
     1276.00        0.267         17.5 
     1277.00        0.550         16.6 
     1278.00        0.700         16.3 
     1279.00        0.267         15.5 
     1280.00        0.533         15.9 
     1281.00        0.267         17.1 
     1282.00        0.700         17.1 
     1283.00        0.400         13.7 
     1284.00        0.283         11.7 
     1285.00        0.800          9.7 
     1286.00        2.517        112.0 
     1287.00        0.300        109.8 
     1288.00        0.267         96.7 
     1289.00        0.267         72.6 
     1290.00        0.533         71.5 
     1291.00        0.267         52.9 
     1292.00        0.200         52.9 
     1293.00        0.333         55.8 
     1294.00        0.267         58.6 
     1295.00        0.333         56.8 
     1296.00        0.467         50.2 
     1297.00        0.150         41.6 
     1298.00        0.400         42.5 
     1299.00        0.333         43.5 
     1300.00        0.533         39.7 
     1301.00        0.367         35.2 
     1302.00        0.533         26.5 
     1303.00        0.533         22.1 
     1304.00        0.233         18.7 
     1305.00        0.550         18.1 
     1306.00        0.267         17.3 
     1307.00        0.367         16.0 
     1308.00        0.167         14.3 
     1309.00        0.533         13.5 
     1310.00        0.167         13.6 
     1311.00        0.367         12.8 
     1312.00        0.200         13.3 
     1313.00        0.467         14.7 
     1314.00        0.267         15.6 
     1315.00        0.267         15.6 
     1316.00        2.283         43.1 
     1317.00        0.900         38.0 
     1318.00        0.917        168.9 
     1319.00        0.700        191.7 
     1320.00        0.333        170.3 
     1321.00        0.267        152.0 
     1322.00        0.233        135.8 
     1323.00        0.233        124.3 
     1324.00        0.233        121.9 
     1325.00        0.200        113.1 
     1326.00        0.233        111.5 
     1327.00        0.217        109.2 
     1328.00        0.233        106.2 
     1329.00        0.233        103.6 
     1330.00        0.233        103.0 
     1331.00        0.267         97.6 
     1332.00        0.333         93.2 
     1333.00        0.333         84.8 
     1334.00        0.333         76.9 
     1335.00        0.300         69.7 
     1336.00        0.200         63.9 
     1337.00        0.233         62.4 
     1338.00        0.233         58.0 
     1339.00        0.200         55.9 
     1340.00        0.183         54.8 
     1341.00        0.167         53.3 
     1342.00        0.167         54.5 
     1343.00        0.200         54.0 
     1344.00        0.267         51.6 
     1345.00        0.533         49.4 
     1346.00        5.767         47.9 
     1347.00        1.033         51.8 
     1348.00        0.467         68.8 
     1349.00        0.400         67.5 
     1350.00        0.367         62.0 
     1351.00        0.267         56.4 
     1352.00        0.283         50.6 
     1353.00        0.267         50.1 
     1354.00        0.267         51.6 
     1355.00        0.200         51.6 
     1356.00        0.233         56.2 
     1357.00        0.267         59.3 
     1358.00        0.233         61.0 
     1359.00        0.167         61.6 
     1360.00        0.200         61.2 
     1361.00        0.233         59.6 
     1362.00        0.233         59.3 
     1363.00        0.167         53.9 
     1364.00        0.167         53.9 
     1365.00        0.233         53.4 
     1366.00        0.167         50.5 
     1367.00        0.167         49.7 
     1368.00        0.183         48.7 
     1369.00        0.167         48.7 
     1370.00        0.167         48.8 
     1371.00        0.167         47.8 
     1372.00        0.200         47.8 
     1373.00        0.300         47.0 
     1374.00        0.333         46.3 
     1375.00        0.267         45.3 
     1376.00        5.533         45.2 
     1377.00        0.600         40.3 
     1378.00        0.567         36.1 
     1379.00        0.500         34.9 
     1380.00        0.300         35.2 
     1381.00        0.300         40.7 
     1382.00        0.467         57.5 
     1383.00        0.250         58.4 
     1384.00        0.333         56.6 
     1385.00        0.300         51.7 
     1386.00        0.267         46.2 
     1387.00        0.300         44.5 
     1388.00        0.333         43.2 
     1389.00        0.267         42.8 
     1390.00        0.267         43.5 
     1391.00        0.267         46.2 
     1392.00        0.267         48.8 
     1393.00        0.233         50.8 
     1394.00        0.267         53.2 
     1395.00        0.517         57.5 
     1396.00        0.333         57.4 
     1397.00        0.400         54.5 
     1398.00        0.367         53.2 
     1399.00        0.333         50.3 
     1400.00        0.300         46.0 
     1401.00        0.333         44.6 
     1402.00        0.367         44.2 
     1403.00        0.367         43.8 
     1404.00        0.350         43.8 
     1405.00        0.533         43.6 
     1406.00        4.117         45.2 
     1407.00        0.633         42.0 
     1408.00        0.433         40.1 
     1409.00        0.267         37.2 
     1410.00        0.467         36.0 
     1411.00        0.717         35.8 
     1412.00        0.567         54.3 
     1413.00        0.200         58.4 
     1414.00        0.300         72.9 
     1415.00        0.367         70.9 
