~Version Information
VERS.                      2.0: CWLS Log ASCII Standard - VERSION 2.0
WRAP.                       NO: One line per depth step
~Well Information Block
STRT.FT                 0.5000: 
STOP.FT              1575.0000: 
STEP.FT                 0.2500: 
NULL.                -999.2500: 
COMP.          Evergreen Operating Corporation: COMPANY
WELL.                Eric 42-9: WELL
FLD.           Purgatorie River: FIELD
LOC.           2050' FNL & 850' FEL: LOCATION
PROV.                 Colorado: PROVINCE
CNTY.               Las Animas: COUNTRY
SRVC.                         : SERVICE COMPANY
DATE.          Tue Nov 09 16:28:59 2004: LOG DATE
UWI.           05 071 07999 00: UNIQUE WELL ID
~Curve Information Block
DEPT.FT            0 000 00 00: Depth
LTEN.lb                       : Surface Line Tension
TT3.usec                      : CBL 3' Travel Time
AMP3.mV                       : CBL 3' Amplitude
ATT3.db/ft                    : CBL 3' Attenuation
GR.GAPI                       : Gamma Ray
CCL.                          : Casing Collar Locator
~Parameter Information Block
~A  Depth       LTEN        TT3         AMP3        ATT3         GR         CCL     
# ...
   624.5000    532.6056    772.9492      5.0524     -8.4890    117.1304      0.0000
   624.7500    533.9469    770.4285      5.0341     -8.4996    120.1842      0.0000
   625.0000    531.3596    770.0681      5.0506     -8.4901    125.4969      0.0000
   625.2500    525.7907    771.9846      5.0747     -8.4763    131.2887      0.0000
   625.5000    520.0942    774.2950      5.0812     -8.4726    136.1377      0.0000
   625.7500    516.3940    775.5658      5.0650     -8.4818    139.5476      0.0000
   626.0000    514.6152    776.0429      5.0449     -8.4934    141.0282      0.0000
   626.2500    513.7751    776.3858      5.0468     -8.4923    139.5848      0.0000
   626.5000    513.7542    776.1125      5.0813     -8.4726    134.8939      0.0000
   626.7500    515.2921    774.0551      5.1384     -8.4402    128.8109      0.0000
   627.0000    518.8367    770.0415      5.2016     -8.4048    124.8949      0.0000
   627.2500    523.8494    765.3350      5.2631     -8.3708    125.8920      0.0000
   627.5000    528.8633    760.9581      5.3229     -8.3380    131.6826      0.0000
   627.7500    531.9272    755.6998      5.3773     -8.3086    139.7656      0.0000
   628.0000    531.5545    746.3732      5.4135     -8.2892    147.3544      0.0000
   628.2500    527.9452    731.1276      5.4185     -8.2865    152.6561      0.0000
   628.5000    523.1207    713.3640      5.3904     -8.3016    154.8690      0.0000
   628.7500    519.3874    701.4850      5.3421     -8.3276    154.2286      0.0000
   629.0000    517.6989    702.6083      5.2972     -8.3521    152.2269      0.0000
   629.2500    517.6404    716.0449      5.2792     -8.3619    150.9285      0.0000
   629.5000    518.6536    734.0116      5.2952     -8.3532    151.7140      0.0000
   629.7500    520.7303    747.9944      5.3253     -8.3367    154.7773      0.0000
   630.0000    523.8752    752.7818      5.3358     -8.3311    159.2966      0.0000
   630.2500    527.4304    745.7974      5.3125     -8.3437    163.4710      0.0000
   630.5000    530.3124    726.5905      5.2811     -8.3609    165.0186      0.0000
   630.7500    531.6780    699.3925      5.2890     -8.3566    162.7850      0.0000
   631.0000    531.2188    674.5996      5.3630     -8.3163    157.9320      0.0000
   631.2500    529.2463    663.8937      5.4800     -8.2538    152.9420      0.0000
   631.5000    526.7463    671.6379      5.5772     -8.2029    149.4194      0.0000
   631.7500    525.0148    691.7382      5.6000     -8.1911    147.1721      0.0000
   632.0000    524.9831    713.7136      5.5498     -8.2172    145.3288      0.0000
   632.2500    526.7317    731.3765      5.4832     -8.2522    143.7828      0.0000
   632.5000    529.4212    746.3434      5.4582     -8.2654    143.2084      0.0000
   632.7500    531.5968    765.4493      5.4867     -8.2503    143.8941      0.0000
   633.0000    531.7413    795.0582      5.5380     -8.2233    144.8714      0.0000
   633.2500    529.0979    834.6235      5.5747     -8.2042    144.2500      0.0000
   633.5000    524.4418    873.1031      5.5738     -8.2047    140.5737      0.0000
   633.7500    519.8018    893.4683      5.5274     -8.2289    134.1580      0.0000
   634.0000    516.9336    884.9536      5.4445     -8.2727    127.1035      0.0000
   634.2500    516.0486    852.6238      5.3516     -8.3225    121.8221      0.0000
   634.5000    516.1837    813.8107      5.2698     -8.3671    119.4178      0.0000
   634.7500    516.5587    784.7106      5.1849     -8.4141    119.3898      0.0000
   635.0000    517.2047    770.5076      5.0633     -8.4828    120.6037      0.0000
   635.2500    518.3081    766.3306      4.9041     -8.5753    122.1699      0.0000
   635.5000    519.5206    764.6351      4.7567     -8.6637    123.6734      0.0000
   635.7500    520.2948    761.2943      4.6745     -8.7142    125.2685      0.0000
   636.0000    520.4607    756.7956      4.6688     -8.7176    127.6695      0.0000
   636.2500    520.0170    753.7074      4.7150     -8.6891    131.5396      0.0000
   636.5000    518.8708    753.9555      4.7860     -8.6459    136.6997     -3.0000
   636.7500    517.2199    758.6544      4.8708     -8.5950    141.8286      0.0000
   637.0000    515.6965    769.4227      4.9651     -8.5395    144.7846      0.0000
   637.2500    514.8933    787.6163      5.0518     -8.4894    143.6210      0.0000
   637.5000    515.2358    811.4281      5.0928     -8.4660    137.8840      0.0000
   637.7500    517.2808    835.8085      5.0505     -8.4901    128.8521      0.0000
   638.0000    521.2658    856.7844      4.9308     -8.5596    118.3259      0.0000
   638.2500    526.0916    873.5978      4.7925     -8.6419    107.5204      0.0000
   638.5000    529.4782    884.4950      4.6958     -8.7010     97.1411      0.0000
   638.7500    529.5470    882.7927      4.6465     -8.7315     87.8003      0.0000
   639.0000    526.1367    860.1926      4.6024     -8.7591     79.9306      0.0000
   639.2500    520.8734    813.8616      4.5289     -8.8057     73.5774      0.0000
   639.5000    516.2972    750.4495      4.4328     -8.8679     68.6468      0.0000
   639.7500    514.5674    684.9651      4.3443     -8.9262     65.2683      0.0000
   640.0000    516.4979    635.2083      4.2812     -8.9686     63.6576      0.0000
   640.2500    521.5970    614.3359      4.2411     -8.9959     63.6703      0.0000
   640.5000    528.5775    625.8857      4.2232     -9.0081     64.8218      0.0000
   640.7500    535.5087    663.0651      4.2411     -8.9959     66.7807      0.0000
   641.0000    540.0762    711.6000      4.3047     -8.9528     69.6521      0.0000
   641.2500    540.7468    756.0786      4.3990     -8.8900     73.8072      0.0000
   641.5000    537.8517    787.2572      4.4923     -8.8292     79.5452      0.0000
   641.7500    533.1033    804.6982      4.5611     -8.7852     86.7018      0.0000
   642.0000    528.2228    812.9939      4.5977     -8.7621     94.3791      0.0000
   642.2500    524.3836    816.2309      4.5991     -8.7612    101.2766      0.0000
   642.5000    522.3254    815.6292      4.5638     -8.7835    106.6657      0.0000
   642.7500    522.0973    811.0891      4.5043     -8.8215    110.9961      0.0000
   643.0000    522.8088    803.9518      4.4522     -8.8552    115.1143      0.0000
   643.2500    523.1675    797.3531      4.4370     -8.8651    118.6757      0.0000
   643.5000    522.3306    793.4955      4.4584     -8.8512    119.7252      0.0000
   643.7500    520.2728    791.2768      4.4857     -8.8335    116.2292      0.0000
   644.0000    517.6565    787.6671      4.4878     -8.8321    108.1153      0.0000
   644.2500    515.5023    781.6984      4.4580     -8.8515     97.8021      0.0000
   644.5000    514.7860    777.5109      4.4079     -8.8842     88.5969      0.0000
   644.7500    516.0118    784.0416      4.3443     -8.9262     82.2734      0.0000
   645.0000    518.8365    811.1180      4.2614     -8.9820     78.0615      0.0000
   645.2500    522.1297    862.1830      4.1548     -9.0553     74.0019      0.0000
   645.5000    524.6741    926.6058      4.0357     -9.1396     69.0879      0.0000
   645.7500    525.8948    979.9012      3.9267     -9.2188     63.9942      0.0000
   646.0000    525.9164    998.1537      3.8478     -9.2776     60.0922      0.0000
   646.2500    525.1315    977.0309      3.8055     -9.3096     58.2126      0.0000
   646.5000    523.9393    935.0668      3.7907     -9.3209     58.3540      0.0000
   646.7500    522.8765    897.5005      3.7853     -9.3250     60.0811      0.0000
   647.0000    522.7850    879.9740      3.7733     -9.3342     62.7561      0.0000
   647.2500    524.5659    886.6280      3.7506     -9.3517     65.5016      0.0000
   647.5000    528.3877    916.8214      3.7252     -9.3714     67.4060      0.0000
   647.7500    532.9372    968.4230      3.7096     -9.3835     67.9573      0.0000
   648.0000    535.8596   1033.2007      3.7117     -9.3819     67.2063      0.0000
   648.2500    535.5797   1090.3860      3.7287     -9.3687     65.6102      0.0000
