~Version Information
VERS.                      2.0: CWLS Log ASCII Standard - VERSION 2.0
WRAP.                       NO: One line per depth step
~Well Information Block
STRT.FT               395.0000: 
STOP.FT              1998.0000: 
STEP.FT                 0.2500: 
NULL.                -999.2500: 
COMP.          Pioneer Natural Resources: COMPANY
WELL.          Easton 12-30 Tr: WELL
FLD.           Purgatoire River: FIELD
LOC.           549' FWL & 2416' FNL--: LOCATION
PROV.                 Colorado: PROVINCE
CNTY.               Las Animas: COUNTRY
SRVC.                Patterson: SERVICE COMPANY
DATE.          Wed Jun 01 17:36:02 2005: LOG DATE
UWI.           05 071 08379 00: UNIQUE WELL ID
~Curve Information Block
DEPT.FT            0 000 00 00: Depth
SN.Ohm-m                      : IEL Short Normal
SP.mV                         : IEL Spontaneous Potential
DIR.Ohm-m                     : IEL Induction Resistivity
GR.GAPI                       : Gamma Ray
~Parameter Information Block
~A  Depth        SN          SP         DIR          GR     
# ...
   596.0000   2000.0000   -999.2500     19.7444    144.5694
   596.2500   2000.0000   -999.2500     19.5387    144.5385
   596.5000   2000.0000   -999.2500     19.3376    142.4456
   596.7500   2000.0000   -999.2500     19.1549    140.1680
   597.0000   2000.0000   -999.2500     19.0067    136.9209
   597.2500   2000.0000   -999.2500     18.9079    135.4263
   597.5000   2000.0000   -999.2500     18.8700    133.8959
   597.7500   2000.0000   -999.2500     18.8973    132.8201
   598.0000   2000.0000   -999.2500     18.9871    130.8319
   598.2500   2000.0000   -999.2500     19.1322    129.6648
   598.5000   2000.0000   -999.2500     19.3266    129.0478
   598.7500   2000.0000   -999.2500     19.5693    129.4081
   599.0000   2000.0000   -999.2500     19.8630    130.0602
   599.2500   2000.0000   -999.2500     20.2071    129.9222
   599.5000   2000.0000   -999.2500     20.5905    128.7784
   599.7500   2000.0000   -999.2500     20.9915    127.8349
   600.0000   2000.0000   -999.2500     21.3894    126.6530
   600.2500   2000.0000   -999.2500     21.7804    125.8814
   600.5000   2000.0000   -999.2500     22.1826    124.2191
   600.7500   2000.0000   -999.2500     22.6261    122.6190
   601.0000   2000.0000   -999.2500     23.1364    119.5710
   601.2500   2000.0000   -999.2500     23.7270    117.2708
   601.5000   2000.0000   -999.2500     24.4013    113.7786
   601.7500   2000.0000   -999.2500     25.1602    111.6338
   602.0000   2000.0000   -999.2500     26.0057    108.8783
   602.2500   2000.0000   -999.2500     26.9392    107.2784
   602.5000   2000.0000   -999.2500     27.9548    105.0088
   602.7500   2000.0000   -999.2500     29.0341    103.6481
   603.0000   2000.0000   -999.2500     30.1461    102.3709
   603.2500   2000.0000   -999.2500     31.2508    102.2364
   603.5000   2000.0000   -999.2500     32.3035    102.6710
   603.7500   2000.0000   -999.2500     33.2571    102.7885
   604.0000   2000.0000   -999.2500     34.0709    101.7802
   604.2500   2000.0000   -999.2500     34.7240    100.0516
   604.5000   2000.0000   -999.2500     35.2282     96.0910
   604.7500   2000.0000   -999.2500     35.6260     93.0807
   605.0000   2000.0000   -999.2500     35.9776     89.2894
   605.2500   2000.0000   -999.2500     36.3412     87.9198
   605.5000   2000.0000   -999.2500     36.7539     88.3840
   605.7500   2000.0000   -999.2500     37.2180     90.4968
   606.0000   2000.0000   -999.2500     37.6966     95.7000
   606.2500   2000.0000   -999.2500     38.1248     99.6458
   606.5000   2000.0000   -999.2500     38.4317    104.6424
   606.7500   2000.0000   -999.2500     38.5669    106.7985
   607.0000   2000.0000   -999.2500     38.5225    108.2144
   607.2500   2000.0000   -999.2500     38.3427    108.1384
   607.5000   2000.0000   -999.2500     38.1077    106.5916
   607.7500   2000.0000   -999.2500     37.8983    104.5326
   608.0000   2000.0000   -999.2500     37.7627    100.1755
   608.2500   2000.0000   -999.2500     37.7147     97.1119
   608.5000   2000.0000   -999.2500     37.7601     93.9876
   608.7500   2000.0000   -999.2500     37.9183     93.4561
   609.0000   2000.0000   -999.2500     38.2092     94.3177
   609.2500   2000.0000   -999.2500     38.6154     95.0658
   609.5000   2000.0000   -999.2500     39.0611     95.5145
   609.7500   2000.0000   -999.2500     39.4354     95.4473
   610.0000   2000.0000   -999.2500     39.6481     95.0705
   610.2500   2000.0000   -999.2500     39.6689     94.4782
   610.5000   2000.0000   -999.2500     39.5194     92.7250
   610.7500   2000.0000   -999.2500     39.2360     91.1014
   611.0000   2000.0000   -999.2500     38.8429     88.6645
   611.2500   2000.0000   -999.2500     38.3527     87.4565
   611.5000   2000.0000   -999.2500     37.7782     86.8945
   611.7500   2000.0000   -999.2500     37.1316     87.6703
   612.0000   2000.0000   -999.2500     36.4150     90.6955
   612.2500   2000.0000   -999.2500     35.6176     93.6346
   612.5000   2000.0000   -999.2500     34.7285     98.3637
   612.7500   2000.0000   -999.2500     33.7544    101.0711
   613.0000   2000.0000   -999.2500     32.7249    103.7291
   613.2500   2000.0000   -999.2500     31.6831    104.5500
   613.5000   2000.0000   -999.2500     30.6731    105.0338
   613.7500   2000.0000   -999.2500     29.7303    105.4383
   614.0000   2000.0000   -999.2500     28.8747    106.9849
   614.2500   2000.0000   -999.2500     28.1066    108.8713
   614.5000   2000.0000   -999.2500     27.4125    112.8249
   614.7500   2000.0000   -999.2500     26.7797    115.7989
   615.0000   2000.0000   -999.2500     26.2093    119.8263
   615.2500   2000.0000   -999.2500     25.7164    121.7499
   615.5000   2000.0000   -999.2500     25.3175    122.9472
   615.7500   2000.0000   -999.2500     25.0171    122.4890
   616.0000   2000.0000   -999.2500     24.8041    120.4060
   616.2500   2000.0000   -999.2500     24.6598    118.9140
   616.5000   2000.0000   -999.2500     24.5702    118.0756
   616.7500   2000.0000   -999.2500     24.5345    118.6572
   617.0000   2000.0000   -999.2500     24.5637    119.9906
   617.2500   2000.0000   -999.2500     24.6702    120.2389
   617.5000   2000.0000   -999.2500     24.8586    119.2145
   617.7500   2000.0000   -999.2500     25.1233    118.0562
   618.0000   2000.0000   -999.2500     25.4556    116.3645
   618.2500   2000.0000   -999.2500     25.8524    115.2255
   618.5000   2000.0000   -999.2500     26.3248    112.8763
   618.7500   2000.0000   -999.2500     26.9007    110.6582
   619.0000   2000.0000   -999.2500     27.6200    106.8276
   619.2500   2000.0000   -999.2500     28.5208    104.6468
   619.5000   2000.0000   -999.2500     29.6244    103.0241
   619.7500   2000.0000   -999.2500     30.9212    103.1873
   620.0000   2000.0000   -999.2500     32.3590    104.8202
   620.2500   2000.0000   -999.2500     33.8380    106.3992
   620.5000   2000.0000   -999.2500     35.2240    108.5963
   620.7500   2000.0000   -999.2500     36.3868    109.2771
   621.0000   2000.0000   -999.2500     37.2477    108.0489
   621.2500   2000.0000   -999.2500     37.8049    105.4569
   621.5000   2000.0000   -999.2500     38.1224     99.4106
   621.7500   2000.0000   -999.2500     38.2971     94.7726
   622.0000   2000.0000   -999.2500     38.4200     88.7754
   622.2500   2000.0000   -999.2500     38.5426     86.3692
   622.5000   2000.0000   -999.2500     38.6524     86.0177
   622.7500   2000.0000   -999.2500     38.6684     88.0116
   623.0000   2000.0000   -999.2500     38.4657     93.7689
   623.2500   2000.0000   -999.2500     37.9251     98.7048
   623.5000   2000.0000   -999.2500     36.9916    106.0000
   623.7500   2000.0000   -999.2500     35.7083    109.8641
   624.0000   2000.0000   -999.2500     34.2040    113.3670
   624.2500   2000.0000   -999.2500     32.6435    114.2477
   624.5000   2000.0000   -999.2500     31.1749    114.3074
   624.7500   2000.0000   -999.2500     29.8973    114.3618
   625.0000   2000.0000   -999.2500     28.8536    115.8922
   625.2500   2000.0000   -999.2500     28.0409    118.2560
   625.5000   2000.0000   -999.2500     27.4270    123.2570
   625.7500   2000.0000   -999.2500     26.9686    126.7058
   626.0000   2000.0000   -999.2500     26.6225    130.5523
   626.2500   2000.0000   -999.2500     26.3521    131.7912
   626.5000   2000.0000   -999.2500     26.1321    131.8021
   626.7500   2000.0000   -999.2500     25.9539    130.8587
   627.0000   2000.0000   -999.2500     25.8276    128.2195
   627.2500   2000.0000   -999.2500     25.7739    125.5878
   627.5000   2000.0000   -999.2500     25.8132    120.3648
   627.7500   2000.0000   -999.2500     25.9619    116.3619
   628.0000   2000.0000   -999.2500     26.2345    110.7697
   628.2500   2000.0000   -999.2500     26.6425    108.1308
   628.5000   2000.0000   -999.2500     27.1853    106.5799
   628.7500   2000.0000   -999.2500     27.8387    107.0071
   629.0000   2000.0000   -999.2500     28.5525    108.8844
   629.2500   2000.0000   -999.2500     29.2605    110.2864
