~Version Information
VERS.                      2.0: CWLS Log ASCII Standard - VERSION 2.0
WRAP.                       NO: One line per depth step
~Well Information Block
STRT.FT               550.0000: 
STOP.FT              1577.7000: 
STEP.FT                 0.1000: 
NULL.                -999.2500: 
COMP.          Pioneer Natural Resources: COMPANY
WELL.          Kristin 22-23 Tr: WELL
FLD.           Purgatoire River: FIELD
LOC.           2273' FNL & 2029' FWL: LOCATION
PROV.                 Colorado: PROVINCE
CNTY.               Las Animas: COUNTRY
SRVC.                Patterson: SERVICE COMPANY
DATE.          Fri Jan 21 06:58:50 2005: LOG DATE
UWI.           05 071 08259 00: UNIQUE WELL ID
~Curve Information Block
DEPT.FT            0 000 00 00: Depth
DCAL.in                       : CDL Caliper
RHOB.g/cc                     : CDL Bulk Density
RHOC.g/cc                     : CDL Density Correction
DPOR.pu                       : CDL Density Porosity
NPOR.pu                       : Neutron Porosity
GR.GAPI                       : Gamma Ray
~Parameter Information Block
~A  Depth       DCAL        RHOB        RHOC        DPOR        NPOR         GR     
# ...
  1020.4000      8.0467      2.5323      0.0944      7.1330     12.9366     62.3673
  1020.5000      8.0473      2.5125      0.0572      8.3327     12.6255     61.3390
  1020.6000      8.0473      2.4884      0.0349      9.7912     12.5960     58.1253
  1020.7000      8.0473      2.4778      0.0492     10.4382     12.8264     55.6042
  1020.8000      8.0468      2.4795      0.0488     10.3306     12.8246     56.1945
  1020.9000      8.0468      2.4888      0.0370      9.7718     12.6976     58.9067
  1021.0000      8.0456      2.5033      0.0611      8.8923     12.8773     62.8716
  1021.1000      8.0456      2.5135      0.0901      8.2700     13.1820     66.6283
  1021.2000      8.0456      2.5108      0.0782      8.4368     13.2010     66.2378
  1021.3000      8.0454      2.5025      0.0599      8.9420     13.0541     61.9740
  1021.4000      8.0454      2.5042      0.0471      8.8364     13.1305     57.7803
  1021.5000      8.0460      2.5194      0.0718      7.9143     13.4548     54.8646
  1021.6000      8.0460      2.5339      0.0723      7.0382     13.7539     53.2926
  1021.7000      8.0460      2.5312      0.0539      7.2029     13.8268     54.2598
  1021.8000      8.0456      2.5086      0.0697      8.5672     13.6906     58.2395
  1021.9000      8.0456      2.4811      0.0122     10.2388     13.4704     61.1799
  1022.0000      8.0442      2.4701      0.0180     10.9059     13.0065     61.4555
  1022.1000      8.0442      2.4761      0.0867     10.5416     12.4591     63.9978
  1022.2000      8.0442      2.4884      0.0586      9.7963     12.5041     69.6984
  1022.3000      8.0447      2.5097      0.0760      8.5053     13.0643     72.8643
  1022.4000      8.0447      2.5367      0.0920      6.8669     13.5409     71.8405
  1022.5000      8.0459      2.5480      0.1188      6.1813     13.6336     69.7366
  1022.6000      8.0459      2.5274      0.0921      7.4298     13.3356     69.5996
  1022.7000      8.0459      2.4916      0.0162      9.6007     13.1688     72.9306
  1022.8000      8.0456      2.4752      0.0391     10.5918     13.2801     74.9368
  1022.9000      8.0456      2.4843      0.0682     10.0447     13.4929     72.9460
  1023.0000      8.0451      2.4979      0.0625      9.2154     13.9771     70.7730
  1023.1000      8.0451      2.5061      0.0462      8.7237     14.6247     69.9477
  1023.2000      8.0451      2.5072      0.0765      8.6525     15.1029     69.2157
  1023.3000      8.0457      2.5003      0.0412      9.0745     15.4189     69.7535
  1023.4000      8.0457      2.4903      0.0565      9.6788     15.5524     72.1796
  1023.5000      8.0467      2.4857      0.0452      9.9563     15.3173     74.1695
  1023.6000      8.0467      2.4905      0.0739      9.6670     14.8477     73.8686
  1023.7000      8.0467      2.4994      0.0719      9.1245     14.6739     70.7741
  1023.8000      8.0472      2.5064      0.0637      8.7025     14.8708     67.7242
  1023.9000      8.0472      2.5102      0.0757      8.4749     15.2260     66.6414
  1024.0000      8.0464      2.5077      0.0995      8.6230     15.5754     64.6541
  1024.1000      8.0464      2.4936      0.0858      9.4760     15.4634     63.4907
  1024.2000      8.0464      2.4699      0.0451     10.9171     14.7754     67.3148
  1024.3000      8.0444      2.4507      0.0179     12.0799     14.0351     73.2676
  1024.4000      8.0444      2.4491      0.0487     12.1746     13.6226     77.7156
  1024.5000      8.0432      2.4612      0.0377     11.4418     13.4467     77.7090
  1024.6000      8.0432      2.4737      0.0550     10.6867     13.6248     72.2387
  1024.7000      8.0432      2.4833      0.0421     10.1026     14.2886     67.8793
  1024.8000      8.0422      2.4974      0.0865      9.2499     14.9465     68.5029
  1024.9000      8.0422      2.5160      0.0857      8.1212     15.3271     69.5566
  1025.0000      8.0387      2.5313      0.0753      7.1966     15.5317     65.8170
  1025.1000      8.0387      2.5369      0.1103      6.8565     15.3893     60.1180
  1025.2000      8.0387      2.5309      0.0696      7.2190     14.9792     59.9318
  1025.3000      8.0358      2.5190      0.0378      7.9406     14.5817     66.6549
  1025.4000      8.0358      2.5117      0.0484      8.3848     14.2020     73.6528
  1025.5000      8.0388      2.5114      0.0616      8.4006     13.8263     76.0236
  1025.6000      8.0388      2.5080      0.1016      8.6081     13.8413     76.9625
  1025.7000      8.0388      2.4986      0.0740      9.1759     14.1490     79.8730
  1025.8000      8.0427      2.4884      0.0861      9.7958     14.2435     81.2187
  1025.9000      8.0427      2.4770      0.0719     10.4840     14.1423     75.6170
  1026.0000      8.0451      2.4731      0.0202     10.7214     14.3206     63.9307
  1026.1000      8.0451      2.4849      0.0447     10.0034     14.8988     51.9788
  1026.2000      8.0451      2.4996      0.0811      9.1158     14.7673     47.1214
  1026.3000      8.0474      2.5055      0.0743      8.7563     13.5747     51.1659
  1026.4000      8.0474      2.5102      0.0806      8.4738     12.8861     57.3963
  1026.5000      8.0476      2.5217      0.1036      7.7747     13.2250     59.9787
  1026.6000      8.0476      2.5365      0.0923      6.8780     13.6233     60.8523
  1026.7000      8.0476      2.5452      0.1041      6.3529     13.7468     63.0646
  1026.8000      8.0470      2.5455      0.0700      6.3357     14.1086     65.2965
  1026.9000      8.0470      2.5383      0.1062      6.7714     14.7121     67.1423
  1027.0000      8.0467      2.5217      0.0672      7.7779     14.9921     71.5698
  1027.1000      8.0467      2.5042      0.0634      8.8350     14.8531     75.7487
  1027.2000      8.0467      2.4942      0.0781      9.4405     14.8329     72.2765
  1027.3000      8.0470      2.4911      0.0584      9.6314     15.0436     65.8546
  1027.4000      8.0470      2.4942      0.0593      9.4406     14.9542     64.8249
  1027.5000      8.0501      2.4970      0.0919      9.2749     14.4919     66.0191
  1027.6000      8.0501      2.4906      0.0743      9.6624     13.9770     65.8113
  1027.7000      8.0501      2.4761      0.0655     10.5375     13.6766     66.8876
  1027.8000      8.0547      2.4606      0.0671     11.4766     13.8650     71.3392
  1027.9000      8.0547      2.4518      0.0675     12.0123     14.1814     77.9938
  1028.0000      8.0534      2.4539      0.0490     11.8842     14.2874     82.6991
  1028.1000      8.0534      2.4620      0.0828     11.3945     14.4991     82.3907
  1028.2000      8.0534      2.4716      0.0430     10.8118     14.6990     79.9062
  1028.3000      8.0484      2.4814      0.0607     10.2208     14.5711     77.1046
  1028.4000      8.0484      2.4774      0.1003     10.4589     14.2274     72.7573
  1028.5000      8.0443      2.4623      0.0368     11.3762     13.9641     69.0989
  1028.6000      8.0443      2.4618      0.0215     11.4069     13.9302     68.0231
  1028.7000      8.0443      2.4779      0.0824     10.4289     14.0948     68.9987
  1028.8000      8.0463      2.4925      0.0806      9.5455     14.4873     72.2885
  1028.9000      8.0463      2.4979      0.1143      9.2193     14.8815     77.6311
  1029.0000      8.0580      2.5006      0.0516      9.0568     14.8619     80.1453
  1029.1000      8.0580      2.5100      0.0982      8.4845     14.6127     78.2396
  1029.2000      8.0580      2.5182      0.1127      7.9871     14.2399     77.4445
  1029.3000      8.0668      2.5137      0.0952      8.2586     13.6180     80.1320
  1029.4000      8.0668      2.5085      0.0495      8.5768     13.3595     85.1244
  1029.5000      8.0570      2.5181      0.0621      7.9961     13.6688     87.1552
  1029.6000      8.0570      2.5274      0.1184      7.4306     13.6545     84.2077
  1029.7000      8.0570      2.5158      0.0832      8.1348     13.0741     80.1793
  1029.8000      8.0445      2.5016      0.0442      8.9935     12.5951     75.7187
  1029.9000      8.0445      2.5099      0.0782      8.4881     12.5272     72.8780
