~Version Information
VERS.                      2.0: CWLS Log ASCII Standard - VERSION 2.0
WRAP.                       NO: One line per depth step
~Well Information Block
STRT.FT               563.6000: 
STOP.FT              2133.0000: 
STEP.FT                 0.1000: 
NULL.                -999.2500: 
COMP.          Petrogulf Corporation: COMPANY
WELL.             State 16-43V: WELL
FLD.           Purgatorie River: FIELD
LOC.           2437' FSL & 734' FEL: LOCATION
CNTY.               Las Animas: COUNTY
SRVC.                         : SERVICE COMPANY
DATE.          Mon Dec 06 06:01:26 2004: LOG DATE
UWI.           05 071 08015 00: UNIQUE WELL ID
STAT.                 Colorado: STATE
~Curve Information Block
DEPT.FT            0 000 00 00: Depth
DCAL.in                       : CDL Caliper
RHOB.g/cc                     : CDL Bulk Density
RHOC.g/cc                     : CDL Density Correction
DPOR.pu                       : CDL Density Porosity
GR.GAPI                       : Gamma Ray
NPOR.pu                       : Neutron Porosity
~Parameter Information Block
~A  Depth       DCAL        RHOB        RHOC        DPOR         GR         NPOR    
# ...
  1504.4000      7.8930      2.5213      0.0433      7.8028    125.8392     27.2064
  1504.5000      7.8866      2.5114      0.0273      8.3977    130.0083     27.2328
  1504.6000      7.8866      2.5431      0.0860      6.4760    133.7033     27.2374
  1504.7000      7.8866      2.6078      0.1649      2.5605    134.2356     27.3146
  1504.8000      7.9463      2.6656      0.2123     -0.9476    135.0117     27.1076
  1504.9000      7.9463      2.7012      0.2360     -3.1010    137.3422     26.8305
  1505.0000      7.9216      2.7184      0.2857     -4.1478    139.6104     26.9547
  1505.1000      7.9216      2.7210      0.2377     -4.3016    139.7615     27.3179
  1505.2000      7.9216      2.7221      0.1735     -4.3669    137.2722     27.5923
  1505.3000      7.9570      2.7213      0.3019     -4.3237    133.3416     27.6946
  1505.4000      7.9570      2.6996      0.2142     -3.0089    131.5710     27.7701
  1505.5000      7.9438      2.6639      0.0991     -0.8447    135.4959     27.9904
  1505.6000      7.9438      2.6288      0.0585      1.2872    141.4646     28.3329
  1505.7000      7.9438      2.5970      0.0052      3.2116    143.7881     28.6388
  1505.8000      7.9466      2.5872     -0.0482      3.8068    141.4161     28.6448
  1505.9000      7.9466      2.6063      0.0576      2.6498    135.1044     28.3034
  1506.0000      7.9254      2.6324      0.0241      1.0678    128.0381     28.0424
  1506.1000      7.9254      2.6562      0.0599     -0.3740    121.7360     28.0523
  1506.2000      7.9254      2.6797      0.0967     -1.8015    114.6723     27.8285
  1506.3000      7.9238      2.7024      0.0492     -3.1750    109.8053     27.2434
  1506.4000      7.9238      2.7222      0.0865     -4.3786    109.0084     26.8996
  1506.5000      7.8955      2.7238      0.1320     -4.4741    108.7225     27.1858
  1506.6000      7.8955      2.7052      0.0474     -3.3475    108.2667     27.8320
  1506.7000      7.8955      2.6860      0.0530     -2.1832    110.0574     28.2847
  1506.8000      7.9006      2.6663      0.0539     -0.9861    111.8757     28.2729
  1506.9000      7.9006      2.6279      0.0344      1.3418    109.4885     27.9537
  1507.0000      7.8798      2.5813     -0.0108      4.1631    107.3527     27.7124
  1507.1000      7.8798      2.5652      0.0419      5.1368    111.4084     27.6541
  1507.2000      7.8798      2.5835      0.0823      4.0293    116.7764     27.6000
  1507.3000      7.9115      2.6072      0.0456      2.5914    118.0387     27.4718
  1507.4000      7.9115      2.6280      0.0370      1.3333    117.6873     27.2291
  1507.5000      7.9168      2.6497      0.0849      0.0190    118.7017     26.8873
  1507.6000      7.9168      2.6695      0.1046     -1.1820    117.3383     26.6662
  1507.7000      7.9168      2.6876      0.1089     -2.2793    110.6552     26.8758
  1507.8000      7.9453      2.7073      0.1460     -3.4753    103.6532     27.4685
  1507.9000      7.9453      2.7330      0.0722     -5.0312    101.1052     28.0668
  1508.0000      7.8644      2.7622      0.1405     -6.8017    101.0779     28.3477
  1508.1000      7.8644      2.7752      0.1355     -7.5858    100.6762     28.0841
  1508.2000      7.8644      2.7609      0.1034     -6.7195     98.7644     27.3752
  1508.3000      7.9012      2.7356      0.0749     -5.1894     95.7037     26.5663
  1508.4000      7.9012      2.7227      0.0822     -4.4074     94.6179     25.8933
  1508.5000      7.8690      2.7250      0.0793     -4.5470     95.2434     25.6054
  1508.6000      7.8690      2.7217      0.0461     -4.3460     93.0906     25.6516
  1508.7000      7.8690      2.7056     -0.0339     -3.3689     88.9566     25.2931
  1508.8000      7.8960      2.7007      0.0241     -3.0756     86.7778     24.4105
  1508.9000      7.8960      2.7175      0.0269     -4.0918     85.8625     23.7458
  1509.0000      7.8877      2.7387      0.0548     -5.3758     83.8709     23.5065
  1509.1000      7.8877      2.7409      0.0862     -5.5088     81.8925     23.2571
  1509.2000      7.8877      2.7190      0.0478     -4.1793     81.5222     22.8405
  1509.3000      7.9154      2.6985      0.0172     -2.9395     80.5783     22.5692
  1509.4000      7.9154      2.6918      0.0669     -2.5335     74.7743     22.3822
  1509.5000      7.9298      2.6832      0.0545     -2.0105     64.5912     21.9621
  1509.6000      7.9298      2.6641      0.0173     -0.8525     56.0475     21.4530
  1509.7000      7.9298      2.6310      0.0245      1.1536     54.3415     21.2724
  1509.8000      7.9257      2.5905     -0.0511      3.6062     57.6738     21.4989
  1509.9000      7.9257      2.5613     -0.0252      5.3733     58.3417     21.9517
  1510.0000      7.9107      2.5429     -0.0160      6.4910     54.7002     22.3916
  1510.1000      7.9107      2.5281     -0.0496      7.3876     52.4173     22.3009
  1510.2000      7.9107      2.5187     -0.0210      7.9596     53.0476     21.6946
  1510.3000      7.9026      2.5100     -0.0012      8.4863     54.8183     21.3490
  1510.4000      7.9026      2.5098     -0.0446      8.4992     57.6184     21.4297
  1510.5000      7.9331      2.5332      0.0020      7.0790     61.0790     21.2971
  1510.6000      7.9331      2.5692     -0.0057      4.8980     64.3387     20.9355
  1510.7000      7.9331      2.5936      0.0213      3.4195     66.8938     20.8455
  1510.8000      7.9078      2.5934      0.0071      3.4287     68.7157     20.8739
  1510.9000      7.9078      2.5771      0.0507      4.4159     69.9361     20.8035
  1511.0000      7.8579      2.5696      0.0407      4.8706     71.3896     20.8579
  1511.1000      7.8579      2.5832      0.0286      4.0468     73.0072     20.9036
  1511.2000      7.8579      2.6060      0.0609      2.6639     72.2913     20.5546
  1511.3000      7.8621      2.6192      0.1187      1.8673     69.0730     19.9565
  1511.4000      7.8621      2.6124      0.0732      2.2817     66.2426     19.5443
  1511.5000      7.9049      2.5907      0.1165      3.5913     64.2002     19.2328
  1511.6000      7.9049      2.5691      0.0395      4.9001     61.5947     18.8155
  1511.7000      7.9049      2.5498      0.0781      6.0709     58.6827     18.4775
  1511.8000      7.8818      2.5238      0.0003      7.6496     57.2544     18.3425
  1511.9000      7.8818      2.4993      0.0003      9.1320     57.7940     18.3344
  1512.0000      7.8874      2.4837      0.0219     10.0789     57.4855     18.3568
  1512.1000      7.8874      2.4785     -0.0446     10.3956     56.3002     18.2445
  1512.2000      7.8874      2.4916      0.0084      9.5998     56.0616     17.8684
  1512.3000      7.9070      2.5080      0.0763      8.6035     55.7027     17.4081
  1512.4000      7.9070      2.4979      0.0649      9.2179     54.2023     17.1808
  1512.5000      7.9140      2.4675     -0.0115     11.0619     51.5846     17.2023
  1512.6000      7.9140      2.4414      0.0789     12.6425     49.4899     17.0668
  1512.7000      7.9140      2.4233      0.0359     13.7380     49.8520     16.5680
  1512.8000      7.9302      2.4150      0.0315     14.2400     51.4821     15.8556
  1512.9000      7.9302      2.4188      0.0279     14.0147     51.4218     15.0732
  1513.0000      7.9398      2.4255      0.0331     13.6051     48.5977     14.3845
  1513.1000      7.9398      2.4284      0.0253     13.4333     45.6608     13.8688
  1513.2000      7.9398      2.4244      0.0404     13.6753     43.8842     13.6919
  1513.3000      7.9674      2.4109      0.0550     14.4913     40.6624     13.8102
  1513.4000      7.9674      2.3948      0.0242     15.4663     36.0140     13.7323
  1513.5000      7.9452      2.3877      0.0814     15.8961     31.7243     13.2081
  1513.6000      7.9452      2.3890      0.0980     15.8164     27.5939     12.5217
  1513.7000      7.9452      2.3936      0.0476     15.5368     24.9007     11.9864
  1513.8000      7.9256      2.4123      0.0120     14.4033     24.4823     11.6189
  1513.9000      7.9256      2.4562      0.0919     11.7457     24.2747     11.4994
