~Version Information
 VERS.                                  2.0 : CWLS LAS VERSION
 WRAP.                                   NO : WRAPING MODE
 SWARE .                 MController 2.5.0I : SOFTWARE VERSION
~Well Information
 WELL.                        Montoya 7-21v : WELL
 COMP.                       Petrogulf Corp : COMPANY
 FLD.                      Purgatorie River : FIELD
 LOC.                 NE/NW Sec 7 T33S R67W : LOCATION
 DATE.                                  N/A : DATE(S) LOGGED
 SRVC.       Blanco Geological Services LLC : SERVICE COMPANY
 STAT.                                   CO : STATE
 CNTY.                           Las Animas : COUNTY
 CTRY.                                  USA : COUNTRY
 API.                       05-071-08018-00 : API NUMBER
 STRT.FT                             836.00 : START DEPTH
 STOP.FT                            2421.00 : STOP DEPTH
 STEP.FT                               1.00 : DEPTH INCREMENT
 NULL.                                -9999 : NULL VALUE
~Curve information
 DEPTH.FT                                   :
 ROP.MIN/FT                                 :
 GAS.UNITS                                  :
~ASCII Log data
# ...
      1636.0          0.4         15.8 
      1637.0          0.4         15.9 
      1638.0          0.4         16.1 
      1639.0          0.4         16.5 
      1640.0          0.3         16.6 
      1641.0          0.4         16.5 
      1642.0          0.3         16.4 
      1643.0          0.4         16.5 
      1644.0          0.4         16.6 
      1645.0          0.4         16.6 
      1646.0          0.5         16.7 
      1647.0          0.5         16.7 
      1648.0          0.3         16.5 
      1649.0          0.3         16.7 
      1650.0          0.2         16.0 
      1651.0          0.4         13.0 
      1652.0          7.4        188.0 
      1653.0          2.4         25.2 
      1654.0          0.7         13.3 
      1655.0          0.4         11.4 
      1656.0          0.1         11.6 
      1657.0          0.3         11.9 
      1658.0          0.5         14.9 
      1659.0          0.5         19.5 
      1660.0          0.5         22.2 
      1661.0          0.6         22.4 
      1662.0          0.4         21.6 
      1663.0          0.4         20.1 
      1664.0          0.4         19.2 
      1665.0          0.4         18.0 
      1666.0          0.4         17.6 
      1667.0          0.7         17.2 
      1668.0          0.9         17.5 
      1669.0          0.7         16.6 
      1670.0          0.5         15.7 
      1671.0          0.6         16.1 
      1672.0          0.6         16.7 
      1673.0          0.5         16.8 
      1674.0          0.6         16.9 
      1675.0          0.3         17.4 
      1676.0          0.4         17.1 
      1677.0          0.4         16.9 
      1678.0          0.5         17.2 
      1679.0          0.5         16.8 
      1680.0          0.6         17.1 
      1681.0          0.4         17.4 
      1682.0          4.8         49.9 
      1683.0          0.5         25.6 
      1684.0          0.5         27.1 
      1685.0          0.5         26.1 
      1686.0          0.5         24.5 
      1687.0          0.4         22.3 
      1688.0          0.3         20.5 
      1689.0          0.3         19.6 
      1690.0          0.3         18.6 
      1691.0          0.3         17.9 
      1692.0          0.3         17.5 
      1693.0          0.4         17.1 
      1694.0          0.4         17.1 
      1695.0          0.4         17.4 
      1696.0          0.3         17.6 
      1697.0          0.4         17.7 
      1698.0          0.3         17.5 
      1699.0          0.3         17.7 
      1700.0          0.3         17.7 
      1701.0          0.3         18.0 
      1702.0          0.3         17.9 
      1703.0          0.3         17.8 
      1704.0          0.4         17.9 
      1705.0          0.4         18.4 
      1706.0          0.4         18.4 
      1707.0          0.4         17.9 
      1708.0          0.4         17.8 
      1709.0          0.3         17.7 
      1710.0          0.3         17.7 
      1711.0          0.2         17.3 
      1712.0          5.2         56.0 
      1713.0          0.4         26.2 
      1714.0          0.5         26.3 
      1715.0          0.4         25.0 
      1716.0          0.4         23.3 
      1717.0          0.5         21.3 
      1718.0          1.0         19.8 
      1719.0          0.4         16.9 
      1720.0          0.4         15.8 
      1721.0          0.3         14.6 
      1722.0          0.3         15.1 
      1723.0          0.2         15.1 
      1724.0          0.3         15.5 
      1725.0          0.4         17.1 
      1726.0          0.5         19.4 
      1727.0          0.6         19.5 
      1728.0          0.7         19.2 
      1729.0          0.6         18.7 
      1730.0          0.7         18.3 
      1731.0          0.6         17.9 
      1732.0          0.6         18.5 
      1733.0          0.6         18.4 
      1734.0          0.7         18.5 
      1735.0          0.7         18.1 
      1736.0          0.7         17.8 
      1737.0          0.7         17.5 
      1738.0          0.5         17.3 
      1739.0          0.6         18.0 
      1740.0          0.4         18.6 
      1741.0          0.3         18.5 
      1742.0          7.4         44.5 
      1743.0          0.1         19.3 
      1744.0          0.3         18.9 
      1745.0          0.3         17.4 
      1746.0          0.2         15.2 
      1747.0          0.3         14.0 
      1748.0          0.3         14.6 
      1749.0          0.2         14.5 
      1750.0          0.2         14.6 
      1751.0          0.3         15.4 
      1752.0          0.3         15.9 
      1753.0          0.4         17.2 
      1754.0          0.4         17.9 
      1755.0          0.4         17.3 
      1756.0          0.4         17.8 
      1757.0          0.4         17.3 
      1758.0          0.3         17.7 
      1759.0          0.3         17.1 
      1760.0          0.3         18.0 
      1761.0          0.4         18.2 
      1762.0          0.4         18.6 
      1763.0          0.4         18.1 
      1764.0          0.3         17.8 
      1765.0          0.4         18.1 
      1766.0          0.3         17.9 
      1767.0          0.3         17.5 
      1768.0          0.4         18.1 
      1769.0          0.3         18.0 
      1770.0          0.3         18.2 
      1771.0          0.4         18.6 
      1772.0          4.8         67.7 
      1773.0          0.4         19.3 
      1774.0          0.2         18.5 
      1775.0          0.3         22.2 
      1776.0          0.4         27.5 
      1777.0          0.4         29.3 
      1778.0          0.6         29.7 
      1779.0          0.6         27.6 
      1780.0          0.5         24.8 
      1781.0          0.4         21.2 
      1782.0          0.4         20.0 
      1783.0          0.3         19.4 
      1784.0          0.4         19.0 
      1785.0          0.6         20.6 
      1786.0          0.8         20.4 
      1787.0          0.6         18.5 
      1788.0          0.6         18.4 
      1789.0          0.4         17.8 
      1790.0          0.3         17.7 
      1791.0          0.5         19.2 
      1792.0          0.6         21.8 
      1793.0          0.5         22.7 
      1794.0          0.8         22.8 
      1795.0          0.6         22.4 
      1796.0          0.5         21.7 
      1797.0          0.8         21.0 
      1798.0          1.0         20.5 
      1799.0          0.7         18.7 
      1800.0          0.3         18.2 
      1801.0          0.3         17.8 
      1802.0          4.0         68.8 
      1803.0          0.5         55.2 
      1804.0          0.8         31.1 
      1805.0          0.9         28.4 
      1806.0          1.2         31.8 
      1807.0          1.0         31.2 
      1808.0          0.5         21.1 
      1809.0          0.5         20.5 
      1810.0          0.6         20.1 
      1811.0          0.6         20.1 
      1812.0          0.7         20.7 
      1813.0          0.7         19.7 
      1814.0          0.4         18.6 
      1815.0          0.4         16.4 
      1816.0          0.3         15.5 
      1817.0          0.3         15.8 
      1818.0          0.3         16.0 
      1819.0          0.4         16.6 
      1820.0          0.4         17.0 
      1821.0          0.3         17.1 
      1822.0          0.3         17.4 
      1823.0          0.3         17.4 
      1824.0          0.3         17.6 
      1825.0          0.3         17.9 
      1826.0          0.3         18.4 
      1827.0          0.3         18.4 
      1828.0          0.5         19.9 
      1829.0          0.5         21.1 
      1830.0          0.8         22.3 
      1831.0          0.6         25.5 
      1832.0         13.4        121.1 
      1833.0          0.4         14.9 
      1834.0          0.4         25.9 
      1835.0          0.6         29.0 
