~Version Information
VERS.                      2.0: CWLS Log ASCII Standard - VERSION 2.0
WRAP.                       NO: One line per depth step
~Well Information Block
STRT.FT               450.0000: 
STOP.FT              1739.2500: 
STEP.FT                 0.2500: 
NULL.                -999.2500: 
COMP.          Pioneer Natural Resources: COMPANY
WELL.            Harlee L 34-9: WELL
FLD.           Purgatoire River: FIELD
LOC.           600' FSL & 2125' FEL: LOCATION
PROV.                 Colorado: PROVINCE
CNTY.               Las Animas: COUNTRY
SRVC.                Patterson: SERVICE COMPANY
DATE.          Wed Jan 26 02:00:08 2005: LOG DATE
UWI.           05 071 08009 00: UNIQUE WELL ID
~Curve Information Block
DEPT.FT            0 000 00 00: Depth
SN.Ohm-m                      : IEL Short Normal
SP.mV                         : IEL Spontaneous Potential
DIR.Ohm-m                     : IEL Induction Resistivity
GR.GAPI                       : Gamma Ray
~Parameter Information Block
~A  Depth        SN          SP         DIR          GR     
# ...
   852.0000   2000.0000   2000.0000      9.2226    125.5231
   852.2500   2000.0000   2000.0000      9.3485    126.0267
   852.5000   2000.0000   2000.0000      9.4557    127.6680
   852.7500   2000.0000   2000.0000      9.5439    129.3759
   853.0000   2000.0000   2000.0000      9.6014    132.5819
   853.2500   2000.0000   2000.0000      9.6068    134.7908
   853.5000   2000.0000   2000.0000      9.5403    137.2710
   853.7500   2000.0000   2000.0000      9.3957    137.9091
   854.0000   2000.0000   2000.0000      9.1855    137.3091
   854.2500   2000.0000   2000.0000      8.9365    136.2258
   854.5000   2000.0000   2000.0000      8.6792    134.0693
   854.7500   2000.0000   2000.0000      8.4413    132.2762
   855.0000   2000.0000   2000.0000      8.2446    129.0835
   855.2500   2000.0000   2000.0000      8.1013    127.0502
   855.5000   2000.0000   2000.0000      8.0117    125.3420
   855.7500   2000.0000   2000.0000      7.9629    125.4914
   856.0000   2000.0000   2000.0000      7.9329    127.2426
   856.2500   2000.0000   2000.0000      7.8980    128.7986
   856.5000   2000.0000   2000.0000      7.8396    130.7029
   856.7500   2000.0000   2000.0000      7.7480    131.3531
   857.0000   2000.0000   2000.0000      7.6215    131.4245
   857.2500   2000.0000   2000.0000      7.4661    131.2197
   857.5000   2000.0000   2000.0000      7.2930    131.3099
   857.7500   2000.0000   2000.0000      7.1174    131.8183
   858.0000   2000.0000   2000.0000      6.9561    132.7674
   858.2500   2000.0000   2000.0000      6.8264    133.0423
   858.5000   2000.0000   2000.0000      6.7446    132.6308
   858.7500   2000.0000   2000.0000      6.7261    132.0982
   859.0000   2000.0000   2000.0000      6.7852    131.4588
   859.2500   2000.0000   2000.0000      6.9354    130.9768
   859.5000   2000.0000   2000.0000      7.1892    129.0435
   859.7500   2000.0000   2000.0000      7.5582    126.3717
   860.0000   2000.0000   2000.0000      8.0538    120.3533
   860.2500   2000.0000   2000.0000      8.6892    115.4631
   860.5000   2000.0000   2000.0000      9.4814    107.2960
   860.7500   2000.0000   2000.0000     10.4532    101.2348
   861.0000   2000.0000   2000.0000     11.6298     91.1706
   861.2500   2000.0000   2000.0000     13.0292     84.1192
   861.5000   2000.0000   2000.0000     14.6446     73.8676
   861.7500   2000.0000   2000.0000     16.4227     67.6574
   862.0000   2000.0000   2000.0000     18.2522     59.8368
   862.2500   2000.0000   2000.0000     19.9829     55.9880
   862.5000   2000.0000   2000.0000     21.4793     52.7339
   862.7500   2000.0000   2000.0000     22.6742     52.1327
   863.0000   2000.0000   2000.0000     23.5775     52.6252
   863.2500   2000.0000   2000.0000     24.2426     53.1425
   863.5000   2000.0000   2000.0000     24.7237     53.2381
   863.7500   2000.0000   2000.0000     25.0539     52.6566
   864.0000   2000.0000   2000.0000     25.2487     51.0499
   864.2500   2000.0000   2000.0000     25.3192     49.7734
   864.5000   2000.0000   2000.0000     25.2697     48.0795
   864.7500   2000.0000   2000.0000     25.0731     47.3931
   865.0000   2000.0000   2000.0000     24.6470     47.3317
   865.2500   2000.0000   2000.0000     23.8723     47.9461
   865.5000   2000.0000   2000.0000     22.6635     49.8493
   865.7500   2000.0000   2000.0000     21.0424     51.9250
   866.0000   2000.0000   2000.0000     19.1460     56.6733
   866.2500   2000.0000   2000.0000     17.1630     61.1263
   866.5000   2000.0000   2000.0000     15.2567     69.9419
   866.7500   2000.0000   2000.0000     13.5289     77.2566
   867.0000   2000.0000   2000.0000     12.0232     89.8451
   867.2500   2000.0000   2000.0000     10.7450     98.4711
   867.5000   2000.0000   2000.0000      9.6784    109.7799
   867.7500   2000.0000   2000.0000      8.7986    115.3489
   868.0000   2000.0000   2000.0000      8.0800    120.4861
   868.2500   2000.0000   2000.0000      7.5021    122.2054
   868.5000   2000.0000   2000.0000      7.0512    123.0900
   868.7500   2000.0000   2000.0000      6.7182    122.7459
   869.0000   2000.0000   2000.0000      6.4938    120.5382
   869.2500   2000.0000   2000.0000      6.3634    117.6096
   869.5000   2000.0000   2000.0000      6.3032    110.7669
   869.7500   2000.0000   2000.0000      6.2819    104.8863
   870.0000   2000.0000   2000.0000      6.2666     95.7448
   870.2500   2000.0000   2000.0000      6.2323     90.9721
   870.5000   2000.0000   2000.0000      6.1665     88.4776
   870.7500   2000.0000   2000.0000      6.0686     90.7539
   871.0000   2000.0000   2000.0000      5.9440     99.2822
   871.2500   2000.0000   2000.0000      5.8004    106.8403
   871.5000   2000.0000   2000.0000      5.6460    118.1242
   871.7500   2000.0000   2000.0000      5.4891    124.5857
   872.0000   2000.0000   2000.0000      5.3375    132.1313
   872.2500   2000.0000   2000.0000      5.1987    135.6576
   872.5000   2000.0000   2000.0000      5.0801    138.3876
   872.7500   2000.0000   2000.0000      4.9889    138.2738
   873.0000   2000.0000   2000.0000      4.9315    135.1714
   873.2500   2000.0000   2000.0000      4.9127    131.5081
   873.5000   2000.0000   2000.0000      4.9357    125.0803
   873.7500   2000.0000   2000.0000      5.0023    121.5252
   874.0000   2000.0000   2000.0000      5.1118    119.7300
   874.2500   2000.0000   2000.0000      5.2609    121.5766
   874.5000   2000.0000   2000.0000      5.4428    127.9383
   874.7500   2000.0000   2000.0000      5.6467    133.1382
   875.0000   2000.0000   2000.0000      5.8602    139.9116
   875.2500   2000.0000   2000.0000      6.0727    142.8469
   875.5000   2000.0000   2000.0000      6.2802    144.6070
   875.7500   2000.0000   2000.0000      6.4864    144.5239
   876.0000   2000.0000   2000.0000      6.6995    143.7745
   876.2500   2000.0000   2000.0000      6.9255    143.2807
   876.5000   2000.0000   2000.0000      7.1624    142.4707
   876.7500   2000.0000   2000.0000      7.3978    141.7595
   877.0000   2000.0000   2000.0000      7.6132    140.6719
   877.2500   2000.0000   2000.0000      7.7919    140.1475
   877.5000   2000.0000   2000.0000      7.9272    139.5029
   877.7500   2000.0000   2000.0000      8.0255    138.8756
   878.0000   2000.0000   2000.0000      8.1041    137.7313
   878.2500   2000.0000   2000.0000      8.1839    137.4138
   878.5000   2000.0000   2000.0000      8.2829    138.5210
   878.7500   2000.0000   2000.0000      8.4100    140.1427
   879.0000   2000.0000   2000.0000      8.5586    142.3375
   879.2500   2000.0000   2000.0000      8.7033    142.4888
   879.5000   2000.0000   2000.0000      8.8017    139.1639
   879.7500   2000.0000   2000.0000      8.8069    134.1078
   880.0000   2000.0000   2000.0000      8.6880    122.6809
   880.2500   2000.0000   2000.0000      8.4467    113.6553
   880.5000   2000.0000   2000.0000      8.1173    101.1252
   880.7500   2000.0000   2000.0000      7.7493     95.2093
   881.0000   2000.0000   2000.0000      7.3860     91.4997
   881.2500   2000.0000   2000.0000      7.0526     92.2149
   881.5000   2000.0000   2000.0000      6.7553     96.4998
   881.7500   2000.0000   2000.0000      6.4889    100.5583
   882.0000   2000.0000   2000.0000      6.2460    107.2824
   882.2500   2000.0000   2000.0000      6.0236    111.7022
   882.5000   2000.0000   2000.0000      5.8251    117.7014
   882.7500   2000.0000   2000.0000      5.6585    121.1825
   883.0000   2000.0000   2000.0000      5.5327    125.6727
   883.2500   2000.0000   2000.0000      5.4542    128.1889
   883.5000   2000.0000   2000.0000      5.4253    131.0307
   883.7500   2000.0000   2000.0000      5.4435    131.9402
   884.0000   2000.0000   2000.0000      5.5017    131.0284
   884.2500   2000.0000   2000.0000      5.5902    128.8099
   884.5000   2000.0000   2000.0000      5.6975    124.2808
   884.7500   2000.0000   2000.0000      5.8125    121.7094
   885.0000   2000.0000   2000.0000      5.9253    120.0478
   885.2500   2000.0000   2000.0000      6.0286    120.2427
