~Version Information
 VERS.                                  2.0 : CWLS LAS VERSION
 WRAP.                                   NO : WRAPING MODE
 SWARE .                 MController 2.5.0N : SOFTWARE VERSION
~Well Information
 WELL.                          Bobsy 34-11 : WELL
 COMP.    Pioneer Natural Resources USA Inc : COMPANY
 FLD.                      Purgatoire River : FIELD
 LOC.                SW/SE Sec 11 T32S R66W : LOCATION
 DATE.                               4/7/05 : DATE(S) LOGGED
 SRVC.       Blanco Geological Services LLC : SERVICE COMPANY
 STAT.                                   CO : STATE
 CNTY.                           Las Animas : COUNTY
 CTRY.                                  USA : COUNTRY
 API.                       05-071-08330-00 : API NUMBER
 STRT.FT                             842.00 : START DEPTH
 STOP.FT                            2345.00 : STOP DEPTH
 STEP.FT                               1.00 : DEPTH INCREMENT
 NULL.                                -9999 : NULL VALUE
~Curve information
 DEPTH.FT                                   :
 ROP.MIN/FT                                 :
 GAS.UNITS                                  :
~ASCII Log data
       842.0     -9999.00          4.4 
       843.0         0.03          3.9 
       844.0         0.27          4.5 
       845.0         0.28          4.4 
       846.0         0.23          4.3 
       847.0         0.13          4.4 
       848.0         0.17          4.7 
       849.0         0.20          5.2 
       850.0         0.23          5.1 
       851.0         0.23          4.3 
       852.0         0.20          3.8 
       853.0         0.20          4.2 
       854.0         0.20          4.7 
       855.0         0.20          5.1 
       856.0         0.23          5.4 
       857.0         0.17          4.0 
       858.0         0.20          4.4 
       859.0         0.17          4.4 
       860.0         0.17          3.9 
       861.0         0.13          4.0 
       862.0         0.22          4.0 
       863.0         0.23          4.2 
       864.0         0.20          4.6 
       865.0         0.23          4.3 
       866.0         3.02          5.3 
       867.0         0.23          4.3 
       868.0         0.27          4.4 
       869.0         0.20          4.0 
       870.0         0.23          5.1 
       871.0         0.17          4.5 
       872.0         0.20          4.7 
       873.0         0.23          4.7 
       874.0         0.20          5.2 
       875.0         0.17          5.1 
       876.0         0.10          4.7 
       877.0         0.23          4.4 
       878.0         0.20          3.2 
       879.0         0.23          3.7 
       880.0         0.28          4.0 
       881.0         0.23          3.5 
       882.0         0.17         33.2 
       883.0         0.13         84.0 
       884.0         0.13        136.2 
       885.0         0.13        151.6 
       886.0         0.17        151.6 
       887.0         0.13        153.6 
       888.0         0.20        157.0 
       889.0         0.17        149.2 
       890.0         0.17        138.8 
       891.0         0.23        128.5 
       892.0         0.47        122.8 
       893.0         0.23        123.0 
       894.0         0.23        118.3 
       895.0         0.27        105.3 
       896.0         1.98       1163.5 
       897.0         0.23        853.0 
       898.0         0.20        681.6 
       899.0         0.17        556.3 
       900.0         0.17        484.3 
       901.0         0.20        440.0 
       902.0         0.20        440.0 
       903.0         0.20        172.5 
       904.0         0.18        154.8 
       905.0         0.23        147.4 
       906.0         0.20        145.8 
       907.0         0.33        151.8 
       908.0         0.17        153.0 
       909.0         0.20        153.0 
       910.0         0.20        149.8 
       911.0         0.27        147.6 
       912.0         0.27        144.5 
       913.0         0.20        144.7 
       914.0         0.20        144.8 
       915.0         0.23        144.0 
       916.0         0.30        151.3 
       917.0         0.20        147.4 
       918.0         0.20        133.6 
       919.0         0.22        121.4 
       920.0         0.17        112.2 
       921.0         0.20        109.1 
       922.0         0.20        106.8 
       923.0         0.23        101.5 
       924.0         0.23         91.2 
       925.0         0.27         79.9 
       926.0         0.93        352.4 
       927.0         0.43        475.3 
       928.0         0.47        467.1 
       929.0         0.28        315.0 
       930.0         0.27        218.1 
       931.0         0.20        169.5 
       932.0         0.20        144.5 
       933.0         0.20        125.8 
       934.0         0.17        120.5 
       935.0         0.17        115.0 
       936.0         0.17        106.7 
       937.0         0.27        106.3 
       938.0         0.20        100.9 
       939.0         0.20         93.7 
       940.0         0.17         88.4 
       941.0         0.13         88.1 
       942.0         0.30         88.7 
       943.0         0.17         89.4 
       944.0         0.38         96.8 
       945.0         0.17         97.8 
       946.0         0.23         93.6 
       947.0         0.23         81.5 
       948.0         0.23         73.2 
       949.0         0.20         69.3 
       950.0         0.23         66.9 
       951.0         0.17         60.8 
       952.0         0.20         56.4 
       953.0         0.23         51.3 
       954.0         0.27         53.1 
       955.0         0.20         60.2 
       956.0         1.32        414.9 
       957.0         0.37        398.9 
       958.0         0.30        285.7 
       959.0         0.27        201.3 
       960.0         0.20        143.6 
       961.0         0.23        119.4 
       962.0         0.20         95.1 
       963.0         0.23         81.7 
       964.0         0.23         73.5 
       965.0         0.17         67.2 
       966.0         0.20         64.9 
       967.0         0.23         63.6 
       968.0         0.23         61.1 
       969.0         0.25         59.6 
       970.0         0.23         59.2 
       971.0         0.23         57.4 
       972.0         0.17         56.6 
       973.0         0.23         56.0 
       974.0         0.20         55.7 
       975.0         0.20         53.9 
       976.0         0.20         53.1 
       977.0         0.20         52.1 
       978.0         0.20         53.8 
       979.0         0.27         53.5 
       980.0         0.20         48.4 
       981.0         0.17         44.8 
       982.0         0.20         44.0 
       983.0         0.20         42.7 
       984.0         0.20         42.2 
       985.0         0.32         40.2 
       986.0         1.87        232.3 
       987.0         0.30        351.5 
       988.0         0.40        375.9 
       989.0         0.37        350.9 
       990.0         0.35        225.2 
       991.0         0.23        130.7 
       992.0         0.23         95.7 
       993.0         0.13         71.3 
       994.0         0.20         61.7 
       995.0         0.23         53.4 
       996.0         0.20         49.0 
       997.0         0.20         46.7 
       998.0         0.27         44.6 
       999.0         0.20         41.5 
      1000.0         0.20         38.9 
      1001.0         0.20         37.0 
      1002.0         0.20         35.8 
      1003.0         0.13         34.5 
      1004.0         0.17         34.0 
      1005.0         0.23         33.3 
      1006.0         0.22         33.5 
      1007.0         0.20         33.7 
      1008.0         0.17         32.5 
      1009.0         0.20         28.5 
      1010.0         0.17         26.0 
      1011.0         0.20         25.1 
      1012.0         0.17         24.8 
      1013.0         0.17         24.3 
      1014.0         0.23         21.7 
      1015.0         0.17         18.0 
      1016.0         4.75        141.5 
      1017.0         0.32         27.6 
      1018.0         0.23         26.1 
      1019.0         0.27         24.5 
      1020.0         0.33         22.0 
      1021.0         0.30         16.6 
      1022.0         0.23         16.3 
      1023.0         0.27         14.3 
      1024.0         0.23         13.6 
      1025.0         0.23         12.0 
      1026.0         0.33         11.2 
      1027.0         0.30         10.9 
      1028.0         0.30          9.7 
      1029.0         0.38         10.3 
      1030.0         0.20         10.6 
      1031.0         0.23          9.5 
      1032.0         0.20          9.5 
      1033.0         0.27          8.7 
      1034.0         0.17          7.9 
      1035.0         0.20          7.2 
      1036.0         0.23          7.4 
      1037.0         0.23          8.6 
      1038.0         0.23          9.0 
      1039.0         0.27          9.7 
      1040.0         0.23          8.6 
      1041.0         0.23          7.2 
