~Version Information
VERS.                      2.0: CWLS Log ASCII Standard - VERSION 2.0
WRAP.                       NO: One line per depth step
~Well Information Block
STRT.FT               580.0000: 
STOP.FT              2729.7000: 
STEP.FT                 0.1000: 
NULL.                -999.2500: 
COMP.          Pioneer Natural Resources: COMPANY
WELL.          Sand Pebbles 13-33: WELL
FLD.           Purgatoire River: FIELD
LOC.           1883' FSL & 63' FWL----: LOCATION
PROV.                 Colorado: PROVINCE
CNTY.               Las Animas: COUNTRY
SRVC.                Patterson: SERVICE COMPANY
DATE.          Mon Mar 14 07:33:33 2005: LOG DATE
UWI.           05 071 08224 00: UNIQUE WELL ID
~Curve Information Block
DEPT.FT            0 000 00 00: Depth
DCAL.in                       : CDL Caliper
RHOB.g/cc                     : CDL Bulk Density
RHOC.g/cc                     : CDL Density Correction
DPOR.pu                       : CDL Density Porosity
NPOR.pu                       : Neutron Porosity
GR.GAPI                       : Gamma Ray
~Parameter Information Block
~A  Depth       DCAL        RHOB        RHOC        DPOR        NPOR         GR     
# ...
  1712.8000      8.1448      2.4940      0.0268      9.4565     25.7199    109.2662
  1712.9000      8.1448      2.5186      0.0816      7.9630     25.4026    115.3919
  1713.0000      8.1361      2.5418      0.0609      6.5597     24.8423    124.2271
  1713.1000      8.1361      2.5564      0.0879      5.6698     24.4991    130.2667
  1713.2000      8.1361      2.5676      0.0686      4.9927     24.4999    128.1527
  1713.3000      8.1351      2.5803      0.0865      4.2240     24.5636    121.1585
  1713.4000      8.1351      2.5915      0.0673      3.5425     24.7207    115.2914
  1713.5000      8.1360      2.6079      0.0259      2.5527     24.8960    113.2469
  1713.6000      8.1360      2.6308      0.0858      1.1650     24.7927    116.2680
  1713.7000      8.1360      2.6373      0.1137      0.7712     24.1877    121.3425
  1713.8000      8.1382      2.6203      0.0501      1.7994     23.4082    125.4177
  1713.9000      8.1382      2.6003      0.0688      3.0101     22.9536    128.3698
  1714.0000      8.1392      2.5917      0.0437      3.5317     22.8405    128.2367
  1714.1000      8.1392      2.5947      0.0341      3.3486     22.6777    124.6588
  1714.2000      8.1392      2.5997      0.0563      3.0475     22.3412    119.9889
  1714.3000      8.1384      2.5963      0.0577      3.2552     22.0769    114.9008
  1714.4000      8.1384      2.5901      0.0128      3.6305     21.6549    111.6859
  1714.5000      8.1384      2.5923      0.0537      3.4968     20.8422    113.1844
  1714.6000      8.1384      2.5990      0.0503      3.0892     20.5753    115.1040
  1714.7000      8.1384      2.6002      0.0609      3.0156     21.5078    112.1482
  1714.8000      8.1390      2.5896      0.0491      3.6625     22.8372    109.0229
  1714.9000      8.1390      2.5682      0.0153      4.9559     23.3408    111.0741
  1715.0000      8.1392      2.5527      0.0116      5.8996     22.7744    111.4306
  1715.1000      8.1392      2.5608      0.0177      5.4087     21.9068    102.4103
  1715.2000      8.1392      2.5894      0.0291      3.6728     21.4448     90.3540
  1715.3000      8.1392      2.6130      0.0397      2.2447     21.2974     86.0643
  1715.4000      8.1392      2.6068      0.0668      2.6194     21.0660     90.3823
  1715.5000      8.1381      2.5740      0.0288      4.6034     20.9899     97.0740
  1715.6000      8.1381      2.5470     -0.0483      6.2451     21.2884    104.2970
  1715.7000      8.1381      2.5424      0.0441      6.5225     21.4968    114.1359
  1715.8000      8.1368      2.5405      0.0403      6.6366     21.4896    120.7166
  1715.9000      8.1368      2.5325      0.0246      7.1199     21.4952    114.7863
  1716.0000      8.1372      2.5300      0.0350      7.2701     21.2605    102.0811
  1716.1000      8.1372      2.5358      0.0241      6.9238     20.8238     94.3652
  1716.2000      8.1372      2.5400      0.0913      6.6683     20.6036     92.9988
  1716.3000      8.1390      2.5404     -0.0014      6.6413     20.6232     95.4703
  1716.4000      8.1390      2.5478      0.0701      6.1930     20.7267    100.8290
  1716.5000      8.1405      2.5618      0.0661      5.3428     20.8670    105.4171
  1716.6000      8.1405      2.5775      0.0507      4.3969     21.2050    106.5274
  1716.7000      8.1405      2.5967      0.0327      3.2302     21.7709    106.1288
  1716.8000      8.1400      2.6152      0.0886      2.1086     21.9123    105.0514
  1716.9000      8.1400      2.6199      0.0829      1.8264     21.1291    104.4149
  1717.0000      8.1384      2.6093      0.0978      2.4674     19.9531    107.4421
  1717.1000      8.1384      2.6022      0.0367      2.8950     19.0461    111.1094
  1717.2000      8.1384      2.6085      0.1189      2.5128     18.6111    108.2898
  1717.3000      8.1380      2.6116      0.0788      2.3282     18.5885     99.6597
  1717.4000      8.1380      2.6061      0.0566      2.6579     18.6825     91.9517
  1717.5000      8.1385      2.6066      0.0345      2.6292     18.6190     89.2242
  1717.6000      8.1385      2.6114      0.0511      2.3380     18.2837     89.9437
  1717.7000      8.1385      2.6068      0.0911      2.6165     17.6616     92.9000
  1717.8000      8.1380      2.5981      0.0223      3.1480     17.2178     99.2287
  1717.9000      8.1380      2.5976      0.0506      3.1743     17.3979    103.3513
  1718.0000      8.1366      2.5996      0.0432      3.0516     17.7398    100.5667
  1718.1000      8.1366      2.5957      0.0625      3.2893     17.8260     96.3397
  1718.2000      8.1366      2.5883     -0.0072      3.7411     18.1122     95.6475
  1718.3000      8.1356      2.5736      0.0380      4.6312     19.1607     97.7463
  1718.4000      8.1356      2.5383      0.0184      6.7693     20.6882    100.7624
  1718.5000      8.1360      2.4914     -0.0348      9.6091     22.1972    103.3078
  1718.6000      8.1360      2.4678     -0.0522     11.0418     23.5898    106.6778
  1718.7000      8.1360      2.4768     -0.0049     10.4956     24.6314    114.1866
  1718.8000      8.1375      2.4889      0.0215      9.7652     25.6281    129.1380
  1718.9000      8.1375      2.4923     -0.0322      9.5561     26.8757    144.7498
  1719.0000      8.1391      2.5058      0.0486      8.7415     27.4307    146.6002
  1719.1000      8.1391      2.5304      0.0517      7.2468     26.8744    137.0371
  1719.2000      8.1391      2.5514      0.1059      5.9757     26.0155    130.5363
  1719.3000      8.1384      2.5629      0.0882      5.2795     25.1685    130.6529
  1719.4000      8.1384      2.5693      0.0893      4.8917     24.1082    133.2343
  1719.5000      8.1346      2.5767      0.1293      4.4416     23.1721    136.8170
  1719.6000      8.1346      2.5870      0.1295      3.8171     22.6807    140.7788
  1719.7000      8.1346      2.5939      0.1643      3.4008     22.0131    144.0432
  1719.8000      8.1291      2.5886      0.0676      3.7230     20.9002    147.1790
  1719.9000      8.1291      2.5817      0.0310      4.1388     19.9110    147.2890
  1720.0000      8.1212      2.5883      0.0596      3.7394     19.3477    140.4563
  1720.1000      8.1212      2.6010      0.0614      2.9674     18.9846    128.6237
  1720.2000      8.1212      2.6102      0.0248      2.4109     18.7496    116.5153
  1720.3000      8.1138      2.6188      0.0370      1.8891     18.9107    107.5177
  1720.4000      8.1138      2.6247      0.0550      1.5333     19.2727    101.5564
  1720.5000      8.1109      2.6240      0.0607      1.5735     19.3140     98.7887
  1720.6000      8.1109      2.6190      0.0760      1.8815     19.2927     99.6319
  1720.7000      8.1109      2.6115      0.0188      2.3348     19.9665    102.6102
  1720.8000      8.1092      2.6035      0.0617      2.8186     20.9985    104.0174
  1720.9000      8.1092      2.5940      0.0420      3.3968     21.4414    100.0589
  1721.0000      8.1074      2.5914      0.0139      3.5502     21.3299     93.8567
  1721.1000      8.1074      2.6027      0.0844      2.8648     21.3257     90.8121
  1721.2000      8.1074      2.6107      0.0996      2.3843     21.7664     91.2937
  1721.3000      8.1075      2.6008      0.0608      2.9789     22.3995     96.2539
  1721.4000      8.1075      2.5801      0.0464      4.2367     22.7330    108.2211
  1721.5000      8.1075      2.5624     -0.0018      5.3116     22.3835    123.5314
  1721.6000      8.1075      2.5578      0.0521      5.5865     21.6217    131.5912
  1721.7000      8.1075      2.5659      0.0426      5.0968     20.9822    127.0369
  1721.8000      8.1059      2.5801      0.0687      4.2368     20.1679    115.8449
  1721.9000      8.1059      2.5927      0.0475      3.4701     18.7469    104.5468
  1722.0000      8.1061      2.5956      0.0873      3.2995     17.6680     97.9124
  1722.1000      8.1061      2.5930      0.0285      3.4528     17.7659     98.5272
  1722.2000      8.1061      2.5994      0.0578      3.0665     18.1405    102.1802
  1722.3000      8.1092      2.6067      0.0851      2.6254     17.9637    103.8259
