~Version Information
VERS.                      2.0: CWLS Log ASCII Standard - VERSION 2.0
WRAP.                       NO: One line per depth step
~Well Information Block
STRT.FT                -3.7500: 
STOP.FT               930.7500: 
STEP.FT                 0.2500: 
NULL.                -999.2500: 
COMP.          Pioneer Natural Resources: COMPANY
WELL.                Pug 33-19: WELL
FLD.           Purgatorie River: FIELD
LOC.           1381' FSL & 2140' FEL--: LOCATION
PROV.                       CO: PROVINCE
CNTY.               Las Animas: COUNTRY
SRVC.                         : SERVICE COMPANY
DATE.          Mon Dec 20 15:44:45 2004: LOG DATE
UWI.                          : UNIQUE WELL ID
~Curve Information Block
DEPT.FT            0 000 00 00: Depth
GR.GAPI                       : Gamma Ray
CCL.                          : Casing Collar Locator
TT3.usec                      : CBL 3' Travel Time
AMP3.mV                       : CBL 3' Amplitude
~Parameter Information Block
~A  Depth        GR         CCL         TT3         AMP3    
# ...
   766.7500     70.4806      0.0000    534.4589      9.2574
   767.0000     71.8085      0.0000    498.2532      9.4872
   767.2500     72.8743      0.0000    455.9437      9.7278
   767.5000     73.7874      0.0000    421.8995      9.8966
   767.7500     74.2958      0.0000    401.8043      9.9555
   768.0000     73.8288      0.0000    392.7928      9.9334
   768.2500     72.1766      0.0000    390.4468      9.8952
   768.5000     69.7296      0.0000    394.2584      9.8886
   768.7500     67.1844      0.0000    408.4527      9.9151
   769.0000     65.4740      0.0000    437.7202      9.9417
   769.2500     65.8398      0.0000    479.5641      9.9335
   769.5000     69.0205      0.0000    520.0273      9.8778
   769.7500     73.7100      0.0000    540.2171      9.7860
   770.0000     76.5489      0.0000    531.0856      9.6773
   770.2500     74.8518      0.0000    502.2848      9.5665
   770.5000     69.3868      0.0000    473.9679      9.4636
   770.7500     63.8473      0.0000    458.7310      9.3795
   771.0000     61.6197      0.0000    452.7198      9.3225
   771.2500     63.2566      0.0000    444.1706      9.2879
   771.5000     66.6803      0.0000    427.4845      9.2573
   771.7500     69.4587      0.0000    407.0728      9.2099
   772.0000     70.8627      0.0000    390.2787      9.1345
   772.2500     71.7047      0.0000    380.3685      9.0361
   772.5000     72.4514      0.0000    376.0986      8.9342
   772.7500     72.2405      0.0000    374.8319      8.8500
   773.0000     69.9949      0.0000    374.7305      8.7921
   773.2500     65.8430      0.0000    375.0700      8.7539
   773.5000     61.0194      0.0000    376.1011      8.7238
   773.7500     56.8228      0.0000    379.4895      8.6961
   774.0000     54.1285      0.0000    389.1975      8.6730
   774.2500     53.5676      0.0000    410.9371      8.6560
   774.5000     55.4599      0.0000    447.4104      8.6373
   774.7500     59.3095      0.0000    491.2021      8.6033
   775.0000     63.6819      0.0000    524.9564      8.5444
   775.2500     66.9813      0.0000    535.5822      8.4596
   775.5000     68.4437      0.0000    530.2334      8.3585
   775.7500     68.2446      0.0000    532.7512      8.2690
   776.0000     66.6996      0.0000    560.7269      8.2305
   776.2500     63.7759      0.0000    608.9393      8.2668
   776.5000     59.6316      0.0000    657.2861      8.3649
   776.7500     55.1691      0.0000    691.2744      8.4848
   777.0000     51.6186      0.0000    711.2525      8.5885
   777.2500     49.8494      0.0000    724.3735      8.6567
   777.5000     50.2603      0.0000    733.2327      8.6826
   777.7500     52.8866      0.0000    732.8685      8.6638
   778.0000     57.2969      0.0000    714.8015      8.6046
   778.2500     62.5239      0.0000    673.4327      8.5204
   778.5000     67.3200      0.0000    613.0292      8.4347
   778.7500     70.7364      0.0000    550.4999      8.3708
   779.0000     72.7198      0.0000    506.5937      8.3437
   779.2500     74.1227      0.0000    489.3957      8.3511
   779.5000     75.8387      0.0000    486.7855      8.3781
   779.7500     77.7774      0.0000    477.9595      8.4159
   780.0000     78.8557      0.0000    452.5329      8.4676
   780.2500     78.1859      0.0000    417.2451      8.5297
   780.5000     76.0473      0.0000    386.0886      8.5820
   780.7500     73.3752      0.0000    367.6915      8.6108
   781.0000     70.6944      0.0000    361.5730      8.6379
   781.2500     68.1286      0.0000    361.9221      8.7123
   781.5000     66.0314      0.0000    362.9949      8.8666
   781.7500     64.7359      0.0000    362.8961      9.0820
   782.0000     63.7552      0.0000    364.7524      9.2921
   782.2500     61.9570      0.0000    374.1200      9.4170
   782.5000     58.7719      0.0000    392.8972      9.4071
   782.7500     54.8614      0.0000    414.4168      9.2799
   783.0000     51.4382      0.0000    427.0125      9.1230
   783.2500     49.2650      0.0000    425.7828      9.0393
   783.5000     48.6033      0.0000    419.6818      9.0679
   783.7500     49.8593      0.0000    423.2908      9.1631
   784.0000     53.5952      0.0000    440.9824      9.2564
   784.2500     59.4636      0.0000    461.0740      9.3234
   784.5000     65.5016      0.0000    466.5483      9.3853
   784.7500     69.2437      0.0000    450.9584      9.4670
   785.0000     69.8051      0.0000    422.9320      9.5680
   785.2500     68.6344      0.0000    396.4213      9.6682
   785.5000     68.0495      0.0000    379.2973      9.7556
   785.7500     69.0755      0.0000    370.7559      9.8422
   786.0000     70.7171      0.0000    365.9515      9.9508
   786.2500     71.1545      0.0000    361.1367     10.0897
   786.5000     69.3805      0.0000    356.0526     10.2458
   786.7500     65.7700      0.0000    353.6988     10.3938
   787.0000     61.5295      0.0000    359.0784     10.5015
   787.2500     57.8173      0.0000    377.3410     10.5389
   787.5000     55.1639      0.0000    410.6658     10.4965
   787.7500     53.4519      0.0000    455.6916     10.3951
   788.0000     52.3267      0.0000    505.9315     10.2714
   788.2500     51.5645      0.0000    557.6265     10.1490
   788.5000     51.0942      0.0000    610.2935     10.0247
   788.7500     50.8325      0.0000    660.6461      9.8802
   789.0000     50.6877      0.0000    700.0771      9.7069
   789.2500     50.7318      0.0000    720.4103      9.5162
   789.5000     51.1630      0.0000    720.7554      9.3297
   789.7500     52.0165      0.0000    709.0865      9.1639
   790.0000     53.1178      0.0000    698.3155      9.0232
   790.2500     54.3367      0.0000    698.7052      8.9041
   790.5000     55.5853      0.0000    711.4175      8.8035
   790.7500     56.5625      0.0000    729.3409      8.7194
   791.0000     56.8759      0.0000    744.3899      8.6486
   791.2500     56.5226      0.0000    753.1968      8.5850
   791.5000     55.9806      0.0000    756.8782      8.5205
   791.7500     55.7832      0.0000    757.8919      8.4454
   792.0000     56.1604      0.0000    757.9977      8.3561
   792.2500     57.0357      0.0000    758.0027      8.2630
   792.5000     58.2262      0.0000    758.1470      8.1855
   792.7500     59.6073      0.0000    758.4095      8.1375
   793.0000     61.1604      0.0000    758.6567      8.1202
   793.2500     63.0246      0.0000    758.7574      8.1277
   793.5000     65.4125      0.0000    758.6863      8.1555
   793.7500     68.0055      0.0000    758.5275      8.1999
   794.0000     69.4354      0.0000    758.3879      8.2512
   794.2500     68.0568      0.0000    758.3114      8.2918
   794.5000     63.5484      0.0000    758.2646      8.3052
   794.7500     57.4688      0.0000    758.1842      8.2900
   795.0000     52.2073      0.0000    757.9063      8.2642
   795.2500     49.4922      0.0000    756.8969      8.2550
   795.5000     49.4553      0.0000    753.8327      8.2826
   795.7500     50.6201      0.0000    746.6346      8.3468
   796.0000     50.9633      0.0000    733.6699      8.4266
   796.2500     49.5149      0.0000    715.6046      8.4959
   796.5000     47.0964      0.0000    696.1660      8.5397
   796.7500     45.3631      0.0000    681.0225      8.5568
   797.0000     45.1803      0.0000    675.6297      8.5487
   797.2500     46.0755      0.0000    682.5516      8.5116
   797.5000     47.1023      0.0000    699.2411      8.4434
   797.7500     47.9787      0.0000    718.9512      8.3565
   798.0000     49.3259      0.0000    734.8912      8.2805
   798.2500     51.7161      0.0000    743.6173      8.2465
   798.5000     54.5216      0.0000    745.2596      8.2670
   798.7500     56.0295      0.0000    742.2591      8.3271
   799.0000     54.9659      0.0000    738.2406      8.3981
   799.2500     51.8684      0.0000    736.6605      8.4568
   799.5000     48.8089      0.0000    739.0687      8.4898
   799.7500     47.7395      0.0000    744.3674      8.4757
   800.0000     49.1149      0.0000    749.9194      8.3718
