~Version Information
VERS.                      2.0: CWLS Log ASCII Standard - VERSION 2.0
WRAP.                       NO: One line per depth step
~Well Information Block
STRT.FT               545.0000: 
STOP.FT              1922.0000: 
STEP.FT                 0.2500: 
NULL.                -999.2500: 
COMP.          Pioneer Natural Resources: COMPANY
WELL.            Summers 21-19: WELL
FLD.           Purgatoire River: FIELD
LOC.           900' FNL & 1950' FWL: LOCATION
PROV.                 Colorado: PROVINCE
CNTY.               Las Animas: COUNTRY
SRVC.                Patterson: SERVICE COMPANY
DATE.          Sat Oct 15 03:34:13 2005: LOG DATE
UWI.           05 071 08315 00: UNIQUE WELL ID
~Curve Information Block
DEPT.FT            0 000 00 00: Depth
SN.Ohm-m                      : IEL Short Normal
SP.mV                         : IEL Spontaneous Potential
DIR.Ohm-m                     : IEL Induction Resistivity
GR.GAPI                       : Gamma Ray
~Parameter Information Block
~A  Depth        SN          SP         DIR          GR     
# ...
  1181.5000     24.2627   -104.0909     21.9506    107.8203
  1181.7500     24.3187   -104.1777     22.2624    107.4642
  1182.0000     24.3751   -104.2903     22.4875    106.0485
  1182.2500     24.3060   -104.4151     22.6057    104.6913
  1182.5000     24.1805   -104.5356     22.6349    102.1640
  1182.7500     24.1380   -104.6387     22.6158    100.2989
  1183.0000     24.2128   -104.7196     22.5818     97.7109
  1183.2500     24.3994   -104.7798     22.5417     96.4030
  1183.5000     24.6634   -104.8214     22.4899     95.3735
  1183.7500     24.8412   -104.8449     22.4296     95.3726
  1184.0000     24.8008   -104.8516     22.3884     96.0763
  1184.2500     24.6665   -104.8460     22.4076     96.4397
  1184.5000     24.6588   -104.8359     22.5170     95.5616
  1184.7500     24.8268   -104.8296     22.7153     93.6527
  1185.0000     25.0928   -104.8348     22.9715     89.3490
  1185.2500     25.4127   -104.8574     23.2420     86.2638
  1185.5000     25.7615   -104.9007     23.4897     82.4019
  1185.7500     26.0887   -104.9636     23.6923     80.6541
  1186.0000     26.3874   -105.0385     23.8410     79.4104
  1186.2500     26.6751   -105.1120     23.9372     79.3805
  1186.5000     26.8865   -105.1707     23.9922     79.9319
  1186.7500     26.9323   -105.2070     24.0281     80.2475
  1187.0000     26.8304   -105.2234     24.0727     80.1854
  1187.2500     26.6923   -105.2321     24.1455     79.8632
  1187.5000     26.6277   -105.2531     24.2454     79.6052
  1187.7500     26.6641   -105.3133     24.3511     80.0593
  1188.0000     26.7390   -105.4444     24.4389     81.9889
  1188.2500     26.8019   -105.6785     24.5039     83.6535
  1188.5000     26.8727   -106.0401     24.5669     85.1129
  1188.7500     26.9958   -106.5352     24.6638     84.6698
  1189.0000     27.1809   -107.1456     24.8285     82.0823
  1189.2500     27.3668   -107.8311     25.0782     79.8859
  1189.5000     27.4884   -108.5422     25.4033     77.1962
  1189.7500     27.5951   -109.2369     25.7668     76.0478
  1190.0000     27.7914   -109.8931     26.1161     75.0278
  1190.2500     28.0892   -110.5086     26.4045     74.7110
  1190.5000     28.4019   -111.0925     26.6083     75.1117
  1190.7500     28.6575   -111.6523     26.7305     76.2621
  1191.0000     28.8765   -112.1865     26.7922     79.3747
  1191.2500     29.1290   -112.6867     26.8279     82.0018
  1191.5000     29.4432   -113.1457     26.8845     85.6559
  1191.7500     29.7980   -113.5628     27.0163     87.2669
  1192.0000     30.1841   -113.9415     27.2706     88.0263
  1192.2500     30.5518   -114.2843     27.6654     87.6929
  1192.5000     30.7637   -114.5906     28.1700     86.7416
  1192.7500     30.7681   -114.8572     28.7000     86.0956
  1193.0000     30.6971   -115.0779     29.1377     85.1641
  1193.2500     30.7276   -115.2460     29.3771     84.5674
  1193.5000     30.9483   -115.3563     29.3728     83.9123
  1193.7500     31.3138   -115.4072     29.1661     83.8051
  1194.0000     31.6919   -115.3975     28.8737     84.2705
  1194.2500     31.9857   -115.3245     28.6446     84.9180
  1194.5000     32.1902   -115.1843     28.5996     86.0348
  1194.7500     32.3890   -114.9723     28.7788     86.6673
  1195.0000     32.7080   -114.6860     29.1208     87.2169
  1195.2500     33.1747   -114.3302     29.4947     87.1257
  1195.5000     33.6815   -113.9238     29.7733     85.6174
  1195.7500     34.1807   -113.4996     29.9014     83.2712
  1196.0000     34.7327   -113.0935     29.9119     77.7174
  1196.2500     35.2860   -112.7321     29.8862     73.2703
  1196.5000     35.6539   -112.4286     29.8941     67.1994
  1196.7500     35.7568   -112.1865     29.9491     64.4492
  1197.0000     35.6473   -112.0059     30.0069     62.8571
  1197.2500     35.3379   -111.8858     30.0078     63.2225
  1197.5000     34.8327   -111.8240     29.9319     65.0030
  1197.7500     34.2392   -111.8163     29.8119     66.5798
  1198.0000     33.6840   -111.8550     29.6886     69.1625
  1198.2500     33.1990   -111.9288     29.5655     70.8485
  1198.5000     32.7605   -112.0218     29.4128     72.7753
  1198.7500     32.3758   -112.1139     29.2129     73.3307
  1199.0000     32.1007   -112.1850     28.9958     72.9762
  1199.2500     31.9943   -112.2226     28.8321     72.1832
  1199.5000     32.0774   -112.2253     28.7964     70.6522
  1199.7500     32.3290   -112.1950     28.9345     69.5714
  1200.0000     32.6976   -112.1255     29.2514     67.9768
  1200.2500     33.1346   -112.0013     29.7143     67.0704
  1200.5000     33.6145   -111.8094     30.2583     66.5292
  1200.7500     34.1491   -111.5531     30.7950     67.0782
  1201.0000     34.7677   -111.2532     31.2326     69.1569
  1201.2500     35.4200   -110.9340     31.5096     70.7602
  1201.5000     35.9957   -110.6087     31.6157     72.2772
  1201.7500     36.4205   -110.2818     31.5746     72.4722
  1202.0000     36.6536   -109.9679     31.4082     72.2417
  1202.2500     36.7134   -109.6971     31.1208     72.4483
  1202.5000     36.6865   -109.4941     30.7087     74.2207
  1202.7500     36.6033   -109.3540     30.1643     76.5180
  1203.0000     36.3983   -109.2403     29.4665     81.3378
  1203.2500     36.0588   -109.1033     28.5844     85.2846
  1203.5000     35.6685   -108.9013     27.5072     92.4589
  1203.7500     35.1992   -108.6192     26.2682     98.2861
  1204.0000     34.3832   -108.2765     24.9332    108.2960
  1204.2500     32.9335   -107.9200     23.5683    115.1526
  1204.5000     30.8714   -107.5966     22.2269    124.7669
  1204.7500     28.5254   -107.3284     20.9561    130.7621
  1205.0000     26.2298   -107.1075     19.8003    139.5771
  1205.2500     24.1629   -106.9118     18.7914    145.0784
  1205.5000     22.3826   -106.7241     17.9385    151.2289
  1205.7500     20.8606   -106.5417     17.2280    153.0284
  1206.0000     19.5143   -106.3768     16.6352    151.9327
  1206.2500     18.2916   -106.2525     16.1393    149.3267
  1206.5000     17.2579   -106.1954     15.7335    144.9881
  1206.7500     16.5359   -106.2234     15.4242    143.5696
  1207.0000     16.1478   -106.3313     15.2199    145.5005
  1207.2500     16.0245   -106.4823     15.1188    148.8160
  1207.5000     16.1501   -106.6182     15.1047    152.9059
  1207.7500     16.5578   -106.6860     15.1522    152.6592
  1208.0000     17.2004   -106.6605     15.2367    146.4984
  1208.2500     17.9541   -106.5488     15.3381    139.7693
  1208.5000     18.7652   -106.3720     15.4393    129.6259
  1208.7500     19.7243   -106.1433     15.5245    124.6157
  1209.0000     20.9428   -105.8579     15.5843    120.2187
  1209.2500     22.3706   -105.5024     15.6257    118.5095
  1209.5000     23.7556   -105.0724     15.6777    116.4837
  1209.7500     24.7892   -104.5837     15.7816    115.6429
  1210.0000     25.2798   -104.0688     15.9720    116.7279
  1210.2500     25.1592   -103.5644     16.2605    120.0269
  1210.5000     24.4698   -103.1005     16.6302    129.3593
  1210.7500     23.4658   -102.6964     17.0392    137.6508
  1211.0000     22.4946   -102.3589     17.4282    149.8742
  1211.2500     21.6929   -102.0759     17.7280    155.5985
  1211.5000     20.9685   -101.8109     17.8721    157.9675
  1211.7500     20.2170   -101.5107     17.8152    155.2452
  1212.0000     19.4465   -101.1277     17.5504    146.1573
  1212.2500     18.7535   -100.6439     17.1131    137.8984
  1212.5000     18.2213   -100.0823     16.5698    124.1379
  1212.7500     17.8252    -99.4958     15.9966    115.3440
  1213.0000     17.4873    -98.9414     15.4609    105.3171
  1213.2500     17.2425    -98.4570     15.0100    101.9754
  1213.5000     17.2117    -98.0568     14.6668    102.3521
  1213.7500     17.3990    -97.7393     14.4304    105.3296
  1214.0000     17.6296    -97.4940     14.2816    111.8504
  1214.2500     17.7034    -97.3077     14.1897    116.8004
  1214.5000     17.5447    -97.1737     14.1207    124.6728
  1214.7500     17.1956    -97.0997     14.0404    130.0385
