~Version Information
VERS.                      2.0: CWLS Log ASCII Standard - VERSION 2.0
WRAP.                       NO: One line per depth step
~Well Information Block
STRT.FT               954.4000: 
STOP.FT              2380.0000: 
STEP.FT                 0.1000: 
NULL.                -999.2500: 
COMP.          Petrogulf Corporation: COMPANY
WELL.             State 16-24V: WELL
FLD.           Purgatorie River: FIELD
LOC.           481' FSL & 2419' FWL: LOCATION
CNTY.               Las Animas: COUNTY
SRVC.                         : SERVICE COMPANY
DATE.          Tue May 04 07:31:25 2004: LOG DATE
UWI.           05 071 08014 00: UNIQUE WELL ID
STAT.                 Colorado: STATE
~Curve Information Block
DEPT.FT            0 000 00 00: Depth
DCAL.in                       : CDL Caliper
RHOB.g/cc                     : CDL Bulk Density
RHOC.g/cc                     : CDL Density Correction
DPOR.pu                       : CDL Density Porosity
GR.GAPI                       : Gamma Ray
~Parameter Information Block
~A  Depth       DCAL        RHOB        RHOC        DPOR         GR     
# ...
  1525.6000      7.7547      2.5409      0.0218      6.6126    145.9624
  1525.7000      7.7547      2.6206      0.2127      1.7820    135.4986
  1525.8000      7.7973      2.6806      0.2126     -1.8536    124.8288
  1525.9000      7.7973      2.7006      0.1316     -3.0637    128.0656
  1526.0000      7.8834      2.6883      0.1509     -2.3188    143.7420
  1526.1000      7.8834      2.6472      0.1313      0.1714    157.6786
  1526.2000      7.8834      2.5901      0.1304      3.6306    163.2846
  1526.3000      7.8715      2.5443      0.0447      6.4082    162.4479
  1526.4000      7.8715      2.5278      0.0642      7.4050    158.6305
  1526.5000      7.8366      2.5284      0.0522      7.3716    154.1482
  1526.6000      7.8366      2.5188      0.0478      7.9525    159.6796
  1526.7000      7.8366      2.4858      0.0441      9.9519    173.2570
  1526.8000      7.8377      2.4444     -0.0257     12.4594    175.2888
  1526.9000      7.8377      2.4160     -0.0201     14.1837    168.7120
  1527.0000      7.8714      2.4028      0.0001     14.9845    166.7463
  1527.1000      7.8714      2.4108     -0.0719     14.4982    167.3736
  1527.2000      7.8714      2.4377      0.0521     12.8654    173.4086
  1527.3000      7.8754      2.4606      0.0585     11.4803    184.6887
  1527.4000      7.8754      2.4784      0.0309     10.4012    181.1734
  1527.5000      7.8725      2.5040      0.1099      8.8467    160.5423
  1527.6000      7.8725      2.5237      0.1349      7.6546    150.0446
  1527.7000      7.8725      2.5264      0.0886      7.4914    154.5092
  1527.8000      7.8801      2.5275      0.0718      7.4254    155.2052
  1527.9000      7.8801      2.5323      0.1014      7.1343    152.8586
  1528.0000      7.8836      2.5392     -0.0026      6.7135    154.5113
  1528.1000      7.8836      2.5519      0.1525      5.9438    152.1468
  1528.2000      7.8836      2.5664      0.0846      5.0655    143.5365
  1528.3000      7.8880      2.5780      0.1936      4.3622    144.9756
  1528.4000      7.8880      2.5681      0.1280      4.9629    164.5462
  1528.5000      7.8971      2.5308      0.0334      7.2217    181.6247
  1528.6000      7.8971      2.5004     -0.1002      9.0670    178.2536
  1528.7000      7.8971      2.5020     -0.0008      8.9717    169.5406
  1528.8000      7.8961      2.5134      0.0798      8.2818    172.3532
  1528.9000      7.8961      2.5047      0.0591      8.8088    181.8143
  1529.0000      7.8870      2.4806     -0.0363     10.2693    188.2163
  1529.1000      7.8870      2.4609      0.0218     11.4583    186.0503
  1529.2000      7.8870      2.4657     -0.0125     11.1673    177.4804
  1529.3000      7.8841      2.5016      0.0888      8.9952    170.7140
  1529.4000      7.8841      2.5432      0.0837      6.4727    167.0072
  1529.5000      7.8795      2.5672      0.0629      5.0181    162.9252
  1529.6000      7.8795      2.5629      0.1685      5.2787    162.1999
  1529.7000      7.8795      2.5311      0.1143      7.2054    163.9335
  1529.8000      7.8814      2.5021      0.1061      8.9658    163.6183
  1529.9000      7.8814      2.4990      0.1010      9.1539    168.9117
  1530.0000      7.8800      2.5171      0.0396      8.0562    178.4680
  1530.1000      7.8800      2.5440      0.1129      6.4255    184.0250
  1530.2000      7.8800      2.5648      0.0791      5.1624    185.0902
  1530.3000      7.8876      2.5687      0.0898      4.9300    176.6138
  1530.4000      7.8876      2.5576      0.0926      5.6000    160.8054
  1530.5000      7.8839      2.5379      0.0636      6.7955    152.0625
  1530.6000      7.8839      2.5152      0.0668      8.1668    152.9649
  1530.7000      7.8839      2.5087      0.0826      8.5655    157.2106
  1530.8000      7.8980      2.5306      0.1606      7.2339    167.8871
  1530.9000      7.8980      2.5556      0.1881      5.7189    184.1438
  1531.0000      7.9013      2.5470      0.1817      6.2446    189.4955
  1531.1000      7.9013      2.5112      0.0935      8.4136    179.5950
  1531.2000      7.9013      2.4961      0.0730      9.3300    175.6087
  1531.3000      7.8974      2.5207      0.1749      7.8360    188.8257
  1531.4000      7.8974      2.5493      0.2428      6.1010    199.6646
  1531.5000      7.9038      2.5516      0.2609      5.9628    195.6195
  1531.6000      7.9038      2.5380      0.1826      6.7877    193.5073
  1531.7000      7.9038      2.5278      0.1376      7.4051    194.5718
  1531.8000      7.9118      2.5214      0.0773      7.7958    188.3250
  1531.9000      7.9118      2.5172      0.0629      8.0506    187.6630
  1532.0000      7.9063      2.5245      0.0501      7.6034    194.0942
  1532.1000      7.9063      2.5464      0.1153      6.2787    192.2602
  1532.2000      7.9063      2.5646      0.2628      5.1778    183.9545
  1532.3000      7.8945      2.5761      0.2119      4.4780    180.3144
  1532.4000      7.8945      2.6060      0.2615      2.6681    184.3336
  1532.5000      7.8971      2.6503      0.2700     -0.0193    193.3082
  1532.6000      7.8971      2.6750      0.2196     -1.5152    200.3143
  1532.7000      7.8971      2.6541      0.2375     -0.2456    193.8718
  1532.8000      7.8927      2.5929      0.1619      3.4602    176.5750
  1532.9000      7.8927      2.5416      0.0533      6.5691    164.5471
  1533.0000      7.8904      2.5332      0.0843      7.0809    165.8855
  1533.1000      7.8904      2.5408      0.0888      6.6155    175.7673
  1533.2000      7.8904      2.5522      0.0758      5.9247    177.7896
  1533.3000      7.8862      2.5819      0.1032      4.1258    162.2981
  1533.4000      7.8862      2.6113      0.1793      2.3425    145.3302
  1533.5000      7.8909      2.6133      0.1398      2.2272    144.3616
  1533.6000      7.8909      2.5946      0.1745      3.3546    157.9579
  1533.7000      7.8909      2.5798      0.1769      4.2554    171.2874
  1533.8000      7.8879      2.5865      0.1516      3.8470    172.9778
  1533.9000      7.8879      2.6217      0.1505      1.7133    169.9953
  1534.0000      7.8887      2.6677      0.2381     -1.0750    168.8978
  1534.1000      7.8887      2.6770      0.3016     -1.6344    169.2620
  1534.2000      7.8887      2.6323      0.1077      1.0747    170.6585
  1534.3000      7.8933      2.5752      0.0477      4.5335    165.5152
  1534.4000      7.8933      2.5265      0.0930      7.4847    147.5178
  1534.5000      7.9027      2.4811      0.0296     10.2369    129.8191
  1534.6000      7.9027      2.4518      0.0497     12.0126    124.5564
  1534.7000      7.9027      2.4569     -0.0045     11.7037    131.4566
  1534.8000      7.8898      2.4885     -0.0161      9.7893    145.9117
  1534.9000      7.8898      2.5116      0.0186      8.3890    156.8733
  1535.0000      7.8833      2.5263     -0.0234      7.4951    159.6623
  1535.1000      7.8833      2.5533      0.1019      5.8614    157.9992
  1535.2000      7.8833      2.5647      0.1471      5.1669    154.2563
  1535.3000      7.8776      2.5458     -0.0081      6.3156    151.0588
  1535.4000      7.8776      2.5419      0.0019      6.5489    149.7485
  1535.5000      7.8745      2.5713      0.0360      4.7690    147.9721
  1535.6000      7.8745      2.5920      0.0731      3.5146    148.1332
  1535.7000      7.8745      2.5748      0.0136      4.5573    154.6031
  1535.8000      7.8732      2.5388      0.0546      6.7407    162.7677
  1535.9000      7.8732      2.5177     -0.0328      8.0172    164.1401
  1536.0000      7.8872      2.5246      0.0527      7.6005    158.5500
  1536.1000      7.8872      2.5376      0.0803      6.8132    147.4086
  1536.2000      7.8872      2.5345      0.0603      6.9996    129.4203
  1536.3000      7.8972      2.5299      0.0235      7.2798    117.9876
  1536.4000      7.8972      2.5423      0.0380      6.5271    121.6598
  1536.5000      7.9204      2.5503      0.1335      6.0418    128.4378
  1536.6000      7.9204      2.5257      0.1495      7.5337    133.6606
  1536.7000      7.9204      2.5088     -0.0567      8.5561    147.1991
