~Version Information
VERS.                      2.0: CWLS Log ASCII Standard - VERSION 2.0
WRAP.                       NO: One line per depth step
~Well Information Block
STRT.FT               420.0000: 
STOP.FT              1527.5000: 
STEP.FT                 0.1000: 
NULL.                -999.2500: 
COMP.          Evergreen Operating Corporation: COMPANY
WELL.              Chase 21-10: WELL
FLD.           Purgatoire River: FIELD
LOC.           1122' FNL & 1544' FWL: LOCATION
PROV.                       CO: PROVINCE
CNTY.               Las Animas: COUNTRY
SRVC.                         : SERVICE COMPANY
DATE.          Tue May 25 08:18:37 2004: LOG DATE
UWI.           05 071 08006 00: UNIQUE WELL ID
~Curve Information Block
DEPT.FT            0 000 00 00: Depth
DCAL.in                       : CDL Caliper
RHOB.g/cc                     : CDL Bulk Density
RHOC.g/cc                     : CDL Density Correction
DPOR.pu                       : CDL Density Porosity
GR.GAPI                       : Gamma Ray
NPOR.pu                       : Neutron Porosity
~Parameter Information Block
~A  Depth       DCAL        RHOB        RHOC        DPOR         GR         NPOR    
# ...
   928.8000      7.9391      2.5077     -0.0086      8.6266    123.4347     44.8293
   928.9000      7.9391      2.5301      0.1270      7.2691    127.5734     44.9005
   929.0000      7.9787      2.5520      0.0224      5.9388    138.1727     44.8109
   929.1000      7.9787      2.5791      0.0586      4.2990    145.7133     44.4642
   929.2000      7.9787      2.6157      0.1753      2.0817    147.3291     44.2347
   929.3000      7.9435      2.6305      0.1891      1.1820    142.2483     44.3210
   929.4000      7.9435      2.6081      0.1239      2.5372    136.6751     44.4874
   929.5000      7.9448      2.5775      0.1051      4.3949    138.3787     44.5751
   929.6000      7.9448      2.5709      0.1045      4.7930    144.6543     44.6494
   929.7000      7.9448      2.5683      0.1414      4.9536    150.1980     44.6952
   929.8000      7.9481      2.5303      0.0842      7.2541    150.4699     44.5721
   929.9000      7.9481      2.4797     -0.0375     10.3220    143.5916     44.3484
   930.0000      7.9547      2.4704     -0.0077     10.8832    136.6617     44.1964
   930.1000      7.9547      2.5053      0.0625      8.7698    134.0918     44.2999
   930.2000      7.9547      2.5453      0.0735      6.3453    129.8772     44.4329
   930.3000      7.9552      2.5677      0.0872      4.9886    121.0111     44.2985
   930.4000      7.9552      2.5739      0.0368      4.6133    117.1731     44.2186
   930.5000      7.9490      2.5696      0.1085      4.8715    125.0841     44.2662
   930.6000      7.9490      2.5592      0.0680      5.5008    135.9074     44.0437
   930.7000      7.9490      2.5380      0.0349      6.7851    140.5443     43.6764
   930.8000      7.9478      2.4965      0.0690      9.3059    136.6897     43.4883
   930.9000      7.9478      2.4522     -0.0487     11.9877    127.7128     43.4930
   931.0000      7.9627      2.4357     -0.0261     12.9879    122.3235     43.7178
   931.1000      7.9627      2.4460     -0.0201     12.3625    124.4403     44.0393
   931.2000      7.9627      2.4716     -0.0388     10.8102    126.9625     44.0876
   931.3000      7.9475      2.5055      0.0267      8.7585    124.9737     43.8230
   931.4000      7.9475      2.5296      0.0385      7.2956    121.5380     43.6535
   931.5000      7.9654      2.5363      0.0158      6.8901    119.0172     43.7855
   931.6000      7.9654      2.5318      0.0775      7.1631    117.6467     44.0274
   931.7000      7.9654      2.5263     -0.0020      7.4973    120.2016     44.1680
   931.8000      7.9925      2.5393      0.0384      6.7092    125.8368     44.0583
   931.9000      7.9925      2.5628      0.0935      5.2862    126.2355     43.7886
   932.0000      7.9784      2.5770      0.0866      4.4236    123.6200     43.5719
   932.1000      7.9784      2.6001      0.0409      3.0238    126.4243     43.4513
   932.2000      7.9784      2.6387      0.1070      0.6834    129.6954     43.4215
   932.3000      7.9113      2.6533      0.1146     -0.2022    128.5110     43.5729
   932.4000      7.9113      2.6214      0.1361      1.7363    127.2764     43.7903
   932.5000      7.9487      2.5695      0.0242      4.8806    129.5251     43.8527
   932.6000      7.9487      2.5357      0.0162      6.9262    137.8676     43.8808
   932.7000      7.9487      2.5279      0.0644      7.4019    149.3671     43.9928
   932.8000      7.9719      2.5263      0.0314      7.4942    151.1443     44.0816
   932.9000      7.9719      2.5097      0.0417      8.5001    139.1864     44.2270
   933.0000      8.0263      2.4739      0.0312     10.6734    127.3955     44.5040
   933.1000      8.0263      2.4439     -0.0632     12.4928    123.3550     44.7041
   933.2000      8.0263      2.4451      0.0083     12.4186    123.7730     44.7822
   933.3000      8.0308      2.4797     -0.0329     10.3208    127.3390     44.9044
   933.4000      8.0308      2.5259      0.0937      7.5240    130.4138     44.9395
   933.5000      8.0202      2.5452      0.1014      6.3540    128.5314     44.8026
   933.6000      8.0202      2.5250      0.1013      7.5742    121.3405     44.7578
   933.7000      8.0202      2.4903      0.0368      9.6802    112.1521     44.8589
   933.8000      8.0408      2.4654      0.0315     11.1899    103.0900     45.1310
   933.9000      8.0408      2.4433      0.0474     12.5290     93.6854     45.8058
   934.0000      8.0595      2.4188     -0.0178     14.0099     89.2331     46.3991
   934.1000      8.0595      2.4159     -0.0444     14.1873     98.4028     46.1972
   934.2000      8.0595      2.4251      0.0891     13.6302    114.7491     45.5299
   934.3000      8.0563      2.4106     -0.0153     14.5062    125.0691     45.1857
   934.4000      8.0563      2.3774      0.0127     16.5197    127.4979     45.2846
   934.5000      8.0829      2.3459     -0.0334     18.4281    124.3971     45.5272
   934.6000      8.0829      2.3196     -0.0244     20.0217    121.9095     45.8086
   934.7000      8.0829      2.2920      0.0390     21.6995    128.7972     46.2013
   934.8000      8.1624      2.2683      0.0147     23.1350    138.3067     46.4731
   934.9000      8.1624      2.2724      0.0235     22.8852    141.8387     46.4053
   935.0000      8.1460      2.3015      0.0985     21.1207    147.9371     46.2718
   935.1000      8.1460      2.3247      0.1138     19.7122    158.2833     46.4434
   935.2000      8.1460      2.3366      0.0726     18.9934    162.6906     46.8397
   935.3000      8.1715      2.3624      0.1212     17.4304    161.2051     47.0481
   935.4000      8.1715      2.4136      0.1354     14.3291    157.1185     46.9906
   935.5000      8.1622      2.4725      0.2189     10.7595    151.4257     46.8436
   935.6000      8.1622      2.5098      0.2137      8.4985    148.7973     46.5690
   935.7000      8.1622      2.5160      0.0913      8.1198    151.6169     46.2086
   935.8000      8.1921      2.5179      0.0193      8.0042    154.1595     45.8440
   935.9000      8.1921      2.5417      0.0897      6.5653    153.8905     45.5297
   936.0000      8.1655      2.5850      0.0785      3.9405    156.2605     45.3625
   936.1000      8.1655      2.6206      0.1166      1.7831    161.9358     45.0389
   936.2000      8.1655      2.6199      0.1566      1.8236    161.3569     44.3211
   936.3000      8.1509      2.5960      0.0476      3.2719    149.5251     43.7505
   936.4000      8.1509      2.5698      0.0861      4.8586    139.0885     43.7831
   936.5000      8.0914      2.5425      0.0337      6.5142    138.1976     44.1355
   936.6000      8.0914      2.5265     -0.0397      7.4843    141.0726     44.4591
   936.7000      8.0914      2.5196      0.0836      7.9041    141.0669     44.5705
   936.8000      8.0745      2.4996      0.0621      9.1135    134.9280     44.3844
   936.9000      8.0745      2.4866     -0.0178      9.9007    130.4499     44.1403
   937.0000      8.0381      2.5122      0.0251      8.3501    135.1460     44.0192
   937.1000      8.0381      2.5478      0.0553      6.1927    143.2408     44.0083
   937.2000      8.0381      2.5559      0.1247      5.7021    147.9405     44.0352
   937.3000      8.0484      2.5484      0.0375      6.1574    146.8507     43.9413
   937.4000      8.0484      2.5499      0.0972      6.0667    140.0562     43.6579
   937.5000      8.0639      2.5620      0.0180      5.3341    131.7267     43.1411
   937.6000      8.0639      2.5800     -0.0096      4.2436    126.6372     42.4844
   937.7000      8.0639      2.5985      0.1055      3.1189    122.2990     41.9825
   937.8000      8.0335      2.6031      0.1173      2.8415    115.3783     41.9567
   937.9000      8.0335      2.5919      0.0391      3.5220    105.9561     42.2602
   938.0000      7.9465      2.5899      0.0249      3.6451     95.6458     42.3514
   938.1000      7.9465      2.6029      0.0698      2.8543     88.5127     42.1804
   938.2000      7.9465      2.6079      0.1628      2.5530     87.3462     41.9938
   938.3000      7.9259      2.6070      0.0626      2.6090     90.8432     41.8150
