~Version Information
VERS.                      2.0: CWLS Log ASCII Standard - VERSION 2.0
WRAP.                       NO: One line per depth step
~Well Information Block
STRT.FT               350.0000: 
STOP.FT              2264.0000: 
STEP.FT                 0.1000: 
NULL.                -999.2500: 
COMP.          Pioneer Natural Resources: COMPANY
WELL.             Warrior 32-1: WELL
FLD.           Purgatoire River: FIELD
LOC.           2624' FNL & 2392' FEL: LOCATION
PROV.                 Colorado: PROVINCE
CNTY.               Las Animas: COUNTRY
SRVC.                Patterson: SERVICE COMPANY
DATE.          Tue Oct 05 06:54:20 2004: LOG DATE
UWI.           05 071 08176 00: UNIQUE WELL ID
~Curve Information Block
DEPT.FT            0 000 00 00: Depth
DCAL.in                       : CDL Caliper
RHOB.g/cc                     : CDL Bulk Density
RHOC.g/cc                     : CDL Density Correction
DPOR.pu                       : CDL Density Porosity
NPOR.pu                       : Neutron Porosity
GR.GAPI                       : Gamma Ray
~Parameter Information Block
~A  Depth       DCAL        RHOB        RHOC        DPOR        NPOR         GR     
   350.0000     39.8379      2.0491      0.1442     36.4170     41.2887     61.0269
   350.1000     39.8379      2.0431      0.1328     36.7808     41.0180     64.4430
   350.2000     39.8379      2.0492      0.1316     36.4121     41.1144     68.1703
   350.3000     39.8578      2.0616      0.1656     35.6583     41.4267     69.5016
   350.4000     39.8578      2.0684      0.1464     35.2490     41.5232     70.5989
   350.5000     39.8627      2.0745      0.1422     34.8814     41.3836     72.0010
   350.6000     39.8627      2.0863      0.1481     34.1659     41.4708     70.9133
   350.7000     39.8627      2.0966      0.1492     33.5364     42.1265     68.4700
   350.8000     39.8531      2.0970      0.1388     33.5124     42.9800     68.4869
   350.9000     39.8531      2.0866      0.1226     34.1473     43.4158     70.2508
   351.0000     39.8362      2.0700      0.1353     35.1499     43.4253     70.8741
   351.1000     39.8362      2.0477      0.1068     36.5019     43.3493     69.2425
   351.2000     39.8362      2.0171      0.0945     38.3586     43.3255     67.4019
   351.3000     39.8301      1.9835      0.0430     40.3926     43.4411     68.8113
   351.4000     39.8301      1.9638     -0.0005     41.5895     43.6802     73.2630
   351.5000     39.8384      1.9689      0.0638     41.2766     43.7750     77.2224
   351.6000     39.8384      1.9852      0.0827     40.2920     43.6522     80.2582
   351.7000     39.8384      1.9951      0.0738     39.6904     43.4776     83.9982
   351.8000     39.8469      1.9993      0.0626     39.4373     43.4387     85.1723
   351.9000     39.8469      2.0037      0.0521     39.1676     43.6552     82.2708
   352.0000     39.8472      2.0099      0.0448     38.7960     43.8211     81.6609
   352.1000     39.8472      2.0245      0.0439     37.9063     43.6666     85.3681
   352.2000     39.8472      2.0530      0.0871     36.1821     43.5648     87.4948
   352.3000     39.8441      2.0825      0.1151     34.3916     43.8185     85.2409
   352.4000     39.8441      2.0973      0.1135     33.4942     44.1269     80.0458
   352.5000     39.8443      2.0924      0.1100     33.7920     44.2470     74.7124
   352.6000     39.8443      2.0688      0.0748     35.2227     44.1630     73.4082
   352.7000     39.8443      2.0375      0.0245     37.1188     43.9558     77.8446
   352.8000     39.8433      2.0131      0.0421     38.5999     44.0051     85.4338
   352.9000     39.8433      1.9986      0.0224     39.4783     44.5365     91.6968
   353.0000     39.8434      1.9939      0.0182     39.7656     44.9790     92.0166
   353.1000     39.8434      1.9980      0.0382     39.5169     44.8943     85.4030
   353.2000     39.8434      2.0031      0.0414     39.2059     44.7952     77.6550
   353.3000     39.8525      2.0036      0.0347     39.1746     45.0107     76.3692
   353.4000     39.8525      2.0012      0.0510     39.3223     45.1710     79.0036
   353.5000     39.8634      1.9969      0.0526     39.5826     45.0494     79.8335
   353.6000     39.8634      1.9888      0.0395     40.0732     44.9370     80.4876
   353.7000     39.8634      1.9723      0.0449     41.0700     44.9227     81.8900
   353.8000     39.8591      1.9463      0.0504     42.6458     44.8987     82.9827
   353.9000     39.8591      1.9220      0.0219     44.1224     44.8782     84.7672
   354.0000     39.8484      1.9109      0.0275     44.7939     44.7708     87.7132
   354.1000     39.8484      1.9108      0.0284     44.8013     44.5023     91.1901
   354.2000     39.8484      1.9155      0.0236     44.5137     44.2246     93.7756
   354.3000     39.8421      1.9228      0.0475     44.0741     44.1941     92.8359
   354.4000     39.8421      1.9336      0.0500     43.4202     44.3989     88.8552
   354.5000     39.8392      1.9541      0.0604     42.1743     44.5257     87.0389
   354.6000     39.8392      1.9829      0.1023     40.4281     44.5196     88.2675
   354.7000     39.8392      2.0034      0.1006     39.1871     44.5346     85.9638
   354.8000     39.8330      2.0053      0.0918     39.0735     44.2368     79.5985
   354.9000     39.8330      1.9954      0.1026     39.6736     43.6313     74.5815
   355.0000     39.8276      1.9827      0.0617     40.4404     43.3130     72.1074
   355.1000     39.8276      1.9708      0.0788     41.1654     43.4656     71.4936
   355.2000     39.8276      1.9614      0.0692     41.7328     43.9170     72.6438
   355.3000     39.8276      1.9588      0.0797     41.8886     44.2620     75.7683
   355.4000     39.8276      1.9651      0.0872     41.5081     44.2679     79.6391
   355.5000     39.8275      1.9770      0.1167     40.7875     44.0824     82.1296
   355.6000     39.8275      1.9898      0.1195     40.0134     43.7614     83.7993
   355.7000     39.8275      1.9998      0.1301     39.4039     43.4698     84.6782
   355.8000     39.8335      2.0060      0.1402     39.0277     43.3209     82.7236
   355.9000     39.8335      2.0083      0.1510     38.8904     43.1263     79.7915
   356.0000     39.8464      2.0093      0.1462     38.8294     42.8517     79.6928
   356.1000     39.8464      2.0166      0.1542     38.3859     42.4761     81.7240
   356.2000     39.8464      2.0353      0.1636     37.2520     42.0238     82.2979
   356.3000     39.8553      2.0589      0.2082     35.8245     41.8394     79.3089
   356.4000     39.8553      2.0743      0.2018     34.8907     42.1390     72.7161
   356.5000     39.8563      2.0819      0.1844     34.4289     42.5407     66.0608
   356.6000     39.8563      2.0888      0.2213     34.0107     42.8380     65.2911
   356.7000     39.8563      2.0930      0.2013     33.7590     43.2162     70.7997
   356.8000     39.8476      2.0929      0.1799     33.7666     43.6218     76.9184
   356.9000     39.8476      2.0878      0.1853     34.0756     43.8698     80.9386
   357.0000     39.8322      2.0724      0.1770     35.0049     44.1098     82.9359
   357.1000     39.8322      2.0508      0.1197     36.3122     44.3929     82.3291
   357.2000     39.8322      2.0353      0.1398     37.2531     44.3861     79.3490
   357.3000     39.8235      2.0291      0.1173     37.6307     43.9414     76.3662
   357.4000     39.8235      2.0272      0.1317     37.7443     43.5589     76.1711
   357.5000     39.8282      2.0243      0.1438     37.9202     43.6899     77.6824
   357.6000     39.8282      2.0189      0.1474     38.2483     44.0961     78.0206
   357.7000     39.8282      2.0143      0.1391     38.5271     44.3865     78.4220
   357.8000     39.8394      2.0161      0.1539     38.4207     44.4414     79.9178
   357.9000     39.8394      2.0234      0.1543     37.9752     44.3076     79.8627
   358.0000     39.8460      2.0264      0.2004     37.7950     44.0899     78.9255
   358.1000     39.8460      2.0204      0.1661     38.1568     43.9994     81.3152
   358.2000     39.8460      2.0123      0.1865     38.6470     44.1451     85.1221
   358.3000     39.8431      2.0069      0.1988     38.9754     44.1972     86.7096
   358.4000     39.8431      2.0092      0.1745     38.8365     43.9966     87.4431
   358.5000     39.8377      2.0274      0.1848     37.7352     43.9628     88.0472
   358.6000     39.8377      2.0602      0.2281     35.7447     44.3202     87.4406
   358.7000     39.8377      2.0980      0.2615     33.4567     44.6455     85.5841
   358.8000     39.8389      2.1293      0.2818     31.5592     44.5824     81.7353
   358.9000     39.8389      2.1449      0.2739     30.6135     44.5214     77.4122
   359.0000     39.8443      2.1477      0.2385     30.4396     44.7831     76.2512
   359.1000     39.8443      2.1523      0.2443     30.1628     45.1288     79.9831
   359.2000     39.8443      2.1657      0.2479     29.3539     45.3681     85.5028
   359.3000     39.8463      2.1752      0.2621     28.7755     45.4784     89.1295
   359.4000     39.8463      2.1597      0.2499     29.7131     45.4932     91.7400
   359.5000     39.8453      2.1142      0.1940     32.4713     45.6004     93.7366
