~Version Information
VERS.                      2.0: CWLS Log ASCII Standard - VERSION 2.0
WRAP.                       NO: One line per depth step
~Well Information Block
STRT.FT               450.0000: 
STOP.FT              1739.2000: 
STEP.FT                 0.1000: 
NULL.                -999.2500: 
COMP.          Pioneer Natural Resources: COMPANY
WELL.            Harlee L 34-9: WELL
FLD.           Purgatoire River: FIELD
LOC.           600' FSL & 2125' FEL: LOCATION
PROV.                 Colorado: PROVINCE
CNTY.               Las Animas: COUNTRY
SRVC.                Patterson: SERVICE COMPANY
DATE.          Wed Jan 26 13:57:24 2005: LOG DATE
UWI.           05 071 08009 00: UNIQUE WELL ID
~Curve Information Block
DEPT.FT            0 000 00 00: Depth
DCAL.in                       : CDL Caliper
RHOB.g/cc                     : CDL Bulk Density
RHOC.g/cc                     : CDL Density Correction
DPOR.pu                       : CDL Density Porosity
NPOR.pu                       : Neutron Porosity
GR.GAPI                       : Gamma Ray
~Parameter Information Block
~A  Depth       DCAL        RHOB        RHOC        DPOR        NPOR         GR     
# ...
   786.0000      9.0524      2.1953      0.5332     27.5559      8.0474     70.9821
   786.1000      9.0524      2.3140      0.5159     20.3655      9.6503     76.8976
   786.2000      9.0524      2.4244      0.4422     13.6730     11.1182     78.0297
   786.3000      9.0188      2.5312      0.4185      7.1993     12.6666     77.1943
   786.4000      9.0188      2.6063      0.4115      2.6471     14.5280     78.5802
   786.5000      8.9600      2.6246      0.2737      1.5382     16.6393     83.1847
   786.6000      8.9600      2.6097      0.1150      2.4414     18.7346     91.9037
   786.7000      8.9600      2.5970      0.1268      3.2138     20.5128    103.2331
   786.8000      8.9140      2.5846      0.0916      3.9624     21.8418    109.6893
   786.9000      8.9140      2.5659      0.0597      5.0961     22.8569    108.5295
   787.0000      8.9002      2.5439      0.1011      6.4313     23.7998    105.2029
   787.1000      8.9002      2.5187      0.0601      7.9581     24.6687    102.8796
   787.2000      8.9002      2.4976      0.0341      9.2366     25.2825    102.7471
   787.3000      8.9017      2.4806      0.0549     10.2677     25.2226    106.7902
   787.4000      8.9017      2.4480      0.0251     12.2436     24.2298    112.4997
   787.5000      8.9012      2.3831      0.0118     16.1734     22.9105    116.3722
   787.6000      8.9012      2.2860     -0.0051     22.0580     21.8749    118.9161
   787.7000      8.9012      2.1651     -0.0153     29.3884     20.9153    121.3235
   787.8000      8.8984      2.0349     -0.0830     37.2776     19.8442    125.0244
   787.9000      8.8984      1.9241     -0.1040     43.9942     18.8706    129.1787
   788.0000      8.8947      1.8717     -0.1850     47.1669     18.1470    131.7224
   788.1000      8.8947      1.8984     -0.0908     45.5540     17.6775    134.1325
   788.2000      8.8947      1.9736      0.0500     40.9956     17.4424    136.6487
   788.3000      8.8909      2.0491      0.1091     36.4152     17.4698    134.6238
   788.4000      8.8909      2.1201      0.1823     32.1175     17.7071    128.2328
   788.5000      8.8898      2.2181      0.2970     26.1743     18.0093    124.5908
   788.6000      8.8898      2.3459      0.5148     18.4327     18.5003    122.8579
   788.7000      8.8898      2.4555      0.5989     11.7873     19.4206    120.4890
   788.8000      8.8921      2.5140      0.5112      8.2449     20.4730    121.7842
   788.9000      8.8921      2.5304      0.4102      7.2466     21.0952    124.8044
   789.0000      8.8945      2.5184      0.2548      7.9756     21.3207    123.9677
   789.1000      8.8945      2.4943      0.0922      9.4367     21.3767    121.1970
   789.2000      8.8945      2.4832      0.0965     10.1070     21.2881    120.0593
   789.3000      8.8947      2.4941      0.0701      9.4488     21.3061    119.6669
   789.4000      8.8947      2.5127      0.1005      8.3228     21.6645    119.1398
   789.5000      8.8929      2.5175      0.0901      8.0303     22.1510    118.0725
   789.6000      8.8929      2.5041      0.0319      8.8416     22.2922    116.5262
   789.7000      8.8929      2.4867      0.0183      9.8996     22.1682    117.7893
   789.8000      8.8913      2.4752      0.0361     10.5911     22.2294    121.9032
   789.9000      8.8913      2.4712      0.0296     10.8360     22.3975    124.9606
   790.0000      8.8895      2.4772      0.0146     10.4754     22.3030    128.3050
   790.1000      8.8895      2.4910      0.0263      9.6354     21.9244    132.4521
   790.2000      8.8895      2.5045      0.0028      8.8170     21.5913    131.0011
   790.3000      8.8873      2.5134      0.0638      8.2759     21.4759    124.2180
   790.4000      8.8873      2.5170      0.0792      8.0625     21.3952    119.9583
   790.5000      8.8851      2.5210      0.0280      7.8190     21.4913    121.6407
   790.6000      8.8851      2.5327      0.0533      7.1084     22.0066    126.1341
   790.7000      8.8851      2.5449      0.0727      6.3674     22.5268    129.1761
   790.8000      8.8850      2.5475      0.0698      6.2128     22.6693    127.0682
   790.9000      8.8850      2.5442      0.0297      6.4118     22.6816    121.2119
   791.0000      8.8873      2.5446      0.0452      6.3880     22.9173    114.7200
   791.1000      8.8873      2.5467      0.0602      6.2619     23.3802    106.6139
   791.2000      8.8873      2.5457      0.0468      6.3202     23.5737    100.7905
   791.3000      8.8897      2.5483      0.0351      6.1635     23.2344    100.5973
   791.4000      8.8897      2.5570      0.0693      5.6360     22.8392     99.8191
   791.5000      8.8901      2.5611      0.0397      5.3861     22.7924     96.6748
   791.6000      8.8901      2.5584      0.0384      5.5489     22.7304     95.8535
   791.7000      8.8901      2.5588      0.0488      5.5265     22.3051     97.0573
   791.8000      8.8901      2.5636      0.0529      5.2370     21.9352     99.1711
   791.9000      8.8901      2.5644      0.0871      5.1906     21.8076    102.4275
   792.0000      8.8909      2.5647      0.0216      5.1688     21.5779    103.9211
   792.1000      8.8909      2.5804      0.0236      4.2204     21.6366    101.7532
   792.2000      8.8909      2.6112      0.0847      2.3515     22.5815     98.1743
   792.3000      8.8921      2.6395      0.0858      0.6346     23.9267     95.2491
   792.4000      8.8921      2.6502      0.0888     -0.0116     24.9504     92.2442
   792.5000      8.8936      2.6468      0.0624      0.1949     25.6537     88.4621
   792.6000      8.8936      2.6490      0.0480      0.0630     26.3452     85.1933
   792.7000      8.8936      2.6618      0.0874     -0.7180     27.0767     81.7959
   792.8000      8.9001      2.6651      0.0859     -0.9180     27.7601     78.0813
   792.9000      8.9001      2.6520      0.0383     -0.1237     28.4932     76.1518
   793.0000      8.9120      2.6428      0.0307      0.4375     29.2415     75.8913
   793.1000      8.9120      2.6435      0.0764      0.3942     29.5988     79.8806
   793.2000      8.9120      2.6385      0.0412      0.6998     29.5115     90.4589
   793.3000      8.9198      2.6176      0.0176      1.9635     29.3331    101.1087
   793.4000      8.9198      2.5766      0.0026      4.4512     29.1447    104.7766
   793.5000      8.9252      2.5147      0.0234      8.2009     28.7034    103.6211
   793.6000      8.9252      2.4459     -0.0445     12.3720     27.7904    104.9278
   793.7000      8.9252      2.3918     -0.0515     15.6492     26.5535    112.4365
   793.8000      8.9337      2.3572     -0.0353     17.7439     25.2624    120.3839
   793.9000      8.9337      2.3233      0.0126     19.8028     23.9767    122.9386
   794.0000      8.9409      2.2822     -0.0266     22.2882     22.8198    123.7720
   794.1000      8.9409      2.2646     -0.0348     23.3578     21.9986    127.2970
   794.2000      8.9409      2.2930      0.0445     21.6377     21.5120    132.2607
   794.3000      8.9431      2.3455      0.1139     18.4519     21.3266    134.8074
   794.4000      8.9431      2.3968      0.1342     15.3476     21.4107    132.8011
   794.5000      8.9419      2.4348      0.2244     13.0433     21.4737    127.5541
   794.6000      8.9419      2.4435      0.2150     12.5157     21.2297    121.5626
   794.7000      8.9419      2.4195      0.2345     13.9704     20.9924    117.3943
   794.8000      8.9372      2.3814      0.1630     16.2795     21.0266    116.7852
   794.9000      8.9372      2.3537      0.1434     17.9593     20.9712    120.0710
   795.0000      8.9228      2.3495      0.1467     18.2142     20.5759    126.5236
   795.1000      8.9228      2.3579      0.1917     17.7052     20.0009    131.8559
   795.2000      8.9228      2.3544      0.1351     17.9124     19.6272    130.8043
   795.3000      8.9010      2.3378      0.0286     18.9216     19.6986    125.2830
   795.4000      8.9010      2.3191      0.0741     20.0536     19.9373    122.9426
   795.5000      8.8894      2.2919      0.0752     21.7041     19.8328    128.3913
