~Version Information
VERS.                      2.0: CWLS Log ASCII Standard - VERSION 2.0
WRAP.                       NO: One line per depth step
~Well Information Block
STRT.FT               491.0000: 
STOP.FT              1056.0000: 
STEP.FT                 0.2500: 
NULL.                -999.2500: 
COMP.          Evergreen Operating Corporation: COMPANY
WELL.              Sunset 24-3: WELL
FLD.           Purgatorie River: FIELD
LOC.           467' FSL & 2262' FWL: LOCATION
PROV.                 Colorado: PROVINCE
CNTY.               Las Animas: COUNTRY
SRVC.                         : SERVICE COMPANY
DATE.          Wed Sep 22 11:23:45 2004: LOG DATE
UWI.           05 071 08158 00: UNIQUE WELL ID
~Curve Information Block
DEPT.FT            0 000 00 00: Depth
SN.Ohm-m                      : IEL Short Normal
SP.mV                         : IEL Spontaneous Potential
DIR.Ohm-m                     : IEL Induction Resistivity
GR.GAPI                       : Gamma Ray
~Parameter Information Block
~A  Depth        SN          SP         DIR          GR     
# ...
   926.5000     23.4278      4.7247     22.5410     72.3772
   926.7500     23.4311      4.9025     22.2741     72.6451
   927.0000     23.4173      5.0877     21.9897     72.3198
   927.2500     23.3769      5.2693     21.7342     71.8736
   927.5000     23.2977      5.4364     21.5362     71.9685
   927.7500     23.1690      5.5784     21.3992     72.9246
   928.0000     22.9859      5.6857     21.3075     75.1904
   928.2500     22.7543      5.7495     21.2413     76.5605
   928.5000     22.4914      5.7632     21.1898     77.6927
   928.7500     22.2235      5.7232     21.1556     78.0468
   929.0000     21.9801      5.6297     21.1522     79.0604
   929.2500     21.7887      5.4870     21.1979     80.6687
   929.5000     21.6708      5.3033     21.3088     85.0285
   929.7500     21.6405      5.0889     21.4933     89.1631
   930.0000     21.7056      4.8553     21.7504     96.2957
   930.2500     21.8683      4.6131     22.0702    100.7630
   930.5000     22.1252      4.3710     22.4356    105.4151
   930.7500     22.4664      4.1352     22.8235    106.4939
   931.0000     22.8754      3.9092     23.2067    104.8002
   931.2500     23.3311      3.6941     23.5599    101.7794
   931.5000     23.8115      3.4895     23.8683     95.3216
   931.7500     24.2956      3.2934     24.1316     90.2892
   932.0000     24.7604      3.1037     24.3610     82.6774
   932.2500     25.1763      2.9181     24.5702     78.1673
   932.5000     25.5054      2.7350     24.7666     73.0108
   932.7500     25.7081      2.5542     24.9483     70.9090
   933.0000     25.7567      2.3768     25.1053     70.0086
   933.2500     25.6465      2.2061     25.2229     70.7949
   933.5000     25.3990      2.0476     25.2837     73.1335
   933.7500     25.0534      1.9080     25.2711     74.7325
   934.0000     24.6546      1.7955     25.1749     76.4887
   934.2500     24.2431      1.7178     24.9950     77.4100
   934.5000     23.8501      1.6820     24.7391     79.1143
   934.7500     23.4970      1.6927     24.4174     80.5074
   935.0000     23.1957      1.7521     24.0407     82.3751
   935.2500     22.9482      1.8589     23.6262     83.2742
   935.5000     22.7491      2.0090     23.2039     84.4358
   935.7500     22.5866      2.1955     22.8134     85.2020
   936.0000     22.4465      2.4095     22.4922     85.7357
   936.2500     22.3144      2.6402     22.2617     85.2013
   936.5000     22.1770      2.8760     22.1200     83.0944
   936.7500     22.0238      3.1050     22.0434     81.3903
   937.0000     21.8477      3.3155     21.9944     79.4791
   937.2500     21.6470      3.4971     21.9328     79.0121
   937.5000     21.4251      3.6417     21.8261     79.6408
   937.7500     21.1891      3.7444     21.6573     80.6300
   938.0000     20.9477      3.8042     21.4285     81.7248
   938.2500     20.7098      3.8239     21.1582     81.4224
   938.5000     20.4832      3.8097     20.8728     79.0496
   938.7500     20.2743      3.7701     20.6001     76.7287
   939.0000     20.0868      3.7143     20.3668     73.6917
   939.2500     19.9228      3.6511     20.1982     72.6102
   939.5000     19.7853      3.5875     20.1153     72.3094
   939.7500     19.6798      3.5285     20.1260     72.3403
   940.0000     19.6150      3.4769     20.2198     71.6509
   940.2500     19.6012      3.4330     20.3689     70.6254
   940.5000     19.6470      3.3956     20.5370     69.0892
   940.7500     19.7557      3.3621     20.6898     68.6275
   941.0000     19.9239      3.3291     20.8042     68.9911
   941.2500     20.1404      3.2931     20.8715     69.6392
   941.5000     20.3895      3.2512     20.8991     70.5915
   941.7500     20.6549      3.2018     20.9070     71.0409
   942.0000     20.9245      3.1452     20.9213     71.5107
   942.2500     21.1913      3.0835     20.9661     71.7729
   942.5000     21.4512      3.0207     21.0594     72.0487
   942.7500     21.6994      2.9619     21.2122     72.0919
   943.0000     21.9277      2.9131     21.4281     72.0572
   943.2500     22.1268      2.8800     21.6995     72.0856
   943.5000     22.2913      2.8680     22.0014     72.1207
   943.7500     22.4247      2.8822     22.2914     71.9481
   944.0000     22.5398      2.9267     22.5196     71.2101
   944.2500     22.6537      3.0049     22.6476     70.4305
   944.5000     22.7789      3.1187     22.6648     68.9879
   944.7500     22.9173      3.2683     22.5919     67.9989
   945.0000     23.0603      3.4512     22.4686     66.7758
   945.2500     23.1934      3.6617     22.3344     66.1824
   945.5000     23.3039      3.8912     22.2150     65.5142
   945.7500     23.3858      4.1281     22.1209     65.2368
   946.0000     23.4386      4.3591     22.0522     65.4156
   946.2500     23.4636      4.5703     22.0044     66.1941
   946.5000     23.4585      4.7497     21.9688     68.5446
   946.7500     23.4178      4.8883     21.9320     70.6959
   947.0000     23.3358      4.9822     21.8744     73.9684
   947.2500     23.2129      5.0328     21.7738     75.6916
   947.5000     23.0577      5.0467     21.6160     77.1236
   947.7500     22.8864      5.0337     21.4082     77.1934
   948.0000     22.7206      5.0053     21.1827     75.9276
   948.2500     22.5841      4.9717     20.9831     74.3396
   948.5000     22.4990      4.9402     20.8409     71.7224
   948.7500     22.4803      4.9145     20.7584     70.6355
   949.0000     22.5305      4.8943     20.7086     71.1928
   949.2500     22.6386      4.8767     20.6515     73.0191
   949.5000     22.7844      4.8575     20.5578     76.3066
   949.7500     22.9483      4.8325     20.4232     77.5101
   950.0000     23.1192      4.7984     20.2659     76.5215
   950.2500     23.2934      4.7537     20.1105     74.3067
   950.5000     23.4655      4.6983     19.9765     70.4718
   950.7500     23.6169      4.6332     19.8758     68.6507
   951.0000     23.7127      4.5607     19.8173     67.7998
   951.2500     23.7113      4.4842     19.8072     68.2115
   951.5000     23.5834      4.4083     19.8428     69.1752
   951.7500     23.3269      4.3392     19.9051     69.5165
   952.0000     22.9697      4.2843     19.9586     69.4706
   952.2500     22.5590      4.2517     19.9615     69.3880
   952.5000     22.1436      4.2494     19.8813     69.6782
   952.7500     21.7593      4.2844     19.7062     70.1319
   953.0000     21.4232      4.3613     19.4455     70.8212
   953.2500     21.1366      4.4818     19.1232     71.1416
   953.5000     20.8917      4.6446     18.7685     71.5925
   953.7500     20.6773      4.8448     18.4074     72.0846
   954.0000     20.4818      5.0749     18.0580     73.1009
   954.2500     20.2936      5.3242     17.7288     73.6425
   954.5000     20.1013      5.5803     17.4223     73.7346
   954.7500     19.8951      5.8292     17.1417     73.4678
   955.0000     19.6679      6.0567     16.8944     73.6013
   955.2500     19.4164      6.2496     16.6909     74.5075
   955.5000     19.1421      6.3972     16.5380     76.6868
   955.7500     18.8524      6.4925     16.4335     78.0136
   956.0000     18.5618      6.5334     16.3640     79.3881
   956.2500     18.2898      6.5229     16.3102     80.3830
   956.5000     18.0561      6.4684     16.2549     83.2687
   956.7500     17.8746      6.3806     16.1882     86.5474
   957.0000     17.7516      6.2725     16.1057     93.1396
   957.2500     17.6888      6.1573     16.0036     97.7034
   957.5000     17.6877      6.0475     15.8771    102.3945
   957.7500     17.7488      5.9539     15.7258    102.9965
   958.0000     17.8619      5.8847     15.5584    100.2010
   958.2500     17.9964      5.8454     15.3922     97.0881
   958.5000     18.1023      5.8381     15.2480     93.0831
   958.7500     18.1278      5.8624     15.1434     91.6444
   959.0000     18.0402      5.9149     15.0864     91.2343
   959.2500     17.8372      5.9910     15.0716     91.8378
   959.5000     17.5436      6.0850     15.0819     93.8519
   959.7500     17.1996      6.1916     15.0928     95.7029
