~Version Information
VERS.                      2.0: CWLS Log ASCII Standard - VERSION 2.0
WRAP.                       NO: One line per depth step
~Well Information Block
STRT.FT                -6.7500: 
STOP.FT              1766.5000: 
STEP.FT                 0.2500: 
NULL.                -999.2500: 
COMP.          Pioneer Natural Resources: COMPANY
WELL.            Hill 33-22 Tr: WELL
FLD.           Purgatorie River: FIELD
LOC.           1573' FSL & 1585' FEL: LOCATION
PROV.                 Colorado: PROVINCE
CNTY.               Las Animas: COUNTRY
SRVC.          Patterson Wireline: SERVICE COMPANY
DATE.          Tue Apr 19 09:26:19 2005: LOG DATE
UWI.           05-071-08316-00: UNIQUE WELL ID
~Curve Information Block
DEPT.FT            0 000 00 00: Depth
CCL.                          : Casing Collar Locator
TT3.usec                      : CBL 3' Travel Time
AMP3.mV                       : CBL 3' Amplitude
GR.GAPI                       : Gamma Ray
~Parameter Information Block
~A  Depth       CCL         TT3         AMP3         GR     
# ...
  1500.7500      0.0000    747.0171     21.0865     99.4956
  1501.0000      0.0000    747.0214     20.5646     99.4228
  1501.2500      0.0000    747.0747     20.1168     99.0460
  1501.5000      0.0000    747.1998     19.7416     97.2239
  1501.7500      0.0000    747.3732     19.4335     93.1220
  1502.0000      0.0000    747.4933     19.1805     86.9543
  1502.2500      0.0000    747.3129     18.9700     80.1403
  1502.5000      0.0000    746.3521     18.7969     74.4950
  1502.7500      0.0000    743.9698     18.6633     71.1292
  1503.0000      0.0000    739.8909     18.5725     69.8321
  1503.2500      0.0000    735.0225     18.5172     69.2073
  1503.5000      0.0000    731.5247     18.4716     67.6101
  1503.7500      0.0000    731.3704     18.4017     64.4908
  1504.0000      0.0000    734.5486     18.2940     61.0053
  1504.2500      0.0000    738.9836     18.1740     59.0334
  1504.5000      0.0000    742.2273     18.0930     59.3395
  1504.7500      0.0000    743.0306     18.0982     60.8786
  1505.0000      0.0000    741.7145     18.2103     62.0550
  1505.2500      0.0000    739.7545     18.4141     62.3399
  1505.5000      0.0000    738.8966     18.6625     62.5457
  1505.7500      0.0000    739.9760     18.9035     64.0443
  1506.0000      0.0000    742.3700     19.1142     67.8680
  1506.2500      0.0000    744.7597     19.3034     73.8582
  1506.5000      0.0000    746.2985     19.4811     80.3723
  1506.7500      0.0000    746.9668     19.6407     85.4474
  1507.0000      0.0000    747.1499     19.7782     88.5990
  1507.2500      0.0000    747.1838     19.9143     91.0073
  1507.5000      0.0000    747.2128     20.0819     93.7232
  1507.7500      0.0000    747.2498     20.2921     96.2606
  1508.0000      0.0000    747.2737     20.5190     97.4881
  1508.2500      0.0000    747.2936     20.7180     97.5891
  1508.5000      0.0000    747.3438     20.8632     98.5066
  1508.7500      0.0000    747.4459     20.9743    102.2558
  1509.0000      0.0000    747.5773     21.1060    109.0256
  1509.2500      0.0000    747.6835     21.3042    117.1020
  1509.5000      0.0000    747.7178     21.5673    124.4542
  1509.7500      0.0000    747.6724     21.8521    130.1517
  1510.0000      0.0000    747.5757     22.1119    134.3845
  1510.2500      0.0000    747.4370     22.3259    137.6370
  1510.5000      0.0000    747.1518     22.4971    140.1485
  1510.7500      0.0000    746.4291     22.6379    141.7344
  1511.0000      0.0000    744.9107     22.7649    141.5121
  1511.2500      0.0000    742.6109     22.9001    137.9528
  1511.5000      0.0000    740.3495     23.0640    130.1485
  1511.7500      0.0000    739.4345     23.2585    119.3766
  1512.0000      0.0000    740.5468     23.4549    108.7123
  1512.2500      0.0000    743.0617     23.6026    100.6446
  1512.5000      0.0000    745.6990     23.6545     95.4943
  1512.7500      0.0000    747.6313     23.5906     92.2038
  1513.0000      0.0000    748.7995     23.4231     89.9989
  1513.2500      0.0000    749.4847     23.1836     89.0067
  1513.5000      0.0000    749.9131     22.9098     89.7623
  1513.7500      0.0000    750.1996     22.6407     92.5025
  1514.0000      0.0000    750.4581     22.4138     96.7091
  1514.2500      0.0000    750.8940     22.2580    101.0716
  1514.5000      0.0000    751.8069     22.1827    104.0129
  1514.7500      0.0000    753.3699     22.1698    104.6085
  1515.0000      0.0000    755.0936     22.1751    103.1612
  1515.2500      0.0000    755.4554     22.1429    100.7759
  1515.5000      0.0000    752.3728     22.0303     98.4667
  1515.7500      0.0000    744.3150     21.8260     96.7800
  1516.0000      0.0000    730.6489     21.5522     95.9204
  1516.2500      0.0000    711.4768     21.2522     95.8547
  1516.5000      0.0000    689.2042     20.9712     96.4495
  1516.7500      0.0000    670.8768     20.7401     97.7569
  1517.0000      0.0000    665.7958     20.5631    100.1622
  1517.2500      0.0000    677.5998     20.4196    104.1984
  1517.5000      0.0000    699.5867     20.2804    110.0938
  1517.7500      0.0000    719.8555     20.1234    117.2884
  1518.0000      0.0000    730.4625     19.9366    124.3569
  1518.2500      0.0000    731.2895     19.7157    129.5391
  1518.5000      0.0000    727.3638     19.4672    131.4689
  1518.7500      0.0000    723.9769     19.2139    129.7010
  1519.0000      0.0000    723.1767     18.9904    124.9634
  1519.2500      0.0000    723.3786     18.8327    118.8828
  1519.5000      0.0000    721.9605     18.7703    113.0480
  1519.7500      0.0000    718.3264     18.8202    108.1135
  1520.0000      0.0000    714.5431     18.9796    103.7986
  1520.2500      0.0000    713.6224     19.2240     99.5537
  1520.5000      0.0000    717.5710     19.5161     95.0721
  1520.7500      0.0000    726.4520     19.8201     90.5147
  1521.0000      0.0000    738.3019     20.1109     86.6140
  1521.2500      0.0000    749.9293     20.3741     84.2743
  1521.5000      0.0000    758.5375     20.5957     83.8133
  1521.7500      0.0000    762.9606     20.7592     84.8866
  1522.0000      0.0000    763.2633     20.8557     87.1567
  1522.2500      0.0000    759.5638     20.8878     90.3239
  1522.5000      0.0000    752.0622     20.8546     93.3501
  1522.7500      0.0000    742.1403     20.7416     94.4990
  1523.0000      0.0000    732.1585     20.5247     92.6913
  1523.2500      0.0000    723.2784     20.1606     88.4182
  1523.5000      0.0000    713.3907     19.5544     82.9690
  1523.7500      0.0000    697.8725     18.5759     77.2276
  1524.0000      0.0000    673.8912     17.1958     71.7432
  1524.2500      0.0000    646.4940     15.6285     67.4938
  1524.5000      0.0000    630.8594     14.2250     65.6748
  1524.7500      0.0000    644.4789     13.1405     66.5726
  1525.0000      0.0000    691.7429     12.2114     68.9751
  1525.2500      0.0000    755.7861     11.2620     70.6874
  1525.5000      0.0000    809.6588     10.3954     69.7256
  1525.7500      0.0000    838.0854      9.8537     65.5557
  1526.0000      0.0000    846.8640      9.7045     59.5582
  1526.2500      5.0000    850.7691      9.7847     54.2194
  1526.5000     -5.0000    855.8087      9.8834     51.6563
  1526.7500      0.0000    854.9866      9.9251     52.4409
  1527.0000      0.0000    837.9583     10.0482     55.4232
  1527.2500      0.0000    801.7809     10.5572     58.7881
  1527.5000      0.0000    753.2516     11.7228     61.4675
  1527.7500      0.0000    703.9773     13.5383     63.5515
  1528.0000      0.0000    663.9540     15.6885     65.6807
  1528.2500      0.0000    637.9025     17.7979     68.5574
  1528.5000      0.0000    625.4262     19.6818     72.7745
  1528.7500      0.0000    623.9345     21.3306     78.2439
  1529.0000      0.0000    631.5593     22.7365     83.5914
  1529.2500      0.0000    647.4361     23.8463     86.9350
  1529.5000      0.0000    669.0522     24.6609     87.7999
  1529.7500      0.0000    690.1873     25.2873     87.8125
  1530.0000      0.0000    702.0980     25.8640     89.1648
  1530.2500      0.0000    696.4890     26.4674     92.7708
  1530.5000      0.0000    669.8113     27.0955     97.9885
  1530.7500      0.0000    629.1190     27.7132    103.5078
  1531.0000      0.0000    592.5566     28.2904    108.2484
  1531.2500      0.0000    576.1588     28.8081    111.7746
  1531.5000      0.0000    576.4626     29.2502    113.9825
  1531.7500      0.0000    571.5436     29.6041    114.2930
  1532.0000      0.0000    542.6774     29.8627    111.5947
  1532.2500      0.0000    491.7650     30.0176    105.5155
  1532.5000      0.0000    436.7995     30.0511     97.4445
  1532.7500      0.0000    395.9383     29.9413     89.7973
  1533.0000      0.0000    379.5301     29.6742     84.4576
  1533.2500      0.0000    392.7404     29.2550     82.2329
  1533.5000      0.0000    437.5423     28.7130     83.4120
  1533.7500      0.0000    508.4209     28.1011     88.0791
  1534.0000      0.0000    589.2031     27.4827     95.5033
