~Version Information
VERS.                      2.0: CWLS Log ASCII Standard - VERSION 2.0
WRAP.                       NO: One line per depth step
~Well Information Block
STRT.FT               433.5000: 
STOP.FT              1880.2500: 
STEP.FT                 0.2500: 
NULL.                -999.2500: 
COMP.          Pioneer Natural Resources: COMPANY
WELL.           Buckhorn 12-21: WELL
FLD.           Purgatorie River: FIELD
LOC.           2450' FNL & 608' FWL--: LOCATION
PROV.                       CO: PROVINCE
CNTY.               Las Animas: COUNTRY
SRVC.                         : SERVICE COMPANY
DATE.          Fri Dec 03 14:13:08 2004: LOG DATE
UWI.          005 071 08129 : UNIQUE WELL ID
~Curve Information Block
DEPT.FT            0 000 00 00: Depth
NPOR.pu                       : Neutron Porosity
CCL.                          : Casing Collar Locator
TT3.usec                      : CBL 3' Travel Time
AMP3.mV                       : CBL 3' Amplitude
GR.GAPI                       : Gamma Ray
~Parameter Information Block
~A  Depth       NPOR        CCL         TT3         AMP3         GR     
# ...
   517.5000     34.4949      0.0000    273.2848     32.5066    103.3736
   517.7500     35.1021      0.0000    279.6192     31.0239     94.2712
   518.0000     35.6760      0.0000    288.6389     28.6655     86.5194
   518.2500     36.1128      0.0000    298.6187     25.9539     80.8128
   518.5000     36.3624      0.0000    307.2133     23.5175     77.2605
   518.7500     36.4437      0.0000    312.9661     21.7614     75.1261
   519.0000     36.4443      0.0000    315.9507     20.8072     73.0225
   519.2500     36.4817      0.0000    317.1688     20.6182     70.0612
   519.5000     36.6325      0.0000    317.8000     21.0714     66.8210
   519.7500     36.8841      2.0000    319.1231     21.9167     64.8565
   520.0000     37.1616      2.0000    322.8424     22.7720     65.3121
   520.2500     37.3892      0.0000    330.5582     23.2909     68.0261
   520.5000     37.5208      0.0000    341.5020     23.4524     71.4750
   520.7500     37.5545      0.0000    350.3917     23.6940     73.4460
   521.0000     37.5419      0.0000    349.6031     24.5987     72.5712
   521.2500     37.5581      0.0000    335.8175     26.3065     69.8923
   521.5000     37.6516      0.0000    313.9415     28.2919     68.4708
   521.7500     37.8310      0.0000    292.9743     29.8243     70.6724
   522.0000     38.0680      0.0000    278.7938     30.5722     75.7997
   522.2500     38.2855      0.0000    271.6936     30.6946     80.8006
   522.5000     38.3795      0.0000    269.0349     30.5028     83.3128
   522.7500     38.3060      0.0000    268.3310     30.1926     83.7067
   523.0000     38.1388      0.0000    268.2667     29.8391     84.0965
   523.2500     38.0100      0.0000    268.3609     29.4884     85.7787
   523.5000     37.9947      0.0000    268.4822     29.2048     88.0651
   523.7500     38.0736      0.0000    268.5796     29.0695     89.4912
   524.0000     38.1805      0.0000    268.6194     29.1611     89.6518
   524.2500     38.2571      0.0000    268.5730     29.5194     89.4764
   524.5000     38.2744      0.0000    268.4375     30.1005     89.7889
   524.7500     38.2287      0.0000    268.2532     30.7582     90.2329
   525.0000     38.1189      0.0000    268.0881     31.2905     89.9832
   525.2500     37.9366      0.0000    268.0002     31.5388     88.9135
   525.5000     37.6935      0.0000    268.0125     31.4744     87.4897
   525.7500     37.4488      0.0000    268.1129     31.2107     85.9445
   526.0000     37.2784      0.0000    268.2604     30.9364     84.1598
   526.2500     37.2085      0.0000    268.3946     30.8156     82.1183
   526.5000     37.1811      0.0000    268.4617     30.9084     79.9605
   526.7500     37.0927      0.0000    268.4510     31.1474     77.6757
   527.0000     36.8809      0.0000    268.4083     31.3820     75.1903
   527.2500     36.5816      0.0000    268.4077     31.4588     72.8208
   527.5000     36.2775      0.0000    268.5081     31.2830     71.2464
   527.7500     35.9894      0.0000    268.7302     30.8414     70.8863
   528.0000     35.6493      0.0000    269.0515     30.2107     71.5812
   528.2500     35.1823      0.0000    269.4414     29.5440     72.9702
   528.5000     34.5761      0.0000    269.9541     28.9963     74.7894
   528.7500     33.8529      0.0000    270.8658     28.6192     76.4944
   529.0000     33.0025      0.0000    272.6535     28.3339     76.8551
   529.2500     31.9957      0.0000    275.6249     28.0262     74.5323
   529.5000     30.8979      0.0000    279.3754     27.6685     69.3291
   529.7500     29.9475      0.0000    282.6667     27.3527     62.7438
   530.0000     29.4544      0.0000    284.0590     27.2346     57.2045
   530.2500     29.5916      0.0000    282.8416     27.4707     54.6838
   530.5000     30.2963      0.0000    279.5002     28.1942     55.8132
   530.7500     31.3554      0.0000    275.3661     29.4973     59.9343
   531.0000     32.5321      0.0000    271.7440     31.3909     65.7939
   531.2500     33.6135      0.0000    269.2435     33.7645     72.2138
   531.5000     34.4332      0.0000    267.7820     36.3820     78.3193
   531.7500     34.9310      0.0000    267.0056     38.9114     83.5166
   532.0000     35.1914      0.0000    266.6130     40.9926     87.5813
   532.2500     35.3895      0.0000    266.4301     42.3552     90.6743
   532.5000     35.6669      0.0000    266.3646     42.9303     93.0644
   532.7500     36.0352      0.0000    266.3721     42.8525     94.9340
   533.0000     36.3785      0.0000    266.4306     42.3508     96.5274
   533.2500     36.5516      0.0000    266.5225     41.6345     98.1468
   533.5000     36.5032      0.0000    266.6226     40.8520     99.7501
   533.7500     36.3213      0.0000    266.7063     40.0989    100.7202
   534.0000     36.1473      0.0000    266.7635     39.4369    100.3311
   534.2500     36.0396      0.0000    266.7977     38.9157     98.6700
   534.5000     35.9312      0.0000    266.8133     38.5882     97.0311
   534.7500     35.7194      0.0000    266.8109     38.4977     96.9847
   535.0000     35.3890      0.0000    266.7930     38.6222     98.9766
   535.2500     35.0476      0.0000    266.7677     38.8138    102.0402
   535.5000     34.8270      0.0000    266.7480     38.8106    104.6174
   535.7500     34.7376      0.0000    266.7520     38.3582    105.2564
   536.0000     34.6429      0.0000    266.8033     37.3692    103.0870
   536.2500     34.3958      0.0000    266.9289     35.9824     98.5495
   536.5000     33.9626      0.0000    267.1542     34.4597     93.4048
   536.7500     33.3859      0.0000    267.5269     33.0084     89.2378
   537.0000     32.6915      0.0000    268.2074     31.6887     86.2382
   537.2500     31.8914      0.0000    269.6153     30.4614     83.9115
   537.5000     31.0474      0.0000    272.4633     29.2900     82.1685
   537.7500     30.2776      0.0000    277.4087     28.1791     80.9388
   538.0000     29.6844      0.0000    284.3603     27.1289     79.4676
   538.2500     29.2744      0.0000    292.1019     26.0755     76.8808
   538.5000     28.9447      0.0000    298.8875     24.8949     73.1864
   538.7500     28.5622      0.0000    303.6179     23.4755     69.3142
   539.0000     28.0593      0.0000    306.4641     21.7961     66.3170
   539.2500     27.4478      0.0000    308.8111     19.9356     64.7201
   539.5000     26.7783      0.0000    313.4998     18.0145     64.7138
   539.7500     26.1281      0.0000    326.0070     16.1407     66.6436
   540.0000     25.5914      0.0000    354.8949     14.4022     70.6097
   540.2500     25.2111      0.0000    408.1320     12.8787     75.4967
   540.5000     24.9170      0.0000    485.1509     11.6327     79.2340
   540.7500     24.5719      0.0000    572.1342     10.6905     80.4980
   541.0000     24.0884      0.0000    648.1609     10.0430     79.6729
   541.2500     23.5006      0.0000    697.4325      9.6720     77.8347
   541.5000     22.9442      0.0000    714.3051      9.5784     75.4257
   541.7500     22.5678      0.0000    698.1959      9.7885     72.4256
   542.0000     22.4181      0.0000    649.3771     10.3348     69.2640
   542.2500     22.3859      0.0000    573.2610     11.2313     66.8100
   542.5000     22.2858      0.0000    485.6756     12.4615     65.6695
   542.7500     22.0153      0.0000    407.8716     13.9809     65.9715
   543.0000     21.6401      0.0000    354.0486     15.7218     67.6228
   543.2500     21.3319      0.0000    324.9359     17.5939     70.3653
   543.5000     21.2170      0.0000    312.5262     19.4823     73.6145
   543.7500     21.2593      0.0000    308.2723     21.2548     76.4057
   544.0000     21.2768      0.0000    307.0308     22.7815     77.6272
   544.2500     21.0973      0.0000    306.6685     23.9479     76.6749
   544.5000     20.7178      0.0000    306.5239     24.6575     74.1014
   544.7500     20.3200      0.0000    306.4361     24.8430     71.4349
   545.0000     20.1502      0.0000    306.3647     24.5016     70.3703
   545.2500     20.3924      0.0000    306.3113     23.7280     72.2601
