~Version Information
VERS.                      2.0: CWLS Log ASCII Standard - VERSION 2.0
WRAP.                       NO: One line per depth step
~Well Information Block
STRT.FT               -14.5000: 
STOP.FT              2676.5000: 
STEP.FT                 0.1000: 
NULL.                -999.2500: 
COMP.          Petrogulf Corporation: COMPANY
WELL.          Latiluppe 8-13V: WELL
FLD.           Purgatorie River: FIELD
LOC.           1069' FWL & 1647' FSL: LOCATION
CNTY.               Las Animas: COUNTY
SRVC.                         : SERVICE COMPANY
DATE.          Tue Nov 18 16:12:50 2003: LOG DATE
UWI.                          : UNIQUE WELL ID
STAT.                 Colorado: STATE
~Curve Information Block
DEPT.FT            0 000 00 00: Depth
CCL.                          : Casing Collar Locator
TT3.usec                      : CBL 3' Travel Time
AMP3.mV                       : CBL 3' Amplitude
GR.GAPI                       : Gamma Ray
~Parameter Information Block
~A  Depth       CCL         TT3         AMP3         GR     
# ...
  2116.1000      0.0000    733.7795      2.6812     56.3382
  2116.2000      0.0000    733.7795      2.6812     56.3382
  2116.3000      0.0000    729.4708      2.5750     53.2113
  2116.4000      0.0000    729.4708      2.5750     53.2113
  2116.5000      0.0000    724.8344      2.4242     51.6261
  2116.6000      0.0000    724.8344      2.4242     51.6261
  2116.7000      0.0000    724.8344      2.4242     51.6261
  2116.8000      0.0000    720.7017      2.2185     51.7702
  2116.9000      0.0000    720.7017      2.2185     51.7702
  2117.0000      0.0000    715.2511      1.9727     53.7359
  2117.1000      0.0000    715.2511      1.9727     53.7359
  2117.2000      0.0000    715.2511      1.9727     53.7359
  2117.3000      0.0000    706.0751      1.7483     57.3354
  2117.4000      0.0000    706.0751      1.7483     57.3354
  2117.5000      0.0000    692.9297      1.6184     61.5302
  2117.6000      0.0000    692.9297      1.6184     61.5302
  2117.7000      0.0000    692.9297      1.6184     61.5302
  2117.8000      0.0000    678.3455      1.6078     64.6106
  2117.9000      0.0000    678.3455      1.6078     64.6106
  2118.0000      0.0000    665.7781      1.6758     65.4383
  2118.1000      0.0000    665.7781      1.6758     65.4383
  2118.2000      0.0000    665.7781      1.6758     65.4383
  2118.3000      0.0000    657.2947      1.7504     64.3471
  2118.4000      0.0000    657.2947      1.7504     64.3471
  2118.5000      0.0000    652.8406      1.7791     62.6047
  2118.6000      0.0000    652.8406      1.7791     62.6047
  2118.7000      0.0000    652.8406      1.7791     62.6047
  2118.8000      0.0000    651.2188      1.7613     61.3707
  2118.9000      0.0000    651.2188      1.7613     61.3707
  2119.0000      0.0000    651.3671      1.7511     61.4866
  2119.1000      0.0000    651.3671      1.7511     61.4866
  2119.2000      0.0000    651.3671      1.7511     61.4866
  2119.3000      0.0000    652.9717      1.8245     63.7057
  2119.4000      0.0000    652.9717      1.8245     63.7057
  2119.5000      0.0000    656.4316      2.0200     68.2983
  2119.6000      0.0000    656.4316      2.0200     68.2983
  2119.7000      0.0000    656.4316      2.0200     68.2983
  2119.8000      0.0000    662.4364      2.2989     74.3458
  2119.9000      0.0000    662.4364      2.2989     74.3458
  2120.0000      0.0000    671.1916      2.5702     79.8684
  2120.1000      0.0000    671.1916      2.5702     79.8684
  2120.2000      0.0000    671.1916      2.5702     79.8684
  2120.3000      0.0000    681.8073      2.7594     82.8692
  2120.4000      0.0000    681.8073      2.7594     82.8692
  2120.5000      0.0000    692.6155      2.8517     82.2001
  2120.6000      0.0000    692.6155      2.8517     82.2001
  2120.7000      0.0000    692.6155      2.8517     82.2001
  2120.8000      0.0000    702.2712      2.8793     77.6851
  2120.9000      0.0000    702.2712      2.8793     77.6851
  2121.0000      0.0000    710.3812      2.8822     70.1489
  2121.1000      0.0000    710.3812      2.8822     70.1489
  2121.2000      0.0000    710.3812      2.8822     70.1489
  2121.3000      0.0000    716.8096      2.8814     61.4544
  2121.4000      0.0000    716.8096      2.8814     61.4544
  2121.5000      0.0000    720.5938      2.8734     53.8824
  2121.6000      0.0000    720.5938      2.8734     53.8824
  2121.7000      0.0000    720.5938      2.8734     53.8824
  2121.8000      0.0000    720.3460      2.8345     49.0523
  2121.9000      0.0000    720.3460      2.8345     49.0523
  2122.0000      0.0000    716.1452      2.7352     47.3124
  2122.1000      0.0000    716.1452      2.7352     47.3124
  2122.2000      0.0000    716.1452      2.7352     47.3124
  2122.3000      0.0000    710.3325      2.5663     47.7388
  2122.4000      0.0000    710.3325      2.5663     47.7388
  2122.5000      0.0000    705.7830      2.3583     48.5836
  2122.6000      0.0000    705.7830      2.3583     48.5836
  2122.7000      0.0000    705.7830      2.3583     48.5836
  2122.8000      0.0000    703.8510      2.1644     48.3324
  2122.9000      0.0000    703.8510      2.1644     48.3324
  2123.0000      0.0000    704.1002      2.0189     46.8447
  2123.1000      0.0000    704.1002      2.0189     46.8447
  2123.2000      0.0000    704.1002      2.0189     46.8447
  2123.3000      0.0000    705.1033      1.9158     45.4015
  2123.4000      0.0000    705.1033      1.9158     45.4015
  2123.5000      0.0000    705.2521      1.8283     45.6887
  2123.6000      0.0000    705.2521      1.8283     45.6887
  2123.7000      0.0000    705.2521      1.8283     45.6887
  2123.8000      0.0000    703.7595      1.7437     48.8745
  2123.9000      0.0000    703.7595      1.7437     48.8745
  2124.0000      0.0000    701.3922      1.6797     55.3130
  2124.1000      0.0000    701.3922      1.6797     55.3130
  2124.2000      0.0000    701.3922      1.6797     55.3130
  2124.3000      0.0000    699.9911      1.6785     64.5612
  2124.4000      0.0000    699.9911      1.6785     64.5612
  2124.5000      0.0000    701.1326      1.7820     75.5296
  2124.6000      0.0000    701.1326      1.7820     75.5296
  2124.7000      0.0000    701.1326      1.7820     75.5296
  2124.8000      0.0000    705.1630      1.9969     86.7884
  2124.9000      0.0000    705.1630      1.9969     86.7884
  2125.0000      0.0000    711.1263      2.2742     96.9289
  2125.1000      0.0000    711.1263      2.2742     96.9289
  2125.2000      0.0000    711.1263      2.2742     96.9289
  2125.3000      0.0000    717.0477      2.5327    104.7369
  2125.4000      0.0000    717.0477      2.5327    104.7369
  2125.5000      0.0000    720.0240      2.7109    109.2171
  2125.6000      0.0000    720.0240      2.7109    109.2171
  2125.7000      0.0000    720.0240      2.7109    109.2171
  2125.8000      0.0000    716.8284      2.7980    109.8024
  2125.9000      0.0000    716.8284      2.7980    109.8024
  2126.0000      0.0000    705.9919      2.8221    106.7842
  2126.1000      0.0000    705.9919      2.8221    106.7842
  2126.2000      0.0000    705.9919      2.8221    106.7842
  2126.3000      0.0000    689.8434      2.8198    101.5746
  2126.4000      0.0000    689.8434      2.8198    101.5746
  2126.5000      0.0000    673.5516      2.8140     96.6543
  2126.6000      0.0000    673.5516      2.8140     96.6543
  2126.7000      0.0000    673.5516      2.8140     96.6543
  2126.8000      0.0000    661.5905      2.8029     94.8801
  2126.9000      0.0000    661.5905      2.8029     94.8801
  2127.0000      0.0000    655.4153      2.7586     97.8525
  2127.1000      0.0000    655.4153      2.7586     97.8525
  2127.2000      0.0000    655.4153      2.7586     97.8525
  2127.3000      0.0000    654.2964      2.6440    104.5376
  2127.4000      0.0000    654.2964      2.6440    104.5376
  2127.5000      0.0000    657.3287      2.4516    112.0678
  2127.6000      0.0000    657.3287      2.4516    112.0678
  2127.7000      0.0000    657.3287      2.4516    112.0678
  2127.8000      0.0000    664.0923      2.2325    118.0002
  2127.9000      0.0000    664.0923      2.2325    118.0002
  2128.0000      0.0000    673.6923      2.0795    121.4374
  2128.1000      0.0000    673.6923      2.0795    121.4374
  2128.2000      0.0000    673.6923      2.0795    121.4374
  2128.3000      0.0000    683.8125      2.0640    122.5763
  2128.4000      0.0000    683.8125      2.0640    122.5763
  2128.5000      0.0000    691.2465      2.1756    122.1151
  2128.6000      0.0000    691.2465      2.1756    122.1151
  2128.7000      0.0000    691.2465      2.1756    122.1151
  2128.8000      0.0000    693.6606      2.3203    120.8227
  2128.9000      0.0000    693.6606      2.3203    120.8227
  2129.0000      0.0000    691.0739      2.3881    119.0779
  2129.1000      0.0000    691.0739      2.3881    119.0779
  2129.2000      0.0000    691.0739      2.3881    119.0779
  2129.3000      0.0000    685.9240      2.3399    116.8471
  2129.4000      0.0000    685.9240      2.3399    116.8471
