~Version Information
VERS.                      2.0: CWLS Log ASCII Standard - VERSION 2.0
WRAP.                       NO: One line per depth step
~Well Information Block
STRT.FT               704.0000: 
STOP.FT              2530.0000: 
STEP.FT                 0.2500: 
NULL.                -999.2500: 
COMP.          Pioneer Natural Resources: COMPANY
WELL.          Aztec Federal 41-15: WELL
FLD.           Purgatorie River: FIELD
LOC.           706' FNL & 1253' FEL: LOCATION
CNTY.               Las Animas: COUNTY
SRVC.          Superior Well Services: SERVICE COMPANY
DATE.          Tue Mar 18 09-04-19 2008: LOG DATE
UWI.           05-071-08342-00: UNIQUE WELL ID
STAT.                       CO: STATE
~Curve Information Block
DEPT.FT            0 000 00 00: Depth
DIR.Ohm-m                     : IEL Induction Resistivity
SN.Ohm-m                      : IEL Short Normal
SP.mV                         : IEL Spontaneous Potential
GR.GAPI                       : Gamma Ray
~Parameter Information Block
~A  Depth       DIR          SN          SP          GR     
# ...
  1441.0000     71.0474     20.2584     17.7910    100.3897
  1441.2500     85.9554     19.9836     18.1406    102.1817
  1441.5000     94.5150     19.5607     18.7093    103.4941
  1441.7500     95.7436     19.2856     19.1089    105.8660
  1442.0000     86.0212     18.9027     19.6921    107.6761
  1442.2500     63.9449     18.6659     20.0346    110.5530
  1442.5000     50.4489     18.3257     20.4386    112.3441
  1442.7500     35.6590     18.1189     20.6350    114.1766
  1443.0000     28.9806     17.8712     20.8491    114.5358
  1443.2500     22.1961     17.7520     20.9557    113.9286
  1443.5000     19.1250     17.6249     21.0764    113.1492
  1443.7500     15.9243     17.5553     21.1343    111.9315
  1444.0000     14.4555     17.4227     21.1934    111.0775
  1444.2500     12.9599     17.2925     21.2185    109.5330
  1444.5000     12.3244     17.0311     21.2424    108.4653
  1444.7500     11.7788     16.8236     21.2544    107.6099
  1445.0000     11.6265     16.4922     21.2807    107.9962
  1445.2500     11.6291     16.2902     21.3156    110.0911
  1445.5000     11.7411     16.0897     21.4133    112.1261
  1445.7500     12.0078     16.0255     21.5105    115.2725
  1446.0000     12.2170     15.8996     21.6778    116.9358
  1446.2500     12.5299     15.7036     21.7726    117.9030
  1446.5000     12.7189     15.2218     21.8334    117.1536
  1446.7500     12.9597     14.8684     21.8009    114.1084
  1447.0000     13.0942     14.5640     21.6593    111.4194
  1447.2500     13.2725     14.6460     21.5424    107.8098
  1447.5000     13.3875     15.2188     21.4210    106.3960
  1447.7500     13.5713     15.7855     21.4103    106.4915
  1448.0000     13.7069     16.6202     21.4843    108.0481
  1448.2500     13.9259     17.0166     21.5392    111.8176
  1448.5000     14.0712     17.2286     21.4993    114.5198
  1448.7500     14.2613     17.1215     21.3253    117.7562
  1449.0000     14.3582     16.7421     20.7875    119.0922
  1449.2500     14.4598     16.4588     20.2466    119.9044
  1449.5000     14.5105     16.1407     19.2088    119.8860
  1449.7500     14.5850     16.0479     18.4232    119.7443
  1450.0000     14.6408     16.0808     17.2822    120.0002
  1450.2500     14.7343     16.1708     16.7024    121.0662
  1450.5000     14.8062     16.3283     16.3909    121.9957
  1450.7500     14.9563     16.4279     16.6520    123.4531
  1451.0000     15.1140     16.5892     17.6542    124.5566
  1451.2500     15.4884     16.7647     18.5255    126.2189
  1451.5000     15.8460     17.2965     19.6816    126.5923
  1451.7500     16.5376     17.9045     20.1273    124.2662
  1452.0000     17.0849     19.2144     20.1291    120.2916
  1452.2500     18.0122     20.3229     19.7361    111.6000
  1452.5000     18.7040     22.3201     18.8761    105.1437
  1452.7500     19.8841     23.9214     18.3599     96.1451
  1453.0000     20.7882     26.8676     17.9509     91.0010
  1453.2500     22.3465     29.2208     17.9493     84.4933
  1453.5000     23.5294     33.1100     18.2269     80.8209
  1453.7500     25.5459     35.6681     18.5016     76.3103
  1454.0000     27.0778     39.0034     18.9417     74.1080
  1454.2500     29.6955     40.7741     19.2325     72.2481
  1454.5000     31.6405     42.7622     19.6600     71.9084
  1454.7500     34.7259     43.6734     19.9359     72.0787
  1455.0000     36.7631     44.4621     20.3175     72.0843
  1455.2500     39.5654     44.6717     20.5334     71.4639
  1455.5000     41.1932     44.7180     20.7677     70.9384
  1455.7500     43.2766     44.6748     20.8503     71.0707
  1456.0000     44.4575     44.5500     20.8615     72.1224
  1456.2500     45.9243     44.3954     20.8060     74.5816
  1456.5000     46.6569     44.0136     20.6592     76.0791
  1456.7500     47.2657     43.6789     20.5324     77.3198
  1457.0000     47.2780     43.1259     20.3118     77.6086
  1457.2500     46.6501     42.7355     20.1525     78.0592
  1457.5000     45.8142     42.0548     19.9159     78.7478
  1457.7500     44.0312     41.4879     19.7737     80.3260
  1458.0000     42.5677     40.4333     19.6080     81.3743
  1458.2500     40.0778     39.6004     19.5470     82.2858
  1458.5000     38.2631     38.1518     19.5624     82.4015
  1458.7500     35.3451     37.0177     19.6549     82.4620
  1459.0000     33.2879     34.9984     19.9095     82.9182
  1459.2500     30.0861     33.4477     20.1358     84.6640
  1459.5000     27.9155     30.9140     20.5053     86.5435
  1459.7500     24.6880     29.1630     20.7367     90.5443
  1460.0000     22.6091     26.5733     21.0145     94.2409
  1460.2500     19.7043     24.9339     21.1416    101.5166
  1460.5000     17.9750     22.6801     21.2509    107.1393
  1460.7500     15.7854     21.3463     21.2835    115.3270
  1461.0000     14.6285     19.6444     21.3039    119.8140
  1461.2500     13.3695     18.7361     21.3146    124.3825
  1461.5000     12.8563     17.7459     21.3337    125.9240
  1461.7500     12.6339     17.3205     21.3374    126.1428
  1462.0000     12.9493     16.9524     21.2920    125.2007
  1462.2500     14.5446     16.8353     21.2080    123.1655
  1462.5000     16.9786     16.8034     20.9931    121.9991
  1462.7500     26.1793     16.8703     20.8012    120.9534
  1463.0000     45.9743     17.0909     20.4634    120.6050
  1463.2500 100000.0000     17.3118     20.2077    120.1394
  1463.5000 100000.0000     17.7770     19.7607    119.5531
  1463.7500 100000.0000     18.2069     19.4042    117.7502
  1464.0000 100000.0000     19.0710     18.7580    115.7253
  1464.2500 100000.0000     19.7954     18.2445    111.2294
  1464.5000 100000.0000     21.0882     17.3421    107.1785
  1464.7500 100000.0000     22.0771     16.6489     99.7615
  1465.0000 100000.0000     23.7021     15.4693     94.4612
  1465.2500 100000.0000     24.8064     14.5946     87.3503
  1465.5000 100000.0000     26.3010     13.1743     83.9051
  1465.7500 100000.0000     27.0797     12.1747     81.5253
  1466.0000 100000.0000     27.7995     10.6157     82.0049
  1466.2500 100000.0000     27.9509      9.5245     85.3979
  1466.5000 100000.0000     27.6803      7.7341     88.6273
  1466.7500 100000.0000     27.1953      6.3676     93.1417
  1467.0000 100000.0000     26.1536      3.9266     95.2769
  1467.2500 100000.0000     25.3901      1.9746     97.2617
  1467.5000 100000.0000     24.3894     -1.5179     98.2902
  1467.7500 100000.0000     23.8864     -4.2702    100.2648
  1468.0000 100000.0000     23.2873     -9.1926    102.0988
  1468.2500 100000.0000     22.8614    -13.1763    105.4254
  1468.5000 100000.0000     21.9774    -20.6813    107.6981
  1468.7500 100000.0000     21.1718    -27.1057    110.8287
  1469.0000     26.0606     19.6456    -39.8186    112.8107
  1469.2500      2.0195     18.4127    -51.0527    115.9272
  1469.5000      1.0760     16.1395    -73.4655    118.1010
  1469.7500      0.5882     14.2642    -92.9709    121.1506
  1470.0000      0.4591     10.9484   -130.2412    122.7199
  1470.2500      0.3985      8.6271   -160.6107    123.6733
  1470.5000      0.4261      5.6301   -213.0746    122.8992
  1470.7500      0.5871      4.2500   -250.5021    119.1245
  1471.0000      0.8149      3.1232   -304.5101    115.0988
  1471.2500      1.4394      2.8049   -335.3504    108.1690
  1471.5000      1.9422      2.6343   -369.4150    103.8081
  1471.7500      1.9902      2.6098   -383.5569     98.1324
  1472.0000      1.5855      2.6255   -394.5388     94.6661
  1472.2500      1.0859      2.6513   -397.3726     89.4924
  1472.5000      0.9167      2.6842   -398.2470     86.0664
  1472.7500      0.8596      2.6875   -397.8344     81.1805
  1473.0000      0.9482      2.6607   -397.0646     78.2079
  1473.2500      1.3892      2.6326   -396.9304     74.4627
  1473.5000      2.1805      2.5949   -397.4919     72.7136
  1473.7500      8.0044      2.5793   -398.1201     71.6508
  1474.0000 100000.0000      2.5815   -398.7716     72.0174
  1474.2500 100000.0000      2.6004   -398.7292     73.7125
