~Version Information
 VERS.                                  2.0 : CWLS LAS VERSION
 WRAP.                                   NO : WRAPING MODE
 SWARE .                 MController 2.5.0J : SOFTWARE VERSION
~Well Information
 WELL.                        Montoya 1-24V : WELL
 COMP.                       Petrogulf Corp : COMPANY
 FLD.                      Purgatoire River : FIELD
 LOC.                 SE/SW Sec 1 T33S R68W : LOCATION
 DATE.                          10/19-20/04 : DATE(S) LOGGED
 SRVC.       Blanco Geological Services LLC : SERVICE COMPANY
 STAT.                                   CO : STATE
 CNTY.                           Las Animas : COUNTY
 CTRY.                                  USA : COUNTRY
 API.                       05-071-08194-00 : API NUMBER
 STRT.FT                             116.00 : START DEPTH
 STOP.FT                            2700.00 : STOP DEPTH
 STEP.FT                               1.00 : DEPTH INCREMENT
 NULL.                                -9999 : NULL VALUE
~Curve information
 DEPTH.FT                                   :
 ROP.MIN/FT                                 :
 GAS.UNITS                                  :
~ASCII Log data
# ...
       716.0         0.13        440.0 
       717.0         0.23        440.0 
       718.0         0.20         55.2 
       719.0         0.17         51.1 
       720.0         0.20         32.9 
       721.0         0.13         23.0 
       722.0         0.17         21.6 
       723.0         0.17         15.8 
       724.0         0.13         13.5 
       725.0         0.13         11.8 
       726.0         0.15         11.9 
       727.0         0.17          8.9 
       728.0         0.13          8.6 
       729.0         0.13          7.6 
       730.0         0.13          6.4 
       731.0         0.10          6.4 
       732.0         0.20       1283.8 
       733.0         0.13       1283.8 
       734.0         0.13       1300.0 
       735.0         0.17       1263.6 
       736.0         0.17       1148.4 
       737.0         0.13       1089.7 
       738.0         0.13        939.5 
       739.0         0.13        804.7 
       740.0         0.17        709.4 
       741.0         0.13        640.0 
       742.0         0.17        445.6 
       743.0         0.13        440.0 
       744.0         0.17         83.6 
       745.0         0.27         64.0 
       746.0         0.13         40.5 
       747.0         0.20         25.1 
       748.0         0.17         22.7 
       749.0         0.13         21.2 
       750.0         0.23         18.4 
       751.0         0.20         16.5 
       752.0         0.17         16.6 
       753.0         0.17         14.4 
       754.0         0.25         12.7 
       755.0         0.20         12.5 
       756.0         0.20         11.0 
       757.0         0.20         10.1 
       758.0         0.23         11.0 
       759.0         0.20         13.8 
       760.0         0.20         15.1 
       761.0         0.17         15.9 
       762.0         0.20         15.2 
       763.0         0.20         32.6 
       764.0         0.20        171.9 
       765.0         0.17       1303.7 
       766.0         0.17       1303.7 
       767.0         0.17       1392.0 
       768.0         0.23       1430.0 
       769.0         0.17       1310.8 
       770.0         0.23       1157.5 
       771.0         0.22       1110.0 
       772.0         0.17        865.4 
       773.0         0.17        784.8 
       774.0         0.13        775.4 
       775.0         0.13        659.5 
       776.0         0.13        642.3 
       777.0         0.10        550.3 
       778.0         0.17        510.9 
       779.0         0.23        440.0 
       780.0         0.15         69.0 
       781.0         0.17         53.1 
       782.0         0.17         41.5 
       783.0         0.20         34.6 
       784.0         0.17         22.1 
       785.0         0.17         22.5 
       786.0         0.20         31.1 
       787.0         0.13         32.9 
       788.0         0.17         32.9 
       789.0         0.17         32.0 
       790.0         0.17         27.2 
       791.0         0.13         19.9 
       792.0         0.17         19.9 
       793.0         0.17         19.4 
       794.0         0.27         12.8 
       795.0         0.23        479.4 
       796.0         0.27       1559.7 
       797.0         0.23       1607.9 
       798.0         0.22       1607.9 
       799.0         0.23       1648.3 
       800.0         0.20       1627.8 
       801.0         0.17       1483.6 
       802.0         0.23       1408.8 
       803.0         0.23        900.1 
       804.0         0.23        737.7 
       805.0         0.10        545.3 
       806.0         0.27        518.3 
       807.0         0.27        581.7 
       808.0         0.27        599.5 
       809.0         0.27        602.9 
       810.0         0.37        562.8 
       811.0         0.37        538.6 
       812.0         0.27        458.4 
       813.0         0.27        108.0 
       814.0         0.33         79.2 
       815.0         0.38         46.4 
       816.0         0.30         31.6 
       817.0         0.30         22.7 
       818.0         0.23         17.1 
       819.0         0.27         16.3 
       820.0         0.23         17.2 
       821.0         0.23         14.9 
       822.0         0.23         14.0 
       823.0         0.30         10.9 
       824.0         0.30         12.4 
       825.0         0.27         14.4 
       826.0         0.20          2.2 
       827.0         0.28          3.3 
       828.0         0.33       2052.6 
       829.0         0.27         64.2 
       830.0         0.27         56.5 
       831.0         0.30         44.8 
       832.0         0.30         39.7 
       833.0         0.23         34.9 
       834.0         0.30         33.3 
       835.0         0.23         34.5 
       836.0         0.17         40.6 
       837.0         0.13         41.8 
       838.0         0.13         45.3 
       839.0         0.13         48.9 
       840.0         0.20         51.5 
       841.0         0.17         54.4 
       842.0         0.17         56.2 
       843.0         0.25         52.4 
       844.0         0.23         45.1 
       845.0         0.23         38.8 
       846.0         0.30         34.2 
       847.0         0.20         30.9 
       848.0         0.27         30.7 
       849.0         0.30         27.3 
       850.0         0.27         22.9 
       851.0         0.27         17.4 
       852.0         0.27         16.7 
       853.0         0.27         16.7 
       854.0         0.27         12.4 
       855.0         0.27         11.6 
       856.0         0.28          7.0 
       857.0         0.23          6.5 
       858.0         0.27        334.4 
       859.0         0.33        104.5 
       860.0         0.43         95.8 
       861.0         0.27         59.2 
       862.0         0.33         57.1 
       863.0         0.23         52.5 
       864.0         0.23         51.6 
       865.0         0.13         43.6 
       866.0         0.65         42.3 
       867.0         0.30         22.3 
       868.0         0.30         12.3 
       869.0         0.27         10.8 
       870.0         0.27          8.3 
       871.0         0.23          6.7 
       872.0         0.27          5.5 
       873.0         0.27          6.2 
       874.0         0.37          5.3 
       875.0         0.37          4.8 
       876.0         0.30          5.1 
       877.0         0.32          4.9 
       878.0         0.27          5.1 
       879.0         0.23          5.2 
       880.0         0.30          5.4 
       881.0         0.40          5.3 
       882.0         0.40          5.5 
       883.0         0.23          5.3 
       884.0         0.23          5.7 
       885.0         0.27          5.8 
       886.0         0.33          5.7 
       887.0         0.23          5.5 
       888.0         0.35         64.1 
       889.0         0.30         45.9 
       890.0         0.23         42.5 
       891.0         0.27         38.1 
       892.0         0.33         34.1 
       893.0         0.27         29.0 
       894.0         0.27         25.6 
       895.0         0.27         24.1 
       896.0         0.33         22.3 
       897.0         0.27         16.6 
       898.0         0.30         14.3 
       899.0         0.37         11.2 
       900.0         0.23          9.1 
       901.0         0.23          7.5 
       902.0         0.27          7.1 
       903.0         0.23          6.7 
       904.0         0.27          6.0 
       905.0         0.27          5.9 
       906.0         0.27          5.2 
       907.0         0.28          5.0 
       908.0         0.30          4.8 
       909.0         0.33          4.7 
       910.0         0.50          4.7 
       911.0         0.43          4.3 
       912.0         0.33          3.6 
       913.0         0.27          2.5 
       914.0         0.27          3.6 
       915.0         0.27          3.9 
