~Version Information
VERS.                      2.0: CWLS Log ASCII Standard - VERSION 2.0
WRAP.                       NO: One line per depth step
~Well Information Block
STRT.FT                 0.6000: 
STOP.FT              2735.2000: 
STEP.FT                 0.1000: 
NULL.                -999.2500: 
COMP.          Pioneer Natural Resources: COMPANY
WELL.              Cluck 21-25: WELL
FLD.           Purgatoire River: FIELD
LOC.           91' FNL & 1834' FWL--: LOCATION
PROV.                 Colorado: PROVINCE
CNTY.               Las Animas: COUNTRY
SRVC.                Patterson: SERVICE COMPANY
DATE.          Mon Jun 06 19:08:34 2005: LOG DATE
UWI.           05 071 08397 00: UNIQUE WELL ID
~Curve Information Block
DEPT.FT            0 000 00 00: Depth
SN.Ohm-m                      : IEL Short Normal
SP.mV                         : IEL Spontaneous Potential
DIR.Ohm-m                     : IEL Induction Resistivity
GR.GAPI                       : Gamma Ray
~Parameter Information Block
~A  Depth        SN          SP         DIR          GR     
# ...
  1099.4000     19.7872   -272.2906     16.5537    100.1663
  1099.5000     20.9098   -272.4258     17.2525     98.8902
  1099.6000     20.9098   -272.4258     17.2525     97.5387
  1099.7000     20.9098   -272.4258     17.2525     96.1861
  1099.8000     21.8049   -272.7007     18.0208     94.8807
  1099.9000     21.8049   -272.7007     18.0208     93.6423
  1100.0000     22.4951   -273.1394     18.8116     92.4600
  1100.1000     22.4951   -273.1394     18.8116     91.3017
  1100.2000     22.4951   -273.1394     18.8116     90.1240
  1100.3000     23.0420   -273.7404     19.5798     88.8827
  1100.4000     23.0420   -273.7404     19.5798     87.5461
  1100.5000     23.4897   -274.4804     20.2917     86.1014
  1100.6000     23.4897   -274.4804     20.2917     84.5616
  1100.7000     23.4897   -274.4804     20.2917     82.9633
  1100.8000     23.8412   -275.3221     20.9233     81.3667
  1100.9000     23.8412   -275.3221     20.9233     79.8497
  1101.0000     24.0870   -276.2220     21.4554     78.5027
  1101.1000     24.0870   -276.2220     21.4554     77.4192
  1101.2000     24.0870   -276.2220     21.4554     76.6860
  1101.3000     24.2535   -277.1375     21.8763     76.3754
  1101.4000     24.2535   -277.1375     21.8763     76.5309
  1101.5000     24.4105   -278.0335     22.1900     77.1632
  1101.6000     24.4105   -278.0335     22.1900     78.2433
  1101.7000     24.4105   -278.0335     22.1900     79.7045
  1101.8000     24.6210   -278.8870     22.4186     81.4491
  1101.9000     24.6210   -278.8870     22.4186     83.3609
  1102.0000     24.8761   -279.6891     22.5912     85.3180
  1102.1000     24.8761   -279.6891     22.5912     87.2100
  1102.2000     24.8761   -279.6891     22.5912     88.9464
  1102.3000     25.0761   -280.4435     22.7248     90.4645
  1102.4000     25.0761   -280.4435     22.7248     91.7316
  1102.5000     25.0802   -281.1608     22.8106     92.7410
  1102.6000     25.0802   -281.1608     22.8106     93.5044
  1102.7000     25.0802   -281.1608     22.8106     94.0442
  1102.8000     24.7934   -281.8521     22.8200     94.3886
  1102.9000     24.7934   -281.8521     22.8200     94.5672
  1103.0000     24.2316   -282.5226     22.7266     94.6108
  1103.1000     24.2316   -282.5226     22.7266     94.5527
  1103.2000     24.2316   -282.5226     22.7266     94.4285
  1103.3000     23.5207   -283.1680     22.5333     94.2787
  1103.4000     23.5207   -283.1680     22.5333     94.1490
  1103.5000     22.8290   -283.7758     22.2816     94.0842
  1103.6000     22.8290   -283.7758     22.2816     94.1300
  1103.7000     22.8290   -283.7758     22.2816     94.3240
  1103.8000     22.2804   -284.3315     22.0349     94.6958
  1103.9000     22.2804   -284.3315     22.0349     95.2650
  1104.0000     21.9056   -284.8241     21.8453     96.0356
  1104.1000     21.9056   -284.8241     21.8453     96.9975
  1104.2000     21.9056   -284.8241     21.8453     98.1217
  1104.3000     21.6557   -285.2508     21.7280     99.3618
  1104.4000     21.6557   -285.2508     21.7280    100.6546
  1104.5000     21.4571   -285.6161     21.6557    101.9233
  1104.6000     21.4571   -285.6161     21.6557    103.0863
  1104.7000     21.4571   -285.6161     21.6557    104.0641
  1104.8000     21.2632   -285.9272     21.5770    104.7959
  1104.9000     21.2632   -285.9272     21.5770    105.2487
  1105.0000     21.0733   -286.1881     21.4479    105.4233
  1105.1000     21.0733   -286.1881     21.4479    105.3531
  1105.2000     21.0733   -286.1881     21.4479    105.1012
  1105.3000     20.9157   -286.3954     21.2561    104.7440
  1105.4000     20.9157   -286.3954     21.2561    104.3578
  1105.5000     20.8180   -286.5398     21.0232    104.0051
  1105.6000     20.8180   -286.5398     21.0232    103.7262
  1105.7000     20.8180   -286.5398     21.0232    103.5328
  1105.8000     20.7862   -286.6136     20.7869    103.4143
  1105.9000     20.7862   -286.6136     20.7869    103.3431
  1106.0000     20.8046   -286.6204     20.5784    103.2861
  1106.1000     20.8046   -286.6204     20.5784    103.2147
  1106.2000     20.8046   -286.6204     20.5784    103.1110
  1106.3000     20.8512   -286.5824     20.4104    102.9773
  1106.4000     20.8512   -286.5824     20.4104    102.8315
  1106.5000     20.9135   -286.5413     20.2774    102.7033
  1106.6000     20.9135   -286.5413     20.2774    102.6298
  1106.7000     20.9135   -286.5413     20.2774    102.6425
  1106.8000     20.9927   -286.5501     20.1669    102.7592
  1106.9000     20.9927   -286.5501     20.1669    102.9762
  1107.0000     21.0949   -286.6599     20.0733    103.2624
  1107.1000     21.0949   -286.6599     20.0733    103.5662
  1107.2000     21.0949   -286.6599     20.0733    103.8180
  1107.3000     21.2240   -286.9053     20.0080    103.9458
  1107.4000     21.2240   -286.9053     20.0080    103.8896
  1107.5000     21.3817   -287.2938     19.9984    103.6075
  1107.6000     21.3817   -287.2938     19.9984    103.0908
  1107.7000     21.3817   -287.2938     19.9984    102.3587
  1107.8000     21.5722   -287.8049     20.0769    101.4576
  1107.9000     21.5722   -287.8049     20.0769    100.4504
  1108.0000     21.7994   -288.3951     20.2674     99.4081
  1108.1000     21.7994   -288.3951     20.2674     98.3976
  1108.2000     21.7994   -288.3951     20.2674     97.4752
  1108.3000     22.0570   -289.0084     20.5747     96.6819
  1108.4000     22.0570   -289.0084     20.5747     96.0368
  1108.5000     22.3164   -289.5865     20.9775     95.5382
  1108.6000     22.3164   -289.5865     20.9775     95.1646
  1108.7000     22.3164   -289.5865     20.9775     94.8751
  1108.8000     22.5260   -290.0780     21.4270     94.6175
  1108.9000     22.5260   -290.0780     21.4270     94.3326
  1109.0000     22.6334   -290.4431     21.8548     93.9660
  1109.1000     22.6334   -290.4431     21.8548     93.4776
  1109.2000     22.6334   -290.4431     21.8548     92.8508
  1109.3000     22.6238   -290.6555     22.1919     92.0968
  1109.4000     22.6238   -290.6555     22.1919     91.2575
  1109.5000     22.5486   -290.7030     22.3934     90.4019
  1109.6000     22.5486   -290.7030     22.3934     89.6163
  1109.7000     22.5486   -290.7030     22.3934     88.9929
  1109.8000     22.5144   -290.5878     22.4551     88.6198
  1109.9000     22.5144   -290.5878     22.4551     88.5659
  1110.0000     22.6303   -290.3261     22.4119     88.8740
  1110.1000     22.6303   -290.3261     22.4119     89.5546
  1110.2000     22.6303   -290.3261     22.4119     90.5860
  1110.3000     22.9437   -289.9483     22.3192     91.9193
  1110.4000     22.9437   -289.9483     22.3192     93.4839
  1110.5000     23.4052   -289.4962     22.2285     95.2013
  1110.6000     23.4052   -289.4962     22.2285     96.9949
  1110.7000     23.4052   -289.4962     22.2285     98.7971
  1110.8000     23.8843   -289.0182     22.1669    100.5553
  1110.9000     23.8843   -289.0182     22.1669    102.2286
  1111.0000     24.2275   -288.5605     22.1275    103.7881
  1111.1000     24.2275   -288.5605     22.1275    105.2049
  1111.2000     24.2275   -288.5605     22.1275    106.4445
  1111.3000     24.3269   -288.1569     22.0734    107.4635
  1111.4000     24.3269   -288.1569     22.0734    108.2086
  1111.5000     24.1577   -287.8199     21.9594    108.6216
  1111.6000     24.1577   -287.8199     21.9594    108.6511
  1111.7000     24.1577   -287.8199     21.9594    108.2611
  1111.8000     23.7660   -287.5357     21.7605    107.4439
  1111.9000     23.7660   -287.5357     21.7605    106.2271
  1112.0000     23.2206   -287.2646     21.4887    104.6770
  1112.1000     23.2206   -287.2646     21.4887    102.8914
  1112.2000     23.2206   -287.2646     21.4887    100.9933
  1112.3000     22.5728   -286.9492     21.1831     99.1149
  1112.4000     22.5728   -286.9492     21.1831     97.3836
  1112.5000     21.8459   -286.5262     20.8815     95.9084
  1112.6000     21.8459   -286.5262     20.8815     94.7708
  1112.7000     21.8459   -286.5262     20.8815     94.0173
