~Version Information
VERS.                      2.0: CWLS Log ASCII Standard - VERSION 2.0
WRAP.                       NO: One line per depth step
~Well Information Block
STRT.FT                -8.5000: 
STOP.FT              2286.0000: 
STEP.FT                 0.2500: 
NULL.                -999.2500: 
COMP.          Pioneer Natural Resources: COMPANY
WELL.             Culver 14-12: WELL
FLD.           Purgatorie River: FIELD
LOC.           913' FSL & 1140' FWL--: LOCATION
PROV.                       CO: PROVINCE
CNTY.               Las Animas: COUNTRY
SRVC.          Patterson Wireline: SERVICE COMPANY
DATE.          Wed Jun 15 13:05:36 2005: LOG DATE
UWI.           05 071 08386 00: UNIQUE WELL ID
~Curve Information Block
DEPT.FT            0 000 00 00: Depth
CCL.                          : Casing Collar Locator
TT3.usec                      : CBL 3' Travel Time
AMP3.mV                       : CBL 3' Amplitude
GR.GAPI                       : Gamma Ray
~Parameter Information Block
~A  Depth       CCL         TT3         AMP3         GR     
    -8.5000   -999.2500   -999.2500   -999.2500     68.7018
    -8.2500   -999.2500   -999.2500   -999.2500     66.3772
    -8.0000   -999.2500   -999.2500   -999.2500     64.9809
    -7.7500   -999.2500   -999.2500   -999.2500     64.9750
    -7.5000   -999.2500   -999.2500   -999.2500     65.8658
    -7.2500   -999.2500   -999.2500   -999.2500     66.9708
    -7.0000   -999.2500   -999.2500   -999.2500     68.3872
    -6.7500   -999.2500   -999.2500   -999.2500     70.7606
    -6.5000   -999.2500   -999.2500   -999.2500     74.1220
    -6.2500   -999.2500   -999.2500   -999.2500     77.2121
    -6.0000   -999.2500   -999.2500   -999.2500     78.4086
    -5.7500   -999.2500   -999.2500   -999.2500     77.5182
    -5.5000   -999.2500   -999.2500   -999.2500     76.1608
    -5.2500   -999.2500   -999.2500   -999.2500     75.9402
    -5.0000   -999.2500   -999.2500   -999.2500     76.6098
    -4.7500   -999.2500   -999.2500   -999.2500     76.5372
    -4.5000   -999.2500   -999.2500   -999.2500     74.7309
    -4.2500   -999.2500   -999.2500   -999.2500     71.9410
    -4.0000   -999.2500   -999.2500   -999.2500     69.8343
    -3.7500   -999.2500   1170.0000      1.1976     69.4580
    -3.5000   -999.2500   1170.0000      1.1542     70.6772
    -3.2500   -999.2500   1170.0000      1.0943     72.7902
    -3.0000   -999.2500   1170.0000      1.0305     75.1437
    -2.7500   -999.2500   1170.0000      0.9754     77.0285
    -2.5000   -999.2500   1170.0000      0.9300     77.4602
    -2.2500   -999.2500   1170.0000      0.8863     75.5809
    -2.0000   -999.2500   1170.0000      0.8496     71.3813
    -1.7500   -999.2500   1170.0000      0.8447     65.8133
    -1.5000   -999.2500   1170.0000      0.9753     55.5057
    -1.2500   -999.2500   1170.0000      1.0685     52.2466
    -1.0000   -999.2500   1170.0000      1.1491     50.4751
    -0.7500   -999.2500   1170.0000      1.2131     49.9579
    -0.5000   -999.2500   1170.0000      1.2621     50.1426
    -0.2500   -999.2500   1170.0000      1.2948     50.2541
     0.0000   -999.2500   1170.0000      1.3087     49.4903
     0.2500   -999.2500   1170.0000      1.3022     47.1973
     0.5000   -999.2500   1170.0000      1.2753     43.1488
     0.7500   -999.2500   1170.0000      1.2330     37.8720
     1.0000   -999.2500   1170.0000      1.1865     32.5841
     1.2500   -999.2500   1170.0000      1.1470     28.6209
     1.5000      0.0000   1170.0000      1.1159     26.8801
     1.7500      0.0000   1170.0000      1.0835     27.7807
     2.0000      0.0000   1170.0000      1.0443     31.5097
     2.2500     -2.0000   1170.0000      1.0112     37.9046
     2.5000     -2.0000   1170.0000      1.0088     45.9683
     2.7500      0.0000   1170.0000      1.0487     53.8512
     3.0000      0.0000   1170.0000      1.1161     59.7484
     3.2500      0.0000   1170.0000      1.1812     62.9352
     3.5000      0.0000   1170.0000      1.2214     64.0007
     3.7500      0.0000   1170.0000      1.2288     64.3011
     4.0000      0.0000   1170.0000      1.2061     65.1744
     4.2500      0.0000   1170.0000      1.1639     67.2303
     4.5000      0.0000   1170.0000      1.1207     70.2206
     4.7500      0.0000   1170.0000      1.0925     73.7754
     5.0000      0.0000   1170.0000      1.0808     78.0051
     5.2500      0.0000   1170.0000      1.0759     82.8360
     5.5000      0.0000   1170.0000      1.0735     86.9920
     5.7500      0.0000   1170.0000      1.0763     88.4292
     6.0000      0.0000   1170.0000      1.0835     85.9981
     6.2500      0.0000   1170.0000      1.0899     80.3355
     6.5000      0.0000   1170.0000      1.0951     73.1925
     6.7500      0.0000   1170.0000      1.1036     66.3428
     7.0000      0.0000   1170.0000      1.1199     61.1985
     7.2500      0.0000   1170.0000      1.1468     58.7925
     7.5000      0.0000   1170.0000      1.1818     59.3435
     7.7500      0.0000   1170.0000      1.2154     61.6184
     8.0000      0.0000   1170.0000      1.2362     63.2517
     8.2500      0.0000   1169.9424      1.2422     62.4004
     8.5000      0.0000   1169.5670      1.2479     59.2296
     8.7500      0.0000   1167.6606      1.3112     55.5541
     9.0000      0.0000   1160.1208      1.6089     53.1742
     9.2500      0.0000   1136.8960      2.5672     52.6713
     9.5000      0.0000   1081.1812      4.9047     53.3389
     9.7500      0.0000    977.0889      9.3123     53.8786
    10.0000      0.0000    825.6245     15.7702     53.4211
    10.2500      0.0000    653.9628     23.1414     52.1748
    10.5000      0.0000    502.3773     29.7172     51.0575
    10.7500      0.0000    397.9122     34.3341     50.7994
    11.0000      0.0000    341.2626     36.9370     51.5233
    11.2500      0.0000    316.0753     38.1926     52.8522
    11.5000      0.0000    305.1992     38.8076     54.0923
    11.7500      0.0000    298.7416     39.1929     54.5381
    12.0000      0.0000    293.3479     39.5002     54.0018
    12.2500      0.0000    288.7453     39.7720     53.0585
    12.5000      0.0000    285.2488     40.0315     52.5537
    12.7500      0.0000    282.6602     40.2942     52.7577
    13.0000      0.0000    280.2599     40.5556     53.0908
    13.2500      0.0000    277.4662     40.8012     52.8834
    13.5000      0.0000    274.4596     41.0295     52.3462
    13.7500      0.0000    271.9207     41.2566     52.3882
    14.0000      0.0000    270.2814     41.4941     53.3113
    14.2500      0.0000    269.4489     41.7316     54.2025
    14.5000      0.0000    269.0894     41.9519     53.9722
    14.7500      0.0000    268.9349     42.1558     52.5931
    15.0000      0.0000    268.8493     42.3630     50.9752
    15.2500      0.0000    268.7802     42.5891     50.0116
    15.5000      0.0000    268.7152     42.8231     49.9528
    15.7500      0.0000    268.6564     43.0343     50.3557
    16.0000      0.0000    268.6092     43.2008     50.5088
    16.2500      0.0000    268.5741     43.3243     50.0677
    16.5000      0.0000    268.5479     43.4227     49.1858
    16.7500      0.0000    268.5253     43.5191     47.9786
    17.0000      0.0000    268.4983     43.6364     46.2226
    17.2500      0.0000    268.4582     43.7892     43.8400
    17.5000      0.0000    268.4010     43.9718     41.4746
    17.7500      0.0000    268.3325     44.1587     40.2544
    18.0000      0.0000    268.2657     44.3211     40.9248
    18.2500      0.0000    268.2138     44.4418     43.2958
    18.5000      0.0000    268.1828     44.5144     46.3481
    18.7500      0.0000    268.1712     44.5356     48.7812
    19.0000      0.0000    268.1719     44.5096     49.8702
    19.2500      0.0000    268.1745     44.4581     50.1207
    19.5000      0.0000    268.1682     44.4143     50.8313
    19.7500      0.0000    268.1479     44.4010     52.7741
    20.0000      0.0000    268.1189     44.4160     55.4709
    20.2500      0.0000    268.0941     44.4404     57.9244
    20.5000      0.0000    268.0854     44.4554     59.8241
    20.7500      0.0000    268.0954     44.4560     61.6738
    21.0000      0.0000    268.1110     44.4683     63.7937
    21.2500      0.0000    268.1078     44.5497     65.6216
    21.5000      0.0000    268.0650     44.7480     66.3007
    21.7500      0.0000    267.9838     45.0522     65.7389
    22.0000      0.0000    267.8874     45.3941     64.7624
    22.2500      0.0000    267.8000     45.7035     64.4193
    22.5000      0.0000    267.7261     45.9595     65.4863
    22.7500      0.0000    267.6530     46.1863     68.2727
    23.0000      0.0000    267.5716     46.4042     72.1800
    23.2500      0.0000    267.4912     46.5956     75.4452
    23.5000      0.0000    267.4332     46.7191     76.0901
    23.7500      0.0000    267.4120     46.7500     73.5951
    24.0000      0.0000    267.4234     46.7040     69.3556
    24.2500      0.0000    267.4521     46.6206     65.2296
    24.5000      0.0000    267.4855     46.5261     61.8961
    24.7500      0.0000    267.5195     46.4222     58.8477
