~Version Information
VERS.                      2.0: CWLS Log ASCII Standard - VERSION 2.0
WRAP.                       NO: One line per depth step
~Well Information Block
STRT.FT                 0.0000: 
STOP.FT              2384.7500: 
STEP.FT                 0.2500: 
NULL.                -999.2500: 
COMP.          Petrogulf Corporation: COMPANY
WELL.           McDaniel 9-34V: WELL
FLD.           Purgatorie River: FIELD
LOC.           620' FSL & 1800' FEL: LOCATION
STAT.                 Colorado: State
CNTY.               Las Animas: COUNTY
CTRY. USA : Country
SECT. 9 : Section
TOWN. 33S : Township
RANG. 67W : Range
SRVC.                Patterson: SERVICE COMPANY
DATE.          Thu Nov 10 12:28:18 2005: LOG DATE
API. 05-071-08333                         : UNIQUE WELL ID
~Curve Information Block
DEPT.FT            0 000 00 00: Depth
AMP3.mV                       : CBL 3' Amplitude
CCL.                          : Casing Collar Locator
GR.GAPI                       : Gamma Ray
TT3.usec                      : CBL 3' Travel Time
~Parameter Information Block
~A  Depth       AMP3        CCL          GR         TT3     
# ...
  1407.0000      8.1740      0.0000    123.3742    493.9426
  1407.2500      8.0102      0.0000    124.0855    489.5037
  1407.5000      7.8805      0.0000    124.6607    488.4685
  1407.7500      7.8105      0.0000    123.9013    489.3964
  1408.0000      7.8439      0.0000    120.7444    492.1158
  1408.2500      7.9140      0.0000    115.8818    496.4168
  1408.5000      7.8560      0.0000    111.4647    502.0713
  1408.7500      7.5742      0.0000    109.0344    508.6173
  1409.0000      7.1036      0.0000    108.1358    512.4278
  1409.2500      6.5896      0.0000    107.0287    511.6639
  1409.5000      6.2097      0.0000    104.2787    512.7266
  1409.7500      6.0162     -2.0000     99.5904    521.8598
  1410.0000      5.9342      2.0000     93.8062    539.3517
  1410.2500      5.9062      2.0000     88.7294    560.8159
  1410.5000      5.9278      0.0000     86.6907    575.5186
  1410.7500      6.0132      0.0000     89.3899    575.6714
  1411.0000      6.2279      0.0000     96.6574    573.1210
  1411.2500      6.6415      0.0000    106.5286    585.2301
  1411.5000      7.1485      0.0000    116.6552    600.5894
  1411.7500      7.5120      0.0000    125.6297    591.5535
  1412.0000      7.6422      0.0000    133.3200    557.7734
  1412.2500      7.6284      0.0000    140.1990    522.9357
  1412.5000      7.5564      0.0000    146.0343    501.4449
  1412.7500      7.4660      0.0000    149.2165    493.2697
  1413.0000      7.3906      0.0000    147.7655    496.5762
  1413.2500      7.3300      0.0000    141.0221    511.2273
  1413.5000      7.2424      0.0000    130.1756    534.5638
  1413.7500      7.1117      0.0000    117.5237    559.6589
  1414.0000      6.9823      0.0000    105.5385    579.7025
  1414.2500      6.9022      0.0000     95.9967    591.3527
  1414.5000      6.8715      0.0000     89.2198    594.5023
  1414.7500      6.8493      0.0000     84.3354    593.5844
  1415.0000      6.7996      0.0000     80.6690    597.0816
  1415.2500      6.7032      0.0000     78.6396    610.2401
  1415.5000      6.5164      0.0000     79.0501    628.2125
  1415.7500      6.2203      0.0000     81.9188    641.2133
  1416.0000      5.9004      0.0000     86.4534    645.5559
  1416.2500      5.6659      0.0000     92.0543    643.4810
  1416.5000      5.5455      0.0000     98.7941    637.9328
  1416.7500      5.5066      0.0000    106.6309    633.2610
  1417.0000      5.5312      0.0000    114.5864    631.8354
  1417.2500      5.6285      0.0000    121.5260    630.3879
  1417.5000      5.7882      0.0000    127.6847    627.3744
  1417.7500      6.0007      0.0000    134.3818    624.3703
  1418.0000      6.2805      0.0000    141.8422    618.1905
  1418.2500      6.6116      0.0000    148.2936    606.2121
  1418.5000      6.9526      0.0000    151.8100    595.6818
  1418.7500      7.3034      0.0000    152.1412    596.4766
  1419.0000      7.7336      0.0000    149.9468    610.4520
  1419.2500      8.3287      0.0000    145.1499    630.2922
  1419.5000      9.0672      0.0000    137.2365    645.7308
  1419.7500      9.8095      0.0000    126.8846    651.1167
  1420.0000     10.4300      0.0000    116.2062    645.5262
  1420.2500     10.8724      0.0000    107.0517    630.0186
  1420.5000     11.1404      0.0000     99.4659    609.9349
  1420.7500     11.3169      0.0000     92.0353    593.1738
  1421.0000     11.5072      0.0000     83.5886    581.1600
  1421.2500     11.7382      0.0000     74.4576    567.0002
  1421.5000     11.9703      0.0000     66.2051    546.4951
  1421.7500     12.1762      0.0000     60.2158    528.8931
  1422.0000     12.3715      0.0000     56.5075    528.5952
  1422.2500     12.5640      0.0000     53.9194    544.3187
  1422.5000     12.7147      0.0000     51.5636    559.3326
  1422.7500     12.7847      0.0000     50.1203    563.5370
  1423.0000     12.7699      0.0000     51.6022    562.3290
  1423.2500     12.7167      0.0000     57.9473    563.9551
  1423.5000     12.7296      0.0000     69.8984    569.3654
  1423.7500     12.8618      0.0000     86.6977    575.9300
  1424.0000     13.0239      0.0000    106.1994    582.7441
  1424.2500     13.1107      0.0000    125.5051    588.9738
  1424.5000     13.1310      0.0000    142.1095    590.4993
  1424.7500     13.1300      0.0000    154.5158    585.5400
  1425.0000     13.0841      0.0000    161.7002    580.7933
  1425.2500     12.9624      0.0000    162.6459    582.5378
  1425.5000     12.8374      0.0000    157.0610    587.6648
  1425.7500     12.8002      0.0000    146.3338    587.3165
  1426.0000     12.8203      0.0000    133.3071    574.2041
  1426.2500     12.8336      0.0000    121.0002    551.8799
  1426.5000     12.8495      0.0000    111.4689    539.3159
  1426.7500     12.8505      0.0000    105.5872    551.7625
  1427.0000     12.7443      0.0000    103.4201    579.3527
  1427.2500     12.5012      0.0000    104.3079    601.6967
  1427.5000     12.1954      0.0000    106.5040    613.0768
  1427.7500     11.8741      0.0000    107.4613    619.9212
  1428.0000     11.5224      0.0000    105.3378    623.7823
  1428.2500     11.1473      0.0000    100.2684    620.9893
  1428.5000     10.7848      0.0000     93.9146    614.0165
  1428.7500     10.4374      0.0000     88.1026    609.5747
  1429.0000     10.0785      0.0000     84.1672    609.3966
  1429.2500      9.7246      0.0000     83.0471    610.9932
  1429.5000      9.4236      0.0000     85.3405    611.9658
  1429.7500      9.1856      0.0000     91.1880    610.7827
  1430.0000      8.9912      0.0000    100.0388    608.2551
  1430.2500      8.8199      0.0000    110.2380    607.0261
  1430.5000      8.6520      0.0000    119.1540    607.5916
  1430.7500      8.4788      0.0000    124.6773    608.2686
  1431.0000      8.3169      0.0000    127.0474    607.7358
  1431.2500      8.1890      0.0000    128.8259    604.9205
  1431.5000      8.0837      0.0000    132.5311    598.9447
  1431.7500      7.9754      0.0000    138.3167    590.7863
  1432.0000      7.8882      0.0000    144.2350    582.4720
  1432.2500      7.8639      0.0000    148.5846    573.4739
  1432.5000      7.8838      0.0000    151.3758    560.7054
  1432.7500      7.9033      0.0000    153.3142    543.0639
  1433.0000      7.9107      0.0000    154.1033    524.4667
  1433.2500      7.9105      0.0000    152.5421    513.5072
  1433.5000      7.9054      0.0000    148.0690    519.8637
  1433.7500      7.8915      0.0000    141.4076    545.9086
  1434.0000      7.8554      0.0000    133.7219    581.2581
  1434.2500      7.7924      0.0000    125.7685    610.4721
  1434.5000      7.7297      0.0000    118.0087    625.8621
  1434.7500      7.7272      0.0000    110.8983    629.5703
  1435.0000      7.8317      0.0000    104.6202    626.6776
  1435.2500      8.0009      0.0000     98.8512    620.2138
  1435.5000      8.1047      0.0000     93.2183    610.8145
  1435.7500      8.0645      0.0000     87.9918    599.6596
  1436.0000      7.9528      0.0000     84.1881    590.1092
  1436.2500      7.8840      0.0000     82.9612    584.5037
  1436.5000      7.8803      0.0000     84.7291    582.2382
  1436.7500      7.9075      0.0000     88.6815    582.2082
  1437.0000      7.9472      0.0000     93.0841    585.1400
  1437.2500      7.9852      0.0000     96.2048    593.2917
  1437.5000      7.9937      0.0000     97.4220    606.6589
  1437.7500      7.9615      0.0000     97.9287    619.0688
  1438.0000      7.9034      0.0000    100.2380    622.9861
  1438.2500      7.8273      0.0000    106.3709    618.8282
  1438.5000      7.7415      0.0000    116.0529    613.8748
  1438.7500      7.6743      0.0000    126.4984    612.0106
  1439.0000      7.6566      0.0000    134.1519    607.4614
  1439.2500      7.6855      0.0000    137.2412    591.6768
  1439.5000      7.7166      0.0000    136.9877    566.1992
  1439.7500      7.7440      0.0000    136.0598    541.8616
  1440.0000      7.8514      0.0000    135.8291    526.0422
  1440.2500      8.0800      0.0000    135.6340    517.7096
