~Version Information
VERS.                      2.0: CWLS Log ASCII Standard - VERSION 2.0
WRAP.                       NO: One line per depth step
~Well Information Block
STRT.FT               780.0000: 
STOP.FT              2866.2000: 
STEP.FT                 0.1000: 
NULL.                -999.2500: 
COMP.          Pioneer Natural Resources: COMPANY
WELL.            Sebring 42-29: WELL
FLD.           Purgatoire River: FIELD
LOC.           1751' FNL & 584' FEL--: LOCATION
PROV.                 Colorado: PROVINCE
CNTY.               Las Animas: COUNTRY
SRVC.                Patterson: SERVICE COMPANY
DATE.          Mon Aug 15 07:11:37 2005: LOG DATE
UWI.           05 071 08293 00: UNIQUE WELL ID
~Curve Information Block
DEPT.FT            0 000 00 00: Depth
DCAL.in                       : CDL Caliper
RHOB.g/cc                     : CDL Bulk Density
RHOC.g/cc                     : CDL Density Correction
DPOR.pu                       : CDL Density Porosity
NPOR.pu                       : Neutron Porosity
GR.GAPI                       : Gamma Ray
~Parameter Information Block
~A  Depth       DCAL        RHOB        RHOC        DPOR        NPOR         GR     
# ...
  1740.0000      8.2222      2.1668      0.0711     29.2851     29.3607    131.3807
  1740.1000      8.2222      2.1859      0.0426     28.1268     28.8980    136.1958
  1740.2000      8.2222      2.2360      0.1241     25.0901     28.6616    133.2161
  1740.3000      8.2125      2.3187      0.1655     20.0801     28.9243    127.5363
  1740.4000      8.2125      2.4277      0.2773     13.4715     28.9782    123.7484
  1740.5000      8.2253      2.5377      0.4108      6.8055     28.6359    123.3639
  1740.6000      8.2253      2.6097      0.4535      2.4396     28.4797    130.3565
  1740.7000      8.2253      2.6300      0.3960      1.2128     28.5088    143.6185
  1740.8000      8.2361      2.6180      0.3291      1.9384     28.1843    150.8937
  1740.9000      8.2361      2.5954      0.2839      3.3069     27.7394    145.2953
  1741.0000      8.2354      2.5690      0.1875      4.9106     27.7578    137.0667
  1741.1000      8.2354      2.5405      0.1181      6.6335     28.0581    132.0051
  1741.2000      8.2354      2.5122      0.0798      8.3533     28.4758    127.5477
  1741.3000      8.2263      2.4925      0.0009      9.5428     29.0921    130.3406
  1741.4000      8.2263      2.4854      0.0807      9.9734     29.5267    142.5476
  1741.5000      8.2242      2.4771      0.0447     10.4811     29.3316    150.1371
  1741.6000      8.2242      2.4617      0.0528     11.4116     28.7998    146.3697
  1741.7000      8.2242      2.4426      0.0653     12.5676     28.8546    138.6594
  1741.8000      8.2299      2.4188      0.0399     14.0124     29.7084    132.1169
  1741.9000      8.2299      2.3885      0.0361     15.8509     30.5270    127.4487
  1742.0000      8.2361      2.3527      0.0231     18.0205     30.8578    125.2309
  1742.1000      8.2361      2.3161      0.0057     20.2359     31.0011    125.9089
  1742.2000      8.2361      2.2849     -0.0289     22.1280     31.0545    131.1896
  1742.3000      8.2541      2.2669     -0.0105     23.2198     31.0184    137.0337
  1742.4000      8.2541      2.2690      0.0423     23.0921     31.0536    136.6834
  1742.5000      8.3050      2.2986      0.0378     21.2993     31.0115    134.4451
  1742.6000      8.3050      2.3556      0.1425     17.8435     30.7511    133.5871
  1742.7000      8.3050      2.4174      0.2065     14.0952     30.3517    128.4780
  1742.8000      8.3689      2.4608      0.2273     11.4689     30.1282    122.7422
  1742.9000      8.3689      2.4794      0.2477     10.3411     30.3908    125.5761
  1743.0000      8.4138      2.4807      0.2190     10.2604     30.9249    134.1574
  1743.1000      8.4138      2.4803      0.2658     10.2864     31.1432    139.8191
  1743.2000      8.4138      2.4883      0.2110      9.7990     30.8289    139.9829
  1743.3000      8.4626      2.4994      0.2276      9.1246     30.2812    135.1325
  1743.4000      8.4626      2.5027      0.1508      8.9251     29.8062    127.8298
  1743.5000      8.4897      2.5046      0.0777      8.8111     29.6928    123.8000
  1743.6000      8.4897      2.5178      0.0827      8.0127     29.6767    126.4525
  1743.7000      8.4897      2.5398      0.0743      6.6813     29.3403    130.5618
  1743.8000      8.4341      2.5566      0.1658      5.6610     28.8568    130.3662
  1743.9000      8.4341      2.5528      0.1346      5.8910     28.3078    128.9338
  1744.0000      8.3190      2.5310      0.0715      7.2100     27.6716    132.6142
  1744.1000      8.3190      2.5112      0.0706      8.4133     27.1628    140.2366
  1744.2000      8.3190      2.5046      0.0910      8.8102     27.1668    145.8425
  1744.3000      8.2472      2.5051      0.0619      8.7829     27.7182    146.7789
  1744.4000      8.2472      2.5003      0.0254      9.0726     28.2134    142.7005
  1744.5000      8.2322      2.4855      0.0392      9.9700     28.3480    136.6144
  1744.6000      8.2322      2.4646      0.0122     11.2392     28.3728    133.3052
  1744.7000      8.2322      2.4424      0.0150     12.5798     28.3237    131.0897
  1744.8000      8.2333      2.4260     -0.0103     13.5769     28.1630    127.3234
  1744.9000      8.2333      2.4262     -0.0465     13.5651     28.1644    127.4710
  1745.0000      8.2346      2.4411      0.0524     12.6577     28.4222    132.9737
  1745.1000      8.2346      2.4599     -0.0095     11.5242     28.5664    137.2389
  1745.2000      8.2346      2.4855      0.0022      9.9690     28.6155    136.7412
  1745.3000      8.2348      2.5116      0.0718      8.3879     29.1225    132.5325
  1745.4000      8.2348      2.5138      0.0816      8.2575     29.8446    126.9063
  1745.5000      8.2382      2.4942      0.0190      9.4406     29.9706    124.0180
  1745.6000      8.2382      2.4801      0.0448     10.2944     29.5293    128.2312
  1745.7000      8.2382      2.4790      0.0599     10.3643     29.3940    138.0169
  1745.8000      8.2515      2.4802      0.0247     10.2910     29.8772    145.5694
  1745.9000      8.2515      2.4706      0.0516     10.8717     30.3487    143.4812
  1746.0000      8.2884      2.4406      0.0211     12.6896     30.6325    133.3801
  1746.1000      8.2884      2.3992     -0.0005     15.1991     31.2691    126.2756
  1746.2000      8.2884      2.3572      0.0320     17.7447     32.2528    126.5844
  1746.3000      8.3605      2.3104      0.0119     20.5794     32.7928    128.3645
  1746.4000      8.3605      2.2535     -0.0298     24.0330     32.5248    129.3336
  1746.5000      8.4785      2.1909     -0.0541     27.8253     32.4577    131.9528
  1746.6000      8.4785      2.1402     -0.0690     30.8994     33.3324    132.9515
  1746.7000      8.4785      2.1148     -0.0436     32.4379     34.3118    130.5056
  1746.8000      8.6144      2.0979      0.0194     33.4602     34.6464    127.3574
  1746.9000      8.6144      2.0509      0.0578     36.3062     34.5081    120.2738
  1747.0000      8.6852      1.9589      0.0061     41.8822     34.3018    107.9474
  1747.1000      8.6852      1.8612     -0.0542     47.8054     34.2989     97.4802
  1747.2000      8.6852      1.7971      0.0770     51.6897     34.2687     95.2410
  1747.3000      8.6987      1.7549      0.1006     54.2498     33.8796    101.9894
  1747.4000      8.6987      1.7180      0.0694     56.4847     33.5342    110.2617
  1747.5000      8.7041      1.6950      0.0477     57.8759     33.5766    110.5196
  1747.6000      8.7041      1.6934      0.0646     57.9734     33.6919    102.8593
  1747.7000      8.7041      1.7088      0.0782     57.0449     33.7364     96.4864
  1747.8000      8.7096      1.7347      0.1026     55.4755     33.8956     94.7488
  1747.9000      8.7096      1.7724      0.1342     53.1906     33.9585     92.6475
  1748.0000      8.6636      1.8349      0.1395     49.3972     33.5023     90.8284
  1748.1000      8.6636      1.9271      0.1836     43.8098     32.7744     92.3035
  1748.2000      8.6636      2.0242      0.1786     37.9252     32.5798     93.7370
  1748.3000      8.5091      2.1016      0.1691     33.2336     32.9480     91.6243
  1748.4000      8.5091      2.1670      0.1369     29.2743     32.9231     87.5513
  1748.5000      8.3252      2.2344      0.1573     25.1909     32.2676     84.3098
  1748.6000      8.3252      2.2942      0.1694     21.5615     31.4253     82.7769
  1748.7000      8.3252      2.3331      0.1925     19.2052     30.7029     83.7076
  1748.8000      8.2342      2.3545      0.1534     17.9114     30.3340     88.2481
  1748.9000      8.2342      2.3626      0.1607     17.4201     30.5021     93.5873
  1749.0000      8.2248      2.3414      0.1773     18.7010     31.1063     96.0654
  1749.1000      8.2248      2.2824      0.0282     22.2811     31.7951     98.2223
  1749.2000      8.2248      2.2046      0.0137     26.9914     32.3941    102.1919
  1749.3000      8.2527      2.1291     -0.0187     31.5719     32.6634    104.6397
  1749.4000      8.2527      2.0744     -0.0652     34.8849     32.2306    104.8587
  1749.5000      8.3601      2.0562     -0.0805     35.9888     31.5167    105.5279
