~Version Information
VERS.                      2.0: CWLS Log ASCII Standard - VERSION 2.0
WRAP.                       NO: One line per depth step
~Well Information Block
STRT.FT                15.0000: 
STOP.FT              2409.7500: 
STEP.FT                 0.2500: 
NULL.                -999.2500: 
COMP.          Pioneer Natural Resources: COMPANY
WELL.          Oink Oink 14-36: WELL
FLD.           Purgatoire River: FIELD
LOC.           216' FSL & 263' FWL: LOCATION
PROV.                 Colorado: PROVINCE
CNTY.               Las Animas: COUNTRY
SRVC.                Patterson: SERVICE COMPANY
DATE.          Wed Jun 22 11:05:26 2005: LOG DATE
UWI.           05 071 08394 00: UNIQUE WELL ID
~Curve Information Block
DEPT.FT            0 000 00 00: Depth
GR.GAPI                       : Gamma Ray
CCL.                          : Casing Collar Locator
TT3.usec                      : CBL 3' Travel Time
AMP3.mV                       : CBL 3' Amplitude
~Parameter Information Block
~A  Depth        GR         CCL         TT3         AMP3    
# ...
   651.5000     78.3517      0.0000    608.0036      6.3892
   651.7500     76.7512      0.0000    605.2780      6.4133
   652.0000     76.1958      0.0000    603.8314      6.4511
   652.2500     76.2172      0.0000    602.9752      6.5034
   652.5000     76.0781      0.0000    602.3030      6.5590
   652.7500     75.6534      0.0000    601.6062      6.6021
   653.0000     75.3699      0.0000    600.7874      6.6200
   653.2500     75.3328      0.0000    599.8829      6.6052
   653.5000     74.9946      0.0000    599.1494      6.5543
   653.7500     73.9126      0.0000    599.1633      6.4642
   654.0000     72.5257      0.0000    600.8190      6.3307
   654.2500     71.9027      0.0000    604.9481      6.1487
   654.5000     72.8992      0.0000    611.5700      5.9144
   654.7500     75.6747      0.0000    619.5093      5.6295
   655.0000     79.6254      0.0000    627.2006      5.3019
   655.2500     83.5084      0.0000    633.9979      4.9433
   655.5000     85.9490      0.0000    640.3452      4.5668
   655.7500     86.1986      0.0000    646.6746      4.1886
   656.0000     84.4465      0.0000    653.0281      3.8285
   656.2500     81.5104      0.0000    660.1337      3.5065
   656.5000     78.3788      0.0000    669.7854      3.2352
   656.7500     75.9878      0.0000    682.9084      3.0166
   657.0000     75.3193      0.0000    697.3340      2.8464
   657.2500     77.4960      0.0000    708.4466      2.7239
   657.5000     83.3089      0.0000    712.8116      2.6588
   657.7500     92.2479      0.0000    711.2285      2.6685
   658.0000    102.2878      0.0000    707.4319      2.7698
   658.2500    111.3350      0.0000    703.6357      2.9728
   658.5000    118.7783      0.0000    698.6284      3.2767
   658.7500    124.9765      0.0000    690.7875      3.6670
   659.0000    129.6794      0.0000    681.7659      4.1192
   659.2500    132.0622      0.0000    676.0909      4.6054
   659.5000    132.1993      0.0000    677.1105      5.0931
   659.7500    131.3071      0.0000    683.6603      5.5411
   660.0000    130.2635      0.0000    691.0681      5.9104
   660.2500    129.0390      0.0000    695.3285      6.1822
   660.5000    128.0362      0.0000    695.8932      6.3617
   660.7500    128.7065      0.0000    694.7189      6.4643
   661.0000    131.7100      0.0000    693.8380      6.5045
   661.2500    135.3554      0.0000    694.2946      6.4914
   661.5000    137.1411      0.0000    696.3484      6.4293
   661.7500    136.3159      0.0000    699.4935      6.3153
   662.0000    133.8164      0.0000    702.2108      6.1441
   662.2500    130.1694      0.0000    702.6116      5.9219
   662.5000    124.7530      0.0000    700.0283      5.6800
   662.7500    117.3069      0.0000    695.7540      5.4692
   663.0000    109.2846      0.0000    691.8726      5.3321
   663.2500    103.0713      0.0000    689.5827      5.2762
   663.5000    100.0376      0.0000    688.7928      5.2729
   663.7500     99.7746      0.0000    688.8347      5.2811
   664.0000    101.1399      0.0000    689.1340      5.2744
   664.2500    103.3979      0.0000    689.3789      5.2494
   664.5000    106.0314      0.0000    689.4512      5.2141
   664.7500    108.0957      0.0000    689.3562      5.1754
   665.0000    108.4915      0.0000    689.1540      5.1398
   665.2500    106.8610      0.0000    688.9000      5.1201
   665.5000    103.8351      0.0000    688.6207      5.1334
   665.7500    100.4199      0.0000    688.3307      5.1875
   666.0000     97.3777      0.0000    688.0395      5.2721
   666.2500     95.1063      0.0000    687.7382      5.3651
   666.5000     93.7352      0.0000    687.3979      5.4470
   666.7500     93.2042      0.0000    686.9950      5.5110
   667.0000     93.3450      0.0000    686.5052      5.5629
   667.2500     93.8549      0.0000    685.8289      5.6157
   667.5000     94.2413      0.0000    684.6862      5.6790
   667.7500     94.2783      0.0000    682.6965      5.7482
   668.0000     94.9664      0.0000    679.6736      5.8042
   668.2500     98.7262      0.0000    675.6252      5.8277
   668.5000    107.7954      0.0000    669.7801      5.8146
   668.7500    121.9008      0.0000    659.6129      5.7766
   669.0000    137.6878      0.0000    642.6937      5.7288
   669.2500    150.8229      0.0000    621.5009      5.6816
   669.5000    158.7738      0.0000    605.3259      5.6409
   669.7500    161.6893      0.0000    604.1342      5.6121
   670.0000    161.0690      0.0000    619.5181      5.6010
   670.2500    158.0885      0.0000    643.2789      5.6076
   670.5000    153.1400      0.0000    664.9729      5.6229
   670.7500    146.4871      0.0000    679.2578      5.6335
   671.0000    138.8536      0.0000    686.5483      5.6316
   671.2500    131.2030      0.0000    689.4836      5.6209
   671.5000    124.2042      0.0000    690.1941      5.6140
   671.7500    118.3379      0.0000    689.8068      5.6228
   672.0000    114.2966      0.0000    688.9384      5.6505
   672.2500    112.5707      0.0000    688.0919      5.6916
   672.5000    112.6409      0.0000    687.7323      5.7395
   672.7500    113.2673      0.0000    688.0486      5.7920
   673.0000    113.8058      0.0000    688.3558      5.8519
   673.2500    114.7787      0.0000    686.4541      5.9230
   673.5000    116.9745      0.0000    679.0992      6.0051
   673.7500    120.2459      0.0000    664.6631      6.0961
   674.0000    123.2515      0.0000    646.5429      6.1970
   674.2500    124.3894      0.0000    633.0368      6.3106
   674.5000    123.0442      0.0000    631.5726      6.4369
   674.7500    120.0036      0.0000    642.2957      6.5702
   675.0000    116.6690      0.0000    658.2851      6.7018
   675.2500    113.8143      0.0000    671.9244      6.8228
   675.5000    111.1146      0.0000    679.9884      6.9265
   675.7500    108.0399      0.0000    683.3979      7.0109
   676.0000    104.9780      0.0000    684.3690      7.0765
   676.2500    102.9576      0.0000    684.5640      7.1199
   676.5000    102.5338      0.0000    684.8491      7.1268
   676.7500    103.7675      0.0000    685.6470      7.0766
   677.0000    107.0319      0.0000    687.2653      6.9573
   677.2500    112.6444      0.0000    689.9909      6.7816
   677.5000    119.5788      0.0000    693.8312      6.5847
   677.7500    125.5310      0.0000    698.0100      6.4039
   678.0000    128.6640      0.0000    700.8612      6.2585
   678.2500    128.8951      0.0000    700.8784      6.1496
   678.5000    127.3801      0.0000    698.4114      6.0740
   678.7500    125.2456      0.0000    696.0208      6.0330
   679.0000    123.1463      0.0000    696.3189      6.0302
   679.2500    121.7291      0.0000    699.1589      6.0591
   679.5000    121.7546      0.0000    701.1927      6.0948
   679.7500    123.4789      0.0000    698.2495      6.0974
   680.0000    126.4630      0.0000    688.2495      6.0386
   680.2500    130.2325      0.0000    672.5599      5.9360
   680.5000    134.7017      0.0000    655.3262      5.8500
   680.7500    139.7960      0.0000    641.8075      5.8263
   681.0000    144.9494      0.0000    637.2219      5.8509
   681.2500    148.9749      0.0000    645.7571      5.8817
   681.5000    150.3712      0.0000    667.8576      5.9056
   681.7500    148.1819      0.0000    697.1498      5.9387
   682.0000    142.9817      0.0000    722.3573      5.9956
   682.2500    136.8689      2.0572    735.0782      6.0889
   682.5000    132.0926      0.0000    735.7595      6.2477
   682.7500    129.4489     -2.2609    731.5211      6.5275
   683.0000    128.0425      0.0000    729.5012      7.0061
   683.2500    126.6640      0.0000    732.6803      7.7415
   683.5000    125.0767      0.0000    739.4703      8.6850
   683.7500    123.7407      0.0000    745.5093      9.6452
   684.0000    122.8145      0.0000    747.0485     10.4061
   684.2500    122.0610      0.0000    744.0310     10.8899
   684.5000    121.6693      0.0000    739.9106     11.1699
   684.7500    122.5079      0.0000    738.3438     11.3474
