~Version Information
VERS.                      2.0: CWLS Log ASCII Standard - VERSION 2.0
WRAP.                       NO: One line per depth step
~Well Information Block
STRT.FT               -11.2500: 
STOP.FT              1597.0000: 
STEP.FT                 0.2500: 
NULL.                -999.2500: 
COMP.          Petrogulf Corporation: COMPANY
WELL.          Great Plains 22-21R: WELL
FLD.           Purgatorie River: FIELD
LOC.           73' FNL & 1992' FWL--: LOCATION
PROV.                       CO: PROVINCE
CNTY.               Las Animas: COUNTRY
SRVC.          Patterson Wireline: SERVICE COMPANY
DATE.          Fri Sep 09 09:02:35 2005: LOG DATE
UWI.           05 071 08343 00: UNIQUE WELL ID
~Curve Information Block
DEPT.FT            0 000 00 00: Depth
CCL.                          : Casing Collar Locator
TT3.usec                      : CBL 3' Travel Time
AMP3.mV                       : CBL 3' Amplitude
GR.GAPI                       : Gamma Ray
~Parameter Information Block
~A  Depth       CCL         TT3         AMP3         GR     
# ...
  1462.7500      0.0000    745.5604      8.6129    119.2497
  1463.0000      0.0000    742.7263      9.0387    123.4446
  1463.2500      0.0000    739.7953      9.5470    126.7372
  1463.5000      0.0000    737.7664     10.1055    130.4584
  1463.7500      0.0000    736.5515     10.6733    134.7352
  1464.0000      0.0000    735.3365     11.2315    137.5194
  1464.2500      0.0000    732.8422     11.7878    136.4492
  1464.5000      0.0000    727.1803     12.3610    131.2456
  1464.7500      0.0000    715.7330     12.9661    123.5359
  1465.0000      0.0000    695.2997     13.6058    115.0928
  1465.2500      0.0000    662.5506     14.2658    107.3061
  1465.5000      0.0000    615.5869     14.9069    101.6494
  1465.7500      0.0000    557.4393     15.4653     99.2605
  1466.0000      0.0000    498.9251     15.8706     99.8568
  1466.2500      0.0000    456.3831     16.0746    101.6312
  1466.5000      0.0000    444.5722     16.0628    102.6574
  1466.7500      0.0000    469.6931     15.8236    102.6026
  1467.0000      0.0000    525.7162     15.3023    102.8489
  1467.2500      0.0000    595.7028     14.4092    104.6413
  1467.5000      0.0000    659.9108     13.1108    107.5349
  1467.7500      0.0000    706.4438     11.5155    110.0461
  1468.0000      0.0000    734.9713      9.8484    111.3447
  1468.2500      0.0000    751.0149      8.3262    111.8408
  1468.5000      0.0000    758.8634      7.0550    112.5250
  1468.7500      0.0000    760.4133      6.0302    114.0347
  1469.0000      0.0000    758.1786      5.2036    115.7918
  1469.2500      0.0000    756.1962      4.5402    115.7154
  1469.5000      0.0000    757.1218      4.0298    111.5245
  1469.7500      0.0000    760.1152      3.6678    103.0830
  1470.0000      0.0000    762.5745      3.4411     93.3113
  1470.2500      0.0000    762.5866      3.3324     86.3666
  1470.5000      0.0000    758.7325      3.3278     84.7625
  1470.7500      0.0000    749.5186      3.4066     87.9160
  1471.0000      0.0000    735.1975      3.5256     93.0310
  1471.2500      0.0000    719.4017      3.6256     97.4434
  1471.5000      0.0000    707.1851      3.6623    100.5974
  1471.7500      0.0000    701.6012      3.6287    103.7856
  1472.0000      0.0000    702.7863      3.5502    107.8149
  1472.2500      0.0000    708.8262      3.4652    111.4896
  1472.5000      0.0000    716.2274      3.4065    112.8152
  1472.7500      0.0000    721.0489      3.3894    110.8623
  1473.0000      0.0000    721.3765      3.4099    105.8461
  1473.2500      0.0000    718.5126      3.4527     98.3127
  1473.5000      0.0000    715.4301      3.5057     89.1399
  1473.7500      0.0000    714.6511      3.5682     79.9475
  1474.0000      0.0000    717.7155      3.6526     72.6851
  1474.2500      0.0000    725.3132      3.7743     68.5935
  1474.5000      0.0000    736.3008      3.9389     67.8025
  1474.7500      0.0000    746.8374      4.1434     70.0049
  1475.0000      0.0000    752.4135      4.3898     75.0551
  1475.2500      0.0000    751.7988      4.6892     82.6181
  1475.5000      0.0000    748.2767      5.0454     91.8361
  1475.7500      0.0000    746.0952      5.4369    101.8015
  1476.0000      0.0000    745.9890      5.8178    111.7393
  1476.2500      0.0000    744.7355      6.1353    120.2662
  1476.5000      0.0000    739.0373      6.3503    125.3991
  1476.7500      0.0000    729.4965      6.4444    126.3310
  1477.0000      0.0000    720.6643      6.4166    124.7624
  1477.2500      0.0000    717.0634      6.2800    123.4209
  1477.5000      0.0000    719.2604      6.0639    123.2384
  1477.7500      0.0000    723.6971      5.8110    122.7589
  1478.0000      0.0000    725.5530      5.5669    120.2930
  1478.2500      0.0000    721.9034      5.3710    115.7431
  1478.5000      0.0000    713.6156      5.2511    110.1228
  1478.7500      0.0000    704.7883      5.2164    104.3521
  1479.0000      0.0000    699.6090      5.2521     99.1291
  1479.2500      0.0000    699.6103      5.3260     95.3469
  1479.5000      0.0000    704.1422      5.4053     93.8744
  1479.7500      0.0000    711.8936      5.4742     94.8423
  1480.0000      0.0000    720.1641      5.5375     97.2849
  1480.2500      0.0000    723.9762      5.6090     99.5103
  1480.5000      0.0000    719.0215      5.6962    100.1205
  1480.7500      0.0000    706.1165      5.7958     99.0995
  1481.0000      0.0000    691.3207      5.8981     97.9975
  1481.2500      0.0000    681.3493      5.9910     98.8250
  1481.5000      0.0000    679.5246      6.0617    102.4424
  1481.7500      0.0000    685.2365      6.0976    107.7605
  1482.0000      0.0000    695.3618      6.0868    112.4850
  1482.2500      0.0000    705.8571      6.0203    114.5751
  1482.5000      0.0000    713.5550      5.9032    112.9555
  1482.7500      0.0000    718.0713      5.7632    107.4854
  1483.0000      0.0000    722.2568      5.6425     99.0228
  1483.2500      0.0000    729.8800      5.5728     89.4003
  1483.5000      0.0000    742.1224      5.5535     80.7917
  1483.7500      0.0000    756.3905      5.5510     74.8102
  1484.0000      0.0000    768.5858      5.5211     71.9602
  1484.2500      0.0000    776.0601      5.4398     71.7340
  1484.5000      0.0000    778.2886      5.3198     73.2317
  1484.7500      0.0000    775.5024      5.1968     75.8265
  1485.0000      0.0000    767.6971      5.1020     79.4635
  1485.2500      0.0000    755.3920      5.0483     84.3220
  1485.5000      0.0000    741.0244      5.0383     89.9943
  1485.7500      0.0000    728.7081      5.0730     95.0095
  1486.0000      0.0000    721.8322      5.1449     97.4147
  1486.2500      0.0000    720.7527      5.2309     96.0648
  1486.5000      0.0000    723.1301      5.3026     91.4806
  1486.7500      0.0000    726.5042      5.3463     85.4717
  1487.0000      0.0000    730.0693      5.3720     79.8252
  1487.2500      0.0000    733.7661      5.4027     75.2219
  1487.5000      0.0000    736.5892      5.4558     71.4625
  1487.7500      0.0000    736.8530      5.5304     68.7761
  1488.0000      0.0000    733.9305      5.6118     68.3372
  1488.2500      0.0000    728.9129      5.6845     70.9555
  1488.5000      0.0000    723.3823      5.7405     75.7290
  1488.7500      0.0000    717.6318      5.7781     80.6411
  1489.0000      0.0000    710.2376      5.7996     84.0007
  1489.2500      0.0000    699.8976      5.8134     84.7528
  1489.5000      0.0000    687.7217      5.8321     82.1702
  1489.7500      0.0000    677.0025      5.8641     76.2617
  1490.0000      0.0000    670.8271      5.8994     68.2521
  1490.2500      0.0000    670.4245      5.9068     60.0246
  1490.5000      0.0000    675.1492      5.8488     53.0907
  1490.7500      0.0000    682.9744      5.7072     48.0951
  1491.0000      0.0000    691.5068      5.4993     44.9310
  1491.2500      0.0000    699.6375      5.2705     43.1907
  1491.5000      0.0000    707.8959      5.0683     42.6485
  1491.7500      0.0000    716.1879      4.9193     43.2904
  1492.0000      0.0000    722.1774      4.8290     44.8914
  1492.2500      0.0000    723.4827      4.8003     46.8071
  1492.5000      0.0000    720.5707      4.8520     48.2378
  1492.7500      0.0000    715.5007      5.0201     48.6555
  1493.0000      0.0000    709.0709      5.3389     48.1498
  1493.2500      0.0000    702.0213      5.8084     47.6013
  1493.5000      0.0000    697.9858      6.3612     48.4691
  1493.7500      0.0000    702.1686      6.8649     52.1284
  1494.0000      0.0000    717.4188      7.1885     58.9244
  1494.2500      0.0000    743.4603      7.2943     67.4435
  1494.5000      0.0000    778.6608      7.2575     74.7967
  1494.7500      0.0000    819.3314      7.1801     78.2536
  1495.0000      0.0000    856.6144      7.0982     77.1314
  1495.2500     -2.0000    876.9929      6.9778     73.2193
  1495.5000      0.0000    869.9610      6.7681     69.4941
  1495.7500      0.0000    836.9519      6.4473     68.4401
  1496.0000      0.0000    791.5593      6.0459     71.1175
