~Version Information
VERS.                      2.0: CWLS Log ASCII Standard - VERSION 2.0
WRAP.                       NO: One line per depth step
~Well Information Block
STRT.FT               840.0000: 
STOP.FT              2020.0000: 
STEP.FT                 0.1000: 
NULL.                -999.2500: 
COMP.          Petrogulf Corporation: COMPANY
WELL.           Lavedure 7-44R: WELL
FLD.           Purgatorie River: FIELD
LOC.           946' FSL & 521' FEL: LOCATION
PROV.                 Colorado: PROVINCE
CNTY.               Las Animas: COUNTRY
SRVC.                Patterson: SERVICE COMPANY
DATE.          Mon Sep 26 08:30:48 2005: LOG DATE
UWI.                          : UNIQUE WELL ID
~Curve Information Block
DEPT.FT            0 000 00 00: Depth
DCAL.in                       : CDL Caliper
RHOB.g/cc                     : CDL Bulk Density
RHOC.g/cc                     : CDL Density Correction
DPOR.pu                       : CDL Density Porosity
GR.GAPI                       : Gamma Ray
NPOR.pu                       : Neutron Porosity
~Parameter Information Block
~A  Depth       DCAL        RHOB        RHOC        DPOR         GR         NPOR    
# ...
  1771.2000      7.7739      2.4390      0.0682     12.7889     68.5546     19.9650
  1771.3000      7.7738      2.4555      0.1282     11.7858     69.8154     20.0049
  1771.4000      7.7738      2.4607      0.0703     11.4741     70.7487     20.2952
  1771.5000      7.7685      2.4628      0.0755     11.3480     72.3470     20.5100
  1771.6000      7.7685      2.4715      0.0897     10.8175     72.3686     20.2611
  1771.7000      7.7685      2.4829      0.0731     10.1252     69.5351     19.3884
  1771.8000      7.7669      2.4900      0.0863      9.6966     68.0831     18.2309
  1771.9000      7.7669      2.4928      0.0544      9.5251     71.1538     17.3828
  1772.0000      7.7870      2.4961      0.0493      9.3252     76.8117     16.9275
  1772.1000      7.7870      2.4962      0.0715      9.3229     83.6189     16.5397
  1772.2000      7.7870      2.4875      0.0378      9.8468     91.2288     16.1761
  1772.3000      7.8217      2.4778      0.0324     10.4357     97.8907     16.1286
  1772.4000      7.8217      2.4738      0.0311     10.6816    102.0667     16.4108
  1772.5000      7.8562      2.4744      0.0112     10.6438    105.2500     16.8785
  1772.6000      7.8562      2.4821      0.0135     10.1739    110.0093     17.6704
  1772.7000      7.8562      2.4955      0.0228      9.3621    115.6093     18.7235
  1772.8000      7.8939      2.5070      0.0232      8.6644    120.2846     19.5856
  1772.9000      7.8939      2.5124      0.0394      8.3398    124.6093     20.0869
  1773.0000      7.8839      2.5133      0.0454      8.2837    129.7458     20.4897
  1773.1000      7.8839      2.5151      0.0683      8.1782    136.1974     21.1812
  1773.2000      7.8839      2.5238      0.0715      7.6459    142.0994     22.0732
  1773.3000      7.8233      2.5444      0.0578      6.4014    142.6889     22.5005
  1773.4000      7.8233      2.5732      0.1172      4.6550    138.0003     22.4177
  1773.5000      7.7854      2.5998      0.1269      3.0412    134.9046     22.4380
  1773.6000      7.7854      2.6143      0.1428      2.1654    135.5874     22.6004
  1773.7000      7.7854      2.6132      0.1392      2.2284    135.4494     22.5606
  1773.8000      7.7594      2.6087      0.1610      2.5010    132.0154     22.2961
  1773.9000      7.7594      2.6119      0.2218      2.3091    126.1438     21.9267
  1774.0000      7.7231      2.6206      0.1610      1.7790    121.1105     21.4294
  1774.1000      7.7231      2.6338      0.1574      0.9813    120.5520     20.8768
  1774.2000      7.7231      2.6467      0.1353      0.2006    123.3259     20.5304
  1774.3000      7.7281      2.6522      0.1298     -0.1347    123.9521     20.5690
  1774.4000      7.7281      2.6434      0.1000      0.3983    118.5680     20.8677
  1774.5000      7.7819      2.6179      0.0382      1.9433    110.6883     21.0321
  1774.6000      7.7819      2.5903      0.0199      3.6170    107.9583     20.8985
  1774.7000      7.7819      2.5732      0.0303      4.6552    110.0655     20.6966
  1774.8000      7.7730      2.5640      0.0414      5.2123    109.8799     20.5347
  1774.9000      7.7730      2.5584      0.0305      5.5514    106.6479     20.3113
  1775.0000      7.7816      2.5554      0.0124      5.7337    104.6013     19.9211
  1775.1000      7.7816      2.5549      0.0159      5.7628    104.7448     19.4691
  1775.2000      7.7816      2.5593      0.0204      5.4941    107.3163     19.0661
  1775.3000      7.8032      2.5685      0.0564      4.9423    111.4693     18.7643
  1775.4000      7.8032      2.5718      0.0953      4.7379    113.4073     18.7947
  1775.5000      7.8061      2.5641      0.0976      5.2063    111.7870     19.1577
  1775.6000      7.8061      2.5623      0.0603      5.3178    109.1965     19.5471
  1775.7000      7.8061      2.5863      0.0795      3.8603    110.1503     19.7186
  1775.8000      7.7582      2.6222      0.1571      1.6854    115.7382     19.6902
  1775.9000      7.7582      2.6333      0.1520      1.0117    120.2098     19.9861
  1776.0000      7.7128      2.6154      0.0994      2.0961    120.0736     20.7842
  1776.1000      7.7128      2.6000      0.1050      3.0304    117.6628     21.4412
  1776.2000      7.7128      2.6077      0.1080      2.5610    115.5710     21.6402
  1776.3000      7.7072      2.6261      0.1225      1.4474    114.4824     21.5583
  1776.4000      7.7072      2.6291      0.1319      1.2669    113.4504     21.3422
  1776.5000      7.7212      2.6181      0.0758      1.9336    113.0671     21.2688
  1776.6000      7.7212      2.6174      0.0778      1.9733    114.7728     21.5696
  1776.7000      7.7212      2.6325      0.0888      1.0583    116.8151     22.1048
  1776.8000      7.7313      2.6507      0.1023     -0.0427    118.2141     22.4954
  1776.9000      7.7313      2.6623      0.1410     -0.7455    119.2675     22.3079
  1777.0000      7.7493      2.6596      0.1419     -0.5845    118.5479     21.4628
  1777.1000      7.7493      2.6362      0.1109      0.8362    116.6495     20.6179
  1777.2000      7.7493      2.6010      0.0572      2.9677    115.6292     20.5254
  1777.3000      7.7644      2.5741      0.0580      4.5972    114.6244     21.1072
  1777.4000      7.7644      2.5680      0.0434      4.9709    112.9109     21.6492
  1777.5000      7.7722      2.5805      0.0675      4.2126    112.8210     21.7244
  1777.6000      7.7722      2.5955      0.0726      3.3010    116.2459     21.8175
  1777.7000      7.7722      2.6025      0.0531      2.8793    122.1631     22.4777
  1777.8000      7.7892      2.6073      0.0777      2.5874    125.5323     23.3007
  1777.9000      7.7892      2.6131      0.0833      2.2345    122.9480     23.6126
  1778.0000      7.8047      2.6128      0.0730      2.2564    119.6455     23.3701
  1778.1000      7.8047      2.6038      0.0403      2.7973    119.9573     22.9400
  1778.2000      7.8047      2.5883      0.0807      3.7423    122.0324     22.6028
  1778.3000      7.7967      2.5671      0.0298      5.0221    124.1520     22.3713
  1778.4000      7.7967      2.5527      0.0561      5.8946    127.0774     22.1541
  1778.5000      7.7750      2.5533      0.0696      5.8610    133.4217     22.0245
  1778.6000      7.7750      2.5656      0.0349      5.1175    139.8644     22.2475
  1778.7000      7.7750      2.5913      0.0661      3.5596    140.8090     22.8595
  1778.8000      7.7618      2.6313      0.0811      1.1344    138.3411     23.5042
  1778.9000      7.7618      2.6740      0.1271     -1.4568    136.5783     23.7754
  1779.0000      7.7434      2.7015      0.1415     -3.1193    139.1961     23.7615
  1779.1000      7.7434      2.7068      0.1493     -3.4410    147.7557     23.7698
  1779.2000      7.7434      2.6967      0.1875     -2.8302    155.2792     23.8816
  1779.3000      7.7348      2.6730      0.2114     -1.3923    156.0621     24.1266
  1779.4000      7.7348      2.6368      0.0755      0.7983    154.8070     24.2931
  1779.5000      7.7319      2.6066      0.0175      2.6303    156.1918     23.8895
  1779.6000      7.7319      2.5916      0.0601      3.5374    157.6055     22.8871
  1779.7000      7.7319      2.5843      0.0096      3.9843    156.0473     22.1664
  1779.8000      7.7851      2.5884      0.0156      3.7349    153.1801     22.3702
  1779.9000      7.7851      2.6079      0.0675      2.5545    151.8136     23.2166
  1780.0000      7.8025      2.6277      0.0623      1.3493    152.1219     24.1097
  1780.1000      7.8025      2.6309      0.0706      1.1604    151.8252     24.4480
  1780.2000      7.8025      2.6156      0.0112      2.0821    148.2052     23.9931
  1780.3000      7.7922      2.5983      0.0018      3.1335    141.9771     23.1244
  1780.4000      7.7922      2.5927      0.0144      3.4717    137.6814     22.2825
  1780.5000      7.8144      2.5911      0.0439      3.5669    139.7865     21.5723
  1780.6000      7.8144      2.5779      0.0478      4.3712    146.9552     21.1313
  1780.7000      7.8144      2.5584      0.0087      5.5510    152.9487     21.0689
