~Version Information
VERS.                      2.0: CWLS Log ASCII Standard - VERSION 2.0
WRAP.                       NO: One line per depth step
~Well Information Block
STRT.FT               456.0000: 
STOP.FT              1700.7000: 
STEP.FT                 0.1000: 
NULL.                -999.2500: 
COMP.          Pioneer Natural Resources: COMPANY
WELL.                Mead 11-9: WELL
FLD.           Purgatoire River: FIELD
LOC.           1127' FNL & 668' FWL: LOCATION
PROV.                 Colorado: PROVINCE
CNTY.               Las Animas: COUNTRY
SRVC.                Patterson: SERVICE COMPANY
DATE.          Sat Feb 19 09:18:18 2005: LOG DATE
UWI.           05 071 08160 00: UNIQUE WELL ID
~Curve Information Block
DEPT.FT            0 000 00 00: Depth
DCAL.in                       : CDL Caliper
RHOB.g/cc                     : CDL Bulk Density
RHOC.g/cc                     : CDL Density Correction
DPOR.pu                       : CDL Density Porosity
GR.GAPI                       : Gamma Ray
NPOR.pu                       : Neutron Porosity
~Parameter Information Block
~A  Depth       DCAL        RHOB        RHOC        DPOR         GR         NPOR    
# ...
  1108.8000      7.9022      2.4977      0.0373      9.2294     67.3967     19.8466
  1108.9000      7.9022      2.5068      0.0962      8.6773     70.0478     19.5840
  1109.0000      7.9001      2.5025      0.0696      8.9420     69.0734     19.6763
  1109.1000      7.9001      2.4934      0.0221      9.4921     66.0709     19.8163
  1109.2000      7.9001      2.4904      0.0792      9.6707     62.9794     19.9009
  1109.3000      7.8905      2.4938      0.0849      9.4666     61.0123     19.9979
  1109.4000      7.8905      2.5027      0.0876      8.9251     61.9853     19.9534
  1109.5000      7.8838      2.5137      0.0883      8.2614     64.6791     19.6423
  1109.6000      7.8838      2.5190      0.0864      7.9398     65.0273     19.4080
  1109.7000      7.8838      2.5151      0.0682      8.1729     65.4269     19.4955
  1109.8000      7.8900      2.5118      0.0228      8.3770     68.2861     19.6576
  1109.9000      7.8900      2.5165      0.0215      8.0936     68.7174     19.5856
  1110.0000      7.9030      2.5159      0.0539      8.1256     66.1363     19.4418
  1110.1000      7.9030      2.4953      0.0036      9.3729     64.7876     19.6832
  1110.2000      7.9030      2.4572      0.0205     11.6858     65.3049     20.6068
  1110.3000      7.9088      2.4103      0.0257     14.5258     66.2292     22.0200
  1110.4000      7.9088      2.3675     -0.0056     17.1217     69.3515     23.3576
  1110.5000      7.9076      2.3523     -0.0274     18.0448     74.0541     24.2592
  1110.6000      7.9076      2.3775      0.0256     16.5124     75.8363     24.8563
  1110.7000      7.9076      2.4251      0.0382     13.6313     75.3911     25.4430
  1110.8000      7.9035      2.4653      0.0949     11.1921     76.6416     25.7909
  1110.9000      7.9035      2.4855      0.1277      9.9721     82.8469     25.8279
  1111.0000      7.9011      2.4987      0.1597      9.1710     94.6537     26.1826
  1111.1000      7.9011      2.5201      0.2441      7.8731    109.8398     26.9716
  1111.2000      7.9011      2.5396      0.2423      6.6938    124.6754     27.5917
  1111.3000      7.9237      2.5395      0.1917      6.6975    136.4272     27.8321
  1111.4000      7.9237      2.5208      0.1764      7.8282    147.7032     28.0444
  1111.5000      7.9915      2.4978      0.1102      9.2254    160.0889     28.4482
  1111.6000      7.9915      2.4781      0.0800     10.4196    166.7961     28.7994
  1111.7000      7.9915      2.4638      0.0963     11.2827    163.8871     28.8796
  1111.8000      8.0558      2.4661      0.0392     11.1427    158.6655     28.8154
  1111.9000      8.0558      2.4848      0.1191     10.0100    156.2932     28.7112
  1112.0000      8.0544      2.4953      0.1373      9.3740    153.2000     28.5086
  1112.1000      8.0544      2.4907      0.0905      9.6552    150.3403     28.2734
  1112.2000      8.0544      2.4849      0.1760     10.0069    152.8578     28.4410
  1112.3000      8.0369      2.4790      0.1346     10.3615    159.0459     29.2715
  1112.4000      8.0369      2.4729      0.1395     10.7362    164.2632     30.1060
  1112.5000      8.0378      2.4746      0.1190     10.6322    166.7944     30.1772
  1112.6000      8.0378      2.4876      0.0907      9.8430    166.4643     29.7095
  1112.7000      8.0378      2.5083      0.1068      8.5884    166.4258     29.0331
  1112.8000      8.0299      2.5366      0.0926      6.8734    167.5832     28.4226
  1112.9000      8.0299      2.5687      0.1643      4.9252    164.2287     28.2707
  1113.0000      8.0193      2.5870      0.1819      3.8183    155.1485     28.1774
  1113.1000      8.0193      2.5772      0.1906      4.4151    149.7028     27.9807
  1113.2000      8.0193      2.5488      0.0852      6.1355    151.1663     28.0109
  1113.3000      8.0357      2.5268      0.1112      7.4651    151.7449     27.9233
  1113.4000      8.0357      2.5161      0.0976      8.1140    147.7541     27.4153
  1113.5000      8.0631      2.5132      0.0397      8.2926    141.5742     27.1520
  1113.6000      8.0631      2.5198      0.0568      7.8926    138.4115     27.6507
  1113.7000      8.0631      2.5214      0.0796      7.7947    143.5195     28.3072
  1113.8000      8.0766      2.5072      0.0278      8.6556    153.0535     28.1798
  1113.9000      8.0766      2.4929      0.0402      9.5209    157.3879     27.1909
  1114.0000      8.0527      2.4887      0.0630      9.7760    157.0008     26.2216
  1114.1000      8.0527      2.4923      0.0596      9.5563    158.4655     25.8510
  1114.2000      8.0527      2.5045      0.0748      8.8152    161.0463     25.7954
  1114.3000      8.0008      2.5221      0.0972      7.7523    161.5074     26.0112
  1114.4000      8.0008      2.5423      0.0424      6.5265    159.4304     26.5770
  1114.5000      7.9735      2.5694      0.0534      4.8874    156.5349     27.0272
  1114.6000      7.9735      2.5955      0.1479      3.3032    155.6230     27.0445
  1114.7000      7.9735      2.6099      0.0851      2.4306    156.4117     26.9521
  1114.8000      7.9761      2.6179      0.0897      1.9428    157.1753     26.8268
  1114.9000      7.9761      2.6160      0.0943      2.0596    156.7696     26.4753
  1115.0000      7.9819      2.5984      0.0526      3.1254    154.3736     26.2463
  1115.1000      7.9819      2.5816      0.0596      4.1456    151.9832     26.2471
  1115.2000      7.9819      2.5746      0.0632      4.5675    150.9029     26.2605
  1115.3000      7.9890      2.5652      0.0676      5.1388    149.2814     26.2593
  1115.4000      7.9890      2.5468      0.0431      6.2527    149.3095     26.1054
  1115.5000      8.0066      2.5251      0.0579      7.5708    152.6330     25.8110
  1115.6000      8.0066      2.5063      0.0103      8.7069    153.0273     25.4484
  1115.7000      8.0066      2.4938      0.0291      9.4680    146.3848     24.6533
  1115.8000      8.0203      2.4892      0.0287      9.7430    139.9298     23.6116
  1115.9000      8.0203      2.4990      0.0272      9.1491    141.6488     23.0977
  1116.0000      7.9990      2.5260      0.0581      7.5127    146.4595     23.1939
  1116.1000      7.9990      2.5635      0.0723      5.2429    145.6101     23.4245
  1116.2000      7.9990      2.5978      0.1053      3.1656    142.7939     23.3932
  1116.3000      7.9675      2.6131      0.1124      2.2380    143.7534     22.9470
  1116.4000      7.9675      2.6081      0.0833      2.5422    142.9546     22.2302
  1116.5000      7.9418      2.5974      0.1246      3.1866    136.0016     21.3642
  1116.6000      7.9418      2.5904      0.1246      3.6104    129.1315     20.5416
  1116.7000      7.9418      2.5897      0.0629      3.6551    127.3323     20.2730
  1116.8000      7.9100      2.5884      0.1037      3.7347    125.6538     20.7627
  1116.9000      7.9100      2.5785      0.0446      4.3315    122.7603     21.5764
  1117.0000      7.8921      2.5697      0.0420      4.8664    124.8628     22.0907
  1117.1000      7.8921      2.5649     -0.0016      5.1570    129.4450     21.7070
  1117.2000      7.8921      2.5516      0.0307      5.9640    129.6838     20.7056
  1117.3000      7.9086      2.5325      0.0433      7.1203    126.7845     20.0090
  1117.4000      7.9086      2.5298      0.0145      7.2849    122.8942     19.9418
  1117.5000      7.9282      2.5466      0.0777      6.2650    120.2529     20.4031
  1117.6000      7.9282      2.5622      0.0689      5.3235    121.8477     20.8240
  1117.7000      7.9282      2.5720      0.0334      4.7266    127.0901     20.6690
  1117.8000      7.9227      2.5789      0.1009      4.3120    130.7829     20.6447
  1117.9000      7.9227      2.5714      0.0647      4.7644    128.0325     21.2354
  1118.0000      7.9017      2.5579      0.0667      5.5838    119.8709     21.5883
  1118.1000      7.9017      2.5609      0.0136      5.3980    112.9813     21.3240
  1118.2000      7.9017      2.5786      0.0870      4.3253    113.2080     20.9214
  1118.3000      7.8829      2.5871      0.0809      3.8145    116.9780     20.7643
