~Version Information
VERS.                      2.0: CWLS Log ASCII Standard - VERSION 2.0
WRAP.                       NO: One line per depth step
~Well Information Block
STRT.FT               954.0000: 
STOP.FT              2517.0000: 
STEP.FT                 0.2500: 
NULL.                -999.2500: 
COMP.          Petrogulf Corporation: COMPANY
WELL.             Royal 8-33 V: WELL
FLD.           Purgatoire River: FIELD
LOC.           2365' FSL & 2336' FEL: LOCATION
PROV.                 Colorado: PROVINCE
CNTY.               Las Animas: COUNTRY
SRVC.                Patterson: SERVICE COMPANY
DATE.          Fri Dec 05 04:39:41 2003: LOG DATE
UWI.                          : UNIQUE WELL ID
~Curve Information Block
DEPT.FT            0 000 00 00: Depth
SP.mV                         : DIL Spontaneous Potential
RILD.Ohm-m                    : DIL Deep Resistivity
RILM.Ohm-m                    : DIL Medium Resistivity
RLL3.Ohm-m                    : DIL Shallow Resistivity
GR.GAPI                       : Gamma Ray
~Parameter Information Block
~A  Depth        SP         RILD        RILM        RLL3         GR     
# ...
  1374.0000   -384.0861      7.3612      9.1204      9.8621    138.4601
  1374.2500   -384.3403      7.3687      9.1863     10.0174    137.0683
  1374.5000   -384.4073      7.3886      9.2598     10.2564    134.5583
  1374.7500   -384.1511      7.4184      9.3390     10.5068    133.2662
  1375.0000   -383.5253      7.4522      9.4192     10.7064    132.6784
  1375.2500   -382.5917      7.4852      9.4927     10.8297    132.9263
  1375.5000   -381.4772      7.5154      9.5501     10.8822    133.2097
  1375.7500   -380.3198      7.5434      9.5838     10.8821    133.1378
  1376.0000   -379.2383      7.5692      9.5917     10.8454    133.1939
  1376.2500   -378.3188      7.5905      9.5776     10.7788    133.5405
  1376.5000   -377.5981      7.6038      9.5492     10.6831    133.6581
  1376.7500   -377.0441      7.6074      9.5128     10.5744    132.5575
  1377.0000   -376.5616      7.6043      9.4703     10.5014    128.6157
  1377.2500   -376.0340      7.6013      9.4174     10.5241    125.2995
  1377.5000   -375.3749      7.6045      9.3475     10.6641    121.5452
  1377.7500   -374.5475      7.6149      9.2575     10.8884    120.5224
  1378.0000   -373.5509      7.6302      9.1523     11.1444    120.7331
  1378.2500   -372.4058      7.6512      9.0469     11.3807    121.4951
  1378.5000   -371.1565      7.6856      8.9629     11.5170    123.3269
  1378.7500   -369.8758      7.7454      8.9237     11.4520    125.1647
  1379.0000   -368.6639      7.8394      8.9502     11.1660    128.7881
  1379.2500   -367.6460      7.9661      9.0596     10.7977    131.2454
  1379.5000   -366.9653      8.1131      9.2658     10.5927    133.3659
  1379.7500   -366.7634      8.2612      9.5789     10.8376    132.8530
  1380.0000   -367.1472      8.3932     10.0010     11.9058    128.8700
  1380.2500   -368.1503      8.5015     10.5181     14.2613    124.6881
  1380.5000   -369.6991      8.5915     11.0919     18.1267    117.5538
  1380.7500   -371.6068      8.6774     11.6573     22.8965    112.7500
  1381.0000   -373.6064      8.7749     12.1343     26.9721    106.0293
  1381.2500   -375.4196      8.8942     12.4575     28.5942    102.4092
  1381.5000   -376.8338      9.0386     12.6070     27.1396     99.6258
  1381.7500   -377.7585      9.2047     12.6162     23.5650    100.2118
  1382.0000   -378.2297      9.3828     12.5504     19.5568    104.8937
  1382.2500   -378.3643      9.5559     12.4736     16.3764    109.8016
  1382.5000   -378.2923      9.7004     12.4246     14.4362    117.4918
  1382.7500   -378.1046      9.7922     12.4100     13.5770    121.4894
  1383.0000   -377.8358      9.8166     12.4092     13.4616    124.8916
  1383.2500   -377.4749      9.7765     12.3862     13.7722    126.0600
  1383.5000   -376.9877      9.6912     12.3071     14.2498    128.3004
  1383.7500   -376.3341      9.5888     12.1560     14.6766    130.9005
  1384.0000   -375.4824      9.4968     11.9428     14.8677    135.8365
  1384.2500   -374.4318      9.4381     11.6982     14.7025    138.8446
  1384.5000   -373.2389      9.4298     11.4627     14.1776    141.8082
  1384.7500   -372.0287      9.4828     11.2762     13.4333    142.4806
  1385.0000   -370.9645      9.6020     11.1712     12.7146    141.0582
  1385.2500   -370.1787      9.7876     11.1712     12.2863    138.4377
  1385.5000   -369.7062     10.0373     11.2905     12.3502    133.3374
  1385.7500   -369.4774     10.3490     11.5383     12.9808    130.5611
  1386.0000   -369.3701     10.7210     11.9248     14.0764    129.0584
  1386.2500   -369.2581     11.1518     12.4653     15.3865    129.7962
  1386.5000   -369.0165     11.6408     13.1800     16.7050    131.8163
  1386.7500   -368.5419     12.1926     14.0887     18.1539    132.2785
  1387.0000   -367.8213     12.8205     15.2051     20.2619    129.4006
  1387.2500   -366.9734     13.5431     16.5313     23.6302    124.6583
  1387.5000   -366.1855     14.3750     18.0517     28.4168    114.5038
  1387.7500   -365.6036     15.3154     19.7263     34.1380    107.1390
  1388.0000   -365.2780     16.3454     21.4901     39.9390     97.7185
  1388.2500   -365.1809     17.4399     23.2652     44.9446     93.4071
  1388.5000   -365.2488     18.5863     24.9837     48.3731     89.5659
  1388.7500   -365.4201     19.7937     26.6057     49.6199     87.6059
  1389.0000   -365.6605     21.0790     28.1219     48.5311     83.5389
  1389.2500   -365.9641     22.4388     29.5390     45.6257     79.6790
  1389.5000   -366.3219     23.8286     30.8605     41.9407     72.8660
  1389.7500   -366.6862     25.1621     32.0702     38.5664     68.2955
  1390.0000   -366.9693     26.3321     33.1283     36.2086     62.1158
  1390.2500   -367.0795     27.2439     33.9788     35.0227     58.5902
  1390.5000   -366.9565     27.8507     34.5642     34.7223     54.4047
  1390.7500   -366.5816     28.1778     34.8459     34.8329     52.6556
  1391.0000   -365.9892     28.3249     34.8414     34.9575     52.1037
  1391.2500   -365.2918     28.4423     34.6549     34.9332     52.9421
  1391.5000   -364.6584     28.6857     34.4631     34.8052     54.6187
  1391.7500   -364.2168     29.1614     34.4328     34.6854     55.0479
  1392.0000   -363.9623     29.8788     34.6284     34.6604     53.9694
  1392.2500   -363.7620     30.7297     34.9822     34.8155     52.4542
  1392.5000   -363.4371     31.5283     35.3649     35.2733     50.1958
  1392.7500   -362.8470     32.1123     35.7092     36.1392     49.3064
  1393.0000   -361.9277     32.4359     36.0755     37.3930     49.2488
  1393.2500   -360.6861     32.5673     36.5876     38.8382     49.7523
  1393.5000   -359.1781     32.6084     37.3027     40.1571     50.2520
  1393.7500   -357.4963     32.6283     38.1394     41.0120     49.9545
  1394.0000   -355.7763     32.6615     38.9191     41.1265     48.7117
  1394.2500   -354.1949     32.7403     39.4827     40.3580     47.8725
  1394.5000   -352.9120     32.9104     39.7780     38.7873     47.4154
  1394.7500   -351.9693     33.2087     39.8516     36.7540     47.7709
  1395.0000   -351.2585     33.6220     39.7840     34.7443     49.1067
  1395.2500   -350.6195     34.0640     39.6392     33.1748     50.4239
  1395.5000   -349.9665     34.4033     39.4569     32.2271     52.7229
  1395.7500   -349.3143     34.5342     39.2662     31.8415     54.0292
  1396.0000   -348.7195     34.4408     39.0956     31.8341     54.8404
  1396.2500   -348.2256     34.1957     38.9682     32.0223     54.5555
  1396.5000   -347.8490     33.9069     38.8920     32.2840     53.5341
  1396.7500   -347.5847     33.6647     38.8543     32.5555     52.8063
  1397.0000   -347.4190     33.5214     38.8326     32.8185     51.6412
  1397.2500   -347.3533     33.4915     38.8143     33.0946     50.6657
  1397.5000   -347.4246     33.5566     38.8095     33.4233     49.0162
  1397.7500   -347.7000     33.6720     38.8436     33.8069     48.1208
  1398.0000   -348.2387     33.7859     38.9315     34.1739     47.6594
  1398.2500   -349.0454     33.8620     39.0518     34.4062     48.0449
  1398.5000   -350.0418     33.8913     39.1436     34.4128     49.4426
  1398.7500   -351.0734     33.8787     39.1391     34.1936     50.7583
  1399.0000   -351.9501     33.8243     39.0105     33.8519     53.1212
  1399.2500   -352.5072     33.7215     38.7895     33.5449     54.7895
  1399.5000   -352.6561     33.5758     38.5411     33.3925     57.0044
  1399.7500   -352.4040     33.4200     38.3230     33.3962     58.0779
  1400.0000   -351.8370     33.3037     38.1652     33.4354     58.8992
  1400.2500   -351.0784     33.2638     38.0705     33.3649     58.8974
  1400.5000   -350.2395     33.2989     38.0198     33.1499     58.1633
  1400.7500   -349.3826     33.3706     37.9791     32.9077     57.2789
  1401.0000   -348.5068     33.4295     37.9207     32.8008     55.4309
  1401.2500   -347.5657     33.4498     37.8491     32.8900     53.8690
  1401.5000   -346.5097     33.4473     37.8067     33.0928     51.3647
  1401.7500   -345.3243     33.4657     37.8482     33.2706     50.1260
