~Version Information
VERS.                      2.0: CWLS Log ASCII Standard - VERSION 2.0
WRAP.                       NO: One line per depth step
~Well Information Block
STRT.FT               240.0000: 
STOP.FT              1452.5000: 
STEP.FT                 0.1000: 
NULL.                -999.2500: 
COMP.          Petrogulf Corporation: COMPANY
WELL.          Robinson 15-12R: WELL
FLD.           Purgatorie River: FIELD
LOC.           1752' FNL & 561' FWL: LOCATION
PROV.                 Colorado: PROVINCE
CNTY.               Las Animas: COUNTRY
SRVC.                Patterson: SERVICE COMPANY
DATE.          Tue Sep 13 15:07:52 2005: LOG DATE
UWI.                          : UNIQUE WELL ID
~Curve Information Block
DEPT.FT            0 000 00 00: Depth
DCAL.in                       : CDL Caliper
RHOB.g/cc                     : CDL Bulk Density
RHOC.g/cc                     : CDL Density Correction
DPOR.pu                       : CDL Density Porosity
GR.GAPI                       : Gamma Ray
NPOR.pu                       : Neutron Porosity
~Parameter Information Block
~A  Depth       DCAL        RHOB        RHOC        DPOR         GR         NPOR    
# ...
   643.2000      8.0125      2.5484      0.0114      6.1604    138.9139     24.3133
   643.3000      8.0359      2.5514      0.0673      5.9783    141.5817     24.3774
   643.4000      8.0359      2.5446      0.0261      6.3855    139.5432     24.6526
   643.5000      8.0405      2.5321      0.0319      7.1459    133.5140     24.7871
   643.6000      8.0405      2.5236      0.0085      7.6582    129.7845     24.7096
   643.7000      8.0405      2.5225      0.0179      7.7255    130.7542     24.8992
   643.8000      8.0514      2.5319      0.0214      7.1567    131.7980     25.4359
   643.9000      8.0514      2.5486      0.0911      6.1459    131.8971     25.8535
   644.0000      8.0576      2.5582      0.0878      5.5609    133.1134     25.8487
   644.1000      8.0576      2.5544      0.0621      5.7940    135.4816     25.6508
   644.2000      8.0576      2.5451      0.0736      6.3560    137.7794     25.5944
   644.3000      8.0634      2.5411      0.0117      6.5996    138.1840     25.6936
   644.4000      8.0634      2.5435      0.0522      6.4522    136.6073     25.8670
   644.5000      8.0684      2.5449      0.0287      6.3719    133.9416     26.0092
   644.6000      8.0684      2.5460      0.0262      6.3028    131.6933     26.2656
   644.7000      8.0684      2.5533      0.0202      5.8584    131.4648     26.7131
   644.8000      8.0974      2.5644      0.0328      5.1857    133.8503     26.9238
   644.9000      8.0974      2.5715      0.0114      4.7549    138.9002     26.6252
   645.0000      8.0783      2.5747      0.0443      4.5616    143.4260     26.1802
   645.1000      8.0783      2.5811      0.0367      4.1761    145.2656     26.0651
   645.2000      8.0783      2.5926      0.0616      3.4811    145.9291     26.2075
   645.3000      8.0708      2.6038      0.0907      2.7995    148.2349     26.2855
   645.4000      8.0708      2.6081      0.0772      2.5423    152.2091     26.4675
   645.5000      8.0759      2.5959      0.1009      3.2771    151.6631     26.9361
   645.6000      8.0759      2.5680      0.0522      4.9695    146.1349     27.4426
   645.7000      8.0759      2.5473      0.0335      6.2221    145.2108     27.7127
   645.8000      8.0831      2.5526      0.0209      5.9043    150.5798     27.6712
   645.9000      8.0831      2.5711      0.0597      4.7823    150.8775     27.6104
   646.0000      8.0928      2.5749      0.0649      4.5521    142.0291     27.7495
   646.1000      8.0928      2.5579      0.0404      5.5838    134.3362     27.8726
   646.2000      8.0928      2.5442     -0.0138      6.4136    133.8810     27.6426
   646.3000      8.0885      2.5478      0.0677      6.1936    135.6480     27.2079
   646.4000      8.0885      2.5518      0.0800      5.9545    136.2042     27.1804
   646.5000      8.0632      2.5494      0.0379      6.0959    137.3864     27.5927
   646.6000      8.0632      2.5533      0.0482      5.8599    138.6736     27.9320
   646.7000      8.0632      2.5642      0.0531      5.1984    137.4939     28.1903
   646.8000      8.0686      2.5689      0.0820      4.9176    134.8899     28.3185
   646.9000      8.0686      2.5606      0.0718      5.4158    132.6276     27.8707
   647.0000      8.0952      2.5500      0.0376      6.0601    129.7025     26.9293
   647.1000      8.0952      2.5466      0.0411      6.2648    127.1280     26.0994
   647.2000      8.0952      2.5473      0.0300      6.2248    126.1484     25.7205
   647.3000      8.1400      2.5528      0.0173      5.8925    126.6025     25.4802
   647.4000      8.1400      2.5586      0.0726      5.5417    129.1577     25.1393
   647.5000      8.1239      2.5447      0.0399      6.3808    131.6463     25.1221
   647.6000      8.1239      2.5150      0.0165      8.1797    130.1910     25.5114
   647.7000      8.1239      2.4983      0.0406      9.1924    124.3111     25.8767
   647.8000      8.1373      2.5022      0.0529      8.9582    117.6879     26.0722
   647.9000      8.1373      2.5143      0.0625      8.2265    117.4205     26.0139
   648.0000      8.1271      2.5258      0.0690      7.5296    127.7315     25.8892
   648.1000      8.1271      2.5324      0.0999      7.1271    143.9275     26.1652
   648.2000      8.1271      2.5364      0.0864      6.8839    156.0660     26.8192
   648.3000      8.1314      2.5416      0.0780      6.5693    160.5910     27.4475
   648.4000      8.1314      2.5448      0.1078      6.3787    161.1752     27.7917
   648.5000      8.1399      2.5471      0.0744      6.2375    160.3810     27.9406
   648.6000      8.1399      2.5526      0.0902      5.9045    158.0841     28.0577
   648.7000      8.1399      2.5549      0.1259      5.7646    154.3822     28.2774
   648.8000      8.1439      2.5534      0.0602      5.8527    151.3555     28.6145
   648.9000      8.1439      2.5547      0.0831      5.7769    152.0802     28.8904
   649.0000      8.1355      2.5502      0.0784      6.0502    156.2176     28.8582
   649.1000      8.1355      2.5326      0.0149      7.1150    158.2868     28.2524
   649.2000      8.1355      2.5084      0.0409      8.5813    154.2262     27.4830
   649.3000      8.1306      2.4861     -0.0060      9.9337    147.3064     27.1455
   649.4000      8.1306      2.4752      0.0413     10.5950    145.1272     27.1625
   649.5000      8.1434      2.4773      0.0096     10.4650    149.5210     27.3535
   649.6000      8.1434      2.4753      0.0823     10.5902    155.0289     27.6239
   649.7000      8.1434      2.4514      0.0045     12.0369    155.2809     27.7834
   649.8000      8.1748      2.4150     -0.0065     14.2412    151.3067     27.7224
   649.9000      8.1748      2.3842     -0.0058     16.1107    149.2040     27.5832
   650.0000      8.2324      2.3630      0.0333     17.3912    148.4345     27.5022
   650.1000      8.2324      2.3495      0.0346     18.2110    146.1494     27.3865
   650.2000      8.2324      2.3425      0.0742     18.6386    141.9244     27.3792
   650.3000      8.2565      2.3315      0.1000     19.3012    134.7597     27.7114
   650.4000      8.2565      2.2951      0.1199     21.5092    126.1635     28.2246
   650.5000      8.3484      2.2192      0.0677     26.1089    120.0202     28.7593
   650.6000      8.3484      2.1110      0.0486     32.6688    114.9377     29.4805
   650.7000      8.3484      1.9938      0.0080     39.7701    107.9849     30.4694
   650.8000      8.3969      1.8809      0.0142     46.6151    100.6119     31.3371
   650.9000      8.3969      1.7546      0.0046     54.2658     92.5736     31.5955
   651.0000      8.4075      1.6117     -0.1541     62.9248     82.4702     31.3732
   651.1000      8.4075      1.4844     -0.1698     70.6424     71.9291     31.2337
   651.2000      8.4075      1.3843     -0.1124     76.7106     62.3429     31.6680
   651.3000      8.6137      1.3022     -0.0858     81.6875     54.6855     32.5846
   651.4000      8.6137      1.2433     -0.0192     85.2564     50.4681     33.4289
   651.5000      8.9075      1.2132     -0.0458     87.0786     48.6226     33.9828
   651.6000      8.9075      1.2113     -0.0292     87.1958     47.3915     34.3107
   651.7000      8.9075      1.2330      0.0217     85.8764     47.1264     34.5063
   651.8000      9.1427      1.2655      0.0420     83.9096     47.9858     34.7940
   651.9000      9.1427      1.2997      0.0537     81.8362     49.4604     35.1110
   652.0000      9.1257      1.3418      0.0454     79.2848     49.8130     35.0081
   652.1000      9.1257      1.3957      0.0549     76.0191     47.8081     34.5294
   652.2000      9.1257      1.4457      0.1005     72.9849     47.4062     34.3082
   652.3000      9.0125      1.4754      0.0989     71.1904     51.6504     34.4896
   652.4000      9.0125      1.4871      0.0898     70.4758     57.7385     34.7466
   652.5000      8.8345      1.4989      0.0508     69.7665     63.5760     34.9252
   652.6000      8.8345      1.5273      0.0815     68.0397     69.2379     35.0813
   652.7000      8.8345      1.5760      0.0962     65.0886     74.6319     35.2941
