~Version Information
VERS.                      2.0: CWLS Log ASCII Standard - VERSION 2.0
WRAP.                       NO: One line per depth step
~Well Information Block
STRT.FT               481.5000: 
STOP.FT              2033.5000: 
STEP.FT                 0.2500: 
NULL.                -999.2500: 
COMP.          Petrogulf Corporation: COMPANY
WELL.            Montoya 7-12R: WELL
FLD.           Purgatorie River: FIELD
LOC.           1769' FNL & 658' FWL: LOCATION
CNTY.               Las Animas: COUNTY
SRVC.                         : SERVICE COMPANY
DATE.          Sat Nov 20 02:31:05 2004: LOG DATE
UWI.           05 071 08240 00: UNIQUE WELL ID
STAT.                 Colorado: STATE
~Curve Information Block
DEPT.FT            0 000 00 00: Depth
SP.mV                         : DIL Spontaneous Potential
RILD.Ohm-m                    : DIL Deep Resistivity
RILM.Ohm-m                    : DIL Medium Resistivity
RLL3.Ohm-m                    : DIL Shallow Resistivity
GR.GAPI                       : Gamma Ray
~Parameter Information Block
~A  Depth        SP         RILD        RILM        RLL3         GR     
# ...
  1405.5000    -62.3186      9.4931      9.9655     10.9422    105.4502
  1405.7500    -61.9311      9.1596      9.6348     10.8285     99.0910
  1406.0000    -61.0305      8.8787      9.3245     10.6759     86.3054
  1406.2500    -59.7487      8.6450      9.0337     10.4687     76.4086
  1406.5000    -58.2452      8.4522      8.7637     10.2199     62.2497
  1406.7500    -56.6753      8.2939      8.5166      9.9616     54.9740
  1407.0000    -55.1720      8.1643      8.2954      9.7282     49.1236
  1407.2500    -53.8379      8.0587      8.1025      9.5443     48.7552
  1407.5000    -52.7404      7.9740      7.9403      9.4196     52.5345
  1407.7500    -51.9183      7.9088      7.8108      9.3520     57.0150
  1408.0000    -51.3907      7.8632      7.7156      9.3358     65.1417
  1408.2500    -51.1530      7.8383      7.6557      9.3674     70.8357
  1408.5000    -51.1792      7.8362      7.6318      9.4484     79.1227
  1408.7500    -51.4093      7.8588      7.6440      9.5827     84.2693
  1409.0000    -51.7495      7.9079      7.6919      9.7722     91.1646
  1409.2500    -52.0674      7.9849      7.7744     10.0134     95.0624
  1409.5000    -52.2151      8.0906      7.8900     10.2977     99.7653
  1409.7500    -52.0614      8.2249      8.0372     10.6146    102.2137
  1410.0000    -51.5276      8.3873      8.2147     10.9560    104.7779
  1410.2500    -50.6232      8.5764      8.4218     11.3197    105.3808
  1410.5000    -49.4511      8.7900      8.6586     11.7090    104.0546
  1410.7500    -48.1926      9.0260      8.9265     12.1275    101.9471
  1411.0000    -47.0695      9.2822      9.2275     12.5741     98.3190
  1411.2500    -46.2872      9.5567      9.5647     13.0396     96.2638
  1411.5000    -45.9869      9.8488      9.9414     13.5126     94.0372
  1411.7500    -46.2158     10.1588     10.3612     13.9906     93.1793
  1412.0000    -46.9249     10.4877     10.8274     14.4937     93.4617
  1412.2500    -47.9875     10.8366     11.3425     15.0715     95.1415
  1412.5000    -49.2375     11.2058     11.9077     15.7980     99.7007
  1412.7500    -50.5100     11.5936     12.5217     16.7536    103.2025
  1413.0000    -51.6639     11.9961     13.1796     17.9971    107.1390
  1413.2500    -52.6051     12.4067     13.8715     19.5358    108.1720
  1413.5000    -53.2742     12.8168     14.5822     21.3031    107.5051
  1413.7500    -53.6506     13.2173     15.2909     23.1527    106.1547
  1414.0000    -53.7460     13.5997     15.9740     24.8762    103.4030
  1414.2500    -53.6066     13.9573     16.6082     26.2449    101.0664
  1414.5000    -53.3243     14.2863     17.1761     27.0685     96.9369
  1414.7500    -53.0301     14.5859     17.6696     27.2555     94.3778
  1415.0000    -52.8745     14.8574     18.0923     26.8526     92.5247
  1415.2500    -53.0037     15.1043     18.4576     26.0428     93.4029
  1415.5000    -53.5151     15.3302     18.7856     25.0980     97.9700
  1415.7500    -54.4360     15.5385     19.0974     24.2988    102.3426
  1416.0000    -55.7081     15.7315     19.4110     23.8506    108.5289
  1416.2500    -57.2000     15.9087     19.7376     23.8311    111.0869
  1416.5000    -58.7349     16.0670     20.0798     24.1878    111.3081
  1416.7500    -60.1301     16.2003     20.4307     24.7841    109.0931
  1417.0000    -61.2303     16.2998     20.7735     25.4658    103.6095
  1417.2500    -61.9353     16.3555     21.0832     26.1139     99.7532
  1417.5000    -62.2165     16.3580     21.3275     26.6581     95.4426
  1417.7500    -62.1189     16.2996     21.4701     27.0538     93.8974
  1418.0000    -61.7465     16.1767     21.4755     27.2464     92.9745
  1418.2500    -61.2433     15.9900     21.3145     27.1542     92.6676
  1418.5000    -60.7543     15.7447     20.9709     26.6856     92.0608
  1418.7500    -60.3965     15.4494     20.4452     25.7812     91.6821
  1419.0000    -60.2275     15.1143     19.7561     24.4532     91.8816
  1419.2500    -60.2351     14.7496     18.9370     22.7988     92.9782
  1419.5000    -60.3450     14.3638     18.0301     20.9750     96.6397
  1419.7500    -60.4482     13.9635     17.0800     19.1526    100.4585
  1420.0000    -60.4298     13.5532     16.1271     17.4680    107.1964
  1420.2500    -60.2062     13.1369     15.2051     15.9976    111.1582
  1420.5000    -59.7500     12.7187     14.3383     14.7583    114.7355
  1420.7500    -59.0962     12.3042     13.5432     13.7276    115.7256
  1421.0000    -58.3362     11.9006     12.8291     12.8691    117.0120
  1421.2500    -57.6014     11.5164     12.1998     12.1505    118.7345
  1421.5000    -57.0360     11.1602     11.6553     11.5511    122.6098
  1421.7500    -56.7747     10.8391     11.1929     11.0616    125.2170
  1422.0000    -56.9136     10.5581     10.8080     10.6783    127.8999
  1422.2500    -57.4969     10.3193     10.4951     10.4000    128.8191
  1422.5000    -58.5057     10.1217     10.2478     10.2268    129.6886
  1422.7500    -59.8606      9.9619     10.0593     10.1587    130.4419
  1423.0000    -61.4354      9.8346      9.9225     10.1942    132.1729
  1423.2500    -63.0706      9.7337      9.8302     10.3266    133.4187
  1423.5000    -64.5880      9.6531      9.7751     10.5401    134.2345
  1423.7500    -65.8160      9.5876      9.7501     10.8076    133.6014
  1424.0000    -66.5973      9.5331      9.7479     11.0924    131.3750
  1424.2500    -66.8119      9.4870      9.7619     11.3549    129.7861
  1424.5000    -66.3910      9.4476      9.7855     11.5597    128.1141
  1424.7500    -65.3319      9.4139      9.8127     11.6825    127.6350
  1425.0000    -63.7009      9.3846      9.8379     11.7128    128.1679
  1425.2500    -61.6286      9.3581      9.8562     11.6536    129.4938
  1425.5000    -59.2952      9.3318      9.8639     11.5174    132.3913
  1425.7500    -56.9123      9.3031      9.8583     11.3237    134.2150
  1426.0000    -54.6937      9.2689      9.8381     11.0944    135.9714
  1426.2500    -52.8407      9.2270      9.8035     10.8522    136.6151
  1426.5000    -51.5137      9.1766      9.7556     10.6178    137.5745
  1426.7500    -50.8127      9.1181      9.6966     10.4075    138.4889
  1427.0000    -50.7565      9.0534      9.6284     10.2317    139.8895
  1427.2500    -51.2753      8.9853      9.5530     10.0936    140.2396
  1427.5000    -52.2144      8.9166      9.4720      9.9891    139.0375
  1427.7500    -53.3610      8.8499      9.3863      9.9076    137.0364
  1428.0000    -54.4844      8.7869      9.2967      9.8349    132.8127
  1428.2500    -55.3837      8.7279      9.2041      9.7564    129.6651
  1428.5000    -55.9211      8.6726      9.1094      9.6626    125.4193
  1428.7500    -56.0429      8.6200      9.0140      9.5521    123.5754
  1429.0000    -55.7799      8.5690      8.9195      9.4336    123.2147
  1429.2500    -55.2328      8.5185      8.8278      9.3230    124.5684
  1429.5000    -54.5460      8.4680      8.7407      9.2388    127.6652
  1429.7500    -53.8771      8.4173      8.6601      9.1947    129.3119
  1430.0000    -53.3734      8.3673      8.5876      9.1951    130.0178
  1430.2500    -53.1468      8.3188      8.5251      9.2329    129.4805
  1430.5000    -53.2545      8.2732      8.4744      9.2933    128.0973
  1430.7500    -53.6909      8.2321      8.4372      9.3592    127.0210
  1431.0000    -54.3886      8.1968      8.4153      9.4188    124.6755
  1431.2500    -55.2394      8.1689      8.4102      9.4690    122.1955
  1431.5000    -56.1199      8.1493      8.4229      9.5162    116.9551
  1431.7500    -56.9216      8.1392      8.4534      9.5719    112.8394
  1432.0000    -57.5724      8.1393      8.5011      9.6457    106.8521
  1432.2500    -58.0541      8.1502      8.5641      9.7402    103.5941
  1432.5000    -58.3857      8.1719      8.6397      9.8487    100.4234
  1432.7500    -58.6069      8.2043      8.7244      9.9570     99.5173
  1433.0000    -58.7437      8.2469      8.8145     10.0484     99.5570
  1433.2500    -58.7795      8.2985      8.9064     10.1091    100.0411
