~Version Information
VERS.                      2.0: CWLS Log ASCII Standard - VERSION 2.0
WRAP.                       NO: One line per depth step
~Well Information Block
STRT.FT               521.6000: 
STOP.FT              1490.2000: 
STEP.FT                 0.1000: 
NULL.                -999.2500: 
COMP.          Petrogulf Corporation: COMPANY
WELL.          Robinson 15-11R: WELL
FLD.           Purgatorie River: FIELD
LOC.           324' FNL & 570' FWL: LOCATION
CNTY.               Las Animas: COUNTY
SRVC.                         : SERVICE COMPANY
DATE.          Sat Nov 06 22:43:15 2004: LOG DATE
UWI.           05 071 08029 00: UNIQUE WELL ID
STAT.                 Colorado: STATE
~Curve Information Block
DEPT.FT            0 000 00 00: Depth
DCAL.in                       : CDL Caliper
RHOB.g/cc                     : CDL Bulk Density
RHOC.g/cc                     : CDL Density Correction
DPOR.pu                       : CDL Density Porosity
GR.GAPI                       : Gamma Ray
NPOR.pu                       : Neutron Porosity
~Parameter Information Block
~A  Depth       DCAL        RHOB        RHOC        DPOR         GR         NPOR    
# ...
   857.6000      7.8490      2.5478      0.0529      6.1920    129.9406     25.5686
   857.7000      7.8490      2.5434      0.0494      6.4583    128.5648     26.0574
   857.8000      7.8723      2.5335      0.0407      7.0632    127.1371     26.0552
   857.9000      7.8723      2.5167      0.0530      8.0776    123.7339     25.6966
   858.0000      7.8637      2.5032      0.0176      8.8945    120.1795     25.6975
   858.1000      7.8637      2.4990      0.0247      9.1535    116.2359     26.1001
   858.2000      7.8637      2.5096     -0.0019      8.5074    110.1690     26.8088
   858.3000      7.8519      2.5422      0.0670      6.5304    107.4122     27.7219
   858.4000      7.8519      2.5849      0.1145      3.9460    110.9031     28.1985
   858.5000      7.8684      2.6214      0.0878      1.7345    113.7984     27.9282
   858.6000      7.8684      2.6484      0.1563      0.0954    113.1646     27.2368
   858.7000      7.8684      2.6628      0.1502     -0.7732    111.8385     26.3440
   858.8000      7.8841      2.6609      0.1697     -0.6589    109.5643     25.5034
   858.9000      7.8841      2.6369      0.1631      0.7922    106.5811     25.0612
   859.0000      7.8101      2.5964      0.0495      3.2467    104.7135     25.0590
   859.1000      7.8101      2.5622      0.0437      5.3217    105.0194     25.2458
   859.2000      7.8101      2.5386      0.0462      6.7530    106.8783     25.7476
   859.3000      7.8386      2.5104     -0.0012      8.4618    107.4113     26.3987
   859.4000      7.8386      2.4802     -0.0251     10.2937    103.7394     26.3803
   859.5000      7.8291      2.4669      0.0178     11.0946     96.7010     25.7102
   859.6000      7.8291      2.4754      0.0335     10.5825     91.2895     25.0106
   859.7000      7.8291      2.4983      0.0769      9.1941     92.6244     24.2029
   859.8000      7.7852      2.5321      0.1453      7.1475    100.1055     23.1374
   859.9000      7.7852      2.5682      0.2426      4.9561    106.5919     22.4367
   860.0000      7.6801      2.5908      0.2639      3.5900    107.0940     22.4309
   860.1000      7.6801      2.6070      0.2091      2.6062    105.4081     22.8584
   860.2000      7.6801      2.6396      0.3151      0.6323    106.6265     23.3916
   860.3000      7.6141      2.6898      0.2807     -2.4108    109.4385     23.5576
   860.4000      7.6141      2.7491      0.2994     -6.0043    112.3046     23.2342
   860.5000      7.6326      2.8086      0.3086     -9.6126    118.0379     23.0287
   860.6000      7.6326      2.8585      0.3236    -12.6380    127.3272     23.3299
   860.7000      7.6326      2.8836      0.3477    -14.1576    133.5603     23.8415
   860.8000      7.7217      2.8672      0.3167    -13.1611    132.9923     24.2108
   860.9000      7.7217      2.8104      0.2389     -9.7224    131.7655     24.1004
   861.0000      7.8934      2.7341      0.1981     -5.0962    132.3986     23.6384
   861.1000      7.8934      2.6615      0.0818     -0.6998    131.0183     23.4237
   861.2000      7.8934      2.6135      0.0413      2.2104    127.1327     23.5872
   861.3000      7.9135      2.5959      0.0728      3.2815    122.3351     23.8209
   861.4000      7.9135      2.5933      0.0215      3.4350    117.5088     23.7810
   861.5000      7.8859      2.5961      0.0360      3.2656    115.1753     23.6847
   861.6000      7.8859      2.6058      0.0759      2.6809    118.6671     23.9250
   861.7000      7.8859      2.6140      0.0687      2.1790    128.2652     24.3481
   861.8000      7.8950      2.6021      0.1279      2.9031    138.7565     24.6668
   861.9000      7.8950      2.5717      0.0091      4.7454    143.0076     25.0271
   862.0000      7.9364      2.5491      0.0379      6.1126    138.1748     25.5584
   862.1000      7.9364      2.5417      0.0938      6.5655    131.0931     25.8864
   862.2000      7.9364      2.5422      0.0325      6.5331    130.2273     25.7011
   862.3000      7.9061      2.5561      0.0146      5.6914    132.5833     25.3659
   862.4000      7.9061      2.5713      0.1187      4.7671    134.1284     25.2345
   862.5000      7.9359      2.5618      0.0745      5.3461    137.6805     25.2795
   862.6000      7.9359      2.5402      0.0153      6.6576    140.3278     25.5717
   862.7000      7.9359      2.5399      0.0477      6.6741    135.3597     26.3149
   862.8000      7.9378      2.5651      0.0372      5.1472    128.5831     27.3073
   862.9000      7.9378      2.5937      0.0864      3.4151    128.7802     27.9262
   863.0000      7.9225      2.6115      0.0510      2.3313    131.4584     27.6764
   863.1000      7.9225      2.6242      0.0981      1.5634    130.0037     26.8048
   863.2000      7.9225      2.6230      0.0973      1.6374    128.9451     26.1320
   863.3000      7.8921      2.5919      0.0517      3.5219    131.6186     26.1059
   863.4000      7.8921      2.5496      0.0143      6.0832    132.9288     26.4433
   863.5000      7.9218      2.5274     -0.0452      7.4298    132.7386     26.6304
   863.6000      7.9218      2.5246     -0.0195      7.5991    137.0507     26.6059
   863.7000      7.9218      2.5226      0.0075      7.7228    144.0933     26.3325
   863.8000      7.9244      2.5175     -0.0027      8.0328    144.2188     25.5352
   863.9000      7.9244      2.5113      0.0644      8.4069    138.2737     24.5913
   864.0000      7.9006      2.5014      0.0458      9.0086    137.7711     24.3803
   864.1000      7.9006      2.4936      0.0316      9.4812    142.5111     25.1321
   864.2000      7.9006      2.4962      0.0614      9.3184    142.6363     26.0753
   864.3000      7.9081      2.5042      0.0645      8.8344    137.2519     26.4326
   864.4000      7.9081      2.5010      0.0862      9.0295    132.5517     26.4203
   864.5000      7.9178      2.4809      0.0141     10.2471    129.2526     26.5783
   864.6000      7.9178      2.4634     -0.0631     11.3075    124.8257     26.4734
   864.7000      7.9178      2.4641      0.0385     11.2687    121.6349     25.4884
   864.8000      7.9294      2.4764      0.0449     10.5195    124.2891     24.4585
   864.9000      7.9294      2.4976      0.0328      9.2382    131.1232     24.3746
   865.0000      7.9158      2.5234      0.0844      7.6749    134.5214     25.0034
   865.1000      7.9158      2.5406      0.1019      6.6280    135.3035     25.9808
   865.2000      7.9158      2.5447      0.0885      6.3795    138.8888     26.8516
   865.3000      7.8772      2.5374      0.0771      6.8263    141.0872     26.9163
   865.4000      7.8772      2.5206      0.0640      7.8440    137.7677     26.6427
   865.5000      7.9081      2.5072      0.0512      8.6543    133.2340     26.8927
   865.6000      7.9081      2.5147      0.0151      8.2003    128.9591     27.4724
   865.7000      7.9081      2.5346      0.0617      6.9921    123.4679     27.6883
   865.8000      7.9375      2.5477      0.0680      6.1979    120.4826     27.2764
   865.9000      7.9375      2.5568      0.0588      5.6488    125.6318     26.4596
   866.0000      7.9359      2.5626      0.0685      5.2973    135.8508     25.5652
   866.1000      7.9359      2.5558      0.0441      5.7068    140.5126     25.0899
   866.2000      7.9359      2.5445      0.0353      6.3921    138.7101     25.2382
   866.3000      7.9247      2.5460      0.0045      6.3031    139.4522     25.5953
   866.4000      7.9247      2.5616      0.0747      5.3569    144.9208     25.8405
   866.5000      7.9070      2.5717      0.1087      4.7458    146.7747     25.9637
   866.6000      7.9070      2.5617      0.0645      5.3510    139.6779     26.0067
   866.7000      7.9070      2.5409      0.0838      6.6102    130.5831     26.1453
   866.8000      7.8966      2.5211      0.1012      7.8146    126.6074     26.4382
   866.9000      7.8966      2.5043      0.0476      8.8320    126.1797     26.4594
   867.0000      7.8971      2.4934      0.0746      9.4918    127.5907     25.9370
   867.1000      7.8971      2.4938      0.0679      9.4674    129.4583     25.3858
