~Version Information
VERS.                      2.0: CWLS Log ASCII Standard - VERSION 2.0
WRAP.                       NO: One line per depth step
~Well Information Block
STRT.FT                15.0000: 
STOP.FT              2620.5000: 
STEP.FT                 0.2500: 
NULL.                -999.2500: 
COMP.          Pioneer Natural Resources: COMPANY
WELL.               Zink 44-10: WELL
FLD.           Purgatoire River: FIELD
LOC.           548' FSL & 473' FEL: LOCATION
PROV.                 Colorado: PROVINCE
CNTY.               Las Animas: COUNTRY
SRVC.                Patterson: SERVICE COMPANY
DATE.          Tue Jun 21 13:36:23 2005: LOG DATE
UWI.           05 071 08380 00: UNIQUE WELL ID
~Curve Information Block
DEPT.FT            0 000 00 00: Depth
GR.GAPI                       : Gamma Ray
CCL.                          : Casing Collar Locator
TT3.usec                      : CBL 3' Travel Time
AMP3.mV                       : CBL 3' Amplitude
~Parameter Information Block
~A  Depth        GR         CCL         TT3         AMP3    
# ...
   718.5000    102.3013      0.0000    699.8130     14.1239
   718.7500     98.7111      0.0000    697.5958     14.0501
   719.0000     95.0303      0.0000    692.1682     14.0465
   719.2500     91.7562      0.0000    689.2039     14.1157
   719.5000     88.9594      0.0000    690.5265     14.2469
   719.7500     86.6499      0.0000    691.9484     14.4162
   720.0000     85.1343      0.0000    684.1862     14.5928
   720.2500     84.8552      0.0000    657.6219     14.7508
   720.5000     85.7136      0.0000    609.9952     14.8828
   720.7500     86.8302      0.0000    551.6851     15.0005
   721.0000     87.0699      0.0000    501.7570     15.1138
   721.2500     85.6900      0.0000    476.9886     15.2112
   721.5000     82.7623      0.0000    483.6290     15.2687
   721.7500     79.3107      0.0000    516.0571     15.2794
   722.0000     76.8402      0.0000    559.5793     15.2691
   722.2500     76.4136      0.0000    595.9764     15.2765
   722.5000     78.0031      0.0000    610.8287     15.3165
   722.7500     80.6143      0.0000    599.1948     15.3646
   723.0000     83.1167      0.0000    567.2152     15.3775
   723.2500     85.3579      0.0000    529.3136     15.3288
   723.5000     88.3835      0.0000    500.8580     15.2294
   723.7500     92.9560      0.0000    489.3899     15.1175
   724.0000     97.9393      0.0000    491.6753     15.0250
   724.2500    100.9756      0.0000    499.4864     14.9499
   724.5000    100.7853      0.0000    507.6017     14.8655
   724.7500     98.0625      0.0000    515.5319     14.7571
   725.0000     94.1397      0.0000    523.7518     14.6450
   725.2500     89.7670      0.0000    531.8104     14.5685
   725.5000     85.4721      0.0000    539.9344     14.5524
   725.7500     82.1164      0.0000    549.9101     14.5957
   726.0000     80.3120      0.0000    563.7711     14.6855
   726.2500     79.6093      0.0000    581.3005     14.8094
   726.5000     78.8053      0.0000    597.3011     14.9569
   726.7500     77.0453      0.0000    602.2307     15.1198
   727.0000     74.4072      0.0000    588.9437     15.2926
   727.2500     71.7449      0.0000    559.7665     15.4687
   727.5000     70.3386      0.0000    524.7902     15.6363
   727.7500     71.3340      0.0000    493.0786     15.7826
   728.0000     74.8700      0.0000    467.7173     15.8995
   728.2500     79.7413      0.0000    448.8333     15.9815
   728.5000     84.1697      0.0000    438.3512     16.0166
   728.7500     86.9278      0.0000    440.2329     15.9886
   729.0000     87.8414      0.0000    456.2388     15.8999
   729.2500     87.5233      0.0000    481.1275     15.7920
   729.5000     86.6530      0.0000    502.5865     15.7268
   729.7500     85.4184      0.0000    508.5720     15.7381
   730.0000     83.8573      0.0000    496.9080     15.8056
   730.2500     82.7780      0.0000    477.9616     15.8750
   730.5000     83.6689      0.0000    467.8892     15.9008
   730.7500     87.1330      0.0000    478.6165     15.8673
   731.0000     91.7898      0.0000    511.4616     15.7835
   731.2500     95.3499      0.0000    557.2740     15.6741
   731.5000     96.7189      0.0000    601.9105     15.5749
   731.7500     96.6726      0.0000    633.1830     15.5280
   732.0000     96.5207      0.0000    645.2160     15.5698
   732.2500     96.7419      0.0000    639.5219     15.7116
   732.5000     97.1973      0.0000    623.0875     15.9199
   732.7500     97.9020      0.0000    603.1706     16.1209
   733.0000     98.8803      0.0000    583.2939     16.2429
   733.2500     99.6878      0.0000    566.1716     16.2658
   733.5000     99.7850      0.0000    558.4089     16.2312
   733.7500     99.3145      0.0000    566.6982     16.2002
   734.0000     99.1117      0.0000    588.6217     16.2032
   734.2500    100.0308      0.0000    612.2382     16.2203
   734.5000    102.3962      0.0000    626.3565     16.2023
   734.7500    105.8328      0.0000    628.1807     16.1050
   735.0000    109.2806      0.0000    621.4873     15.9064
   735.2500    111.3201      0.0000    611.8660     15.5830
   735.5000    111.0477      0.0000    603.7885     15.0706
   735.7500    108.9889      0.0000    598.5519     14.2834
   736.0000    106.7661      0.0000    594.4463     13.2195
   736.2500    105.4449      0.0000    591.0209     12.0425
   736.5000    104.3474      0.0000    592.0838     11.0151
   736.7500    101.8556      0.0000    602.6722     10.3337
   737.0000     97.4400      0.0000    623.7874     10.0323
   737.2500     92.5723      0.0000    649.9900     10.0201
   737.5000     89.3640      0.0000    670.1350     10.1752
   737.7500     88.4229     -2.5000    671.7224     10.4099
   738.0000     88.2618     -2.5000    648.5215     10.6966
   738.2500     86.8074      0.0000    606.5075     11.0708
   738.5000     83.3146      0.0000    561.3270     11.6020
   738.7500     78.8895      0.0000    527.4229     12.3350
   739.0000     75.4829      0.0000    507.9567     13.2502
   739.2500     74.5345      0.0000    495.4276     14.2701
   739.5000     76.3176      0.0000    481.5408     15.2653
   739.7500     80.2279      0.0000    464.5442     16.0583
   740.0000     85.4807      0.0000    447.3525     16.4949
   740.2500     91.3635      0.0000    432.5963     16.5514
   740.5000     96.8790      0.0000    421.2724     16.3411
   740.7500    100.7717      0.0000    413.6300     16.0093
   741.0000    102.2915      0.0000    409.3248     15.6464
   741.2500    101.5181      0.0000    407.3678     15.2871
   741.5000     98.8670      0.0000    406.6121     14.9495
   741.7500     95.1044      0.0000    406.2738     14.6557
   742.0000     92.0062      0.0000    405.9644     14.4308
   742.2500     91.8081      0.0000    405.5691     14.2972
   742.5000     95.2055      0.0000    405.1128     14.2725
   742.7500    100.3281      0.0000    404.6714     14.3650
   743.0000    104.0805      0.0000    404.3786     14.5657
   743.2500    104.4707      0.0000    404.5281     14.8427
   743.5000    101.8988      0.0000    405.7942     15.1508
   743.7500     98.5079      0.0000    409.3488     15.4532
   744.0000     96.2391      0.0000    416.4814     15.7360
   744.2500     95.4466      0.0000    427.3619     16.0037
   744.5000     95.3873      0.0000    439.5263     16.2637
   744.7500     95.6307      0.0000    447.9543     16.5154
   745.0000     96.4928      0.0000    448.0675     16.7497
   745.2500     98.2283      0.0000    439.6062     16.9513
   745.5000    100.3564      0.0000    427.1035     17.1027
   745.7500    102.0014      0.0000    416.0837     17.1914
   746.0000    102.5577      0.0000    409.2434     17.2161
   746.2500    101.8155      0.0000    406.1763     17.1888
   746.5000     99.8008      0.0000    405.4835     17.1322
   746.7500     96.8357      0.0000    406.4579     17.0714
   747.0000     93.5659      0.0000    409.3244     17.0219
   747.2500     90.6189      0.0000    414.4840     16.9848
   747.5000     88.2806      0.0000    421.4590     16.9548
   747.7500     86.5624      0.0000    428.6466     16.9285
   748.0000     85.3797      0.0000    434.8473     16.9009
   748.2500     84.6122      0.0000    441.7878     16.8556
   748.5000     84.3165      0.0000    454.9337     16.7679
   748.7500     84.8666      0.0000    480.1667     16.6249
   749.0000     86.4370      0.0000    517.4777     16.4458
   749.2500     88.3893      0.0000    556.9996     16.2796
   749.5000     89.6889      0.0000    582.8151     16.1784
   749.7500     89.8414      0.0000    583.6249     16.1626
   750.0000     89.0111      0.0000    562.4105     16.2036
   750.2500     87.6204      0.0000    536.6295     16.2410
   750.5000     86.2482      0.0000    527.0211     16.2225
   750.7500     85.3648      0.0000    542.9617     16.1323
   751.0000     84.6171      0.0000    577.0510     15.9874
   751.2500     82.9273      0.0000    613.3770     15.8132
   751.5000     79.8387      0.0000    640.1263     15.6247
   751.7500     76.3656      0.0000    654.8712     15.4258
