~Version Information
VERS.                      2.0: CWLS Log ASCII Standard - VERSION 2.0
WRAP.                       NO: One line per depth step
~Well Information Block
STRT.FT               860.0000: 
STOP.FT              1907.0000: 
STEP.FT                 0.1000: 
NULL.                -999.2500: 
COMP.          Pioneer Natural Resources: COMPANY
WELL.          Victory 12-14 Tr: WELL
FLD.           Purgatoire River: FIELD
LOC.           2522' FNL & 276' FWL: LOCATION
PROV.                 Colorado: PROVINCE
CNTY.               Las Animas: COUNTRY
SRVC.                Patterson: SERVICE COMPANY
DATE.          Mon Jul 18 06:52:40 2005: LOG DATE
UWI.           05 071 08433 00: UNIQUE WELL ID
~Curve Information Block
DEPT.FT            0 000 00 00: Depth
DCAL.in                       : CDL Caliper
RHOB.g/cc                     : CDL Bulk Density
RHOC.g/cc                     : CDL Density Correction
DPOR.pu                       : CDL Density Porosity
GR.GAPI                       : Gamma Ray
NPOR.pu                       : Neutron Porosity
~Parameter Information Block
~A  Depth       DCAL        RHOB        RHOC        DPOR         GR         NPOR    
# ...
  1896.8000      7.9077      2.5981      0.0954      3.1467   -999.2500   -999.2500
  1896.9000      7.9077      2.5746      0.0558      4.5687   -999.2500   -999.2500
  1897.0000      7.9091      2.5587      0.0878      5.5354   -999.2500   -999.2500
  1897.1000      7.9091      2.5573      0.0286      5.6194   -999.2500   -999.2500
  1897.2000      7.9091      2.5651      0.0459      5.1476   -999.2500   -999.2500
  1897.3000      7.8822      2.5683      0.0642      4.9523   -999.2500   -999.2500
  1897.4000      7.8822      2.5625     -0.0271      5.3041   -999.2500   -999.2500
  1897.5000      7.8928      2.5526      0.0506      5.9021   -999.2500   -999.2500
  1897.6000      7.8928      2.5426      0.0099      6.5078   -999.2500   -999.2500
  1897.7000      7.8928      2.5397      0.0247      6.6852   -999.2500   -999.2500
  1897.8000      7.9012      2.5416      0.0785      6.5705   -999.2500   -999.2500
  1897.9000      7.9012      2.5414      0.0597      6.5808   -999.2500   -999.2500
  1898.0000      7.9179      2.5452      0.0477      6.3510   -999.2500   -999.2500
  1898.1000      7.9179      2.5617      0.0527      5.3544   -999.2500   -999.2500
  1898.2000      7.9179      2.5888      0.0176      3.7113   -999.2500   -999.2500
  1898.3000      7.9178      2.6121      0.1027      2.2968   -999.2500   -999.2500
  1898.4000      7.9178      2.6164      0.0667      2.0340   -999.2500   -999.2500
  1898.5000      7.9142      2.6066      0.0484      2.6330   -999.2500   -999.2500
  1898.6000      7.9142      2.5917      0.1118      3.5312   -999.2500   -999.2500
  1898.7000      7.9142      2.5785      0.0532      4.3310   -999.2500   -999.2500
  1898.8000      7.9135      2.5762      0.0466      4.4701   -999.2500   -999.2500
  1898.9000      7.9135      2.5775      0.0979      4.3945   -999.2500   -999.2500
  1899.0000      7.9168      2.5749      0.0834      4.5498   -999.2500   -999.2500
  1899.1000      7.9168      2.5800      0.0609      4.2406   -999.2500   -999.2500
  1899.2000      7.9168      2.5961      0.1050      3.2674   -999.2500   -999.2500
  1899.3000      7.9079      2.6119      0.0826      2.3087   -999.2500   -999.2500
  1899.4000      7.9079      2.6179      0.1464      1.9456   -999.2500   -999.2500
  1899.5000      7.9294      2.6092      0.1275      2.4729   -999.2500   -999.2500
  1899.6000      7.9294      2.5932      0.0822      3.4453   -999.2500   -999.2500
  1899.7000      7.9294      2.5840      0.1225      3.9995   -999.2500   -999.2500
  1899.8000      7.9302      2.5902      0.1045      3.6249   -999.2500   -999.2500
  1899.9000      7.9302      2.6102      0.1663      2.4129   -999.2500   -999.2500
  1900.0000      7.8746      2.6317      0.1574      1.1076   -999.2500   -999.2500
  1900.1000      7.8746      2.6490      0.1045      0.0578   -999.2500   -999.2500
  1900.2000      7.8746      2.6663      0.1366     -0.9869   -999.2500   -999.2500
  1900.3000      7.8557      2.6806      0.1756     -1.8521   -999.2500   -999.2500
  1900.4000      7.8557      2.6805      0.1499     -1.8459   -999.2500   -999.2500
  1900.5000      7.8729      2.6554      0.1666     -0.3289   -999.2500   -999.2500
  1900.6000      7.8729      2.6146      0.0850      2.1438   -999.2500   -999.2500
  1900.7000      7.8729      2.5881      0.0538      3.7507   -999.2500   -999.2500
  1900.8000      7.8817      2.5884      0.0705      3.7319   -999.2500   -999.2500
  1900.9000      7.8817      2.5970      0.0526      3.2148   -999.2500   -999.2500
  1901.0000      7.9117      2.5935      0.0791      3.4220   -999.2500   -999.2500
  1901.1000      7.9117      2.5786      0.0639      4.3245   -999.2500   -999.2500
  1901.2000      7.9117      2.5640      0.0856      5.2103   -999.2500   -999.2500
  1901.3000      7.9142      2.5526      0.0968      5.9024   -999.2500   -999.2500
  1901.4000      7.9142      2.5438      0.0546      6.4361   -999.2500   -999.2500
  1901.5000      7.8967      2.5462      0.0585      6.2883   -999.2500   -999.2500
  1901.6000      7.8967      2.5630      0.0914      5.2733   -999.2500   -999.2500
  1901.7000      7.8967      2.5702      0.1273      4.8358   -999.2500   -999.2500
  1901.8000      7.8732      2.5461      0.0836      6.2957   -999.2500   -999.2500
  1901.9000      7.8732      2.5125      0.0257      8.3334   -999.2500   -999.2500
  1902.0000      7.8758      2.5023      0.0079      8.9530   -999.2500   -999.2500
  1902.1000      7.8758      2.5156      0.0665      8.1455   -999.2500   -999.2500
  1902.2000      7.8758      2.5359      0.0570      6.9166   -999.2500   -999.2500
  1902.3000      7.8640      2.5515      0.0784      5.9698   -999.2500   -999.2500
  1902.4000      7.8640      2.5555      0.0684      5.7262   -999.2500   -999.2500
  1902.5000      7.8655      2.5556      0.0975      5.7229   -999.2500   -999.2500
  1902.6000      7.8655      2.5643      0.1300      5.1967   -999.2500   -999.2500
  1902.7000      7.8655      2.5790      0.1423      4.3052   -999.2500   -999.2500
  1902.8000      7.8399      2.5940      0.1539      3.3935   -999.2500   -999.2500
  1902.9000      7.8399      2.6090      0.1545      2.4878   -999.2500   -999.2500
  1903.0000      7.7689      2.6154      0.1569      2.0958   -999.2500   -999.2500
  1903.1000      7.7689      2.6063      0.1189      2.6458   -999.2500   -999.2500
  1903.2000      7.7689      2.5948      0.1025      3.3453   -999.2500   -999.2500
  1903.3000      7.7965      2.6163      0.0617      2.0426   -999.2500   -999.2500
  1903.4000      7.7965      2.7137      0.0787     -3.8636   -999.2500   -999.2500
  1903.5000      7.8170      2.7574      0.1235     -6.5112   -999.2500   -999.2500
  1903.6000      7.8170      2.3092      0.5453     20.6554   -999.2500   -999.2500
  1903.7000      7.8170      1.3099      0.0200     81.2180   -999.2500   -999.2500
  1903.8000      7.8495      0.4436      0.0200    133.7183   -999.2500   -999.2500
  1903.9000      7.8495      0.0842   -999.2500    155.5046   -999.2500   -999.2500
  1904.0000      7.5352      0.0087   -999.2500    160.0805   -999.2500   -999.2500
  1904.1000      7.5352      0.0005   -999.2500    160.5775   -999.2500   -999.2500
  1904.2000      7.5352      0.0000   -999.2500    160.6061   -999.2500   -999.2500
  1904.3000      5.3843      0.0000   -999.2500    160.6061   -999.2500   -999.2500
  1904.4000      5.3843   -999.2500   -999.2500   -999.2500   -999.2500   -999.2500
  1904.5000      5.0937   -999.2500   -999.2500   -999.2500   -999.2500   -999.2500
  1904.6000      5.0937   -999.2500   -999.2500   -999.2500   -999.2500   -999.2500
  1904.7000      5.0937   -999.2500   -999.2500   -999.2500   -999.2500   -999.2500
  1904.8000   -999.2500   -999.2500   -999.2500   -999.2500   -999.2500   -999.2500
  1904.9000   -999.2500   -999.2500   -999.2500   -999.2500   -999.2500   -999.2500
  1905.0000   -999.2500   -999.2500   -999.2500   -999.2500   -999.2500   -999.2500
  1905.1000   -999.2500   -999.2500   -999.2500   -999.2500   -999.2500   -999.2500
  1905.2000   -999.2500   -999.2500   -999.2500   -999.2500   -999.2500   -999.2500
  1905.3000   -999.2500   -999.2500   -999.2500   -999.2500   -999.2500   -999.2500
  1905.4000   -999.2500   -999.2500   -999.2500   -999.2500   -999.2500   -999.2500
  1905.5000   -999.2500   -999.2500   -999.2500   -999.2500   -999.2500   -999.2500
  1905.6000   -999.2500   -999.2500   -999.2500   -999.2500   -999.2500   -999.2500
  1905.7000   -999.2500   -999.2500   -999.2500   -999.2500   -999.2500   -999.2500
  1905.8000   -999.2500   -999.2500   -999.2500   -999.2500   -999.2500   -999.2500
  1905.9000   -999.2500   -999.2500   -999.2500   -999.2500   -999.2500   -999.2500
  1906.0000   -999.2500   -999.2500   -999.2500   -999.2500   -999.2500   -999.2500
  1906.1000   -999.2500   -999.2500   -999.2500   -999.2500   -999.2500   -999.2500
  1906.2000   -999.2500   -999.2500   -999.2500   -999.2500   -999.2500   -999.2500
  1906.3000   -999.2500   -999.2500   -999.2500   -999.2500   -999.2500   -999.2500
