~Version Information
VERS.                      2.0: CWLS Log ASCII Standard - VERSION 2.0
WRAP.                       NO: One line per depth step
~Well Information Block
STRT.FT               238.0000: 
STOP.FT              1377.0000: 
STEP.FT                 0.1000: 
NULL.                -999.2500: 
COMP.          Pioneer Natural Resources: COMPANY
WELL.             Raptor 44-26: WELL
FLD.           Purgatoire River: FIELD
LOC.           180' FSL & 812' FEL: LOCATION
PROV.                 Colorado: PROVINCE
CNTY.               Las Animas: COUNTRY
SRVC.                Patterson: SERVICE COMPANY
DATE.          Tue Mar 22 15:28:33 2005: LOG DATE
UWI.           05 071 08187 00: UNIQUE WELL ID
~Curve Information Block
DEPT.FT            0 000 00 00: Depth
DCAL.in                       : CDL Caliper
RHOB.g/cc                     : CDL Bulk Density
RHOC.g/cc                     : CDL Density Correction
DPOR.pu                       : CDL Density Porosity
GR.GAPI                       : Gamma Ray
NPOR.pu                       : Neutron Porosity
~Parameter Information Block
~A  Depth       DCAL        RHOB        RHOC        DPOR         GR         NPOR    
# ...
   314.8000      7.8632      2.4541      0.0628     11.8722     86.7106     22.7812
   314.9000      7.8632      2.4606      0.0761     11.4785     83.3270     23.0732
   315.0000      7.8718      2.4591      0.1030     11.5699     80.5106     23.5016
   315.1000      7.8718      2.4552      0.0708     11.8076     78.4416     23.7247
   315.2000      7.8718      2.4606      0.1055     11.4777     78.4233     23.7882
   315.3000      7.8785      2.4686      0.1384     10.9945     81.1622     23.8078
   315.4000      7.8785      2.4676      0.0979     11.0563     85.1253     23.5476
   315.5000      7.9040      2.4625      0.1623     11.3661     88.4113     23.2052
   315.6000      7.9040      2.4610      0.0866     11.4563     91.3337     23.0003
   315.7000      7.9040      2.4639      0.1156     11.2767     96.5662     22.7945
   315.8000      7.9086      2.4666      0.0857     11.1134    101.9270     22.6769
   315.9000      7.9086      2.4698      0.1057     10.9224    103.4106     22.6440
   316.0000      7.9107      2.4736      0.1319     10.6908    103.5810     22.4585
   316.1000      7.9107      2.4697      0.1652     10.9269    105.5507     22.1531
   316.2000      7.9107      2.4559      0.1042     11.7661    107.5081     21.8825
   316.3000      7.9116      2.4428      0.0587     12.5556    106.3513     21.7364
   316.4000      7.9116      2.4382      0.0817     12.8385    100.8403     21.6149
   316.5000      7.9185      2.4458      0.0353     12.3764     92.3153     21.3649
   316.6000      7.9185      2.4624      0.0760     11.3681     83.4298     21.2778
   316.7000      7.9185      2.4687      0.0954     10.9853     76.5683     21.5149
   316.8000      7.9642      2.4586      0.0547     11.5987     71.6300     21.5630
   316.9000      7.9642      2.4476      0.0280     12.2686     67.8426     21.5529
   317.0000      7.9901      2.4384      0.0486     12.8215     67.9272     22.0350
   317.1000      7.9901      2.4193      0.0340     13.9831     71.8826     22.6577
   317.2000      7.9901      2.3969     -0.0134     15.3421     74.0808     22.8359
   317.3000      7.9941      2.3935      0.0114     15.5473     70.8728     22.5626
   317.4000      7.9941      2.4174      0.0144     14.0947     63.8146     22.2728
   317.5000      8.0114      2.4521      0.0626     11.9924     58.6839     22.1526
   317.6000      8.0114      2.4753      0.0958     10.5882     58.6814     22.1142
   317.7000      8.0114      2.4900      0.0424      9.6972     61.1086     22.2612
   317.8000      8.0174      2.5020      0.0819      8.9701     62.3493     22.6465
   317.9000      8.0174      2.4979      0.0451      9.2207     61.7837     23.2780
   318.0000      8.0136      2.4787      0.0439     10.3828     60.1374     23.8994
   318.1000      8.0136      2.4648     -0.0023     11.2231     59.1492     24.0519
   318.2000      8.0136      2.4556      0.0711     11.7827     61.5709     23.8034
   318.3000      7.9874      2.4344      0.0019     13.0688     66.6250     23.6471
   318.4000      7.9874      2.4159     -0.0024     14.1894     69.2209     23.4961
   318.5000      7.9703      2.4247     -0.0242     13.6570     67.4892     23.1224
   318.6000      7.9703      2.4496      0.0217     12.1451     64.2905     22.8383
   318.7000      7.9703      2.4620      0.0286     11.3947     60.9762     22.8847
   318.8000      7.9518      2.4585      0.0265     11.6083     59.3622     23.1051
   318.9000      7.9518      2.4600      0.0302     11.5141     62.3103     23.3602
   319.0000      7.9395      2.4803      0.0655     10.2823     67.4174     23.6015
   319.1000      7.9395      2.5118      0.1005      8.3778     69.8053     23.7568
   319.2000      7.9395      2.5412      0.1024      6.5963     69.7045     23.7747
   319.3000      7.9159      2.5631      0.1123      5.2686     69.2841     23.5770
   319.4000      7.9159      2.5744      0.1000      4.5837     65.4913     23.4726
   319.5000      7.8538      2.5772      0.0932      4.4091     57.5607     23.8574
   319.6000      7.8538      2.5807      0.1730      4.1988     52.2443     24.4444
   319.7000      7.8538      2.5948      0.1121      3.3453     51.4116     24.4304
   319.8000      7.8342      2.6181      0.1426      1.9344     52.0160     23.6830
   319.9000      7.8342      2.6318      0.1325      1.1030     53.8487     23.0602
   320.0000      7.8253      2.6289      0.0848      1.2807     57.4379     23.0055
   320.1000      7.8253      2.6147      0.1008      2.1370     60.8682     23.0732
   320.2000      7.8253      2.5942      0.0931      3.3840     61.0807     22.9994
   320.3000      7.8296      2.5815      0.0818      4.1494     58.7408     22.9346
   320.4000      7.8296      2.5867      0.0364      3.8335     57.1249     22.9605
   320.5000      7.8592      2.6022      0.0729      2.8948     56.7298     22.9145
   320.6000      7.8592      2.6089      0.0582      2.4900     55.4393     22.5172
   320.7000      7.8592      2.5951      0.0472      3.3293     53.0559     21.9152
   320.8000      7.8674      2.5686      0.0172      4.9361     50.8382     21.7179
   320.9000      7.8674      2.5409      0.0418      6.6107     48.7186     21.8360
   321.0000      7.8703      2.5170      0.0350      8.0636     46.6072     21.5808
   321.1000      7.8703      2.5036      0.0537      8.8723     45.8383     20.9870
   321.2000      7.8703      2.5035      0.0572      8.8765     46.5360     20.3570
   321.3000      7.8620      2.4991      0.0863      9.1458     48.0583     19.7173
   321.4000      7.8620      2.4747      0.0335     10.6228     49.9077     19.3627
   321.5000      7.8592      2.4413     -0.0060     12.6515     51.4295     19.6444
   321.6000      7.8592      2.4151     -0.0160     14.2377     51.6618     20.4527
   321.7000      7.8592      2.4029     -0.0394     14.9777     49.8226     21.2078
   321.8000      7.9082      2.3996      0.0465     15.1741     46.8699     21.3515
   321.9000      7.9082      2.3996     -0.0186     15.1736     43.8621     21.1588
   322.0000      7.9618      2.4026      0.0669     14.9951     43.0957     21.1902
   322.1000      7.9618      2.3969      0.0199     15.3415     47.1046     21.2971
   322.2000      7.9618      2.3772      0.0323     16.5312     52.9364     21.2169
   322.3000      7.9818      2.3579      0.0167     17.7060     54.9586     21.0806
   322.4000      7.9818      2.3546      0.0433     17.9038     52.8481     20.8785
   322.5000      7.9756      2.3675      0.0184     17.1213     51.2135     20.6046
   322.6000      7.9756      2.3819      0.0518     16.2488     51.9855     20.5579
   322.7000      7.9756      2.3894      0.0329     15.7919     52.4959     20.8103
   322.8000      7.9736      2.3972      0.0285     15.3194     51.3503     21.2326
   322.9000      7.9736      2.4077      0.0449     14.6859     51.2647     21.6738
   323.0000      7.9718      2.4138      0.0469     14.3182     55.0001     21.9089
   323.1000      7.9718      2.4138      0.0653     14.3146     60.5682     21.9355
   323.2000      7.9718      2.4110      0.0315     14.4864     64.0490     21.8773
   323.3000      7.9532      2.4065      0.0020     14.7581     64.0538     21.8013
   323.4000      7.9532      2.4035     -0.0006     14.9388     62.9794     21.6836
   323.5000      7.9228      2.4036      0.0053     14.9333     61.8155     21.4641
   323.6000      7.9228      2.3977     -0.0067     15.2894     59.0921     21.2287
   323.7000      7.9228      2.3830     -0.0207     16.1804     56.6235     21.1058
   323.8000      7.8895      2.3742      0.0010     16.7133     56.4361     21.1633
   323.9000      7.8895      2.3830      0.0295     16.1843     57.4165     21.3456
   324.0000      7.8930      2.4061     -0.0015     14.7815     58.5073     21.5003
   324.1000      7.8930      2.4341      0.0386     13.0845     58.4717     21.5502
   324.2000      7.8930      2.4450      0.1454     12.4250     55.5501     21.3852
   324.3000      7.8819      2.4332      0.0485     13.1378     50.4873     20.9586
