~Version Information
VERS.                      2.0: CWLS Log ASCII Standard - VERSION 2.0
WRAP.                       NO: One line per depth step
~Well Information Block
STRT.FT               546.0000: 
STOP.FT              1771.5000: 
STEP.FT                 0.1000: 
NULL.                -999.2500: 
COMP.          Petrogulf Corporation: COMPANY
WELL.             McLeod 9-42R: WELL
FLD.           Purgatorie River: FIELD
LOC.           1748' FNL & 372' FEL: LOCATION
PROV.                 Colorado: PROVINCE
CNTY.               Las Animas: COUNTRY
SRVC.                Patterson: SERVICE COMPANY
DATE.          Tue Aug 16 11:11:38 2005: LOG DATE
UWI.                071 08092 : UNIQUE WELL ID
~Curve Information Block
DEPT.FT            0 000 00 00: Depth
DCAL.in                       : CDL Caliper
RHOB.g/cc                     : CDL Bulk Density
RHOC.g/cc                     : CDL Density Correction
DPOR.pu                       : CDL Density Porosity
GR.GAPI                       : Gamma Ray
NPOR.pu                       : Neutron Porosity
~Parameter Information Block
~A  Depth       DCAL        RHOB        RHOC        DPOR         GR         NPOR    
# ...
  1093.2000      8.1068      2.4357      0.0009     12.9881    122.4155     32.0423
  1093.3000      8.1219      2.4226      0.0366     13.7842    124.3169     31.8255
  1093.4000      8.1219      2.4154      0.0097     14.2166    127.7534     31.9722
  1093.5000      8.2533      2.4179      0.0205     14.0695    128.9659     32.1941
  1093.6000      8.2533      2.4240      0.0287     13.6978    128.1395     32.2055
  1093.7000      8.2533      2.4281      0.0278     13.4497    128.8355     31.9559
  1093.8000      8.2552      2.4356      0.0220     12.9918    130.5206     31.6850
  1093.9000      8.2552      2.4476      0.0362     12.2697    131.2205     31.8218
  1094.0000      8.3325      2.4560      0.0447     11.7557    131.9342     32.3131
  1094.1000      8.3325      2.4590      0.0502     11.5731    132.4374     32.7276
  1094.2000      8.3325      2.4605      0.0495     11.4852    131.3876     32.7702
  1094.3000      8.3335      2.4628      0.0328     11.3432    129.7612     32.3088
  1094.4000      8.3335      2.4642      0.0485     11.2605    129.7182     31.6234
  1094.5000      8.3441      2.4612      0.0485     11.4451    131.7006     31.1266
  1094.6000      8.3441      2.4525      0.0329     11.9668    132.3333     30.9992
  1094.7000      8.3441      2.4382      0.0213     12.8340    128.6937     31.3362
  1094.8000      8.3474      2.4202      0.0272     13.9261    124.8025     31.8845
  1094.9000      8.3474      2.4056     -0.0084     14.8141    125.2736     32.3780
  1095.0000      8.3455      2.3951      0.0252     15.4500    126.6218     32.7887
  1095.1000      8.3455      2.3752      0.0494     16.6564    124.8288     33.0410
  1095.2000      8.3455      2.3408      0.0336     18.7376    122.4326     33.0111
  1095.3000      8.3874      2.3123     -0.0312     20.4652    122.7591     32.7061
  1095.4000      8.3874      2.3092      0.0086     20.6516    123.5416     32.5525
  1095.5000      8.4625      2.3262      0.0096     19.6239    123.2263     33.0817
  1095.6000      8.4625      2.3479      0.0597     18.3098    123.9980     34.0496
  1095.7000      8.4625      2.3659      0.0794     17.2160    125.7553     34.7702
  1095.8000      8.3761      2.3838      0.0526     16.1347    127.8252     34.9025
  1095.9000      8.3761      2.4051      0.1067     14.8405    129.3288     34.6147
  1096.0000      8.3476      2.4244      0.0981     13.6752    128.4087     34.1682
  1096.1000      8.3476      2.4419      0.1024     12.6102    126.5531     33.8920
  1096.2000      8.3476      2.4639      0.0831     11.2765    125.1851     34.0585
  1096.3000      8.2598      2.4937      0.0599      9.4742    123.5679     34.2453
  1096.4000      8.2598      2.5365      0.0281      6.8807    122.5985     33.9351
  1096.5000      8.1571      2.5909      0.0795      3.5814    122.5778     33.4131
  1096.6000      8.1571      2.6460      0.0971      0.2415    120.9599     33.1080
  1096.7000      8.1571      2.6971      0.0962     -2.8537    115.6708     32.7370
  1096.8000      8.1126      2.7395      0.1376     -5.4246    109.1912     32.0788
  1096.9000      8.1126      2.7625      0.1374     -6.8161    106.0247     31.6413
  1097.0000      7.9985      2.7599      0.1432     -6.6594    106.5708     31.5858
  1097.1000      7.9985      2.7344      0.0864     -5.1123    108.1872     31.5152
  1097.2000      7.9985      2.6986     -0.0239     -2.9458    108.3318     31.1444
  1097.3000      8.0298      2.6696     -0.0763     -1.1905    107.7844     30.4952
  1097.4000      8.0298      2.6492     -0.0510      0.0470    110.0092     29.8053
  1097.5000      7.8493      2.6241      0.0077      1.5722    115.5405     29.4128
  1097.6000      7.8493      2.5920      0.0257      3.5146    121.8704     29.7719
  1097.7000      7.8493      2.5667      0.0220      5.0461    127.1402     30.6092
  1097.8000      7.8933      2.5522      0.0521      5.9274    129.6153     31.0699
  1097.9000      7.8933      2.5387      0.0348      6.7450    127.9281     30.9632
  1098.0000      7.9511      2.5231      0.0445      7.6922    125.2691     30.6624
  1098.1000      7.9511      2.5063      0.0408      8.7117    124.7367     30.6185
  1098.2000      7.9511      2.4829      0.0327     10.1303    125.4561     30.7571
  1098.3000      7.9517      2.4475      0.0207     12.2738    127.1031     30.6236
  1098.4000      7.9517      2.4006      0.0465     15.1146    129.8242     30.4899
  1098.5000      7.9459      2.3511      0.0257     18.1138    131.1410     30.8831
  1098.6000      7.9459      2.3138      0.0323     20.3736    129.6725     31.5156
  1098.7000      7.9459      2.2930      0.0604     21.6372    127.0957     31.8572
  1098.8000      7.9569      2.2871      0.0483     21.9965    125.0748     32.1630
  1098.9000      7.9569      2.2997      0.1105     21.2328    126.0075     32.8878
  1099.0000      7.9770      2.3251      0.1712     19.6920    131.0526     33.6863
  1099.1000      7.9770      2.3510      0.1322     18.1197    135.7947     33.9834
  1099.2000      7.9770      2.3669      0.2255     17.1598    135.7660     33.7644
  1099.3000      8.0441      2.3605      0.2205     17.5434    132.5161     33.5710
  1099.4000      8.0441      2.3421      0.0832     18.6593    128.2410     33.7650
  1099.5000      8.0872      2.3409      0.0829     18.7313    124.8042     33.9127
  1099.6000      8.0872      2.3601      0.1120     17.5675    126.1476     33.6841
  1099.7000      8.0872      2.3844      0.0418     16.0969    131.2752     33.3619
  1099.8000      8.0770      2.4145      0.0327     14.2732    134.9145     32.9946
  1099.9000      8.0770      2.4523      0.1059     11.9846    134.1845     32.2690
  1100.0000      8.2126      2.4881      0.1004      9.8137    131.2126     31.2492
  1100.1000      8.2126      2.5124      0.1285      8.3374    131.2279     30.4317
  1100.2000      8.2126      2.5183      0.1216      7.9803    133.8453     30.1048
  1100.3000      8.2868      2.5061      0.1202      8.7213    134.3122     30.1355
  1100.4000      8.2868      2.4848      0.0868     10.0104    133.7626     30.3331
  1100.5000      8.0081      2.4672      0.0720     11.0759    135.0915     30.6557
  1100.6000      8.0081      2.4636      0.0341     11.2955    135.7021     30.9880
  1100.7000      8.0081      2.4705      0.0981     10.8814    134.2493     30.9713
  1100.8000      7.9255      2.4814      0.0555     10.2203    132.7538     30.6336
  1100.9000      7.9255      2.5092      0.0525      8.5313    131.3530     30.5433
  1101.0000      7.9137      2.5612      0.1143      5.3824    130.6284     30.6131
  1101.1000      7.9137      2.6095      0.1916      2.4531    128.6368     30.1910
  1101.2000      7.9137      2.6253      0.1835      1.4945    123.5767     29.3232
  1101.3000      7.9075      2.6156      0.1374      2.0848    119.9338     28.6823
  1101.4000      7.9075      2.5938      0.1599      3.4033    120.2494     28.5337
  1101.5000      7.8941      2.5579      0.1000      5.5813    123.0954     28.6674
  1101.6000      7.8941      2.5179      0.0533      8.0071    127.1316     28.9986
  1101.7000      7.8941      2.4961      0.0025      9.3295    130.8286     29.5308
  1101.8000      7.9007      2.4970      0.0462      9.2713    132.5380     30.0581
  1101.9000      7.9007      2.5022      0.0665      8.9594    130.9919     30.4042
  1102.0000      8.0275      2.5003      0.0450      9.0729    128.2856     30.5595
  1102.1000      8.0275      2.4983      0.0472      9.1918    127.7934     30.5608
  1102.2000      8.0275      2.4982      0.1176      9.1997    130.9596     30.4955
  1102.3000      8.1187      2.4953      0.0759      9.3749    137.6040     30.4437
  1102.4000      8.1187      2.4924      0.0684      9.5522    143.7405     30.3589
  1102.5000      8.1356      2.4924      0.0634      9.5516    143.3335     30.4545
  1102.6000      8.1356      2.4939      0.0713      9.4582    137.4246     30.8451
  1102.7000      8.1356      2.4952      0.0466      9.3803    133.1560     31.0310
