~Version Information
VERS.                      2.0: CWLS Log ASCII Standard - VERSION 2.0
WRAP.                       NO: One line per depth step
~Well Information Block
STRT.FT                15.0000: 
STOP.FT              1891.7500: 
STEP.FT                 0.2500: 
NULL.                -999.2500: 
COMP.          Pioneer Natural Resources: COMPANY
WELL.          Oink Oink 14-36 Tr: WELL
FLD.           Purgatoire River: FIELD
LOC.           236' FSL & 164' FWL: LOCATION
PROV.                 Colorado: PROVINCE
CNTY.               Las Animas: COUNTRY
SRVC.                Patterson: SERVICE COMPANY
DATE.          Wed Jun 22 11:40:13 2005: LOG DATE
UWI.           05 071 08393 00: UNIQUE WELL ID
~Curve Information Block
DEPT.FT            0 000 00 00: Depth
GR.GAPI                       : Gamma Ray
CCL.                          : Casing Collar Locator
TT3.usec                      : CBL 3' Travel Time
AMP3.mV                       : CBL 3' Amplitude
~Parameter Information Block
~A  Depth        GR         CCL         TT3         AMP3    
# ...
  1254.5000     63.7946      0.0000    728.7709      5.0693
  1254.7500     66.1570      0.0000    718.7378      4.7718
  1255.0000     69.0700      0.0000    699.3886      4.6003
  1255.2500     72.3719      0.0000    676.5355      4.5448
  1255.5000     76.9015      0.0000    658.0765      4.5662
  1255.7500     83.8985      0.0000    651.5010      4.6213
  1256.0000     93.7745      0.0000    659.2773      4.6811
  1256.2500    105.2562      0.0000    675.3556      4.7334
  1256.5000    115.7409      0.0000    687.3375      4.7818
  1256.7500    122.7669      0.0000    684.3394      4.8401
  1257.0000    125.4666      0.0000    664.8427      4.9189
  1257.2500    124.8355      0.0000    637.7239      5.0155
  1257.5000    122.7338      0.0000    614.7680      5.1192
  1257.7500    120.5547      0.0000    601.6168      5.2225
  1258.0000    118.6225      0.0000    596.3114      5.3197
  1258.2500    116.8097      0.0000    595.1366      5.4004
  1258.5000    115.5403      0.0000    596.9085      5.4512
  1258.7500    115.5634      0.0000    601.5938      5.4694
  1259.0000    116.5953      0.0000    608.0815      5.4697
  1259.2500    116.9146      0.0000    614.9130      5.4757
  1259.5000    114.8433      0.0000    621.7542      5.5020
  1259.7500    110.4334      0.0000    629.2606      5.5455
  1260.0000    105.4074      0.0000    638.1243      5.5933
  1260.2500    101.6040      0.0000    648.4865      5.6352
  1260.5000     99.9024      0.0000    659.7884      5.6650
  1260.7500    100.4778      0.0000    670.7227      5.6782
  1261.0000    103.2861      0.0000    678.7840      5.6755
  1261.2500    107.9069      0.0000    679.8806      5.6649
  1261.5000    113.3613      0.0000    669.4975      5.6522
  1261.7500    118.4928      0.0000    645.6650      5.6342
  1262.0000    122.3781      0.0000    611.6646      5.6080
  1262.2500    124.3933      0.0000    576.2278      5.5806
  1262.5000    124.3844      0.0000    549.9097      5.5632
  1262.7500    122.9152      0.0000    539.1538      5.5629
  1263.0000    121.0346      0.0000    542.8306      5.5835
  1263.2500    119.6167      0.0000    554.5909      5.6257
  1263.5000    118.9249      0.0000    568.3740      5.6823
  1263.7500    118.7338      0.0000    581.3984      5.7393
  1264.0000    118.7785      0.0000    593.0350      5.7858
  1264.2500    119.0368      0.0000    603.0166      5.8214
  1264.5000    119.5348      0.0000    611.2917      5.8519
  1264.7500    120.0133      0.0000    617.9727      5.8811
  1265.0000    120.1993      0.0000    622.1553      5.9107
  1265.2500    120.4994      0.0000    621.7643      5.9423
  1265.5000    121.8479      0.0000    615.9058      5.9759
  1265.7500    124.4929      0.0000    606.7174      6.0076
  1266.0000    127.3289      0.0000    597.7288      6.0309
  1266.2500    128.7234      0.0000    591.2626      6.0406
  1266.5000    127.6448      0.0000    588.4396      6.0346
  1266.7500    123.9373      0.0000    590.2073      6.0145
  1267.0000    118.1869      0.0000    595.7294      5.9841
  1267.2500    111.6206      0.0000    599.9214      5.9488
  1267.5000    105.7843      0.0000    595.6070      5.9160
  1267.7500    101.8757      0.0000    580.5139      5.8960
  1268.0000    100.0359      0.0000    561.5716      5.8995
  1268.2500     99.2227      0.0000    550.5089      5.9308
  1268.5000     98.2120      0.0000    554.6836      5.9830
  1268.7500     96.9795      0.0000    571.9294      6.0408
  1269.0000     96.8556      0.0000    592.9625      6.0878
  1269.2500     99.2929      0.0000    608.0856      6.1129
  1269.5000    104.7457      0.0000    613.3486      6.1124
  1269.7500    112.5217      0.0000    612.6423      6.0898
  1270.0000    121.0679      0.0000    614.0213      6.0524
  1270.2500    128.3973      0.0000    622.7472      6.0099
  1270.5000    132.9438      0.0000    637.4310      5.9754
  1270.7500    134.5223      0.0000    652.6808      5.9582
  1271.0000    134.3324      0.0000    664.2781      5.9483
  1271.2500    133.6403      0.0000    671.2068      5.9094
  1271.5000    132.3097      0.0000    674.3281      5.7946
  1271.7500    128.7062      0.0000    675.0401      5.5747
  1272.0000    121.0236      0.0000    674.8895      5.2555
  1272.2500    108.7370      0.0000    675.0135      4.8754
  1272.5000     93.2184      0.0000    675.5916      4.4903
  1272.7500     77.3282      0.0000    676.2000      4.1553
  1273.0000     64.1199      0.0000    676.6738      3.9084
  1273.2500     55.2830      0.0000    677.4791      3.7558
  1273.5000     50.4759      0.0000    679.5526      3.6728
  1273.7500     48.0596      0.0000    683.9832      3.6264
  1274.0000     46.4337      0.0000    691.3174      3.6033
  1274.2500     44.7687      0.0000    700.4890      3.6165
  1274.5000     42.9250      0.0000    708.5478      3.6831
  1274.7500     41.1530      0.0000    712.1948      3.8041
  1275.0000     39.8141      0.0000    709.9035      3.9669
  1275.2500     39.1375      0.0000    702.7338      4.1600
  1275.5000     39.2866      0.0000    693.9162      4.3754
  1275.7500     40.5996      0.0000    687.5984      4.5981
  1276.0000     43.3052      0.0000    686.1928      4.7994
  1276.2500     46.9154      0.0000    687.9275      4.9514
  1276.5000     50.3882      0.0000    688.2567      5.0552
  1276.7500     53.0741      0.0000    684.6218      5.1402
  1277.0000     55.1394      0.0000    678.8948      5.2240
  1277.2500     57.0060      0.0000    674.6641      5.2834
  1277.5000     58.8536      0.0000    673.5386      5.2893
  1277.7500     60.9683      0.0000    675.0617      5.2558
  1278.0000     64.2888      0.0000    678.9855      5.2321
  1278.2500     70.1351      0.0000    685.9008      5.2575
  1278.5000     79.0278     -3.0000    695.4387      5.3416
  1278.7500     89.6342      3.0000    704.8874      5.4747
  1279.0000     99.1170      1.5152    710.5473      5.6441
  1279.2500    104.9254      0.0000    710.9761      5.8414
  1279.5000    106.4213      0.0000    709.0845      6.0516
  1279.7500    104.9481      0.0000    710.4196      6.2355
  1280.0000    102.7212      0.0000    718.3077      6.3533
  1280.2500    101.7157      0.0000    730.6833      6.4307
  1280.5000    102.9797      0.0000    742.5303      6.5710
  1280.7500    106.3227      0.0000    750.9785      6.8627
  1281.0000    110.4478      0.0000    756.8731      7.2886
  1281.2500    113.6934      0.0000    762.0247      7.7395
  1281.5000    115.0414      0.0000    766.6991      8.0971
  1281.7500    114.6119      0.0000    769.9182      8.2956
  1282.0000    113.3233      0.0000    770.9581      8.3379
  1282.2500    112.1992      0.0000    770.1294      8.2793
  1282.5000    111.7863      0.0000    768.6846      8.1877
  1282.7500    111.8276      0.0000    768.1119      8.1026
  1283.0000    111.4590      0.0000    769.0986      8.0335
  1283.2500    110.0623      0.0000    771.0303      7.9890
  1283.5000    108.0224      0.0000    772.6232      7.9900
  1283.7500    106.4087      0.0000    772.9282      8.0461
  1284.0000    105.8973      0.0000    771.6782      8.1319
  1284.2500    106.3565      0.0000    769.0682      8.2017
  1284.5000    107.5437      0.0000    765.5838      8.2232
  1284.7500    109.6875      0.0000    761.9655      8.1906
  1285.0000    112.9791      0.0000    759.0481      8.1127
  1285.2500    116.8833      0.0000    757.5176      7.9992
  1285.5000    120.4145      0.0000    757.7266      7.8601
  1285.7500    122.9551      0.0000    759.5680      7.7090
  1286.0000    124.4803      0.0000    762.4875      7.5533
  1286.2500    125.0547      0.0000    765.6006      7.3767
  1286.5000    124.4703      0.0000    767.6588      7.1435
  1286.7500    122.5597      0.0000    766.6725      6.8325
  1287.0000    119.7156      0.0000    759.2956      6.4694
  1287.2500    116.8397      0.0000    740.9299      6.1182
  1287.5000    114.7960      0.0000    708.0162      5.8381
  1287.7500    114.0480      0.0000    661.9535      5.6462
