~Version Information
VERS.                      2.0: CWLS Log ASCII Standard - VERSION 2.0
WRAP.                       NO: One line per depth step
~Well Information Block
STRT.FT              2246.0000: 
STOP.FT              2472.6000: 
STEP.FT                 0.1000: 
NULL.                -999.2500: 
COMP.          Petrogulf Corporation: COMPANY
WELL.           Schedler 9-23V: WELL
FLD.           Purgatorie River: FIELD
LOC.           2185' FSL & 2328' FWL: LOCATION
CNTY.               Las Animas: COUNTY
SRVC.                         : SERVICE COMPANY
DATE.          Thu Jul 10 10:29:30 2003: LOG DATE
UWI.           05 071 07876 00: UNIQUE WELL ID
STAT.                 Colorado: STATE
~Curve Information Block
DEPT.FT            0 000 00 00: Depth
DCAL.in                       : CDL Caliper
RHOB.g/cc                     : CDL Bulk Density
RHOC.g/cc                     : CDL Density Correction
DPOR.pu                       : CDL Density Porosity
GR.GAPI                       : Gamma Ray
NPOR.pu                       : Neutron Porosity
~Parameter Information Block
~A  Depth       DCAL        RHOB        RHOC        DPOR         GR         NPOR    
# ...
  2284.4000      8.0332      2.3355      0.0500     19.0628     88.4049     27.3170
  2284.5000      8.0359      2.3129      0.0411     20.4323     88.3938     27.2777
  2284.6000      8.0359      2.2849      0.0318     22.1254     88.3180     27.3030
  2284.7000      8.0359      2.2523      0.0223     24.1006     88.1590     27.3957
  2284.8000      8.0383      2.2158      0.0133     26.3127     87.8728     27.5566
  2284.9000      8.0383      2.1762      0.0054     28.7147     87.3963     27.7848
  2285.0000      8.0418      2.1342     -0.0008     31.2598     86.6544     28.0769
  2285.1000      8.0418      2.0906     -0.0047     33.9032     85.5741     28.4270
  2285.2000      8.0418      2.0460     -0.0061     36.6042     84.0951     28.8264
  2285.3000      8.0437      2.0011     -0.0049     39.3270     82.1817     29.2643
  2285.4000      8.0437      1.9563     -0.0013     42.0420     79.8299     29.7288
  2285.5000      8.0436      1.9120      0.0041     44.7259     77.0690     30.2078
  2285.6000      8.0436      1.8685      0.0104     47.3613     73.9570     30.6899
  2285.7000      8.0436      1.8261      0.0169     49.9358     70.5764     31.1656
  2285.8000      8.0444      1.7847      0.0227     52.4408     67.0213     31.6274
  2285.9000      8.0444      1.7446      0.0271     54.8699     63.3892     32.0694
  2286.0000      8.0495      1.7059      0.0299     57.2180     59.7705     32.4875
  2286.1000      8.0495      1.6686      0.0309     59.4797     56.2417     32.8782
  2286.2000      8.0495      1.6328      0.0305     61.6488     52.8626     33.2381
  2286.3000      8.0618      1.5986      0.0292     63.7183     49.6770     33.5637
  2286.4000      8.0618      1.5663      0.0277     65.6800     46.7144     33.8515
  2286.5000      8.0840      1.5358      0.0266     67.5258     43.9944     34.0985
  2286.6000      8.0840      1.5074      0.0265     69.2477     41.5304     34.3029
  2286.7000      8.0840      1.4812      0.0276     70.8392     39.3319     34.4648
  2286.8000      8.1359      1.4571      0.0300     72.2959     37.4055     34.5865
  2286.9000      8.1359      1.4353      0.0335     73.6161     35.7517     34.6725
  2287.0000      8.2717      1.4158      0.0377     74.8008     34.3628     34.7288
  2287.1000      8.2717      1.3984      0.0422     75.8540     33.2226     34.7625
  2287.2000      8.2717      1.3831      0.0465     76.7822     32.3024     34.7810
  2287.3000      8.5755      1.3697      0.0504     77.5937     31.5668     34.7915
  2287.4000      8.5755      1.3581      0.0537     78.2980     30.9759     34.8000
  2287.5000      8.9424      1.3481      0.0564     78.9052     30.4948     34.8114
  2287.6000      8.9424      1.3395      0.0584     79.4247     30.0984     34.8298
  2287.7000      8.9424      1.3322      0.0600     79.8652     29.7773     34.8582
  2287.8000      8.9678      1.3261      0.0611     80.2338     29.5390     34.8985
  2287.9000      8.9678      1.3212      0.0620     80.5356     29.4078     34.9524
  2288.0000      8.7236      1.3172      0.0626     80.7737     29.4158     35.0206
  2288.1000      8.7236      1.3143      0.0630     80.9491     29.6003     35.1032
  2288.2000      8.7236      1.3125      0.0633     81.0605     29.9918     35.1993
  2288.3000      8.8022      1.3118      0.0633     81.1045     30.6119     35.3069
  2288.4000      8.8022      1.3122      0.0633     81.0763     31.4690     35.4223
  2288.5000      9.3302      1.3140      0.0633     80.9691     32.5573     35.5405
  2288.6000      9.3302      1.3172      0.0633     80.7754     33.8600     35.6547
  2288.7000      9.3302      1.3220      0.0636     80.4873     35.3547     35.7576
  2288.8000     10.0026      1.3284      0.0644     80.0969     37.0165     35.8411
  2288.9000     10.0026      1.3366      0.0657     79.5972     38.8222     35.8981
  2289.0000     10.5439      1.3468      0.0677     78.9829     40.7521     35.9228
  2289.1000     10.5439      1.3589      0.0706     78.2512     42.7902     35.9121
  2289.2000     10.5439      1.3729      0.0742     77.4024     44.9205     35.8654
  2289.3000     10.7380      1.3887      0.0787     76.4408     47.1269     35.7851
  2289.4000     10.7380      1.4063      0.0839     75.3751     49.3873     35.6756
  2289.5000     10.3945      1.4254      0.0896     74.2188     51.6747     35.5427
  2289.6000     10.3945      1.4457      0.0954     72.9902     53.9531     35.3921
  2289.7000     10.3945      1.4667      0.1012     71.7123     56.1795     35.2292
  2289.8000      9.6688      1.4882      0.1066     70.4121     58.3020     35.0573
  2289.9000      9.6688      1.5095      0.1112     69.1200     60.2663     34.8784
  2290.0000      9.2247      1.5302      0.1147     67.8684     62.0160     34.6929
  2290.1000      9.2247      1.5496      0.1170     66.6904     63.4981     34.5003
  2290.2000      9.2247      1.5673      0.1177     65.6177     64.6665     34.2999
  2290.3000      9.1620      1.5828      0.1169     64.6790     65.4868     34.0921
  2290.4000      9.1620      1.5957      0.1144     63.8979     65.9380     33.8788
  2290.5000      9.1143      1.6057      0.1102     63.2906     66.0160     33.6636
  2290.6000      9.1143      1.6127      0.1044     62.8644     65.7329     33.4525
  2290.7000      9.1143      1.6168      0.0972     62.6164     65.1155     33.2528
  2290.8000      8.8696      1.6182      0.0888     62.5324     64.2045     33.0733
  2290.9000      8.8696      1.6173      0.0797     62.5871     63.0533     32.9231
  2291.0000      8.5655      1.6147      0.0703     62.7449     61.7273     32.8103
  2291.1000      8.5655      1.6111      0.0614     62.9611     60.3044     32.7412
  2291.2000      8.5655      1.6075      0.0536     63.1844     58.8705     32.7187
  2291.3000      8.3688      1.6046      0.0477     63.3595     57.5229     32.7414
  2291.4000      8.3688      1.6034      0.0441     63.4304     56.3615     32.8031
  2291.5000      8.2102      1.6048      0.0433     63.3432     55.4862     32.8924
  2291.6000      8.2102      1.6097      0.0453     63.0493     54.9898     32.9937
  2291.7000      8.2102      1.6186      0.0499     62.5078     54.9512     33.0882
  2291.8000      8.0979      1.6322      0.0566     61.6879     55.4274     33.1567
  2291.9000      8.0979      1.6506      0.0648     60.5695     56.4509     33.1813
  2292.0000      8.1228      1.6741      0.0739     59.1445     58.0267     33.1482
  2292.1000      8.1228      1.7026      0.0831     57.4170     60.1295     33.0492
  2292.2000      8.1228      1.7359      0.0919     55.4020     62.7071     32.8824
  2292.3000      8.2398      1.7734      0.0996     53.1256     65.6803     32.6523
  2292.4000      8.2398      1.8147      0.1058     50.6226     68.9467     32.3680
  2292.5000      8.3094      1.8591      0.1104     47.9358     72.3882     32.0408
  2292.6000      8.3094      1.9056      0.1130     45.1134     75.8817     31.6822
  2292.7000      8.3094      1.9536      0.1138     42.2075     79.3068     31.3016
  2292.8000      8.3164      2.0020      0.1127     39.2714     82.5575     30.9052
  2292.9000      8.3164      2.0501      0.1101     36.3579     85.5551     30.4964
  2293.0000      8.2836      2.0970      0.1063     33.5163     88.2486     30.0771
  2293.1000      8.2836      2.1419      0.1015     30.7910     90.6156     29.6486
  2293.2000      8.2836      2.1844      0.0963     28.2188     92.6567     29.2138
  2293.3000      8.1776      2.2238      0.0911     25.8282     94.3848     28.7781
  2293.4000      8.1776      2.2600      0.0863     23.6379     95.8133     28.3494
  2293.5000      8.0440      2.2927      0.0825     21.6566     96.9493     27.9372
  2293.6000      8.0440      2.3219      0.0800     19.8835     97.7890     27.5512
  2293.7000      8.0440      2.3479      0.0791     18.3096     98.3188     27.1989
  2293.8000      7.9403      2.3708      0.0799     16.9186     98.5210     26.8848
  2293.9000      7.9403      2.3911      0.0823     15.6890     98.3834     26.6090
