~Version Information
VERS.                      2.0: CWLS Log ASCII Standard - VERSION 2.0
WRAP.                       NO: One line per depth step
~Well Information Block
STRT.FT               620.0000: 
STOP.FT              2660.0000: 
STEP.FT                 0.1000: 
NULL.                -999.2500: 
COMP.          Evergreen Operating Corporation: COMPANY
WELL.             Carbon 34-21: WELL
FLD.           Purgatoire River: FIELD
LOC.           56' FSL & 2304' FEL: LOCATION
PROV.                 Colorado: PROVINCE
CNTY.               Las Animas: COUNTRY
SRVC.                Patterson: SERVICE COMPANY
DATE.          Mon Sep 13 14:13:15 2004: LOG DATE
UWI.           05 071 08117 00: UNIQUE WELL ID
~Curve Information Block
DEPT.FT            0 000 00 00: Depth
DCAL.in                       : CDL Caliper
DPOR.pu                       : CDL Density Porosity
NPOR.pu                       : Neutron Porosity
RHOB.g/cc                     : CDL Bulk Density
RHOC.g/cc                     : CDL Density Correction
GR.GAPI                       : Gamma Ray
~Parameter Information Block
~A  Depth       DCAL        DPOR        NPOR        RHOB        RHOC         GR     
# ...
  2108.0000      8.5192     71.5334     38.1814      1.4697      0.1353    111.1654
  2108.1000      8.5192     71.7611     37.8855      1.4659      0.1231    121.2215
  2108.2000      8.5192     69.2222     37.0542      1.5078      0.1652    130.6472
  2108.3000      9.0411     63.5747     36.0383      1.6010      0.1973    136.0093
  2108.4000      9.0411     55.2420     35.1481      1.7385      0.2526    137.5086
  2108.5000      9.7566     46.0273     34.3193      1.8906      0.3179    136.2122
  2108.6000      9.7566     38.2836     33.6684      2.0183      0.3603    133.0074
  2108.7000      9.7566     33.0877     33.1531      2.1041      0.3672    129.7759
  2108.8000     10.5622     30.2449     32.2931      2.1510      0.3785    130.1772
  2108.9000     10.5622     28.7681     31.1586      2.1753      0.2956    131.9769
  2109.0000     10.8563     27.2613     30.1598      2.2002      0.2624    129.2643
  2109.1000     10.8563     25.2190     29.4150      2.2339      0.2421    125.4270
  2109.2000     10.8563     22.6960     28.9355      2.2755      0.1878    126.8015
  2109.3000     10.0970     19.5730     28.8491      2.3270      0.2082    133.1131
  2109.4000     10.0970     15.9251     28.9664      2.3872      0.1797    142.3154
  2109.5000      8.8824     11.8542     28.6142      2.4544      0.1623    153.3633
  2109.6000      8.8824      7.7267     27.6375      2.5225      0.1676    163.9618
  2109.7000      8.8824      4.6399     26.6042      2.5734      0.2381    169.4877
  2109.8000      8.2045      3.7234     26.0664      2.5886      0.1960    164.9270
  2109.9000      8.2045      5.0299     26.2683      2.5670      0.1905    149.8279
  2110.0000      8.0198      7.3782     26.8061      2.5283      0.2086    132.6630
  2110.1000      8.0198      8.8378     27.0843      2.5042      0.1020    124.9870
  2110.2000      8.0198      8.4073     26.8917      2.5113      0.1180    124.5859
  2110.3000      7.9612      7.4671     26.2080      2.5268      0.0965    123.2707
  2110.4000      7.9612      7.1643     25.1945      2.5318      0.0011    125.4115
  2110.5000      7.9401      6.5998     24.6368      2.5411      0.0259    136.2386
  2110.6000      7.9401      5.5937     24.9749      2.5577      0.0891    147.0302
  2110.7000      7.9401      4.9473     25.2103      2.5684      0.0615    151.0628
  2110.8000      7.9368      4.4274     24.4411      2.5769      0.0892    157.2780
  2110.9000      7.9368      3.8047     23.2180      2.5872      0.0843    166.4027
  2111.0000      7.9348      3.5106     22.7871      2.5921      0.0918    170.4061
  2111.1000      7.9348      3.5315     23.3830      2.5917      0.0415    166.7465
  2111.2000      7.9348      3.5020     24.1206      2.5922      0.0552    152.3363
  2111.3000      7.9298      3.5776     24.1410      2.5910      0.0703    132.5975
  2111.4000      7.9298      4.0078     23.2074      2.5839      0.0470    122.8138
  2111.5000      7.9207      4.7737     22.1539      2.5712      0.0676    128.6525
  2111.6000      7.9207      5.5632     21.9379      2.5582      0.0041    138.2532
  2111.7000      7.9207      5.9000     22.2852      2.5527      0.0550    139.5607
  2111.8000      7.9150      6.1837     22.2548      2.5480      0.0288    130.7760
  2111.9000      7.9150      6.8652     21.5643      2.5367      0.0507    117.7133
  2112.0000      7.9138      7.1846     20.6416      2.5315      0.0027    109.8089
  2112.1000      7.9138      6.5223     19.7062      2.5424      0.0475    107.5682
  2112.2000      7.9138      5.5701     18.8146      2.5581      0.0554    103.0874
  2112.3000      7.9130      5.2564     18.2798      2.5633      0.0719     96.3842
  2112.4000      7.9130      5.8506     18.2517      2.5535      0.0399     91.0573
  2112.5000      7.9121      6.5438     18.3238      2.5420      0.0019     86.6919
  2112.6000      7.9121      6.3094     18.2371      2.5459      0.0212     86.4282
  2112.7000      7.9121      5.3840     18.1764      2.5612      0.0440     91.4084
  2112.8000      7.9116      4.9916     18.0810      2.5676      0.0704     96.0801
  2112.9000      7.9116      5.5578     17.7431      2.5583      0.0409     97.3843
  2113.0000      7.9113      6.1422     17.2127      2.5487      0.0429     96.5706
  2113.1000      7.9113      5.8857     16.6622      2.5529      0.0305     94.9206
  2113.2000      7.9113      5.0354     16.1056      2.5669      0.0402     92.7274
  2113.3000      7.9108      4.3667     15.7996      2.5779      0.0549     89.2978
  2113.4000      7.9108      4.0012     15.8647      2.5840      0.0745     83.8086
  2113.5000      7.9115      3.4849     15.6477      2.5925      0.0426     79.0472
  2113.6000      7.9115      2.8254     14.6115      2.6034      0.0879     78.2506
  2113.7000      7.9115      2.6221     13.4529      2.6067      0.0573     78.0427
  2113.8000      7.9127      3.0468     13.2178      2.5997      0.0706     71.7111
  2113.9000      7.9127      3.6562     13.8737      2.5897      0.0329     61.5253
  2114.0000      7.9114      3.8507     14.2891      2.5865      0.0262     55.8101
  2114.1000      7.9114      3.5048     13.5607      2.5922      0.0681     54.9433
  2114.2000      7.9114      3.0209     12.1395      2.6002      0.0333     54.7702
  2114.3000      7.9069      2.7320     11.0622      2.6049      0.0431     57.5477
  2114.4000      7.9069      2.7171     10.8307      2.6052      0.0145     64.8821
  2114.5000      7.8938      3.2567     11.2133      2.5963      0.0797     66.4023
  2114.6000      7.8938      4.9613     11.6247      2.5681      0.0546     55.2201
  2114.7000      7.8938      7.7218     11.8634      2.5226      0.0428     44.7423
  2114.8000      7.8668     10.4651     12.1471      2.4773     -0.0061     42.6348
  2114.9000      7.8668     12.1645     12.5329      2.4493      0.0183     41.2680
  2115.0000      7.8298     12.8983     12.9477      2.4372      0.0258     37.6213
  2115.1000      7.8298     12.9606     13.2589      2.4362     -0.0055     37.9357
  2115.2000      7.8298     11.9177     13.5526      2.4534      0.0148     45.8091
  2115.3000      7.7973      9.7704     14.1985      2.4888      0.0354     56.3654
  2115.4000      7.7973      7.6764     14.9242      2.5233      0.1405     62.9074
  2115.5000      7.8015      6.7715     15.0187      2.5383      0.1027     62.6238
  2115.6000      7.8015      6.9501     14.8502      2.5353      0.1145     60.1271
  2115.7000      7.8015      7.6063     14.8640      2.5245      0.0908     61.4559
  2115.8000      7.8380      8.2217     14.6239      2.5143      0.0926     66.1348
  2115.9000      7.8380      8.3977     14.2981      2.5114      0.0444     71.7251
  2116.0000      7.8668      8.2742     14.5528      2.5135      0.0792     74.6849
  2116.1000      7.8668      8.6831     15.1154      2.5067      0.0925     69.2257
  2116.2000      7.8668      9.6470     15.4320      2.4908      0.0520     60.1904
  2116.3000      7.8768     10.0310     15.5276      2.4845      0.0585     61.2347
  2116.4000      7.8768      9.4422     15.8852      2.4942      0.0917     70.8642
  2116.5000      7.8832      8.0914     16.6089      2.5165      0.0851     74.3786
  2116.6000      7.8832      6.0620     16.6121      2.5500      0.1036     70.3170
  2116.7000      7.8832      4.4979     15.8759      2.5758      0.1678     66.3209
  2116.8000      7.8998      4.8917     15.6944      2.5693      0.1171     61.6792
  2116.9000      7.8998      6.4588     16.1081      2.5434      0.0602     55.9018
  2117.0000      7.9243      7.5656     16.2815      2.5252      0.0768     54.1497
  2117.1000      7.9243      8.3912     16.4793      2.5115      0.0696     57.9186
  2117.2000      7.9243      8.9812     17.3811      2.5018      0.0113     62.6316
  2117.3000      7.9428      8.3114     18.3397      2.5129      0.0824     66.3194
  2117.4000      7.9428      6.8031     18.5360      2.5377      0.1063     68.7464
  2117.5000      7.9574      5.8147     18.0424      2.5541      0.0759     66.1518
