~Version Information
VERS.                      2.0: CWLS Log ASCII Standard - VERSION 2.0
WRAP.                       NO: One line per depth step
~Well Information Block
STRT.FT               952.6000: 
STOP.FT              2511.5000: 
STEP.FT                 0.1000: 
NULL.                -999.2500: 
COMP.          Petrogulf Corporation: COMPANY
WELL.             Royal 8-33 V: WELL
FLD.           Purgatoire River: FIELD
LOC.           2365' FSL & 2336' FEL: LOCATION
PROV.                 Colorado: PROVINCE
CNTY.               Las Animas: COUNTRY
SRVC.                Patterson: SERVICE COMPANY
DATE.          Fri Dec 05 09:15:49 2003: LOG DATE
UWI.                          : UNIQUE WELL ID
~Curve Information Block
DEPT.FT            0 000 00 00: Depth
DCAL.in                       : CDL Caliper
RHOB.g/cc                     : CDL Bulk Density
RHOC.g/cc                     : CDL Density Correction
DPOR.pu                       : CDL Density Porosity
GR.GAPI                       : Gamma Ray
NPOR.pu                       : Neutron Porosity
~Parameter Information Block
~A  Depth       DCAL        RHOB        RHOC        DPOR         GR         NPOR    
# ...
  1279.0000      8.2950      2.4264      0.1319     13.5520    108.6903     29.9663
  1279.1000      8.2950      2.4177      0.1177     14.0812    114.3498     29.1325
  1279.2000      8.2950      2.4079      0.0369     14.6711    115.9843     28.5703
  1279.3000      8.3019      2.4299      0.1194     13.3381    111.7982     28.4279
  1279.4000      8.3019      2.4770      0.2450     10.4836    110.6077     28.5028
  1279.5000      8.3065      2.5211      0.2504      7.8114    116.2195     28.7978
  1279.6000      8.3065      2.5441      0.2768      6.4165    124.1122     29.3838
  1279.7000      8.3065      2.5327      0.2479      7.1064    127.5945     29.9943
  1279.8000      8.4691      2.4979      0.1223      9.2202    123.7349     30.4052
  1279.9000      8.4691      2.4695      0.1264     10.9411    115.9727     30.6750
  1280.0000      8.8445      2.4473      0.2273     12.2874    111.1752     30.7890
  1280.1000      8.8445      2.4217      0.1363     13.8370    110.6621     30.9061
  1280.2000      8.8445      2.3993      0.1644     15.1937    112.0731     31.2903
  1280.3000      8.8932      2.3754      0.1589     16.6413    115.1991     31.8050
  1280.4000      8.8932      2.3426      0.1660     18.6279    121.4344     32.3662
  1280.5000      8.6155      2.3075      0.1457     20.7551    127.9333     32.9735
  1280.6000      8.6155      2.2825      0.1152     22.2730    131.3475     33.4161
  1280.7000      8.6155      2.2740      0.1574     22.7881    133.7720     33.5230
  1280.8000      8.4507      2.2760      0.1523     22.6673    132.8326     33.4315
  1280.9000      8.4507      2.2735      0.1857     22.8180    132.1137     33.6939
  1281.0000      8.4202      2.2551      0.1969     23.9306    144.8842     34.2510
  1281.1000      8.4202      2.2304      0.1138     25.4292    162.9577     34.2187
  1281.2000      8.4202      2.2183      0.1145     26.1654    168.6973     33.5565
  1281.3000      8.4517      2.2207      0.1475     26.0159    164.4286     33.2698
  1281.4000      8.4517      2.2212      0.1977     25.9875    158.3082     33.8910
  1281.5000      8.5349      2.2047      0.1561     26.9850    151.9595     34.8517
  1281.6000      8.5349      2.1851      0.1208     28.1741    147.4706     35.4974
  1281.7000      8.5349      2.1900      0.1831     27.8771    149.6853     35.8586
  1281.8000      8.6624      2.2236      0.2645     25.8440    158.6256     35.9824
  1281.9000      8.6624      2.2674      0.3255     23.1855    168.0763     35.7823
  1282.0000      9.0396      2.2964      0.3791     21.4310    169.0880     35.4543
  1282.1000      9.0396      2.2937      0.3528     21.5927    161.1940     35.1403
  1282.2000      9.0396      2.2567      0.3809     23.8389    151.5910     34.8995
  1282.3000      9.8063      2.1674      0.3624     29.2495    145.7688     35.0313
  1282.4000      9.8063      1.9999      0.2657     39.4025    146.4683     35.3741
  1282.5000     10.8396      1.7846      0.1685     52.4492    150.5627     35.3959
  1282.6000     10.8396      1.6095      0.0996     63.0624    153.4251     35.1482
  1282.7000     10.8396      1.5406      0.0267     67.2373    155.2968     34.8758
  1282.8000     11.3984      1.5837      0.0837     64.6242    155.6672     34.4064
  1282.9000     11.3984      1.6926      0.1744     58.0254    153.9848     33.7551
  1283.0000     11.6088      1.7997      0.2502     51.5322    154.5222     33.2940
  1283.1000     11.6088      1.8711      0.2369     47.2049    158.8210     33.0239
  1283.2000     11.6088      1.9190      0.2350     44.3013    161.4053     32.6311
  1283.3000     12.6565      1.9567      0.2708     42.0162    158.3543     32.0905
  1283.4000     12.6565      1.9846      0.2576     40.3299    150.3305     31.6285
  1283.5000     13.3124      2.0161      0.1795     38.4182    142.5917     31.2913
  1283.6000     13.3124      2.0650      0.1599     35.4549    140.8873     31.1661
  1283.7000     13.3124      2.1147      0.1760     32.4434    143.3969     31.6250
  1283.8000     13.7091      2.1487      0.1431     30.3792    146.6765     32.5596
  1283.9000     13.7091      2.1812      0.1671     28.4137    148.6600     33.1552
  1284.0000     13.5634      2.2254      0.3191     25.7329    149.5384     32.8958
  1284.1000     13.5634      2.2707      0.3785     22.9888    153.1620     31.9347
  1284.2000     13.5634      2.3083      0.3684     20.7111    156.7843     31.0411
  1284.3000     12.5362      2.3520      0.3196     18.0622    151.5038     30.9701
  1284.4000     12.5362      2.4086      0.3708     14.6310    138.8197     31.4826
  1284.5000     11.7006      2.4532      0.3422     11.9295    129.3069     31.7480
  1284.6000     11.7006      2.4582      0.3864     11.6255    128.2914     31.3584
  1284.7000     11.7006      2.4326      0.2910     13.1731    132.4288     30.5905
  1284.8000     10.2555      2.4081      0.3185     14.6622    136.1184     29.7857
  1284.9000     10.2555      2.3897      0.2640     15.7776    137.4419     29.1234
  1285.0000      9.1065      2.3659      0.1467     17.2208    136.4272     28.9004
  1285.1000      9.1065      2.3396      0.1047     18.8106    131.9205     29.2441
  1285.2000      9.1065      2.3272      0.0407     19.5651    128.6336     29.6649
  1285.3000      8.4281      2.3381      0.1046     18.9007    129.6327     29.7448
  1285.4000      8.4281      2.3582      0.1326     17.6853    130.3071     29.5972
  1285.5000      8.4113      2.3640      0.1443     17.3313    130.2143     29.7352
  1285.6000      8.4113      2.3477      0.0800     18.3240    132.8788     30.3077
  1285.7000      8.4113      2.3217      0.0342     19.8969    137.5345     30.6837
  1285.8000      8.4395      2.2929      0.1261     21.6414    140.6379     30.6402
  1285.9000      8.4395      2.2538      0.0585     24.0118    141.7111     30.4530
  1286.0000      8.5107      2.2056      0.0559     26.9345    139.8383     30.3224
  1286.1000      8.5107      2.1579      0.0767     29.8226    134.7452     30.2787
  1286.2000      8.5107      2.1333     -0.0138     31.3123    129.8550     29.9389
  1286.3000      8.3992      2.1536      0.0371     30.0873    126.4029     29.1410
  1286.4000      8.3992      2.2039      0.1705     27.0385    125.1425     28.4727
  1286.5000      8.3633      2.2672      0.1671     23.2018    125.3072     28.3765
  1286.6000      8.3633      2.3568      0.2778     17.7697    122.1491     28.4035
  1286.7000      8.3633      2.4722      0.3997     10.7761    116.9531     27.9252
  1286.8000      8.3262      2.5704      0.5331      4.8254    114.7335     27.1183
  1286.9000      8.3262      2.6107      0.5395      2.3808    115.2515     26.7700
  1287.0000      8.4322      2.6053      0.4008      2.7114    115.9165     27.1965
  1287.1000      8.4322      2.5897      0.4024      3.6565    114.4440     27.7493
  1287.2000      8.4322      2.5682      0.2939      4.9573    112.0398     27.9178
  1287.3000      8.5997      2.5209      0.2361      7.8231    113.9885     28.0545
  1287.4000      8.5997      2.4382      0.1293     12.8361    119.4406     28.5775
  1287.5000      8.4043      2.3438      0.0976     18.5592    123.4222     29.2034
  1287.6000      8.4043      2.2646      0.0741     23.3600    126.7329     29.5526
  1287.7000      8.4043      2.1920      0.0685     27.7590    130.0372     29.4947
  1287.8000      8.3530      2.1040      0.0439     33.0888    129.4650     29.3254
  1287.9000      8.3530      1.9987     -0.0075     39.4710    125.7994     29.7546
  1288.0000      8.3013      1.8970      0.0196     45.6372    123.6108     30.6611
  1288.1000      8.3013      1.8324      0.0560     49.5538    121.0277     31.4437
  1288.2000      8.3013      1.8321      0.1893     49.5726    111.6595     31.8335
  1288.3000      8.3301      1.8943      0.2685     45.7976     99.4753     31.5881
  1288.4000      8.3301      1.9888      0.3504     40.0735     99.3963     30.7266
  1288.5000      8.5249      2.0804      0.3232     34.5206    109.8585     29.5420
