~Version Information
 VERS.                                  2.0 : CWLS LAS VERSION
 WRAP.                                   NO : WRAPING MODE
 SWARE .                 MController 2.5.0H : SOFTWARE VERSION
~Well Information
 WELL.                Scott Canyon 11-18 TR : WELL
 COMP.    Pioneer Natural Resources USA Inc : COMPANY
 FLD.                      Purgatoire River : FIELD
 LOC.                NW/NW Sec 18 T32S R65W : LOCATION
 DATE.                              2/16/05 : DATE(S) LOGGED
 SRVC.       Blanco Geological Services LLC : SERVICE COMPANY
 STAT.                                   CO : STATE
 CNTY.                           Las Animas : COUNTY
 CTRY.                                  USA : COUNTRY
 API.                       05-071-08286-00 : API NUMBER
 STRT.FT                             569.00 : START DEPTH
 STOP.FT                            1700.00 : STOP DEPTH
 STEP.FT                               1.00 : DEPTH INCREMENT
 NULL.                                -9999 : NULL VALUE
~Curve information
 DEPTH.FT                                   :
 ROP.MIN/FT                                 :
 GAS.UNITS                                  :
~ASCII Log data
# ...
     1169.00        0.267         64.3 
     1170.00        0.267         60.8 
     1171.00        0.300         56.2 
     1172.00        0.333         50.9 
     1173.00        0.300         45.2 
     1174.00        0.317         41.3 
     1175.00        0.267         36.2 
     1176.00        0.300         34.0 
     1177.00        0.300         31.3 
     1178.00        0.333         29.2 
     1179.00        0.300         26.6 
     1180.00        0.333         25.4 
     1181.00        0.333         24.1 
     1182.00        0.267         23.2 
     1183.00        0.300         21.7 
     1184.00        0.300         21.2 
     1185.00        0.350         20.7 
     1186.00        0.200         20.3 
     1187.00        0.233         20.3 
     1188.00        0.267         21.1 
     1189.00        0.267         21.8 
     1190.00        0.233         21.7 
     1191.00        0.267         20.9 
     1192.00        0.200         20.5 
     1193.00        0.300         18.2 
     1194.00        0.267         16.6 
     1195.00        0.233         14.8 
     1196.00        2.617         64.5 
     1197.00        0.333         68.4 
     1198.00        0.267         68.5 
     1199.00        0.267         67.3 
     1200.00        0.200         63.9 
     1201.00        0.233         60.4 
     1202.00        0.250         56.6 
     1203.00        0.267         52.3 
     1204.00        0.267         47.9 
     1205.00        0.233         44.3 
     1206.00        0.267         41.1 
     1207.00        0.233         37.3 
     1208.00        0.267         33.2 
     1209.00        0.267         29.8 
     1210.00        0.300         26.4 
     1211.00        0.200         23.3 
     1212.00        0.233         21.3 
     1213.00        0.267         20.1 
     1214.00        0.200         19.0 
     1215.00        0.200         18.6 
     1216.00        0.217         19.0 
     1217.00        0.200         18.9 
     1218.00        0.233         18.4 
     1219.00        0.233         18.5 
     1220.00        0.200         18.1 
     1221.00        0.200         17.6 
     1222.00        0.200         17.0 
     1223.00        0.167         16.2 
     1224.00        0.200         15.3 
     1225.00        0.300         14.0 
     1226.00        2.117         49.1 
     1227.00        0.400         59.2 
     1228.00        0.300         61.6 
     1229.00        0.267         61.8 
     1230.00        0.233         61.0 
     1231.00        0.267         58.7 
     1232.00        0.333         54.7 
     1233.00        0.300         49.2 
     1234.00        0.300         44.4 
     1235.00        0.250         40.7 
     1236.00        0.267         37.8 
     1237.00        0.267         35.7 
     1238.00        0.300         33.3 
     1239.00        0.300         30.6 
     1240.00        0.267         27.7 
     1241.00        0.267         26.6 
     1242.00        0.200         25.1 
     1243.00        0.200         24.5 
     1244.00        0.167         23.6 
     1245.00        0.233         22.7 
     1246.00        0.233         21.3 
     1247.00        0.200         20.9 
     1248.00        0.233         20.9 
     1249.00        0.250         19.6 
     1250.00        0.167         18.0 
     1251.00        0.200         17.9 
     1252.00        0.233         17.0 
     1253.00        0.200         16.2 
     1254.00        0.200         15.3 
     1255.00        0.267         14.9 
     1256.00        2.717         63.5 
     1257.00        0.367         71.1 
     1258.00        0.200         71.8 
     1259.00        0.300         71.6 
     1260.00        0.300         69.0 
     1261.00        0.233         64.4 
     1262.00        0.267         61.0 
     1263.00        0.300         55.1 
     1264.00        0.300         48.7 
     1265.00        0.267         43.5 
     1266.00        0.283         39.6 
     1267.00        0.233         36.6 
     1268.00        0.200         34.4 
     1269.00        0.133         33.5 
     1270.00        0.267         33.2 
     1271.00        0.233         34.1 
     1272.00        0.200         34.3 
     1273.00        0.267         34.1 
     1274.00        0.233         32.2 
     1275.00        0.267         30.5 
     1276.00        0.267         30.7 
     1277.00        0.200         29.4 
     1278.00        0.167         28.8 
     1279.00        0.167         28.8 
     1280.00        0.133         29.4 
     1281.00        0.133         30.3 
     1282.00        0.150         30.7 
     1283.00        0.133         31.2 
     1284.00        0.233         31.7 
     1285.00        0.300         32.4 
     1286.00        2.267        108.2 
     1287.00        0.550        130.5 
     1288.00        0.400        131.6 
     1289.00        0.367        129.3 
     1290.00        0.267        122.3 
     1291.00        0.267        114.2 
     1292.00        0.400        102.7 
     1293.00        0.267         88.4 
     1294.00        0.300         81.3 
     1295.00        0.300         75.4 
     1296.00        0.267         70.7 
     1297.00        0.350         67.7 
     1298.00        0.433         64.9 
     1299.00        0.400         63.1 
     1300.00        0.467         60.0 
     1301.00        0.300         54.8 
     1302.00        0.300         52.3 
     1303.00        0.300         51.0 
     1304.00        0.333         48.3 
     1305.00        0.300         45.7 
     1306.00        0.300         43.8 
     1307.00        0.283         43.7 
     1308.00        0.167         43.6 
     1309.00        0.167         43.1 
     1310.00        0.133         42.5 
     1311.00        0.167         41.8 
     1312.00        0.200         41.6 
     1313.00        0.133         39.6 
     1314.00        0.167         38.0 
     1315.00        0.167         35.5 
     1316.00        2.850        171.0 
     1317.00        0.233        180.6 
     1318.00        0.300        181.2 
     1319.00        0.233        176.0 
     1320.00        0.333        167.7 
     1321.00        0.267        151.1 
     1322.00        0.100        139.2 
     1323.00        0.133        134.9 
     1324.00        0.233        129.4 
     1325.00        0.200        121.4 
     1326.00        0.300        115.2 
     1327.00        0.283        106.3 
     1328.00        0.233         97.9 
     1329.00        0.200         91.5 
     1330.00        0.233         86.9 
     1331.00        0.267         82.8 
     1332.00        0.200         78.3 
     1333.00        0.200         75.4 
     1334.00        0.167         72.7 
     1335.00        0.200         70.9 
     1336.00        0.233         69.1 
     1337.00        0.267         67.5 
     1338.00        0.233         66.1 
     1339.00        0.200         66.4 
     1340.00        0.233         67.3 
     1341.00        0.283         67.3 
     1342.00        0.267         66.0 
     1343.00        0.367         63.3 
     1344.00        0.300         57.2 
     1345.00        0.267         51.5 
     1346.00        8.133        171.3 
     1347.00        0.333        161.2 
     1348.00        0.383        147.3 
     1349.00        0.267        130.4 
     1350.00        0.333        120.6 
     1351.00        0.333        109.6 
     1352.00        0.333        101.0 
     1353.00        0.233         92.7 
     1354.00        0.200         87.2 
     1355.00        0.267         82.8 
     1356.00        0.200         77.6 
     1357.00        0.167         73.9 
     1358.00        0.233         71.2 
     1359.00        0.167         67.1 
     1360.00        0.233         64.5 
     1361.00        0.267         61.1 
     1362.00        0.283         58.4 
     1363.00        0.300         57.8 
     1364.00        0.300         56.8 
     1365.00        0.367         54.9 
     1366.00        0.300         52.2 
     1367.00        0.267         52.1 
     1368.00        0.233         51.1 
