~Version Information
 VERS.                                  2.0 : CWLS LAS VERSION
 WRAP.                                   NO : WRAPING MODE
 SWARE .                 MController 2.5.0N : SOFTWARE VERSION
~Well Information
 WELL.                        Paradise 13-8 : WELL
 COMP.        Pioneer Natural Resources Inc : COMPANY
 FLD.                      Purgatoire River : FIELD
 LOC.                 NW/SW Sec 8 T32S R66W : LOCATION
 DATE.                           1/21-22/05 : DATE(S) LOGGED
 SRVC.       Blanco Geological Services LLC : SERVICE COMPANY
 STAT.                                   CO : STATE
 CNTY.                           Las Animas : COUNTY
 CTRY.                                  USA : COUNTRY
 API.                       05-071-07946-00 : API NUMBER
 STRT.FT                             855.00 : START DEPTH
 STOP.FT                            3151.00 : STOP DEPTH
 STEP.FT                               1.00 : DEPTH INCREMENT
 NULL.                                -9999 : NULL VALUE
~Curve information
 DEPTH.FT                                   :
 ROP.MIN/FT                                 :
 GAS.UNITS                                  :
~ASCII Log data
# ...
      2455.0         0.65         14.0 
      2456.0         0.63         16.4 
      2457.0         0.73         15.6 
      2458.0         0.87         12.4 
      2459.0         0.85          8.6 
      2460.0         0.67          6.6 
      2461.0         0.60          6.4 
      2462.0         0.63          6.1 
      2463.0         0.50          5.8 
      2464.0        16.92         93.6 
      2465.0         0.50          4.0 
      2466.0         0.42          3.8 
      2467.0         0.43          3.7 
      2468.0         0.53          4.4 
      2469.0         0.40          4.0 
      2470.0         0.47          3.9 
      2471.0         0.57          4.4 
      2472.0         0.75          4.4 
      2473.0         0.80          4.4 
      2474.0         0.73          4.5 
      2475.0         0.67          4.6 
      2476.0         0.73          4.2 
      2477.0         0.78          4.4 
      2478.0         0.83          4.5 
      2479.0         0.77          4.7 
      2480.0         0.57          4.3 
      2481.0         0.53          4.2 
      2482.0         0.58          4.4 
      2483.0         0.63          4.0 
      2484.0         0.47          4.2 
      2485.0         0.33          4.2 
      2486.0         0.43          4.2 
      2487.0         0.30          4.4 
      2488.0         0.50          4.7 
      2489.0         0.52          4.4 
      2490.0         0.57          4.4 
      2491.0         0.63          4.3 
      2492.0         0.53          4.5 
      2493.0         0.50          4.3 
      2494.0         9.05          4.7 
      2495.0         0.63          4.9 
      2496.0         0.57          4.5 
      2497.0         0.43          4.4 
      2498.0         0.48          5.3 
      2499.0         0.57          8.1 
      2500.0         0.53         19.8 
      2501.0         0.50         28.2 
      2502.0         0.40         29.8 
      2503.0         0.50         31.4 
      2504.0         0.52         24.2 
      2505.0         0.50         17.6 
      2506.0         0.50         10.9 
      2507.0         0.47          6.0 
      2508.0         0.50          5.2 
      2509.0         0.67          6.4 
      2510.0         0.68          8.0 
      2511.0         0.67          8.1 
      2512.0         0.53          8.5 
      2513.0         0.47          9.5 
      2514.0         0.43         10.6 
      2515.0         0.50         10.4 
      2516.0         0.43          8.9 
      2517.0         0.48          7.3 
      2518.0         0.47          6.9 
      2519.0         0.50          6.3 
      2520.0         0.50          6.1 
      2521.0         0.53          6.2 
      2522.0         0.87          6.7 
      2523.0         0.58          9.2 
      2524.0         9.67         79.1 
      2525.0         0.42          5.0 
      2526.0         0.67          4.4 
      2527.0         0.67          5.0 
      2528.0         0.73          5.6 
      2529.0         0.67          7.1 
      2530.0         0.72          7.9 
      2531.0         0.73         10.0 
      2532.0         0.33         13.4 
      2533.0         0.37         14.5 
      2534.0         0.43         14.0 
      2535.0         0.43         11.3 
      2536.0         0.47          8.3 
      2537.0         0.55          6.7 
      2538.0         0.40         10.6 
      2539.0         0.30         13.0 
      2540.0         0.37         16.2 
      2541.0         0.57         17.8 
      2542.0         0.63         15.2 
      2543.0         0.57         13.2 
      2544.0         0.75         10.1 
      2545.0         0.70          5.8 
      2546.0         0.60          5.3 
      2547.0         0.47          5.3 
      2548.0         0.50          5.0 
      2549.0         0.42          5.2 
      2550.0         0.33          5.9 
      2551.0         0.67          8.0 
      2552.0         0.23          8.6 
      2553.0         0.27          9.1 
      2554.0         7.50         36.4 
      2555.0         0.47          7.9 
      2556.0         0.47          8.1 
      2557.0         0.42         10.4 
      2558.0         0.37         10.4 
      2559.0         0.30          8.2 
      2560.0         0.33          6.8 
      2561.0         0.47          6.8 
      2562.0         0.40          7.6 
      2563.0         0.60         11.3 
      2564.0         0.58         14.2 
      2565.0         0.53         15.7 
      2566.0         0.53         16.1 
      2567.0         0.53         16.7 
      2568.0         0.50         15.5 
      2569.0         0.53         14.4 
      2570.0         0.53         12.4 
      2571.0         0.58         10.2 
      2572.0         0.40          7.6 
      2573.0         0.27          5.6 
      2574.0         0.40          5.2 
      2575.0         0.33          5.4 
      2576.0         0.43          5.9 
      2577.0         0.50          8.9 
      2578.0         0.33         10.0 
      2579.0         0.48         10.0 
      2580.0         0.47          8.3 
      2581.0         0.37          6.8 
      2582.0         0.77          5.7 
      2583.0         0.47          6.7 
      2584.0        11.37        128.9 
      2585.0         0.30         16.3 
      2586.0         0.67          8.4 
      2587.0         0.67          6.3 
      2588.0         0.60          8.3 
      2589.0         0.60         11.7 
      2590.0         0.42         14.3 
      2591.0         0.60         17.8 
      2592.0         0.60         17.3 
      2593.0         0.53         16.0 
      2594.0         0.37         15.4 
      2595.0         0.40         15.9 
      2596.0         0.40         16.3 
      2597.0         0.42         16.7 
      2598.0         0.37         18.4 
      2599.0         0.40         19.2 
      2600.0         0.50         18.5 
      2601.0         0.50         16.6 
      2602.0         0.57         16.4 
      2603.0         0.98         15.6 
      2604.0         0.23         11.2 
      2605.0         0.33         10.1 
      2606.0         0.50          9.4 
      2607.0         0.53          9.1 
      2608.0         0.60          8.7 
      2609.0         0.50          8.6 
      2610.0         0.65          7.8 
      2611.0         0.30          7.5 
      2612.0         0.50          7.1 
      2613.0         0.73          5.8 
      2614.0         9.88         62.0 
      2615.0         1.20         49.3 
      2616.0         0.75         47.8 
      2617.0         0.63         32.4 
      2618.0         0.53          8.3 
      2619.0         0.37          6.1 
      2620.0         0.53          6.2 
      2621.0         0.63          7.1 
      2622.0         0.43         10.0 
      2623.0         0.42         13.7 
      2624.0         0.43         17.1 
      2625.0         0.37         20.4 
      2626.0         0.40         22.6 
      2627.0         0.37         24.2 
      2628.0         0.57         23.7 
      2629.0         0.67         21.7 
      2630.0         0.55         16.6 
      2631.0         0.37         11.4 
      2632.0         0.33         11.9 
      2633.0         0.43         13.3 
      2634.0         0.43         13.4 
      2635.0         0.37         11.9 
      2636.0         0.37         11.7 
      2637.0         0.37         12.5 
      2638.0         0.40         14.9 
      2639.0         0.42         15.2 
      2640.0         0.37         15.3 
      2641.0         0.47         15.6 
      2642.0         0.47         14.1 
      2643.0         0.53         11.8 
      2644.0         7.92         57.0 
      2645.0         4.02         50.9 
      2646.0         1.07          5.0 
      2647.0         0.37          8.4 
      2648.0         0.50         13.9 
      2649.0         0.47         17.7 
      2650.0         0.48         23.3 
      2651.0         0.43         29.8 
      2652.0         0.37         32.3 
      2653.0         0.40         35.2 
      2654.0         0.47         36.9 
