~Version Information
VERS.                      2.0: CWLS Log ASCII Standard - VERSION 2.0
WRAP.                       NO: One line per depth step
~Well Information Block
STRT.FT               583.0000: 
STOP.FT              1700.0000: 
STEP.FT                 0.1000: 
NULL.                -999.2500: 
COMP.          Pioneer Natural Resources: COMPANY
WELL.          Scott Canyon 11-18 Tr: WELL
FLD.           Purgatoire River: FIELD
LOC.           411' FNL & 580' FWL: LOCATION
PROV.                 Colorado: PROVINCE
CNTY.               Las Animas: COUNTRY
SRVC.                Patterson: SERVICE COMPANY
DATE.          Thu Feb 17 15:41:32 2005: LOG DATE
UWI.           05 071 08286 00: UNIQUE WELL ID
~Curve Information Block
DEPT.FT            0 000 00 00: Depth
DCAL.in                       : CDL Caliper
RHOB.g/cc                     : CDL Bulk Density
RHOC.g/cc                     : CDL Density Correction
DPOR.pu                       : CDL Density Porosity
GR.GAPI                       : Gamma Ray
NPOR.pu                       : Neutron Porosity
~Parameter Information Block
~A  Depth       DCAL        RHOB        RHOC        DPOR         GR         NPOR    
# ...
   947.8000      7.9523      2.5408      0.0241      6.6209    143.2168     27.8085
   947.9000      7.9523      2.5618      0.0647      5.3462    149.1508     27.4282
   948.0000      7.9549      2.5675      0.0479      4.9972    151.7092     27.2328
   948.1000      7.9549      2.5583      0.0455      5.5590    148.2406     27.3296
   948.2000      7.9549      2.5405      0.0441      6.6342    143.6937     27.6440
   948.3000      7.9557      2.5257      0.0128      7.5345    144.4498     28.0133
   948.4000      7.9557      2.5199      0.0684      7.8831    148.6123     28.3836
   948.5000      7.9544      2.5196      0.0087      7.9050    151.9278     28.5225
   948.6000      7.9544      2.5256      0.0317      7.5366    152.8384     28.1622
   948.7000      7.9544      2.5371     -0.0036      6.8450    151.9804     27.5390
   948.8000      7.9604      2.5458      0.0508      6.3126    150.3632     27.1010
   948.9000      7.9604      2.5522      0.0002      5.9284    148.3073     27.1797
   949.0000      7.9540      2.5616      0.0379      5.3587    147.3275     27.6620
   949.1000      7.9540      2.5716      0.0104      4.7516    147.3364     27.8614
   949.2000      7.9540      2.5827      0.0071      4.0813    143.1388     27.4657
   949.3000      7.9540      2.5922      0.1131      3.5060    132.7483     26.6223
   949.4000      7.9540      2.5932      0.0192      3.4454    123.8215     25.4867
   949.5000      7.9624      2.5942      0.0025      3.3828    121.3760     24.5778
   949.6000      7.9624      2.5968      0.0826      3.2242    123.1330     23.9893
   949.7000      7.9624      2.5885      0.0595      3.7273    124.6465     23.2574
   949.8000      7.9541      2.5777      0.0122      4.3795    120.9541     22.6908
   949.9000      7.9541      2.5815      0.0373      4.1500    115.4692     22.6161
   950.0000      7.9533      2.5984     -0.0169      3.1249    112.3554     22.5488
   950.1000      7.9533      2.6180      0.0477      1.9388    107.9539     22.5401
   950.2000      7.9533      2.6304      0.0348      1.1854    103.1266     22.9192
   950.3000      7.9526      2.6370      0.0199      0.7874    103.8409     23.3690
   950.4000      7.9526      2.6422      0.0002      0.4724    109.1764     23.4247
   950.5000      7.9541      2.6389      0.0644      0.6699    114.0141     22.9871
   950.6000      7.9541      2.6265      0.0020      1.4238    116.0198     22.6893
   950.7000      7.9541      2.6224     -0.0038      1.6706    116.1614     22.7279
   950.8000      7.9541      2.6322      0.0241      1.0758    116.7132     22.4345
   950.9000      7.9541      2.6382      0.0442      0.7149    115.7700     21.7673
   951.0000      7.9542      2.6255      0.0651      1.4840    110.3278     21.2679
   951.1000      7.9542      2.6074      0.0061      2.5812    103.4516     21.1629
   951.2000      7.9542      2.6033      0.0359      2.8275    100.9366     21.4123
   951.3000      7.9532      2.6108      0.0278      2.3753    102.9556     21.9300
   951.4000      7.9532      2.6283      0.0227      1.3169    102.5058     22.3507
   951.5000      7.9554      2.6449      0.0725      0.3085     98.3262     22.4717
   951.6000      7.9554      2.6327      0.0498      1.0498     96.6904     22.4497
   951.7000      7.9554      2.5916     -0.0294      3.5398     98.8294     22.2116
   951.8000      7.9555      2.5558     -0.0245      5.7070    101.4432     21.6613
   951.9000      7.9555      2.5483      0.0053      6.1627    103.5503     21.1552
   952.0000      7.9537      2.5593      0.0118      5.4988    103.7218     21.1308
   952.1000      7.9537      2.5703      0.0626      4.8287     99.8798     21.6191
   952.2000      7.9537      2.5830      0.0240      4.0612     94.2915     22.1023
   952.3000      7.9527      2.6034      0.0616      2.8271     91.2867     22.0012
   952.4000      7.9527      2.6169      0.0794      2.0072     90.8660     21.5105
   952.5000      7.9530      2.6142      0.0806      2.1687     90.4624     21.1381
   952.6000      7.9530      2.6035      0.0294      2.8169     91.2961     21.0193
   952.7000      7.9530      2.5858      0.0747      3.8919     93.2487     21.3344
   952.8000      7.9554      2.5587      0.0268      5.5328     93.8752     22.3171
   952.9000      7.9554      2.5380     -0.0041      6.7850     97.9515     23.6044
   953.0000      7.9528      2.5361      0.0298      6.9027    110.4617     24.3044
   953.1000      7.9528      2.5386      0.0151      6.7514    122.4647     23.9801
   953.2000      7.9528      2.5281      0.0532      7.3859    123.0338     23.0412
   953.3000      7.9539      2.5143     -0.0143      8.2261    116.2800     22.1492
   953.4000      7.9539      2.5152      0.0276      8.1686    109.9375     21.7212
   953.5000      7.9551      2.5206      0.0115      7.8410    103.0378     21.7265
   953.6000      7.9551      2.5100      0.0256      8.4819     95.2122     21.7355
   953.7000      7.9551      2.4862     -0.0429      9.9298     88.9237     21.3468
   953.8000      7.9572      2.4660     -0.0259     11.1504     84.7719     20.6655
   953.9000      7.9572      2.4515     -0.0035     12.0301     84.5403     20.2597
   954.0000      7.9562      2.4377     -0.0249     12.8661     87.0327     19.9248
   954.1000      7.9562      2.4274      0.0401     13.4917     86.0997     19.1270
   954.2000      7.9562      2.4221      0.0123     13.8125     82.1269     18.3483
   954.3000      7.9495      2.4192      0.0357     13.9869     80.2682     17.9768
   954.4000      7.9495      2.4135      0.0315     14.3323     80.1774     18.1027
   954.5000      7.9483      2.4071      0.0366     14.7211     79.8979     18.7411
   954.6000      7.9483      2.4077      0.0769     14.6869     79.0746     19.3823
   954.7000      7.9483      2.4206      0.0685     13.9057     76.0043     19.6905
   954.8000      7.9506      2.4486      0.1008     12.2039     72.1548     19.6774
   954.9000      7.9506      2.4834      0.0983     10.0949     68.9713     19.4701
   955.0000      7.9482      2.5100      0.1238      8.4848     64.8547     19.4391
   955.1000      7.9482      2.5225      0.1544      7.7265     59.7775     19.4517
   955.2000      7.9482      2.5215      0.1751      7.7866     57.0767     19.3585
   955.3000      7.9482      2.5046      0.1306      8.8101     59.3474     19.7833
   955.4000      7.9482      2.4752      0.0768     10.5947     63.5389     21.2874
   955.5000      7.9482      2.4473      0.0913     12.2820     65.6807     23.2320
   955.6000      7.9482      2.4361      0.0538     12.9653     66.8953     24.5972
   955.7000      7.9482      2.4458      0.0316     12.3774     67.7209     25.2982
   955.8000      7.9480      2.4633      0.0477     11.3159     65.9095     25.2888
   955.9000      7.9480      2.4694      0.1021     10.9484     62.7670     24.2480
   956.0000      7.9491      2.4664      0.0226     11.1248     62.9835     22.6784
   956.1000      7.9491      2.4727      0.0561     10.7434     67.7705     21.7425
   956.2000      7.9491      2.4898      0.0877      9.7069     72.1883     21.7500
   956.3000      7.9463      2.5069      0.1028      8.6742     72.6465     21.7442
   956.4000      7.9463      2.5183      0.1602      7.9791     72.0630     21.2145
   956.5000      7.9409      2.5337      0.1832      7.0491     74.4789     20.8807
   956.6000      7.9409      2.5650      0.2446      5.1508     79.2140     21.3561
   956.7000      7.9409      2.6015      0.2836      2.9420     83.1134     22.4463
   956.8000      7.9478      2.6208      0.2930      1.7706     86.9840     23.5500
   956.9000      7.9478      2.6142      0.2215      2.1677     93.1307     24.5386
   957.0000      7.9483      2.5888      0.1851      3.7102     98.4152     25.5979
   957.1000      7.9483      2.5699      0.0884      4.8525     99.3725     26.5860
   957.2000      7.9483      2.5871      0.1291      3.8144     98.5553     27.1586
   957.3000      7.9569      2.6292      0.2096      1.2621     99.0222     27.4150
