~Version Information
VERS.                      2.0: CWLS Log ASCII Standard - VERSION 2.0
WRAP.                       NO: One line per depth step
~Well Information Block
STRT.FT                -8.2500: 
STOP.FT              1175.7500: 
STEP.FT                 0.2500: 
NULL.                -999.2500: 
COMP.          Evergreen Operating Corporation: COMPANY
WELL.             Justin 32-10: WELL
FLD.           Purgatorie River: FIELD
LOC.           2994' FNL & 1449' FEL: LOCATION
PROV.                 Colorado: PROVINCE
CNTY.               Las Animas: COUNTRY
SRVC.                         : SERVICE COMPANY
DATE.          Wed Sep 29 10:00:10 2004: LOG DATE
UWI.           05 071 08053 00: UNIQUE WELL ID
~Curve Information Block
DEPT.FT            0 000 00 00: Depth
GR.GAPI                       : Gamma Ray
CCL.                          : Casing Collar Locator
TT3.usec                      : CBL 3' Travel Time
AMP3.mV                       : CBL 3' Amplitude
~Parameter Information Block
~A  Depth        GR         CCL         TT3         AMP3    
# ...
   963.2500     78.1795      0.0000    315.5121     19.8888
   963.5000     81.0172      0.0000    315.5078     20.4052
   963.7500     81.3791      0.0000    315.5098     20.9138
   964.0000     79.7492      0.0000    315.5134     21.4190
   964.2500     77.6255      0.0000    315.5164     21.9056
   964.5000     75.9610      0.0000    315.5199     22.3437
   964.7500     74.7174      0.0000    315.5243     22.7035
   965.0000     73.6884      0.0000    315.5291     22.9750
   965.2500     73.1531      0.0000    315.5370     23.1799
   965.5000     73.4689      0.0000    315.5537     23.3498
   965.7500     74.4267      0.0000    315.5815     23.4836
   966.0000     75.3686      0.0000    315.6152     23.5421
   966.2500     75.7881      0.0000    315.6469     23.5024
   966.5000     75.5777      0.0000    315.6718     23.4045
   966.7500     74.8565      0.0000    315.6874     23.3260
   967.0000     73.8206      0.0000    315.6913     23.3278
   967.2500     72.8185      0.0000    315.6832     23.4381
   967.5000     72.3720      0.0000    315.6723     23.6681
   967.7500     72.8422      0.0000    315.6797     24.0217
   968.0000     74.1088      0.0000    315.7258     24.4897
   968.2500     75.7723      0.0000    315.8130     25.0365
   968.5000     77.5868      0.0000    315.9213     25.5887
   968.7500     79.4295      0.0000    316.0225     26.0427
   969.0000     81.0088      0.0000    316.0989     26.3092
   969.2500     81.9593      0.0000    316.1475     26.3662
   969.5000     82.1779      0.0000    316.1717     26.2658
   969.7500     81.8179      0.0000    316.1744     26.0840
   970.0000     81.1065      0.0000    316.1576     25.8721
   970.2500     80.4328      0.0000    316.1264     25.6507
   970.5000     80.3566      0.0000    316.0905     25.4276
   970.7500     81.1977      0.0000    316.0625     25.2078
   971.0000     82.6779      0.0000    316.0544     24.9917
   971.2500     84.0742      0.0000    316.0722     24.7674
   971.5000     84.5240      0.0000    316.1126     24.5152
   971.7500     83.2091      0.0000    316.1644     24.2377
   972.0000     79.7513      0.0000    316.2159     23.9858
   972.2500     74.8371      0.0000    316.2597     23.8212
   972.5000     70.2550      0.0000    316.2931     23.7453
   972.7500     67.8678      0.0000    316.3163     23.6945
   973.0000     68.3777      0.0000    316.3297     23.6209
   973.2500     71.0540      0.0000    316.3325     23.5395
   973.5000     74.5020      0.0000    316.3214     23.4807
   973.7500     77.5038      0.0000    316.2920     23.4297
   974.0000     79.2480      0.0000    316.2413     23.3288
   974.2500     79.3364      0.0000    316.1697     23.1080
   974.5000     77.9123      0.0000    316.0816     22.7054
   974.7500     75.5811      0.0000    315.9853     22.0956
   975.0000     73.0793      0.0000    315.8942     21.3146
   975.2500     71.2118      0.0000    315.8267     20.4435
   975.5000     70.8878      0.0000    315.7993     19.5588
   975.7500     72.6528      0.0000    315.8162     18.7033
   976.0000     76.1142      0.0000    315.8633     17.8949
   976.2500     80.1014      0.0000    315.9126     17.1511
   976.5000     83.3458      0.0000    315.9378     16.5016
   976.7500     85.0951      0.0000    315.9256     15.9849
   977.0000     85.5538      0.0000    315.8744     15.6400
   977.2500     85.6792      0.0000    315.7854     15.4998
   977.5000     85.9498      0.0000    315.6595     15.5761
   977.7500     85.4952      0.0000    315.5062     15.8334
   978.0000     83.1633      0.0000    315.3496     16.1758
   978.2500     79.2464      0.0000    315.2192     16.4813
   978.5000     75.4401      0.0000    315.1337     16.6685
   978.7500     73.2282      0.0000    315.0987     16.7296
   979.0000     72.7170      0.0000    315.1169     16.7004
   979.2500     72.9180      0.0000    315.1945     16.6099
   979.5000     72.8374      0.0000    315.3329     16.4622
   979.7500     72.3664      0.0000    315.5146     16.2542
   980.0000     72.2946      0.0000    315.7005     15.9990
   980.2500     73.5605      0.0000    315.8430     15.7320
   980.5000     76.5631      0.0000    315.9124     15.5005
   980.7500     81.1139      0.0000    315.9130     15.3448
   981.0000     86.6509      0.0000    315.8751     15.2807
   981.2500     92.3243      0.0000    315.8349     15.2976
   981.5000     97.1647      0.0000    315.8237     15.3724
   981.7500    100.4536      0.0000    315.8682     15.4830
   982.0000    101.9019      0.0000    315.9775     15.6052
   982.2500    101.5316      0.0000    316.1176     15.7055
   982.5000     99.5364      0.0000    316.2196     15.7477
   982.7500     96.1637      0.0000    316.2416     15.7097
   983.0000     91.6628      0.0000    316.2195     15.5970
   983.2500     86.4097      0.0000    316.2357     15.4447
   983.5000     80.9915      0.0000    316.3437     15.3089
   983.7500     76.1632      0.0000    316.5317     15.2484
   984.0000     72.8657      0.0000    316.7396     15.3001
   984.2500     72.1034      0.0000    316.8953     15.4647
   984.5000     74.2476      0.0000    316.9502     15.7147
   984.7500     78.3587      0.0000    316.9012     16.0333
   985.0000     82.5474      0.0000    316.7860     16.4554
   985.2500     85.1973      0.0000    316.6547     17.0674
   985.5000     85.6874      0.0000    316.5443     17.9563
   985.7500     84.0959      0.0000    316.4698     19.1480
   986.0000     80.7583      0.0000    316.4244     20.5853
   986.2500     76.2969      0.0000    316.3480     22.1484
   986.5000     71.5449      0.0000    316.0334     23.6900
   986.7500     67.0177      0.0000    314.9836     25.0869
   987.0000     62.6481      0.0000    312.3857     26.2976
   987.2500     58.2496      0.0000    307.4895     27.3629
   987.5000     54.0429      0.0000    300.3995     28.3248
   987.7500     50.6053      0.0000    292.5998     29.1571
   988.0000     48.4317      0.0000    286.4800     29.7941
   988.2500     47.5095      0.0000    284.1318     30.2007
   988.5000     47.1111      0.0000    286.3676     30.3727
   988.7500     46.0720      0.0000    292.3983     30.2828
   989.0000     43.5955      0.0000    300.1448     29.8783
   989.2500     39.9676      0.0000    307.2189     29.1546
   989.5000     36.4271      0.0000    312.1310     28.2067
   989.7500     34.3025      0.0000    314.7686     27.1888
   990.0000     34.1849      0.0000    315.8726     26.2330
   990.2500     35.7393      0.0000    316.2463     25.3919
   990.5000     38.1336      0.0000    316.3753     24.6308
   990.7500     40.5623      0.0000    316.4528     23.8726
   991.0000     42.4410      0.0000    316.5251     23.0678
   991.2500     43.3659      0.0000    316.5929     22.2236
   991.5000     43.1934      0.0000    316.6545     21.3735
   991.7500     42.3253      0.0000    316.7132     20.5458
   992.0000     41.8079      0.0000    316.7761     19.7572
   992.2500     42.8361      0.0000    316.8508     19.0048
   992.5000     45.9028      0.0000    316.9463     18.2590
   992.7500     50.4019      0.0000    317.0753     17.4862
   993.0000     55.1154      0.0000    317.2482     16.6864
   993.2500     59.1416      0.0000    317.4612     15.9066
   993.5000     62.4862      0.0000    317.6921     15.2173
   993.7500     65.9065      0.0000    317.9098     14.6788
   994.0000     70.2441      0.0000    318.0912     14.3214
   994.2500     75.8900      0.0000    318.2352     14.1392
   994.5000     82.7460      0.0000    318.3597     14.0902
   994.7500     90.3765      0.0000    318.4847     14.1099
   995.0000     97.9045      0.0000    318.6177     14.1360
   995.2500    103.8971      0.0000    318.7498     14.1230
   995.5000    106.9247      0.0000    318.8578     14.0467
   995.7500    106.6652      0.0000    318.9129     13.9179
   996.0000    104.4235      0.0000    318.8990     13.7878
   996.2500    102.4314      0.0000    318.8219     13.7205
   996.5000    102.6105      0.0000    318.7008     13.7597
