~Version Information
VERS.                      2.0: CWLS Log ASCII Standard - VERSION 2.0
WRAP.                       NO: One line per depth step
~Well Information Block
STRT.FT                -7.6500: 
STOP.FT              3097.2500: 
STEP.FT                 0.0500: 
NULL.                -999.2500: 
COMP.          Pioneer Natural Resources: COMPANY
WELL.            Paradise 13-8: WELL
FLD.           Purgatoire River: FIELD
LOC.           1896' FSL & 1120' FWL--: LOCATION
PROV.                 Colorado: PROVINCE
CNTY.               Las Animas: COUNTRY
SRVC.                Patterson: SERVICE COMPANY
DATE.          Fri Feb 04 16:52:25 2005: LOG DATE
UWI.           05 071 07946 00: UNIQUE WELL ID
~Curve Information Block
DEPT.FT            0 000 00 00: Depth
CCL.                          : Casing Collar Locator
TT3.usec                      : CBL 3' Travel Time
AMP3.mV                       : CBL 3' Amplitude
GR.GAPI                       : Gamma Ray
~Parameter Information Block
~A  Depth       CCL         TT3         AMP3         GR     
# ...
  1439.5500      0.0000    605.4343      2.2661    139.0372
  1439.6000      0.0000    605.4343      2.2661    139.0372
  1439.6500      0.0000    605.4343      2.2661    139.0372
  1439.7000      0.0000    605.4343      2.2661    139.0372
  1439.7500      0.0000    610.2375      2.3043    145.5437
  1439.8000      0.0000    610.2375      2.3043    145.5437
  1439.8500      0.0000    610.2375      2.3043    145.5437
  1439.9000      0.0000    610.2375      2.3043    145.5437
  1439.9500      0.0000    610.2375      2.3043    145.5437
  1440.0000      0.0000    624.8279      2.3536    147.2520
  1440.0500      0.0000    624.8279      2.3536    147.2520
  1440.1000      0.0000    624.8279      2.3536    147.2520
  1440.1500      0.0000    624.8279      2.3536    147.2520
  1440.2000      0.0000    624.8279      2.3536    147.2520
  1440.2500      0.0000    644.2072      2.4058    144.2511
  1440.3000      0.0000    644.2072      2.4058    144.2511
  1440.3500      0.0000    644.2072      2.4058    144.2511
  1440.4000      0.0000    644.2072      2.4058    144.2511
  1440.4500      0.0000    644.2072      2.4058    144.2511
  1440.5000      0.0000    662.1235      2.4435    139.1941
  1440.5500      0.0000    662.1235      2.4435    139.1941
  1440.6000      0.0000    662.1235      2.4435    139.1941
  1440.6500      0.0000    662.1235      2.4435    139.1941
  1440.7000      0.0000    662.1235      2.4435    139.1941
  1440.7500      0.0000    674.7430      2.4497    134.6943
  1440.8000      0.0000    674.7430      2.4497    134.6943
  1440.8500      0.0000    674.7430      2.4497    134.6943
  1440.9000      0.0000    674.7430      2.4497    134.6943
  1440.9500      0.0000    674.7430      2.4497    134.6943
  1441.0000      0.0000    682.1828      2.4216    131.7134
  1441.0500      0.0000    682.1828      2.4216    131.7134
  1441.1000      0.0000    682.1828      2.4216    131.7134
  1441.1500      0.0000    682.1828      2.4216    131.7134
  1441.2000      0.0000    682.1828      2.4216    131.7134
  1441.2500      0.0000    687.2627      2.3746    129.6934
  1441.3000      0.0000    687.2627      2.3746    129.6934
  1441.3500      0.0000    687.2627      2.3746    129.6934
  1441.4000      0.0000    687.2627      2.3746    129.6934
  1441.4500      0.0000    687.2627      2.3746    129.6934
  1441.5000      0.0000    693.0817      2.3312    127.0268
  1441.5500      0.0000    693.0817      2.3312    127.0268
  1441.6000      0.0000    693.0817      2.3312    127.0268
  1441.6500      0.0000    693.0817      2.3312    127.0268
  1441.7000      0.0000    693.0817      2.3312    127.0268
  1441.7500      0.0000    700.7241      2.3071    121.7385
  1441.8000      0.0000    700.7241      2.3071    121.7385
  1441.8500      0.0000    700.7241      2.3071    121.7385
  1441.9000      0.0000    700.7241      2.3071    121.7385
  1441.9500      0.0000    700.7241      2.3071    121.7385
  1442.0000      0.0000    708.0875      2.3051    112.7221
  1442.0500      0.0000    708.0875      2.3051    112.7221
  1442.1000      0.0000    708.0875      2.3051    112.7221
  1442.1500      0.0000    708.0875      2.3051    112.7221
  1442.2000      0.0000    708.0875      2.3051    112.7221
  1442.2500      0.0000    711.3121      2.3219    100.3706
  1442.3000      0.0000    711.3121      2.3219    100.3706
  1442.3500      0.0000    711.3121      2.3219    100.3706
  1442.4000      0.0000    711.3121      2.3219    100.3706
  1442.4500      0.0000    711.3121      2.3219    100.3706
  1442.5000      0.0000    708.4636      2.3592     86.1489
  1442.5500      0.0000    708.4636      2.3592     86.1489
  1442.6000      0.0000    708.4636      2.3592     86.1489
  1442.6500      0.0000    708.4636      2.3592     86.1489
  1442.7000      0.0000    708.4636      2.3592     86.1489
  1442.7500      0.0000    701.7621      2.4217     72.3569
  1442.8000      0.0000    701.7621      2.4217     72.3569
  1442.8500      0.0000    701.7621      2.4217     72.3569
  1442.9000      0.0000    701.7621      2.4217     72.3569
  1442.9500      0.0000    701.7621      2.4217     72.3569
  1443.0000      0.0000    695.9307      2.5007     62.0343
  1443.0500      0.0000    695.9307      2.5007     62.0343
  1443.1000      0.0000    695.9307      2.5007     62.0343
  1443.1500      0.0000    695.9307      2.5007     62.0343
  1443.2000      0.0000    695.9307      2.5007     62.0343
  1443.2500      0.0000    695.4188      2.5600     57.8073
  1443.3000      0.0000    695.4188      2.5600     57.8073
  1443.3500      0.0000    695.4188      2.5600     57.8073
  1443.4000      0.0000    695.4188      2.5600     57.8073
  1443.4500      0.0000    695.4188      2.5600     57.8073
  1443.5000      0.0000    703.5842      2.5524     60.1920
  1443.5500      0.0000    703.5842      2.5524     60.1920
  1443.6000      0.0000    703.5842      2.5524     60.1920
  1443.6500      0.0000    703.5842      2.5524     60.1920
  1443.7000      0.0000    703.5842      2.5524     60.1920
  1443.7500      0.0000    722.3327      2.4566     67.2023
  1443.8000      0.0000    722.3327      2.4566     67.2023
  1443.8500      0.0000    722.3327      2.4566     67.2023
  1443.9000      0.0000    722.3327      2.4566     67.2023
  1443.9500      0.0000    722.3327      2.4566     67.2023
  1444.0000      0.0000    749.8273      2.2945     75.6143
  1444.0500      0.0000    749.8273      2.2945     75.6143
  1444.1000      0.0000    749.8273      2.2945     75.6143
  1444.1500      0.0000    749.8273      2.2945     75.6143
  1444.2000      0.0000    749.8273      2.2945     75.6143
  1444.2500      0.0000    778.4945      2.1102     82.6618
  1444.3000      0.0000    778.4945      2.1102     82.6618
  1444.3500      0.0000    778.4945      2.1102     82.6618
  1444.4000      0.0000    778.4945      2.1102     82.6618
  1444.4500      0.0000    778.4945      2.1102     82.6618
  1444.5000      0.0000    797.6663      1.9332     87.0403
  1444.5500      0.0000    797.6663      1.9332     87.0403
  1444.6000      0.0000    797.6663      1.9332     87.0403
  1444.6500      0.0000    797.6663      1.9332     87.0403
  1444.7000      0.0000    797.6663      1.9332     87.0403
  1444.7500      0.0000    800.2001      1.7650     88.8289
  1444.8000      0.0000    800.2001      1.7650     88.8289
  1444.8500      0.0000    800.2001      1.7650     88.8289
  1444.9000      0.0000    800.2001      1.7650     88.8289
  1444.9500      0.0000    800.2001      1.7650     88.8289
  1445.0000      0.0000    787.0368      1.5975     88.7341
  1445.0500      0.0000    787.0368      1.5975     88.7341
  1445.1000      0.0000    787.0368      1.5975     88.7341
  1445.1500      0.0000    787.0368      1.5975     88.7341
  1445.2000      0.0000    787.0368      1.5975     88.7341
  1445.2500      0.0000    765.5142      1.4365     87.6984
  1445.3000      0.0000    765.5142      1.4365     87.6984
  1445.3500      0.0000    765.5142      1.4365     87.6984
  1445.4000      0.0000    765.5142      1.4365     87.6984
  1445.4500      0.0000    765.5142      1.4365     87.6984
  1445.5000      0.0000    743.5432      1.3046     87.1795
  1445.5500      0.0000    743.5432      1.3046     87.1795
  1445.6000      0.0000    743.5432      1.3046     87.1795
  1445.6500      0.0000    743.5432      1.3046     87.1795
  1445.7000      0.0000    743.5432      1.3046     87.1795
  1445.7500      0.0000    725.2538      1.2258     88.7709
  1445.8000      0.0000    725.2538      1.2258     88.7709
  1445.8500      0.0000    725.2538      1.2258     88.7709
  1445.9000      0.0000    725.2538      1.2258     88.7709
  1445.9500      0.0000    725.2538      1.2258     88.7709
  1446.0000      0.0000    711.2418      1.2162     92.7043
  1446.0500      0.0000    711.2418      1.2162     92.7043
  1446.1000      0.0000    711.2418      1.2162     92.7043
  1446.1500      0.0000    711.2418      1.2162     92.7043
  1446.2000      0.0000    711.2418      1.2162     92.7043
