~Version Information
VERS.                      2.0: CWLS Log ASCII Standard - VERSION 2.0
WRAP.                       NO: One line per depth step
~Well Information Block
STRT.FT               -12.0000: 
STOP.FT              2137.5000: 
STEP.FT                 0.2500: 
NULL.                -999.2500: 
COMP.          Pioneer Natural Resources: COMPANY
WELL.           Ogallela 44-12: WELL
FLD.           Purgatorie River: FIELD
LOC.           610' FSL & 671' FEL------------: LOCATION
PROV.                       CO: PROVINCE
CNTY.               Las Animas: COUNTRY
SRVC.          Patterson Wireline: SERVICE COMPANY
DATE.          Thu Apr 07 14:25:46 2005: LOG DATE
UWI.           05 071 08283 00: UNIQUE WELL ID
~Curve Information Block
DEPT.FT            0 000 00 00: Depth
CCL.                          : Casing Collar Locator
TT3.usec                      : CBL 3' Travel Time
AMP3.mV                       : CBL 3' Amplitude
ATT3.db/ft                    : CBL 3' Attenuation
GR.GAPI                       : Gamma Ray
~Parameter Information Block
~A  Depth       CCL         TT3         AMP3        ATT3         GR     
# ...
   408.0000      0.0000    265.2035     65.6301     -1.0650     91.6521
   408.2500      0.0000    265.2162     65.5578     -1.0682     95.9467
   408.5000      0.0000    265.2257     65.6316     -1.0650    100.9136
   408.7500      0.0000    265.2355     65.8601     -1.0549    104.0285
   409.0000      0.0000    265.2474     66.1946     -1.0402    102.9318
   409.2500      0.0000    265.2572     66.5574     -1.0244     97.1446
   409.5000      0.0000    265.2585     66.8751     -1.0106     88.4925
   409.7500      0.0000    265.2494     67.1059     -1.0006     79.7115
   410.0000      0.0000    265.2331     67.2423     -0.9948     72.6123
   410.2500      0.0000    265.2160     67.2929     -0.9926     67.3991
   410.5000      0.0000    265.2020     67.2711     -0.9935     63.2865
   410.7500      0.0000    265.1902     67.1999     -0.9966     59.5077
   411.0000      0.0000    265.1792     67.1188     -1.0001     56.0113
   411.2500      0.0000    265.1680     67.0795     -1.0018     53.5239
   411.5000      0.0000    265.1535     67.1254     -0.9998     52.8602
   411.7500      0.0000    265.1336     67.2627     -0.9939     54.0306
   412.0000      0.0000    265.1118     67.4544     -0.9856     56.2964
   412.2500      0.0000    265.0939     67.6484     -0.9773     59.2676
   412.5000      0.0000    265.0801     67.8094     -0.9704     63.4555
   412.7500      0.0000    265.0675     67.9173     -0.9658     69.1976
   413.0000      0.0000    265.0592     67.9521     -0.9644     75.3964
   413.2500      0.0000    265.0629     67.8988     -0.9666     80.1210
   413.5000      0.0000    265.0811     67.7629     -0.9724     82.5654
   413.7500      0.0000    265.1159     67.5554     -0.9813     83.8370
   414.0000      0.0000    265.1942     67.2319     -0.9952     85.5509
   414.2500      0.0000    265.3998     66.6077     -1.0222     88.0674
   414.5000      0.0000    265.9144     65.3208     -1.0787     90.3467
   414.7500      0.0000    267.0602     62.9862     -1.1841     91.1045
   415.0000      0.0000    269.3363     59.5340     -1.3473     89.6999
   415.2500      0.0000    273.3685     55.3897     -1.5562     86.1852
   415.5000      0.0000    279.5983     51.2105     -1.7833     81.0550
   415.7500      0.0000    287.7092     47.4986     -2.0012     75.0858
   416.0000      0.0000    296.3360     44.5469     -2.1869     69.2569
   416.2500      0.0000    303.6751     42.5354     -2.3207     64.6656
   416.5000      0.0000    308.6070     41.4498     -2.3956     62.1797
   416.7500      2.0000    311.2021     41.0111     -2.4264     61.7847
   417.0000      0.0000    312.2240     40.8561     -2.4373     62.3811
   417.2500     -2.0000    312.3432     40.7644     -2.4438     62.5684
   417.5000      0.0000    311.6889     40.7762     -2.4430     61.6627
   417.7500      0.0000    309.8309     41.2392     -2.4103     60.0291
   418.0000      0.0000    306.1320     42.7174     -2.3083     58.7153
   418.2500      0.0000    300.3395     45.6210     -2.1179     58.7123
   418.5000      0.0000    292.9606     49.8100     -1.8636     60.1596
   418.7500      0.0000    285.0674     54.6260     -1.5964     62.2361
   419.0000      0.0000    277.8234     59.2670     -1.3603     63.9175
   419.2500      0.0000    272.1272     63.0881     -1.1794     64.5227
   419.5000      0.0000    268.3735     65.7416     -1.0601     63.6423
   419.7500      0.0000    266.3606     67.2516     -0.9944     61.2655
   420.0000      0.0000    265.5080     67.9363     -0.9650     58.0892
   420.2500      0.0000    265.2337     68.1823     -0.9546     55.2619
   420.5000      0.0000    265.1717     68.2562     -0.9514     53.8134
   420.7500      0.0000    265.1658     68.2723     -0.9507     54.3402
   421.0000      0.0000    265.1734     68.2652     -0.9510     56.7338
   421.2500      0.0000    265.1892     68.2522     -0.9516     59.9835
   421.5000      0.0000    265.2044     68.2485     -0.9518     62.7724
   421.7500      0.0000    265.2103     68.2508     -0.9517     64.6501
   422.0000      0.0000    265.2078     68.2419     -0.9520     66.3240
   422.2500      0.0000    265.2062     68.2146     -0.9532     68.5953
   422.5000      0.0000    265.2098     68.1811     -0.9546     71.2809
   422.7500      0.0000    265.2121     68.1552     -0.9557     73.3657
   423.0000      0.0000    265.2069     68.1324     -0.9567     73.9226
   423.2500      0.0000    265.1999     68.0967     -0.9582     72.6814
   423.5000      0.0000    265.2019     68.0456     -0.9604     70.0303
   423.7500      0.0000    265.2138     67.9990     -0.9624     66.8658
   424.0000      0.0000    265.2244     67.9757     -0.9633     64.3396
   424.2500      0.0000    265.2264     67.9680     -0.9637     63.2423
   424.5000      0.0000    265.2260     67.9504     -0.9644     63.3964
   424.7500      0.0000    265.2327     67.9130     -0.9660     63.8400
   425.0000      0.0000    265.2446     67.8746     -0.9677     63.7082
   425.2500      0.0000    265.2506     67.8557     -0.9685     62.8725
   425.5000      0.0000    265.2471     67.8485     -0.9688     61.7737
   425.7500      0.0000    265.2432     67.8283     -0.9696     60.7826
   426.0000      0.0000    265.2481     67.7907     -0.9712     59.8953
   426.2500      0.0000    265.2583     67.7608     -0.9725     59.0250
   426.5000      0.0000    265.2636     67.7581     -0.9726     58.3575
   426.7500      0.0000    265.2630     67.7689     -0.9722     58.2360
   427.0000      0.0000    265.2653     67.7675     -0.9722     58.8159
   427.2500      0.0000    265.2743     67.7554     -0.9727     59.9486
   427.5000      0.0000    265.2813     67.7567     -0.9727     61.2866
   427.7500      0.0000    265.2769     67.7766     -0.9718     62.4677
   428.0000      0.0000    265.2650     67.7871     -0.9714     63.3955
   428.2500      0.0000    265.2587     67.7654     -0.9723     64.4203
   428.5000      0.0000    265.2619     67.7275     -0.9739     65.9412
   428.7500      0.0000    265.2649     67.7083     -0.9748     67.5045
   429.0000      0.0000    265.2581     67.7188     -0.9743     67.5286
   429.2500      0.0000    265.2465     67.7374     -0.9735     64.5071
   429.5000      0.0000    265.2442     67.7436     -0.9733     58.5999
   429.7500      0.0000    265.2563     67.7476     -0.9731     51.6467
   430.0000      0.0000    265.2713     67.7813     -0.9716     45.7015
   430.2500      0.0000    265.2723     67.8609     -0.9682     41.9332
   430.5000      0.0000    265.2563     67.9654     -0.9638     40.5541
   430.7500      0.0000    265.2376     68.0553     -0.9600     41.0774
   431.0000      0.0000    265.2325     68.1136     -0.9575     42.6505
   431.2500      0.0000    265.2419     68.1578     -0.9556     44.5147
   431.5000      0.0000    265.2530     68.2095     -0.9534     46.2596
   431.7500      0.0000    265.2564     68.2639     -0.9511     47.6778
   432.0000      0.0000    265.2574     68.2987     -0.9496     48.4767
   432.2500      0.0000    265.2668     68.3073     -0.9493     48.1158
   432.5000      0.0000    265.2858     68.3089     -0.9492     46.0270
   432.7500      0.0000    265.3024     68.3225     -0.9486     42.3010
   433.0000      0.0000    265.3051     68.3416     -0.9478     38.0809
   433.2500      0.0000    265.2971     68.3421     -0.9478     34.9771
   433.5000      0.0000    265.2927     68.3113     -0.9491     34.0873
   433.7500      0.0000    265.3026     68.2631     -0.9511     35.5060
   434.0000      0.0000    265.3215     68.2253     -0.9527     38.4184
   434.2500      0.0000    265.3336     68.2129     -0.9533     41.5679
   434.5000      0.0000    265.3287     68.2111     -0.9533     44.0199
   434.7500      0.0000    265.3130     68.1848     -0.9545     45.6071
   435.0000      0.0000    265.3023     68.1062     -0.9578     46.4225
   435.2500      0.0000    265.3069     67.9767     -0.9633     46.1765
   435.5000      0.0000    265.3240     67.8185     -0.9701     44.6885
   435.7500      0.0000    265.3450     67.6464     -0.9774     42.9056
