~Version Information
VERS.                      2.0: CWLS Log ASCII Standard - VERSION 2.0
WRAP.                       NO: One line per depth step
~Well Information Block
STRT.FT               -12.2500: 
STOP.FT              2595.7500: 
STEP.FT                 0.2500: 
NULL.                -999.2500: 
COMP.          Petrogulf Corporation: COMPANY
WELL.            Montoya 1-44V: WELL
FLD.           Purgatoire River: FIELD
LOC.           753' FSL & 990' FEL--: LOCATION
PROV.                       CO: PROVINCE
CNTY.               Las Aniams: COUNTRY
SRVC.          Patterson Wireline: SERVICE COMPANY
DATE.          Mon Jun 13 11:58:10 2005: LOG DATE
UWI.           05 071 08142 00: UNIQUE WELL ID
~Curve Information Block
DEPT.FT            0 000 00 00: Depth
CCL.                          : Casing Collar Locator
TT3.usec                      : CBL 3' Travel Time
AMP3.mV                       : CBL 3' Amplitude
GR.GAPI                       : Gamma Ray
~Parameter Information Block
~A  Depth       CCL         TT3         AMP3         GR     
# ...
   322.7500      0.0000    528.5565     15.3802     40.7375
   323.0000      0.0000    612.4121     14.9622     39.4546
   323.2500      0.0000    673.3569     14.6286     39.2428
   323.5000      0.0000    706.5883     14.4267     39.6471
   323.7500      0.0000    726.7028     14.3218     39.6816
   324.0000      0.0000    749.5963     14.2569     38.9388
   324.2500      0.0000    776.2032     14.2120     38.1056
   324.5000      0.0000    795.6499     14.1881     38.0611
   324.7500      0.0000    799.1564     14.1598     38.9974
   325.0000      0.0000    788.0267     14.0746     40.8585
   325.2500      0.0000    771.4124     13.9000     44.0589
   325.5000      0.0000    758.5820     13.6648     49.1311
   325.7500      0.0000    751.7354     13.4483     55.8634
   326.0000      0.0000    745.4069     13.3209     63.2231
   326.2500      0.0000    732.4584     13.2956     70.0061
   326.5000      0.0000    709.8607     13.3362     75.2671
   326.7500      0.0000    679.8132     13.3934     78.4308
   327.0000      0.0000    648.3902     13.4236     79.4828
   327.2500      0.0000    622.8504     13.3989     78.9594
   327.5000      0.0000    607.7030     13.3218     77.4524
   327.7500      0.0000    603.1884     13.2249     75.3480
   328.0000      0.0000    607.0433     13.1428     73.1756
   328.2500      0.0000    614.4069     13.0898     71.7126
   328.5000      0.0000    616.1813     13.0655     71.4832
   328.7500      0.0000    601.7250     13.0715     72.5873
   329.0000      0.0000    565.5391     13.1224     75.1146
   329.2500      0.0000    512.0100     13.2497     79.0289
   329.5000      0.0000    454.0181     13.4803     83.3396
   329.7500      0.0000    405.2167     13.7995     86.0569
   330.0000      0.0000    371.8761     14.1502     85.6096
   330.2500      0.0000    351.5562     14.4845     82.2070
   330.5000      0.0000    338.4253     14.7968     77.5861
   330.7500      0.0000    328.5579     15.0910     73.6528
   331.0000      0.0000    320.9778     15.3425     71.4828
   331.2500      0.0000    315.8703     15.5169     71.0673
   331.5000      0.0000    313.0167     15.6259     71.3481
   331.7500      0.0000    311.5998     15.7465     70.7380
   332.0000      0.0000    310.7910     15.9690     68.4817
   332.2500      0.0000    310.1413     16.3107     65.7573
   332.5000      0.0000    309.5734     16.6723     64.8388
   332.7500      0.0000    309.1927     16.8901     66.9044
   333.0000      0.0000    309.1178     16.8495     71.0180
   333.2500      0.0000    309.4200     16.5619     75.2547
   333.5000      0.0000    310.1678     16.1404     78.2205
   333.7500      0.0000    311.5497     15.7131     79.3145
   334.0000      0.0000    313.8954     15.3640     78.2641
   334.2500      0.0000    317.3890     15.1295     75.1347
   334.5000      0.0000    321.6387     15.0102     70.6071
   334.7500      0.0000    325.8184     14.9703     65.6266
   335.0000      0.0000    329.9824     14.9427     60.8632
   335.2500      0.0000    336.9086     14.8544     57.0272
   335.5000      0.0000    352.5895     14.6535     55.4832
   335.7500      0.0000    383.0571     14.3284     57.7746
   336.0000      0.0000    427.8635     13.9169     64.2912
   336.2500      0.0000    476.0997     13.4964     73.6282
   336.5000      0.0000    511.8376     13.1585     83.3543
   336.7500      0.0000    525.9559     12.9719     91.4794
   337.0000      0.0000    521.7249     12.9417     97.2338
   337.2500      0.0000    508.2498     12.9970    100.5109
   337.5000      0.0000    490.7783     13.0423    100.9919
   337.7500      0.0000    468.6473     13.0420     98.2623
   338.0000      0.0000    440.3999     13.0551     92.6044
   338.2500      0.0000    408.2803     13.1772     85.2655
   338.5000      0.0000    377.4342     13.4486     77.9858
   338.7500      0.0000    352.1780     13.8252     72.3919
   339.0000      0.0000    334.0084     14.2266     69.6395
   339.2500      0.0000    322.3126     14.5830     70.1901
   339.5000      0.0000    315.6701     14.8367     73.5840
   339.7500      0.0000    312.4730     14.9411     78.5513
   340.0000      0.0000    311.2630     14.8961     83.7817
   340.2500      0.0000    310.9925     14.7740     88.7459
   340.5000      0.0000    311.0639     14.6762     93.6730
   340.7500      0.0000    311.1860     14.6589     98.7680
   341.0000      0.0000    311.2400     14.7091    103.4593
   341.2500      0.0000    311.2324     14.7786    106.3987
   341.5000      0.0000    311.3663     14.8091    106.3475
   341.7500      0.0000    312.1917     14.7335    103.2261
   342.0000      0.0000    314.6176     14.5012     98.1986
   342.2500      0.0000    319.4822     14.1312     92.7440
   342.5000      0.0000    326.7478     13.7204     88.0506
   342.7500      0.0000    335.0745     13.3712     85.2523
   343.0000      0.0000    342.4818     13.1184     85.3764
   343.2500      0.0000    347.6192     12.9350     88.4225
   343.5000      0.0000    350.3978     12.7924     92.8168
   343.7500      0.0000    351.5647     12.6933     96.4016
   344.0000      0.0000    351.9435     12.6477     97.8797
   344.2500      0.0000    352.0422     12.6417     97.0202
   344.5000      0.0000    352.0616     12.6394     94.1694
   344.7500      0.0000    352.0341     12.6101     90.3981
   345.0000      0.0000    351.9343     12.5518     87.5019
   345.2500      0.0000    351.7351     12.4872     86.6101
   345.5000      0.0000    351.4300     12.4381     86.7729
   345.7500      0.0000    351.0467     12.4124     85.7618
   346.0000      0.0000    350.6468     12.4140     82.5250
   346.2500      0.0000    350.3068     12.4352     78.4086
   346.5000      0.0000    350.1015     12.4396     75.9075
   346.7500      0.0000    350.1055     12.3879     76.8183
   347.0000      0.0000    350.4153     12.2855     81.6046
   347.2500      0.0000    351.1778     12.1705     89.5343
   347.5000      0.0000    352.6173     12.0581     98.9243
   347.7500      0.0000    354.9473     11.9377    107.9588
   348.0000      0.0000    358.0520     11.8257    115.6941
   348.2500      0.0000    361.2310     11.7739    121.7932
   348.5000      0.0000    363.8946     11.8049    125.4171
   348.7500      0.0000    367.4605     11.8680    125.4365
   349.0000      0.0000    376.8838     11.8877    121.9707
   349.2500      0.0000    399.3496     11.8461    116.8214
   349.5000      0.0000    438.8917     11.7944    112.0718
   349.7500      0.0000    490.5179     11.7669    108.8423
   350.0000      0.0000    541.8042     11.6992    107.3608
   350.2500      0.0000    583.7849     11.4873    107.4535
   350.5000      0.0000    618.9468     11.1452    108.7768
   350.7500      0.0000    654.8245     10.8473    110.8384
   351.0000      0.0000    691.2125     10.7809    112.7586
   351.2500      0.0000    716.9808     10.9975    113.1805
   351.5000      0.0000    718.1413     11.4146    110.9792
   351.7500      0.0000    687.6836     11.9035    106.2518
   352.0000      0.0000    630.4727     12.3577    100.4491
   352.2500     -2.0000    561.5056     12.7266     95.4784
   352.5000      0.0000    498.5103     13.0055     92.5964
   352.7500      0.0000    454.3801     13.1925     91.8486
   353.0000      0.0000    434.7021     13.2655     92.3281
   353.2500      0.0000    438.7779     13.2319     92.9291
   353.5000      0.0000    459.8663     13.1923     93.0371
   353.7500      0.0000    487.5883     13.3004     92.8724
   354.0000      0.0000    515.5521     13.6194     93.1992
   354.2500      0.0000    546.6548     14.0272     94.6120
   354.5000      0.0000    587.3547     14.2916     97.1390
   354.7500      0.0000    636.5596     14.2594    100.2906
   355.0000      0.0000    683.1912     13.9776    103.0762
   355.2500      0.0000    715.3315     13.6265    104.2880
   355.5000      0.0000    729.4584     13.3497    103.3739
   355.7500      0.0000    730.6878     13.1642    100.7729
   356.0000      0.0000    727.0890     13.0114     96.9244
