~Version Information
VERS.                      2.0: CWLS Log ASCII Standard - VERSION 2.0
WRAP.                       NO: One line per depth step
~Well Information Block
STRT.FT               546.0000: 
STOP.FT              1771.5000: 
STEP.FT                 0.2500: 
NULL.                -999.2500: 
COMP.          Petrogulf Corporation: COMPANY
WELL.             McLeod 9-42R: WELL
FLD.           Purgatorie River: FIELD
LOC.           1748' FNL & 372' FEL: LOCATION
PROV.                 Colorado: PROVINCE
CNTY.               Las Animas: COUNTRY
SRVC.                Patterson: SERVICE COMPANY
DATE.          Tue Aug 16 11:11:38 2005: LOG DATE
UWI.           071 08092  : UNIQUE WELL ID
~Curve Information Block
DEPT.FT            0 000 00 00: Depth
SP.mV                         : DIL Spontaneous Potential
RILD.Ohm-m                    : DIL Deep Resistivity
RILM.Ohm-m                    : DIL Medium Resistivity
RLL3.Ohm-m                    : DIL Shallow Resistivity
GR.GAPI                       : Gamma Ray
~Parameter Information Block
~A  Depth        SP         RILD        RILM        RLL3         GR     
# ...
  1022.0000     44.4095      8.6178      9.0301     29.6560    105.9888
  1022.2500     43.5799      9.3570      8.7577     30.9227    110.9342
  1022.5000     41.8014      9.5034      8.3821     20.0965    121.5252
  1022.7500     38.3968      9.2798      8.1899     13.7499    118.3558
  1023.0000     35.2637      9.1517      8.0873     11.3595    121.8808
  1023.2500     30.9998      9.1752      7.9484     10.6255    118.0925
  1023.5000     27.6606      9.2653      8.0414     10.3853    114.0574
  1023.7500     24.7813      9.0724      8.0537     10.5703    117.5921
  1024.0000     22.9274      8.6366      8.0847      9.8403    111.5274
  1024.2500     23.5302      7.8084      8.2881      8.8753    102.0871
  1024.5000     26.4450      7.6051      8.7093      9.2691     96.5128
  1024.7500     26.1630      7.8181      8.6709     12.4993    104.0330
  1025.0000     21.4876      7.4121      8.6266     21.6011    111.9083
  1025.2500     19.8198      7.1011      8.4471     31.9044    121.7529
  1025.5000     20.2545      7.1836      8.2250     21.4382    131.7175
  1025.7500     23.4274      7.2016      7.8632     13.0349    135.6290
  1026.0000     24.9909      7.3178      7.5046     10.8345    127.4116
  1026.2500     26.9729      7.5251      7.5507     10.7549    118.8076
  1026.5000     28.3116      7.6099      7.5062     10.8409    122.4166
  1026.7500     29.0274      7.5422      7.4554     10.7778    125.1242
  1027.0000     30.3606      7.4939      7.5225     10.8291    133.3008
  1027.2500     30.7101      7.1315      7.5428     10.6328    131.8576
  1027.5000     30.7834      7.0905      7.4840     10.3328    116.4154
  1027.7500     31.5381      7.1377      7.3286     10.2326    110.2820
  1028.0000     31.6297      6.9441      7.3852     10.7719    120.1064
  1028.2500     32.4570      7.0099      7.1422     11.3707    130.3293
  1028.5000     33.3214      6.9442      6.9298     10.8349    141.9164
  1028.7500     33.7902      6.8095      6.9612     10.0539    132.8848
  1029.0000     32.6979      6.8127      7.0532     10.1797    127.5883
  1029.2500     32.5350      6.8141      7.0603     10.5740    135.9503
  1029.5000     32.3828      7.2813      7.2373     10.4444    139.1394
  1029.7500     32.2632      7.5469      7.1024     10.0148    131.8756
  1030.0000     31.7246      7.6214      7.1883      9.8069    116.2168
  1030.2500     29.4246      7.6192      7.3982      9.9366    119.5627
  1030.5000     30.4534      7.8161      7.6245     10.2032    109.0765
  1030.7500     32.4004      7.8301      7.7726     10.8996    104.8174
  1031.0000     30.1327      8.0282      8.1105     11.8492     97.3053
  1031.2500     24.0314      8.4499      8.2064     12.3493    100.3092
  1031.5000     21.1819      8.2914      8.3557     12.3905    105.2539
  1031.7500     19.3422      8.2753      8.6837     12.2693    108.8793
  1032.0000     17.6793      8.5367      8.7075     12.0686    109.2688
  1032.2500     16.4436      8.9132      8.8330     12.5932    111.9675
  1032.5000     15.0675      9.2350      9.0998     13.1060    110.8394
  1032.7500     14.9657      9.2718      9.2410     14.1489    107.6297
  1033.0000     14.0376      9.1170      9.6504     13.9600    106.9603
  1033.2500     13.1904      9.4592      9.3938     13.4477    113.3428
  1033.5000     13.2445      9.4094      9.3978     13.6738    114.3003
  1033.7500     12.5054      9.2215      9.3675     13.5835    114.1512
  1034.0000     10.1812      9.1126      9.6675     12.8770    116.0626
  1034.2500      5.8706      8.8467      9.7023     12.4065    117.8210
  1034.5000      2.3798      8.8769     10.1130     12.4611    108.6015
  1034.7500     -3.6030      9.2241      9.8746     12.9305    106.4784
  1035.0000    -10.7265      9.0588      9.9147     12.9439    106.1432
  1035.2500    -14.8164      9.2550     10.6256     13.3323    108.4076
  1035.5000     -2.5415      9.4655     10.5263     14.5507    109.3185
  1035.7500      2.3291      9.8178     10.7221     15.8296    102.6129
  1036.0000      1.1407     10.8520     10.9287     16.3556    104.0089
  1036.2500     -3.1748     10.3883     11.2324     16.0431    100.5264
  1036.5000     -9.4352     10.7311     11.6377     16.0854    106.3335
  1036.7500    -12.7498     10.7375     12.3348     15.9612    105.0235
  1037.0000    -15.2157     11.1369     12.9414     17.0539     94.3624
  1037.2500    -16.1732     11.6131     13.7053     19.2963    103.3689
  1037.5000    -16.8156     11.9138     14.1542     20.8704    101.0956
  1037.7500    -16.4459     11.2965     14.4353     21.0239    101.2302
  1038.0000    -16.6438     10.9135     15.3693     22.5760    104.3772
  1038.2500    -14.3729     11.3945     15.2394     24.0209    102.9864
  1038.5000    -13.4848     11.9442     15.5599     22.3604    108.2578
  1038.7500    -13.7065     12.2610     15.3778     19.8394    102.7325
  1039.0000    -12.3773     12.2800     16.1276     19.1059     98.3859
  1039.2500    -11.6468     12.4823     16.3815     19.2110    104.5911
  1039.5000    -11.4813     12.1523     15.7403     17.9265    106.5617
  1039.7500    -12.4928     11.8002     15.4033     17.6031    100.7721
  1040.0000    -12.2213     11.5916     15.1704     18.4001    107.2634
  1040.2500    -12.2467     12.1966     14.6041     18.5504    109.5743
  1040.5000     -9.9333     11.5666     14.1551     18.0820    111.7265
  1040.7500     -9.1598     11.7695     13.8784     16.9185    108.7639
  1041.0000     -8.2340     12.3887     13.7747     15.8238    108.5960
  1041.2500     -7.2624     11.7452     12.9360     15.2827    111.5425
  1041.5000     -8.4741     11.1323     13.6798     15.0664    109.6946
  1041.7500     -8.8573     11.1492     13.1694     15.4317    110.4315
  1042.0000     -8.7577     11.2038     12.8945     15.5216    109.6737
  1042.2500     -8.3960     10.7466     12.6823     15.4724    110.7122
  1042.5000     -8.1067     10.8330     12.5060     15.2512    118.4076
  1042.7500     -8.2146     10.6372     12.4017     14.1659    121.9092
  1043.0000     -9.2109     10.8832     12.4101     13.0363    115.4337
  1043.2500     -8.2491     11.0369     12.4190     12.2513    113.7507
  1043.5000     -8.4735     10.5206     12.1428     12.4501     98.9591
  1043.7500    -10.2543     10.1651     12.2143     13.2700     91.2236
  1044.0000    -10.8445     10.2776     12.4560     15.4997     93.0720
  1044.2500    -11.8319     10.7161     12.2672     19.4588     98.2989
  1044.5000    -12.9868     10.6680     12.1631     21.7115    113.6835
  1044.7500    -13.6281     10.7173     11.6684     19.8681    114.8785
  1045.0000    -13.9316     10.1865     11.2980     17.1248    117.3723
  1045.2500    -13.8574     10.4850     11.0758     14.8803    114.2138
  1045.5000    -13.3921     10.5841     11.1476     14.0173    115.8240
  1045.7500    -13.5193     10.2034     11.2636     13.8917    115.3792
  1046.0000    -14.2310     10.6654     11.7320     13.9210    109.6183
  1046.2500    -15.3381     11.3053     11.6445     14.3032    102.5579
  1046.5000    -15.8343     11.4086     11.6615     15.2862    111.9749
  1046.7500    -16.5820     10.9168     11.6949     15.5535    122.3318
  1047.0000    -17.0667     11.3677     11.8180     14.3992    120.6264
  1047.2500    -16.7773     12.0793     12.2471     14.1249    110.6119
  1047.5000    -17.8058     12.6947     13.1507     14.8768    105.4907
  1047.7500    -19.3847     12.6770     13.3392     15.4218    104.0383
  1048.0000    -20.3290     13.5208     14.3760     16.4264    107.4146
  1048.2500    -21.0623     13.1599     14.7466     18.5012    112.3946
  1048.5000    -19.7368     13.1292     15.4336     21.2274    113.8070
  1048.7500    -18.4330     14.2034     17.0407     21.8758    110.9216
  1049.0000    -17.5973     14.0973     17.7691     22.1566     96.9265
  1049.2500    -17.1765     12.7926     19.2108     23.5456     99.5979
  1049.5000    -15.5249     12.5142     20.1265     26.4986     88.9592
  1049.7500    -13.6961     12.5018     19.2590     34.3079     90.8535
