~Version Information
VERS.                      2.0: CWLS Log ASCII Standard - VERSION 2.0
WRAP.                       NO: One line per depth step
~Well Information Block
STRT.FT               840.0000: 
STOP.FT              2019.0000: 
STEP.FT                 0.2500: 
NULL.                -999.2500: 
COMP.          Petrogulf Corporation: COMPANY
WELL.           Lavedure 7-44R: WELL
FLD.           Purgatorie River: FIELD
LOC.           946' FSL & 521' FEL: LOCATION
PROV.                 Colorado: PROVINCE
CNTY.               Las Animas: COUNTRY
SRVC.                Patterson: SERVICE COMPANY
DATE.          Mon Sep 26 08:35:42 2005: LOG DATE
UWI.                          : UNIQUE WELL ID
~Curve Information Block
DEPT.FT            0 000 00 00: Depth
SP.mV                         : DIL Spontaneous Potential
RILD.Ohm-m                    : DIL Deep Resistivity
RILM.Ohm-m                    : DIL Medium Resistivity
RLL3.Ohm-m                    : DIL Shallow Resistivity
GR.GAPI                       : Gamma Ray
~Parameter Information Block
~A  Depth        SP         RILD        RILM        RLL3         GR     
# ...
  1848.0000    242.5369      9.4487     10.1268     10.0750    110.0118
  1848.2500    241.9436      9.0696      9.2129      9.4269    142.8912
  1848.5000    241.5236      8.7536      8.4181      9.1371    153.9027
  1848.7500    241.1262      8.4478      8.2299      8.3333    137.8490
  1849.0000    240.8264      8.2165      7.8766      7.2589    132.0779
  1849.2500    240.6059      7.9987      7.6383      6.9991    161.4977
  1849.5000    240.5426      7.8429      7.4285      7.4648    159.8391
  1849.7500    240.3149      7.6862      7.3135      7.7264    152.6888
  1850.0000    239.8039      7.6052      7.3215      7.5483    127.6254
  1850.2500    238.9232      7.4935      7.3073      7.7490    120.1277
  1850.5000    237.9618      7.5062      7.3798      8.4394    154.2452
  1850.7500    236.8421      7.4787      7.4707      9.2193    128.0867
  1851.0000    235.6563      7.4618      7.6229      9.4315    106.5697
  1851.2500    234.4140      7.5278      7.8053      9.7702    117.9778
  1851.5000    233.3152      7.5821      7.8944      9.9967    125.7394
  1851.7500    232.2570      7.6939      8.1407     10.2845    119.7481
  1852.0000    231.2392      7.8061      8.3717     10.5896    113.0263
  1852.2500    230.2049      7.8971      8.4933     10.6072    110.1354
  1852.5000    229.2735      8.0273      8.5556     10.1327     96.5792
  1852.7500    228.4403      8.1302      8.6054      9.6219    109.7535
  1853.0000    227.8835      8.2400      8.6968      9.3445    107.6885
  1853.2500    227.5082      8.2620      8.7295      9.3693    109.9769
  1853.5000    227.3202      8.1793      8.8828      9.2734    114.4807
  1853.7500    227.5085      8.1177      9.0879      9.8431    113.7271
  1854.0000    228.2625      8.0332      9.1389     11.9022    102.0402
  1854.2500    229.5228      7.9790      8.9136     13.4121     95.2728
  1854.5000    230.7796      7.8126      8.6565     11.4049    114.5740
  1854.7500    230.5416      7.6800      8.3283      9.4493    121.9455
  1855.0000    229.7045      7.5648      7.9668      8.7082    116.9203
  1855.2500    228.6558      7.4690      7.7003      8.7292    106.5438
  1855.5000    227.4916      7.4434      7.5266      8.5442    114.8473
  1855.7500    226.4482      7.4009      7.4360      8.1674    117.5743
  1856.0000    225.4006      7.3586      7.2837      8.0333    123.5241
  1856.2500    224.5983      7.3231      7.2242      7.9251    127.1769
  1856.5000    223.8179      7.2564      7.1814      7.7246    141.6290
  1856.7500    222.8945      7.2029      7.1181      7.4090    131.4776
  1857.0000    221.9740      7.1764      7.1454      7.2014    143.2622
  1857.2500    221.2123      7.1663      7.1841      7.3810    143.8654
  1857.5000    220.4402      7.1159      7.2228      7.8274    148.5760
  1857.7500    219.8007      7.1431      7.2687      8.1920    135.5826
  1858.0000    219.2654      7.1665      7.3669      8.3137    126.5845
  1858.2500    218.8488      7.2613      7.4098      8.6314    135.7776
  1858.5000    218.4532      7.3221      7.5657      8.6906    131.3060
  1858.7500    218.0533      7.4304      7.7181      8.5424    151.0611
  1859.0000    217.6884      7.5518      7.9096      8.5633    140.3331
  1859.2500    217.5240      7.7345      8.1449      8.9176    142.6325
  1859.5000    217.7359      7.7971      8.3818      9.4143    125.9950
  1859.7500    218.4680      8.0024      8.6036     10.3768    124.9261
  1860.0000    219.5945      8.1311      8.8531     11.2666    137.2271
  1860.2500    221.0485      8.2530      9.0623     11.1636    136.0392
  1860.5000    222.9398      8.3585      9.3994     11.1778    135.0025
  1860.7500    225.2688      8.4674      9.7020     13.0458    121.7562
  1861.0000    228.1485      8.5405      9.7913     16.6944    129.5999
  1861.2500    231.6405      8.7266      9.8238     17.0531    106.8587
  1861.5000    234.8507      8.9668      9.7262     16.0960    115.5588
  1861.7500    237.6055      9.2812      9.4947     14.4569    108.7006
  1862.0000    239.7016      9.5043      9.3852     11.1088    114.1898
  1862.2500    241.1660      9.8232      9.4315      9.8544    123.1697
  1862.5000    241.9918     10.1984      9.7923     10.5153    107.1067
  1862.7500    242.5831     10.5110     10.2949     12.1263    120.6426
  1863.0000    242.9608     10.9550     11.0564     14.5621    121.3257
  1863.2500    243.0805     11.1491     11.7501     17.5913    126.8690
  1863.5000    243.0190     11.4750     12.3584     19.7413    132.8918
  1863.7500    242.8736     11.8300     12.9523     20.5572    145.7847
  1864.0000    242.6679     12.4134     13.3728     20.6059    133.0407
  1864.2500    242.4508     13.0558     13.8756     19.8415    123.0090
  1864.5000    242.3115     13.8725     14.5693     17.6839    124.9890
  1864.7500    242.2327     14.8845     15.8984     16.9892    140.7689
  1865.0000    242.1124     16.0440     17.7449     19.6895    142.5794
  1865.2500    242.0012     17.4921     20.4455     27.7751    146.8555
  1865.5000    241.9626     18.2573     23.4202     43.8320    129.8575
  1865.7500    241.9872     18.8877     28.2398     71.3446    132.3038
  1866.0000    242.0562     19.4568     31.8583    115.5492    109.3557
  1866.2500    242.2183     19.1696     35.7386    188.3239     99.7711
  1866.5000    242.5869     18.5634     37.3233    266.9847     83.9136
  1866.7500    243.1281     17.8747     37.7282    296.5756     62.9188
  1867.0000    243.8764     17.1656     34.0653    291.8622     55.9916
  1867.2500    245.0419     16.2427     27.9639    232.8977     45.7453
  1867.5000    246.3575     15.3427     22.4757    104.3084     52.4524
  1867.7500    247.8682     14.5521     18.3411     32.2223     49.7162
  1868.0000    249.3927     13.8062     15.5156     16.0054     55.9536
  1868.2500    250.9115     12.9867     13.1392     12.0494     78.1067
  1868.5000    252.2079     12.4640     11.8022     10.1090    107.6235
  1868.7500    253.1728     11.8145     10.8389      8.9837    127.9119
  1869.0000    253.8723     11.1560     10.2284      8.8670    141.3854
  1869.2500    254.2306     10.4156      9.6929      9.2539    177.4148
  1869.5000    254.3859      9.8389      9.3406      9.6360    164.0839
  1869.7500    254.4285      9.4202      8.9548      9.6269    146.8142
  1870.0000    254.4180      9.0399      8.6503      9.7858    171.0224
  1870.2500    254.4092      8.7221      8.3309      9.9218    155.6190
  1870.5000    254.3412      8.5257      8.0845      9.9427    137.8411
  1870.7500    254.1862      8.4520      8.0074      9.9864    117.4747
  1871.0000    254.0269      8.4106      7.9256     10.0613    111.9512
  1871.2500    253.9547      8.4632      7.9496     10.3385    123.1917
  1871.5000    253.7948      8.6014      8.0074     10.6507    140.6212
  1871.7500    253.5429      8.8075      8.0800     10.4171    157.4084
  1872.0000    253.0692      8.9924      8.3308      9.7302    134.4247
  1872.2500    252.1430      9.1637      8.6631      9.4213    151.2779
  1872.5000    250.9553      9.4281      9.0811     10.4452    146.1712
  1872.7500    249.2929      9.7118      9.7418     12.0931    140.5259
  1873.0000    247.1653     10.1058     10.4359     13.4757    129.9373
  1873.2500    244.6782     10.2858     11.0020     14.6145    131.8206
  1873.5000    241.7449     10.5471     11.3838     15.6659    120.3630
  1873.7500    238.0357     10.6199     11.8681     16.7648    146.1629
  1874.0000    234.2709     10.8445     12.2500     17.4254    170.2091
  1874.2500    230.4075     11.1111     12.5999     17.7463    171.1407
  1874.5000    226.5032     11.4666     12.7223     17.5634    132.6631
  1874.7500    223.1018     11.8727     12.7369     16.6497    115.2838
  1875.0000    219.9951     12.1798     12.8606     15.5440    127.6796
  1875.2500    216.8630     12.5712     12.9925     15.1324    127.8325
  1875.5000    214.1556     12.9445     13.2656     15.2408    121.8052
  1875.7500    211.7192     13.3460     13.4151     14.9074    126.8111
