~Version Information
VERS.                      2.0: CWLS Log ASCII Standard - VERSION 2.0
WRAP.                       NO: One line per depth step
~Well Information Block
STRT.FT               890.0000: 
STOP.FT              1588.2000: 
STEP.FT                 0.1000: 
NULL.                -999.2500: 
COMP.          Evergreen Operating Corporation: COMPANY
WELL.            Tomahawk 44-9: WELL
FLD.           Purgatorie River: FIELD
LOC.           434' FSL & 491' FEL: LOCATION
PROV.                 Colorado: PROVINCE
CNTY.               Las Animas: COUNTRY
SRVC.                         : SERVICE COMPANY
DATE.          Mon Sep 13 10:07:57 2004: LOG DATE
UWI.           05 071 08133 00: UNIQUE WELL ID
~Curve Information Block
DEPT.FT            0 000 00 00: Depth
LTEN.lb                       : Surface Line Tension
DCAL.in                       : CDL Caliper
RHOB.g/cc                     : CDL Bulk Density
RHOC.g/cc                     : CDL Density Correction
DPOR.pu                       : CDL Density Porosity
GR.GAPI                       : Gamma Ray
NPOR.pu                       : Neutron Porosity
~Parameter Information Block
~A  Depth       LTEN        DCAL        RHOB        RHOC        DPOR         GR         NPOR    
# ...
  1536.8000   1133.5878      7.8748      2.4562      0.0640     11.7470    117.0156     22.8349
  1536.9000   1133.5878      7.8748      2.4656      0.0719     11.1732    124.4082     22.4301
  1537.0000   1129.0017      7.8744      2.4646      0.0586     11.2375    128.7607     22.3077
  1537.1000   1129.0017      7.8744      2.4534      0.0536     11.9136    124.6856     22.6397
  1537.2000   1129.0017      7.8744      2.4382      0.0191     12.8346    118.6547     22.5934
  1537.3000   1145.7070      7.8744      2.4309      0.0136     13.2797    117.3634     21.9926
  1537.4000   1145.7070      7.8744      2.4337      0.0174     13.1080    117.5781     21.1804
  1537.5000   1151.9720      7.8752      2.4409      0.0286     12.6713    116.7896     20.5329
  1537.6000   1151.9720      7.8752      2.4476      0.0336     12.2648    117.0921     20.3789
  1537.7000   1151.9720      7.8752      2.4445      0.0361     12.4554    118.9054     20.4881
  1537.8000   1140.2643      7.8755      2.4251      0.0251     13.6307    117.4104     20.3266
  1537.9000   1140.2643      7.8755      2.4005      0.0183     15.1223    110.7473     20.0879
  1538.0000   1134.2808      7.8748      2.3887      0.0186     15.8356    103.3673     20.4976
  1538.1000   1134.2808      7.8748      2.3988      0.0139     15.2245     99.5290     21.5534
  1538.2000   1134.2808      7.8748      2.4227      0.0425     13.7784    100.1273     22.4467
  1538.3000   1129.1100      7.8747      2.4402      0.0515     12.7156    103.5787     22.8246
  1538.4000   1129.1100      7.8747      2.4418      0.0400     12.6189    106.7369     22.9928
  1538.5000   1143.3484      7.8770      2.4345      0.0509     13.0590    107.2319     22.9698
  1538.6000   1143.3484      7.8770      2.4297      0.0401     13.3532    104.9249     22.8803
  1538.7000   1143.3484      7.8770      2.4324      0.0271     13.1881    103.1958     23.2951
  1538.8000   1136.7452      7.8783      2.4406      0.0512     12.6933    107.6342     24.0000
  1538.9000   1136.7452      7.8783      2.4504      0.0483     12.0964    116.0407     24.1568
  1539.0000   1119.8285      7.8754      2.4582      0.0756     11.6253    117.9448     23.5386
  1539.1000   1119.8285      7.8754      2.4594      0.0594     11.5493    113.4674     22.5047
  1539.2000   1119.8285      7.8754      2.4526      0.0412     11.9641    113.5327     21.6900
  1539.3000   1134.1763      7.8763      2.4391      0.0441     12.7843    117.2626     21.7011
  1539.4000   1134.1763      7.8763      2.4245      0.0244     13.6670    114.6099     22.2957
  1539.5000   1136.7371      7.8755      2.4169      0.0407     14.1269    106.4672     22.7907
  1539.6000   1136.7371      7.8755      2.4151      0.0332     14.2338    101.5348     23.1421
  1539.7000   1136.7371      7.8755      2.4115      0.0383     14.4553    101.2769     23.3078
  1539.8000   1125.6733      7.8741      2.4057      0.0278     14.8069    101.2717     23.1179
  1539.9000   1125.6733      7.8741      2.4004      0.0221     15.1260    101.6566     22.6287
  1540.0000   1120.4004      7.8572      2.3931      0.0186     15.5684    107.7741     22.0619
  1540.1000   1120.4004      7.8572      2.3831      0.0100     16.1753    119.6587     21.7522
  1540.2000   1120.4004      7.8572      2.3816     -0.0210     16.2649    127.5672     21.6788
  1540.3000   1145.1735      7.8583      2.3955      0.0248     15.4239    124.8636     21.8207
  1540.4000   1145.1735      7.8583      2.4083      0.0537     14.6495    116.4965     22.5080
  1540.5000   1142.7213      7.8733      2.4063      0.0320     14.7704    111.1528     23.1903
  1540.6000   1142.7213      7.8733      2.3992      0.0101     15.1976    113.7550     23.0217
  1540.7000   1142.7213      7.8733      2.3988      0.0335     15.2215    119.8525     22.2920
  1540.8000   1130.4817      7.8752      2.4010      0.0777     15.0919    120.9470     21.5262
  1540.9000   1130.4817      7.8752      2.4017      0.0356     15.0472    115.7282     20.8341
  1541.0000   1152.0809      7.8718      2.4052      0.0612     14.8383    110.0587     20.2748
  1541.1000   1152.0809      7.8718      2.4084      0.0725     14.6417    108.8712     20.0913
  1541.2000   1152.0809      7.8718      2.4110      0.0126     14.4828    114.6875     20.2690
  1541.3000   1152.7620      7.8730      2.4145      0.0531     14.2722    125.7948     20.4581
  1541.4000   1152.7620      7.8730      2.4069      0.0396     14.7358    132.0874     20.4262
  1541.5000   1128.4200      7.8747      2.3886     -0.0085     15.8423    128.1196     20.2557
  1541.6000   1128.4200      7.8747      2.3819     -0.0301     16.2486    121.7655     20.3228
  1541.7000   1128.4200      7.8747      2.3925      0.0382     15.6052    118.5501     21.0459
  1541.8000   1141.3672      7.8729      2.4056      0.0272     14.8128    117.6780     22.0535
  1541.9000   1141.3672      7.8729      2.4145      0.0489     14.2713    118.6038     22.2240
  1542.0000   1137.1869      7.8508      2.4169      0.0688     14.1284    121.3752     21.5869
  1542.1000   1137.1869      7.8508      2.4091      0.0301     14.6018    126.0497     21.1918
  1542.2000   1137.1869      7.8508      2.3972      0.0138     15.3202    129.3089     21.3645
  1542.3000   1150.6000      7.8503      2.3915      0.0148     15.6660    129.2395     21.6888
  1542.4000   1150.6000      7.8503      2.3945      0.0375     15.4859    129.5993     22.0667
  1542.5000   1148.8455      7.8538      2.4005      0.0439     15.1200    129.3265     22.7659
  1542.6000   1148.8455      7.8538      2.4069      0.0198     14.7357    124.3815     23.5158
  1542.7000   1148.8455      7.8538      2.4132      0.0439     14.3520    117.4709     23.7146
  1542.8000   1135.9728      7.8718      2.4165      0.0394     14.1541    113.3774     23.4487
  1542.9000   1135.9728      7.8718      2.4179      0.0173     14.0648    113.7591     23.0257
  1543.0000   1126.8593      7.8738      2.4223      0.0225     13.7975    117.0087     22.5851
  1543.1000   1126.8593      7.8738      2.4268      0.0384     13.5285    120.6321     22.4851
  1543.2000   1126.8593      7.8738      2.4211      0.0436     13.8714    124.2304     22.7935
  1543.3000   1159.4572      7.8747      2.4062      0.0241     14.7764    127.2680     22.7350
  1543.4000   1159.4572      7.8747      2.4018     -0.0067     15.0432    125.8554     22.1494
  1543.5000   1145.4664      7.8677      2.4186      0.0434     14.0254    120.1772     22.2120
  1543.6000   1145.4664      7.8677      2.4398      0.0650     12.7415    116.7107     23.3076
  1543.7000   1145.4664      7.8677      2.4492      0.0482     12.1677    117.5776     24.2766
  1543.8000   1133.8597      7.8741      2.4494      0.0413     12.1573    121.0798     24.3538
  1543.9000   1133.8597      7.8741      2.4494      0.0524     12.1560    128.5527     23.9501
  1544.0000   1159.5251      7.8770      2.4549      0.0486     11.8237    138.2340     23.2997
  1544.1000   1159.5251      7.8770      2.4628      0.0672     11.3452    143.7222     22.3532
  1544.2000   1159.5251      7.8770      2.4661      0.0552     11.1447    140.4851     21.5082
  1544.3000   1152.5630      7.8778      2.4636      0.0466     11.2965    130.3156     21.3470
  1544.4000   1152.5630      7.8778      2.4576      0.0475     11.6578    120.7531     21.8167
  1544.5000   1135.4354      7.8749      2.4519      0.0186     12.0072    115.9215     22.3902
  1544.6000   1135.4354      7.8749      2.4471      0.0231     12.2955    117.7764     22.9305
  1544.7000   1135.4354      7.8749      2.4410      0.0325     12.6675    124.3032     23.4065
  1544.8000   1139.7721      7.8754      2.4371      0.0406     12.9012    126.2153     23.4197
  1544.9000   1139.7721      7.8754      2.4405      0.0466     12.6966    120.9930     23.0783
  1545.0000   1152.3297      7.8748      2.4481      0.0421     12.2368    114.5218     23.0805
  1545.1000   1152.3297      7.8748      2.4529      0.0546     11.9472    110.3012     23.2657
