~Version Information
VERS.                      2.0: CWLS Log ASCII Standard - VERSION 2.0
WRAP.                       NO: One line per depth step
~Well Information Block
STRT.FT                -9.5000: 
STOP.FT              1862.5000: 
STEP.FT                 0.2500: 
NULL.                -999.2500: 
COMP.          Petrogulf Corporation: COMPANY
WELL.             State 16-34R: WELL
FLD.           Purgatoire River: FIELD
LOC.           1095' FSL & 1498' FEL--: LOCATION
CNTY.               Las Animas: COUNTY
SRVC.                         : SERVICE COMPANY
DATE.          Mon May 10 14:56:57 2004: LOG DATE
UWI.                          : UNIQUE WELL ID
STAT.                       CO: STATE
~Curve Information Block
DEPT.FT            0 000 00 00: Depth
GR.GAPI                       : Gamma Ray
CCL.                          : Casing Collar Locator
TT3.usec                      : CBL 3' Travel Time
AMP3.mV                       : CBL 3' Amplitude
~Parameter Information Block
~A  Depth        GR         CCL         TT3         AMP3    
# ...
   962.0000     58.1770      0.0000    786.9959      6.1327
   962.2500     55.9331      0.0000    781.1476      5.9793
   962.5000     54.8591      0.0000    769.5591      5.4505
   962.7500     54.9345      0.0000    761.4703      5.0738
   963.0000     55.7937      0.0000    758.6272      5.0442
   963.2500     57.2079      0.0000    759.2103      5.1509
   963.5000     59.1671      0.0000    763.1791      5.1440
   963.7500     61.3637      0.0000    770.8380      4.9517
   964.0000     63.1089      0.0000    779.3472      4.6571
   964.2500     64.1376      0.0000    785.3463      4.4633
   964.5000     65.1300      0.0000    791.6974      4.5436
   964.7500     66.8600      0.0000    806.3715      4.8233
   965.0000     68.9725      0.0000    835.2370      5.1162
   965.2500     70.3204      0.0000    878.2011      5.3882
   965.5000     70.8193      0.0000    926.3417      5.7650
   965.7500     72.3903      0.0000    965.6308      6.3603
   966.0000     77.2813      0.0000    991.1786      7.0143
   966.2500     85.2613      0.0000   1000.3423      7.2786
   966.5000     93.0294      0.0000    979.5778      6.9557
   966.7500     96.9620      0.0000    935.0082      6.3612
   967.0000     96.2467      0.0000    897.4390      5.8263
   967.2500     92.8807      0.0000    871.0341      5.4389
   967.5000     89.1264      0.0000    837.1356      5.1944
   967.7500     85.9862      0.0000    801.3055      5.0532
   968.0000     83.8292      0.0000    781.6147      5.0047
   968.2500     83.0151      0.0000    777.8777      5.0804
   968.5000     83.4655      0.0000    780.3708      5.2401
   968.7500     84.5015      0.0000    786.3698      5.3918
   969.0000     85.5887      0.0000    799.2640      5.5112
   969.2500     86.9666      0.0000    817.8358      5.6248
   969.5000     89.3241      0.0000    830.2267      5.7383
   969.7500     92.8318      0.0000    826.4867      5.8569
   970.0000     96.5410      0.0000    811.1601      6.0311
   970.2500     98.9279      0.0000    794.6730      6.3281
   970.5000     99.1026      0.0000    784.0710      6.6995
   970.7500     97.3191      0.0000    783.1036      7.0076
   971.0000     94.3709      0.0000    789.9312      7.3026
   971.2500     90.8676      0.0000    797.8890      7.7976
   971.5000     87.2630      0.0000    802.4392      8.5619
   971.7500     84.2937      0.0000    803.4993      9.3696
   972.0000     82.9056      0.0000    801.8052      9.7728
   972.2500     83.5201      0.0000    796.3644      9.5883
   972.5000     85.5276      0.0000    786.0938      9.1902
   972.7500     87.8103      0.0000    773.2503      8.9222
   973.0000     89.7100      0.0000    762.6398      8.6991
   973.2500     91.1827      0.0000    756.7957      8.4106
   973.5000     92.1071      0.0000    754.6247      8.2316
   973.7500     91.9878      0.0000    754.1112      8.3488
   974.0000     90.5855      0.0000    754.1046      8.6258
   974.2500     88.4091      0.0000    754.2629      8.8456
   974.5000     86.1329      0.0000    754.5012      9.0849
   974.7500     83.8720      0.0000    754.6740      9.5175
   975.0000     81.6345      0.0000    754.6841     10.1771
   975.2500     80.1671      0.0000    754.5643     11.0557
   975.5000     80.4217      0.0000    754.3224     12.0954
   975.7500     82.0731      0.0000    753.8864     13.1125
   976.0000     83.4112      0.0000    753.1901     13.9892
   976.2500     83.0641      0.0000    752.2752     14.8625
   976.5000     81.3233      0.0000    751.3362     15.9393
   976.7500     79.4938      0.0000    750.6086     17.1623
   977.0000     78.3078      0.0000    750.2420     18.0890
   977.2500     77.3537      0.0000    750.3546     18.0166
   977.5000     75.9646      0.0000    751.2622     16.4657
   977.7500     74.2907      0.0000    753.6390     13.8485
   978.0000     73.1938      0.0000    758.1147     11.4211
   978.2500     73.2323      0.0000    763.5746     10.1968
   978.5000     74.3149      0.0000    766.3577     10.0493
   978.7500     76.5855      0.0000    764.5155     10.1888
   979.0000     81.1627      0.0000    762.7632     10.1133
   979.2500     89.4580      0.0000    772.8171      9.7202
   979.5000    101.7913      0.0000    810.7834      9.0345
   979.7500    116.8204      0.0000    879.7325      8.2361
   980.0000    132.2133      0.0000    943.1595      7.6116
   980.2500    145.6540      0.0000    948.0288      7.2435
   980.5000    155.3661      0.0000    892.5271      6.9878
   980.7500    160.2351      0.0000    831.2595      6.7607
   981.0000    160.0039      0.0000    809.7450      6.5831
   981.2500    155.4968      0.0000    829.3150      6.4908
   981.5000    148.4553      0.0000    864.2460      6.5502
   981.7500    140.9897      0.0000    888.9427      6.7406
   982.0000    134.9427      0.0000    894.4849      6.8567
   982.2500    131.2936      0.0000    887.8215      6.7728
   982.5000    129.8915      0.0000    879.0922      6.6716
   982.7500    130.0578      0.0000    872.5046      6.7590
   983.0000    131.6136      0.0000    867.6273      6.9149
   983.2500    134.9613      0.0000    863.3049      6.8589
   983.5000    140.0927      0.0000    857.2025      6.5121
   983.7500    145.9103      0.0000    845.1357      6.1017
   984.0000    150.6724      0.0000    822.6882      6.0044
   984.2500    152.9567      0.0000    790.6921      6.3246
   984.5000    152.3452      0.0000    759.9280      6.6980
   984.7500    149.5567      0.0000    742.1841      6.7748
   985.0000    146.1402      0.0000    738.6779      6.6075
   985.2500    143.8890      0.0000    741.9535      6.4191
   985.5000    144.0850      0.0000    744.5575      6.3583
   985.7500    146.7963      0.0000    742.7064      6.4737
   986.0000    150.7539      0.0000    735.8586      6.6030
   986.2500    154.0400      0.0000    727.3854      6.4925
   986.5000    154.9772      0.0000    723.2377      6.1436
   986.7500    152.4778      0.0000    727.2045      5.7084
   987.0000    145.9552      0.0000    739.4861      5.2893
   987.2500    135.3383      0.0000    762.0080      5.0205
   987.5000    121.2324      0.0000    803.0092      4.9125
   987.7500    105.0081      0.0000    872.6844      4.7499
   988.0000     88.7834      0.0000    972.9360      4.4194
   988.2500     75.2019      0.0000   1086.6656      3.9762
   988.5000     66.7730      0.0000   1177.8722      3.4547
   988.7500     64.9698      0.0000   1217.0511      3.0202
   989.0000     69.6395      0.0000   1215.4440      2.9477
   989.2500     79.1513      0.0000   1212.0215      3.2607
   989.5000     91.2057      0.0000   1216.9247      3.7372
   989.7500    103.6981      0.0000   1214.6819      4.2284
   990.0000    115.1068      0.0000   1209.4934      4.8425
   990.2500    124.4512      0.0000   1201.0809      5.9394
   990.5000    131.0922      0.0000   1150.5067      7.8687
   990.7500    134.5234      0.0000   1030.8130     10.4861
   991.0000    134.4758      0.0000    878.6337     13.1025
   991.2500    131.3515      0.0000    757.4421     15.2453
   991.5000    126.2946      0.0000    697.8919     17.1485
   991.7500    120.6006      0.0000    678.6035     19.1692
   992.0000    115.1854      0.0000    655.6143     21.1611
   992.2500    110.9044      0.0000    625.1809     22.6597
   992.5000    109.0491      0.0000    625.7208     23.4358
   992.7500    110.6501      0.0000    667.5975     23.6932
   993.0000    115.0357      0.0000    716.5343     23.8135
   993.2500    119.7013      0.0000    745.1249     24.0250
   993.5000    122.0298      0.0000    754.9783     24.3113
   993.7500    121.0589      0.0000    757.0888     24.6559
   994.0000    117.7006      0.0000    757.7577     25.2502
   994.2500    113.6139      0.0000    759.5783     26.2003
   994.5000    109.8740      0.0000    764.6846     27.1427
   994.7500    106.5280      0.0000    774.3188     27.4880
   995.0000    103.2139      0.0000    786.2213     26.9197
   995.2500     99.8838      0.0000    795.7017     25.4256
