~Version Information
VERS.                      2.0: CWLS Log ASCII Standard - VERSION 2.0
WRAP.                       NO: One line per depth step
~Well Information Block
STRT.FT               235.0000: 
STOP.FT              1633.0000: 
STEP.FT                 0.1000: 
NULL.                -999.2500: 
COMP.          Petrogulf Corporation: COMPANY
WELL.             State 16-41R: WELL
FLD.           Purgatorie River: FIELD
LOC.           280' FNL & 907' FEL: LOCATION
PROV.                 Colorado: PROVINCE
CNTY.               Las Animas: COUNTRY
SRVC.                Patterson: SERVICE COMPANY
DATE.          Wed Oct 19 07:05:20 2005: LOG DATE
API.           05-071-08345    : API
~Curve Information Block
DEPT.FT            0 000 00 00: Depth
DCAL.in                       : CDL Caliper
RHOB.g/cc                     : CDL Bulk Density
RHOC.g/cc                     : CDL Density Correction
DPOR.pu                       : CDL Density Porosity
GR.GAPI                       : Gamma Ray
NPOR.pu                       : Neutron Porosity
~Parameter Information Block
~A  Depth       DCAL        RHOB        RHOC        DPOR         GR         NPOR    
# ...
   331.0000      8.1415      2.5487      0.0930      6.1384     94.4666     20.2587
   331.1000      8.1415      2.5246      0.0721      7.5977     93.6329     19.4899
   331.2000      8.1415      2.4854      0.0091      9.9728     90.9787     19.0172
   331.3000      8.1486      2.4519      0.0113     12.0034     87.9086     18.8968
   331.4000      8.1486      2.4470     -0.0114     12.3020     87.6625     18.7471
   331.5000      8.1486      2.4623      0.0799     11.3757     87.8837     18.4537
   331.6000      8.1486      2.4668      0.0524     11.1049     85.8521     18.3093
   331.7000      8.1486      2.4562      0.0134     11.7448     84.1164     18.2136
   331.8000      8.1419      2.4506      0.0450     12.0835     86.7278     17.9522
   331.9000      8.1419      2.4599      0.0440     11.5218     91.1701     17.7816
   332.0000      8.1442      2.4814      0.0604     10.2196     92.1121     17.8199
   332.1000      8.1442      2.5045      0.0815      8.8194     89.6837     17.9445
   332.2000      8.1442      2.5180      0.0644      7.9995     87.8856     18.0125
   332.3000      8.1387      2.5207      0.0537      7.8344     87.6955     17.7921
   332.4000      8.1387      2.5120      0.0817      8.3622     86.4955     17.3192
   332.5000      8.1396      2.4916     -0.0032      9.5973     84.8204     17.0259
   332.6000      8.1396      2.4733     -0.0038     10.7102     84.3455     17.2387
   332.7000      8.1396      2.4665      0.0653     11.1213     84.9926     17.8583
   332.8000      8.1458      2.4689      0.0372     10.9777     87.3328     18.4662
   332.9000      8.1458      2.4806      0.0554     10.2686     89.8591     18.6284
   333.0000      8.1535      2.5006      0.0220      9.0547     88.8901     18.3419
   333.1000      8.1535      2.5201      0.0759      7.8701     84.9388     17.9986
   333.2000      8.1535      2.5256      0.0602      7.5415     82.5322     17.6133
   333.3000      8.1600      2.5146      0.0299      8.2057     83.5197     17.0817
   333.4000      8.1600      2.4976      0.0344      9.2376     85.5225     16.7362
   333.5000      8.1577      2.4812      0.0706     10.2324     86.1749     16.7469
   333.6000      8.1577      2.4702      0.0418     10.8997     85.2094     16.8836
   333.7000      8.1577      2.4715      0.0304     10.8197     83.3778     17.0501
   333.8000      8.1649      2.4825      0.0142     10.1534     82.0154     17.3092
   333.9000      8.1649      2.4935      0.0467      9.4856     83.7095     17.4767
   334.0000      8.1688      2.4992      0.0630      9.1403     86.6461     17.3041
   334.1000      8.1688      2.4998      0.0585      9.1051     85.3625     16.9837
   334.2000      8.1688      2.5035      0.0100      8.8777     81.4232     16.9352
   334.3000      8.1613      2.5181      0.0729      7.9913     80.0280     17.2337
   334.4000      8.1613      2.5340      0.0644      7.0294     80.7794     17.5523
   334.5000      8.1705      2.5345      0.1083      6.9970     81.5130     17.6301
   334.6000      8.1705      2.5160      0.0389      8.1219     81.6693     17.5833
   334.7000      8.1705      2.4937      0.0144      9.4754     81.0669     17.6155
   334.8000      8.1775      2.4812      0.0458     10.2281     80.2424     17.7368
   334.9000      8.1775      2.4787      0.0311     10.3823     79.4611     17.7781
   335.0000      8.1617      2.4866      0.0083      9.9004     77.6980     17.6314
   335.1000      8.1617      2.5022      0.0559      8.9593     75.6742     17.3316
   335.2000      8.1617      2.5156      0.0422      8.1475     74.9216     16.9901
   335.3000      8.1720      2.5273      0.0603      7.4369     75.4932     16.7487
   335.4000      8.1720      2.5398      0.0518      6.6818     77.5653     16.6547
   335.5000      8.1759      2.5470      0.0891      6.2443     80.3135     16.5874
   335.6000      8.1759      2.5443      0.0484      6.4077     82.1266     16.4260
   335.7000      8.1759      2.5318      0.0566      7.1662     82.5438     16.3586
   335.8000      8.1722      2.5122      0.0482      8.3530     81.4027     16.6022
   335.9000      8.1722      2.4985      0.0296      9.1848     79.8001     16.7956
   336.0000      8.1864      2.4989      0.0496      9.1568     79.8745     16.6370
   336.1000      8.1864      2.5003      0.0243      9.0725     80.7462     16.3551
   336.2000      8.1864      2.4905      0.0613      9.6641     80.2401     16.0739
   336.3000      8.1847      2.4771      0.0560     10.4761     79.8276     15.8832
   336.4000      8.1847      2.4693      0.0087     10.9541     81.4248     15.9711
   336.5000      8.1898      2.4587      0.0746     11.5927     83.5194     16.2736
   336.6000      8.1898      2.4338      0.0391     13.1027     83.7274     16.5537
   336.7000      8.1898      2.4041      0.0019     14.9047     82.5644     16.6330
   336.8000      8.2080      2.3902      0.0192     15.7433     81.5739     16.4700
   336.9000      8.2080      2.3994     -0.0243     15.1889     80.7095     16.1434
   337.0000      8.2054      2.4165      0.0570     14.1513     81.0565     15.9426
   337.1000      8.2054      2.4191      0.0472     13.9919     82.9179     16.0252
   337.2000      8.2054      2.4040      0.0216     14.9065     83.1199     16.2366
   337.3000      8.2122      2.3863      0.0304     15.9807     80.0143     16.4825
   337.4000      8.2122      2.3821      0.0186     16.2352     76.5858     16.7084
   337.5000      8.2077      2.3977      0.0287     15.2911     76.1602     16.7846
   337.6000      8.2077      2.4260      0.0541     13.5778     77.7570     16.8074
   337.7000      8.2077      2.4595      0.0633     11.5451     79.5226     16.9062
   337.8000      8.2046      2.4931      0.1402      9.5118     81.0832     17.0105
   337.9000      8.2046      2.5154      0.1498      8.1599     81.3693     17.0374
   338.0000      8.2101      2.5193      0.1556      7.9204     81.1230     16.9511
   338.1000      8.2101      2.5057      0.1199      8.7478     82.3840     16.8463
   338.2000      8.2101      2.4834      0.0851     10.0944     83.9899     16.7955
   338.3000      8.2155      2.4694      0.0731     10.9459     83.7617     16.6831
   338.4000      8.2155      2.4661      0.0975     11.1482     81.5991     16.4086
   338.5000      8.2137      2.4623      0.0302     11.3770     79.0202     16.0879
   338.6000      8.2137      2.4563      0.0305     11.7398     77.4120     15.7801
   338.7000      8.2137      2.4477      0.0552     12.2581     76.8662     15.2816
   338.8000      8.2181      2.4301      0.0616     13.3261     77.5590     14.6221
   338.9000      8.2181      2.4023      0.0622     15.0124     79.5434     14.2162
   339.0000      8.2234      2.3727      0.0616     16.8079     81.3862     14.2113
   339.1000      8.2234      2.3609      0.0106     17.5207     81.6054     14.4619
   339.2000      8.2234      2.3793      0.0837     16.4063     82.1616     14.9672
   339.3000      8.2207      2.4153      0.0853     14.2254     84.8326     15.5890
   339.4000      8.2207      2.4588      0.1100     11.5875     86.0017     15.8024
   339.5000      8.2208      2.5107      0.1369      8.4449     83.3477     15.4496
   339.6000      8.2208      2.5579      0.2062      5.5811     79.5218     15.1277
   339.7000      8.2208      2.5722      0.2192      4.7126     76.0331     15.1715
   339.8000      8.2366      2.5475      0.1607      6.2109     74.2244     15.2597
   339.9000      8.2366      2.5106      0.1326      8.4484     75.0090     15.2055
   340.0000      8.2209      2.4814      0.0912     10.2210     74.6196     15.2648
   340.1000      8.2209      2.4605      0.0630     11.4823     71.0636     15.5975
   340.2000      8.2209      2.4463      0.0822     12.3441     68.5062     15.8566
   340.3000      8.2244      2.4412     -0.0354     12.6557     69.6845     15.7238
   340.4000      8.2244      2.4492      0.0705     12.1691     71.4592     15.4570
   340.5000      8.2442      2.4654      0.0335     11.1866     71.9805     15.3699
