~Version Information
VERS.                      2.0: CWLS Log ASCII Standard - VERSION 2.0
WRAP.                       NO: One line per depth step
~Well Information Block
STRT.FT                15.0000: 
STOP.FT              2265.2500: 
STEP.FT                 0.2500: 
NULL.                -999.2500: 
COMP.          Pioneer Natural Resources: COMPANY
WELL.             Vector 33-23: WELL
FLD.           Purgatoire River: FIELD
LOC.           1988' FSL & 1560' FEL: LOCATION
PROV.                 Colorado: PROVINCE
CNTY.               Las Animas: COUNTRY
SRVC.                Patterson: SERVICE COMPANY
DATE.          Fri Apr 01 13:14:24 2005: LOG DATE
UWI.           05 071 08336 00: UNIQUE WELL ID
~Curve Information Block
DEPT.FT            0 000 00 00: Depth
GR.GAPI                       : Gamma Ray
CCL.                          : Casing Collar Locator
TT3.usec                      : CBL 3' Travel Time
AMP3.mV                       : CBL 3' Amplitude
AMP5.mV                       : CBL 5' Amplitude
~Parameter Information Block
~A  Depth        GR         CCL         TT3         AMP3        AMP5    
# ...
   743.0000     82.0382      0.0000   1338.9937     11.5043      2.7442
   743.2500     79.8415      0.0000   1326.2175     12.0289      2.8279
   743.5000     78.1159      0.0000   1307.6726     13.1200      2.9021
   743.7500     77.7211      0.0000   1287.6062     14.7720      2.9921
   744.0000     79.7587      0.0000   1273.9414     16.6502      3.1667
   744.2500     84.3058      0.0000   1273.9337     18.3344      3.5106
   744.5000     90.0961      0.0000   1288.2883     19.6323      4.0440
   744.7500     95.2483      0.0000   1309.8441     20.6107      4.6466
   745.0000     98.0847      0.0000   1329.2391     21.4121      5.1048
   745.2500     97.7003      0.0000   1341.5309     22.1280      5.2863
   745.5000     94.4289      0.0000   1347.2870     22.7851      5.2485
   745.7500     89.8307      0.0000   1349.3197     23.3627      5.1511
   746.0000     85.8533      0.0000   1349.8677     23.8163      5.1060
   746.2500     83.7326      0.0000   1349.9797     24.1116      5.1359
   746.5000     83.5011      0.0000   1350.0000     24.2545      5.2195
   746.7500     84.3674      0.0000   1350.0000     24.2979      5.3297
   747.0000     85.5669      0.0000   1350.0000     24.3270      5.4436
   747.2500     86.9481      0.0000   1350.0000     24.4178      5.5476
   747.5000     88.7651      0.0000   1350.0000     24.5812      5.6424
   747.7500     90.9162      0.0000   1350.0000     24.7371      5.7369
   748.0000     92.6115      0.0000   1350.0000     24.7708      5.8364
   748.2500     93.0563      0.0000   1350.0000     24.6343      5.9314
   748.5000     92.3476      0.0000   1350.0000     24.3911      5.9992
   748.7500     91.3437      0.0000   1350.0000     24.1652      6.0193
   749.0000     90.7413      0.0000   1350.0000     24.0553      5.9904
   749.2500     90.6264      0.0000   1350.0000     24.0894      5.9318
   749.5000     90.8146      0.0000   1350.0000     24.2417      5.8694
   749.7500     91.2227      0.0000   1350.0000     24.4846      5.8217
   750.0000     91.7544      0.0000   1349.9636     24.8201      5.7981
   750.2500     91.9389      0.0000   1349.7267     25.2519      5.8062
   750.5000     90.8369      0.0000   1348.5231     25.7338      5.8549
   750.7500     87.5063      0.0000   1343.7628     26.1719      5.9469
   751.0000     81.8159      0.0000   1329.0992     26.4988      6.0699
   751.2500     74.8919      0.0000   1293.9207     26.7421      6.1970
   751.5000     68.5136      0.0000   1228.1908     27.0044      6.2984
   751.7500     63.8065      0.0000   1132.5725     27.3694      6.3561
   752.0000     60.6101      0.0000   1024.3804     27.8279      6.3724
   752.2500     58.3692      0.0000    929.8288     28.2932      6.3675
   752.5000     57.3303      0.0000    868.6829     28.6748      6.3647
   752.7500     58.2132      0.0000    847.9686     28.9337      6.3745
   753.0000     60.8889      0.0000    868.3369     29.0801      6.3890
   753.2500     64.2291      0.0000    929.2758     29.1371      6.3898
   753.5000     67.3163      0.0000   1023.7952     29.1132      6.3630
   753.7500     70.0498      0.0000   1132.0078     29.0018      6.3074
   754.0000     72.5256      0.0000   1227.2599     28.7989      6.2336
   754.2500     74.6730      0.0000   1291.1377     28.5136      6.1556
   754.5000     76.7057      0.0000   1320.8572     28.1580      6.0820
   754.7500     79.1823      0.0000   1324.0869     27.7401      6.0136
   755.0000     82.1611      0.0000   1311.7858     27.2705      5.9447
   755.2500     84.7928      0.0000   1296.2782     26.7701      5.8671
   755.5000     86.2667      0.0000   1289.3992     26.2625      5.7732
   755.7500     86.9364      0.0000   1296.5521     25.7657      5.6598
   756.0000     87.9441      0.0000   1313.2659     25.2939      5.5308
   756.2500     89.8952      0.0000   1330.3376     24.8569      5.3945
   756.5000     92.3715      0.0000   1341.8035     24.4508      5.2602
   756.7500     94.4729      0.0000   1347.3390     24.0558      5.1373
   757.0000     95.3326      0.0000   1349.3271     23.6501      5.0348
   757.2500     94.5858      0.0000   1349.8676     23.2309      4.9567
   757.5000     92.9764      0.0000   1349.9797     22.8248      4.8974
   757.7500     92.1196      0.0000   1350.0000     22.4796      4.8422
   758.0000     93.0540      0.0000   1350.0000     22.2358      4.7748
   758.2500     95.1805      0.0000   1350.0000     22.0899      4.6858
   758.5000     96.8116      0.0000   1350.0000     21.9784      4.5769
   758.7500     96.4988      0.0000   1350.0000     21.8041      4.4580
   759.0000     93.9053      0.0000   1350.0000     21.4918      4.3420
   759.2500     89.8963      0.0000   1350.0000     21.0228      4.2396
   759.5000     85.9202      0.0000   1350.0000     20.4193      4.1562
   759.7500     83.1699      0.0000   1350.0000     19.7116      4.0916
   760.0000     82.1353      0.0000   1349.9982     18.9382      4.0422
   760.2500     82.6124      0.0000   1349.9878     18.1621      4.0020
   760.5000     83.9616      0.0000   1349.9380     17.4561      3.9651
   760.7500     85.6005      0.0000   1349.7549     16.8588      3.9282
   761.0000     87.4219      0.0000   1349.2449     16.3495      3.8949
   761.2500     89.6318      0.0000   1348.1885     15.8759      3.8750
   761.5000     92.1341      0.0000   1346.6156     15.4134      3.8753
   761.7500     94.3416      0.0000   1345.0757     15.0101      3.8883
   762.0000     95.7217      0.0000   1344.4200     14.7762      3.8946
   762.2500     96.2565      0.0000   1345.0757     14.8104      3.8775
   762.5000     96.1024      0.0000   1346.6156     15.1233      3.8373
   762.7500     95.1013      0.0000   1348.1885     15.6319      3.7898
   763.0000     93.0809      0.0000   1349.2449     16.2260      3.7504
   763.2500     90.5011      0.0000   1349.7549     16.8314      3.7209
   763.5000     88.2534      0.0000   1349.9380     17.4260      3.6912
   763.7500     86.7758      0.0000   1349.9878     18.0158      3.6530
   764.0000     85.7938      0.0000   1349.9982     18.5908      3.6114
   764.2500     85.0309      0.0000   1350.0000     19.0876      3.5823
   764.5000     84.6951      0.0000   1350.0000     19.3981      3.5833
   764.7500     85.0630      0.0000   1350.0000     19.4284      3.6246
   765.0000     85.9634      0.0000   1350.0000     19.1604      3.7056
   765.2500     87.0038      0.0000   1350.0000     18.6670      3.8162
   765.5000     88.0467      0.0000   1350.0000     18.0817      3.9410
   765.7500     89.0984      0.0000   1350.0000     17.5518      4.0667
   766.0000     89.8138      0.0000   1350.0000     17.2001      4.1886
   766.2500     89.5966      0.0000   1350.0000     17.0944      4.3098
   766.5000     88.4258      0.0000   1350.0000     17.2372      4.4325
   766.7500     87.1456      0.0000   1350.0000     17.5856      4.5533
   767.0000     86.3670      0.0000   1350.0000     18.0852      4.6671
   767.2500     85.3147      0.0000   1350.0000     18.6909      4.7728
   767.5000     82.4483      0.0000   1350.0000     19.3730      4.8690
   767.7500     77.2422      0.0000   1350.0000     20.1135      4.9496
   768.0000     70.8616      0.0000   1350.0000     20.9008      5.0044
   768.2500     65.0982      0.0000   1350.0000     21.7233      5.0267
   768.5000     61.1174      0.0000   1350.0000     22.5495      5.0201
   768.7500     59.2709      0.0000   1350.0000     23.2900      4.9976
   769.0000     59.4833      0.0000   1350.0000     23.7829      4.9768
   769.2500     61.4015      0.0000   1350.0000     23.8608      4.9720
   769.5000     64.2832      0.0000   1350.0000     23.4685      4.9847
   769.7500     67.0233      0.0000   1350.0000     22.7183      4.9995
   770.0000     68.3979      0.0000   1350.0000     21.8094      4.9901
   770.2500     67.4964      0.0000   1350.0000     20.8890      4.9318
   770.5000     64.3013      0.0000   1350.0000     19.9873      4.8150
   770.7500     59.9608      0.0000   1350.0000     19.0651      4.6507
