~Version Information
VERS.                      2.0: CWLS Log ASCII Standard - VERSION 2.0
WRAP.                       NO: One line per depth step
~Well Information Block
STRT.FT               930.0000: 
STOP.FT              2783.2000: 
STEP.FT                 0.1000: 
NULL.                -999.2500: 
COMP.          Pioneer Natural Resources: COMPANY
WELL.           Desoto 13-7TR: WELL
FLD.           Purgatoire River: FIELD
LOC.           1404' FSL & 1115' FWL: LOCATION
PROV.                 Colorado: PROVINCE
CNTY.               Las Animas: COUNTRY
SRVC.                Patterson: SERVICE COMPANY
DATE.          Fri Jan 14 14:42:18 2005: LOG DATE
UWI.           05 071 08216 00: UNIQUE WELL ID
~Curve Information Block
DEPT.FT            0 000 00 00: Depth
DCAL.in                       : CDL Caliper
RHOB.g/cc                     : CDL Bulk Density
RHOC.g/cc                     : CDL Density Correction
DPOR.pu                       : CDL Density Porosity
NPOR.pu                       : Neutron Porosity
GR.GAPI                       : Gamma Ray
~Parameter Information Block
~A  Depth       DCAL        RHOB        RHOC        DPOR        NPOR         GR     
# ...
  1294.8000      8.0833      2.5612      0.0450      5.3840     27.6495     95.0137
  1294.9000      8.0833      2.5843      0.0724      3.9841     28.9974    104.9649
  1295.0000      8.0818      2.6017      0.0870      2.9253     30.0989    109.6564
  1295.1000      8.0818      2.6035      0.0603      2.8171     30.5203    108.9395
  1295.2000      8.0818      2.5934      0.0661      3.4284     30.5468    109.6522
  1295.3000      8.0824      2.5845      0.0340      3.9721     30.2770    115.6840
  1295.4000      8.0824      2.5816      0.0733      4.1474     29.5892    119.9302
  1295.5000      8.0806      2.5788      0.0407      4.3146     28.4473    116.0236
  1295.6000      8.0806      2.5784      0.0348      4.3406     27.3177    112.4127
  1295.7000      8.0806      2.5790      0.0691      4.3018     26.8091    116.0396
  1295.8000      8.0785      2.5660      0.1046      5.0885     26.6420    121.7246
  1295.9000      8.0785      2.5451      0.0296      6.3606     26.3854    122.2637
  1296.0000      8.0799      2.5425      0.0338      6.5156     26.3398    115.8582
  1296.1000      8.0799      2.5587      0.0982      5.5364     26.5408    108.2960
  1296.2000      8.0799      2.5679      0.0666      4.9775     26.6441    104.4572
  1296.3000      8.0800      2.5602      0.0790      5.4395     26.4101    103.2072
  1296.4000      8.0800      2.5508      0.0175      6.0094     25.8806    101.9449
  1296.5000      8.0776      2.5535      0.0589      5.8508     25.5173     99.3402
  1296.6000      8.0776      2.5628      0.0407      5.2848     25.4658     96.5145
  1296.7000      8.0776      2.5706      0.0774      4.8130     25.1873     95.8574
  1296.8000      8.0781      2.5711      0.0717      4.7843     24.5445     96.8375
  1296.9000      8.0781      2.5627      0.0519      5.2907     24.2327     98.5791
  1297.0000      8.0810      2.5495      0.0746      6.0900     24.4379    101.9496
  1297.1000      8.0810      2.5330      0.0719      7.0939     24.6884    104.1750
  1297.2000      8.0810      2.5186      0.0522      7.9653     24.8304    102.0116
  1297.3000      8.0829      2.5174      0.0279      8.0381     24.7123     98.8877
  1297.4000      8.0829      2.5305      0.0409      7.2437     24.3316     98.1189
  1297.5000      8.0841      2.5418      0.0896      6.5575     24.0694     99.6484
  1297.6000      8.0841      2.5448      0.0247      6.3734     24.1125    101.1384
  1297.7000      8.0841      2.5525      0.0318      5.9070     24.5998    100.2369
  1297.8000      8.0840      2.5622      0.0242      5.3191     25.4295     99.5480
  1297.9000      8.0840      2.5607      0.0244      5.4123     25.9620     99.2254
  1298.0000      8.0851      2.5487      0.0035      6.1414     25.8958     95.2371
  1298.1000      8.0851      2.5325      0.0264      7.1204     25.6181     90.6988
  1298.2000      8.0851      2.5204     -0.0153      7.8561     25.3403     91.6496
  1298.3000      8.0868      2.5157      0.0092      8.1420     25.1874     98.3425
  1298.4000      8.0868      2.5114      0.0069      8.4014     25.3959    105.3232
  1298.5000      8.0862      2.5115      0.0049      8.3952     25.7636    107.3718
  1298.6000      8.0862      2.5200      0.0450      7.8807     25.8491    106.3641
  1298.7000      8.0862      2.5242      0.0437      7.6232     25.7858    103.8197
  1298.8000      8.0862      2.5276     -0.0021      7.4200     26.1163     98.1553
  1298.9000      8.0862      2.5410      0.0807      6.6039     26.7578     93.2953
  1299.0000      8.0854      2.5528      0.0485      5.8934     26.8841     92.5170
  1299.1000      8.0854      2.5519      0.0937      5.9447     26.2470     93.7709
  1299.2000      8.0854      2.5437      0.0987      6.4445     25.5189     94.9199
  1299.3000      8.0835      2.5414      0.0582      6.5802     25.2152     96.1524
  1299.4000      8.0835      2.5516      0.0789      5.9617     25.0291     97.3422
  1299.5000      8.0833      2.5679      0.0985      4.9770     24.6037     95.8979
  1299.6000      8.0833      2.5810      0.1082      4.1825     24.0800     89.9119
  1299.7000      8.0833      2.5835      0.1192      4.0274     23.7964     82.3804
  1299.8000      8.0836      2.5689      0.0996      4.9165     24.1004     77.9779
  1299.9000      8.0836      2.5431      0.0309      6.4775     25.2052     79.2886
  1300.0000      8.0841      2.5232      0.0533      7.6823     26.5224     84.0375
  1300.1000      8.0841      2.5118      0.0816      8.3746     27.1935     86.8447
  1300.2000      8.0841      2.5069      0.0598      8.6705     27.3459     87.8882
  1300.3000      8.0855      2.5150      0.0819      8.1817     27.5407     90.2699
  1300.4000      8.0855      2.5280      0.1569      7.3914     27.8445     93.5069
  1300.5000      8.0865      2.5273      0.1102      7.4344     28.1186     95.8803
  1300.6000      8.0865      2.5094      0.0918      8.5207     28.3359     99.5125
  1300.7000      8.0865      2.4864      0.0397      9.9133     28.3152    106.5389
  1300.8000      8.0858      2.4708      0.0920     10.8581     27.8818    109.9686
  1300.9000      8.0858      2.4688      0.0687     10.9810     27.3766    104.7507
  1301.0000      8.0849      2.4820      0.1280     10.1826     27.1924     98.8317
  1301.1000      8.0849      2.5024      0.1176      8.9436     27.1669     99.6037
  1301.2000      8.0849      2.5285      0.0940      7.3618     27.0683    103.6490
  1301.3000      8.0853      2.5700      0.1021      4.8457     26.8696    104.5543
  1301.4000      8.0853      2.6202      0.1650      1.8035     26.5679    101.3902
  1301.5000      8.0862      2.6544      0.2003     -0.2683     26.5542     98.2376
  1301.6000      8.0862      2.6555      0.2218     -0.3343     26.9892     98.0003
  1301.7000      8.0862      2.6311      0.1468      1.1437     27.3734    100.0656
  1301.8000      8.0861      2.6101      0.0904      2.4158     27.6015    102.3831
  1301.9000      8.0861      2.6093      0.1177      2.4678     28.0578    103.1035
  1302.0000      8.0871      2.6152      0.1290      2.1110     28.8399    102.5471
  1302.1000      8.0871      2.6071      0.0922      2.5980     29.7211    101.4556
  1302.2000      8.0871      2.5826      0.0231      4.0832     30.3917     99.0782
  1302.3000      8.0881      2.5530      0.0494      5.8800     30.8066     96.3722
  1302.4000      8.0881      2.5295      0.0015      7.3049     31.1381     97.3273
  1302.5000      8.0859      2.5248     -0.0158      7.5895     31.3047    102.5614
  1302.6000      8.0859      2.5394     -0.0106      6.7006     31.0053    106.6538
  1302.7000      8.0859      2.5538      0.0483      5.8291     30.4260    106.3907
  1302.8000      8.0839      2.5536      0.0149      5.8421     30.2726    106.2910
  1302.9000      8.0839      2.5479      0.0308      6.1893     30.6386    110.7380
  1303.0000      8.0819      2.5460      0.0402      6.3033     30.7763    118.1019
  1303.1000      8.0819      2.5475      0.0681      6.2129     30.3315    123.4718
  1303.2000      8.0819      2.5550      0.0539      5.7565     29.7710    125.4239
  1303.3000      8.0801      2.5663      0.1142      5.0738     29.5770    127.8635
  1303.4000      8.0801      2.5662      0.0920      5.0792     29.7289    132.0404
  1303.5000      8.0791      2.5467      0.1111      6.2583     29.9402    131.3191
  1303.6000      8.0791      2.5232      0.0611      7.6825     29.9835    123.9699
  1303.7000      8.0791      2.5191      0.0469      7.9319     29.6281    118.7090
  1303.8000      8.0789      2.5314      0.0705      7.1907     28.8263    120.2985
  1303.9000      8.0789      2.5371      0.0497      6.8410     28.2230    124.3410
  1304.0000      8.0808      2.5273      0.0838      7.4351     28.1600    123.8837
  1304.1000      8.0808      2.5094      0.0614      8.5207     28.1152    118.3578
  1304.2000      8.0808      2.4976      0.0597      9.2389     27.7251    112.9744
  1304.3000      8.0839      2.5046      0.0434      8.8111     27.3458    109.7878
