~Version Information
VERS.                      2.0: CWLS Log ASCII Standard - VERSION 2.0
WRAP.                       NO: One line per depth step
~Well Information Block
STRT.FT               492.8000: 
STOP.FT              1992.0000: 
STEP.FT                 0.1000: 
NULL.                -999.2500: 
COMP.          Petrogulf Corporation: COMPANY
WELL.               Furu 6-23R: WELL
FLD.           Purgatoire River: FIELD
LOC.           2211' FSL & 1780' FWL--: LOCATION
CNTY.               Las Animas: COUNTY
SRVC.                Patterson: SERVICE COMPANY
DATE.          Thu Jun 22 14:21:35 2006: LOG DATE
UWI.           05 071 08266 00: UNIQUE WELL ID
STAT.                 Colorado: STATE
~Curve Information Block
DEPT.FT            0 000 00 00: Depth
DCAL.in                       : CDL Caliper
RHOB.g/cc                     : CDL Bulk Density
RHOC.g/cc                     : CDL Density Correction
DPOR.pu                       : CDL Density Porosity
NPOR.pu                       : Neutron Porosity
GR.GAPI                       : Gamma Ray
~Parameter Information Block
~A  Depth       DCAL        RHOB        RHOC        DPOR        NPOR         GR     
# ...
  1174.4000      8.1175      2.5147      0.0216      8.1990     29.9598    136.3363
  1174.5000      8.1194      2.5059      0.0122      8.7312     30.4585    128.5164
  1174.6000      8.1194      2.5111      0.0637      8.4165     30.4713    117.7911
  1174.7000      8.1194      2.5197      0.0334      7.8975     30.1207    114.7690
  1174.8000      8.1189      2.5314      0.0081      7.1888     29.8799    117.4239
  1174.9000      8.1189      2.5542      0.0767      5.8086     29.8012    118.3511
  1175.0000      8.1183      2.5792      0.0956      4.2880     29.8689    116.5973
  1175.1000      8.1183      2.5926      0.1274      3.4779     30.0625    117.3367
  1175.2000      8.1183      2.5916      0.1117      3.5410     30.0295    119.6195
  1175.3000      8.1190      2.5840      0.0421      4.0020     29.7587    118.3929
  1175.4000      8.1190      2.5775      0.1027      4.3944     29.7737    116.4967
  1175.5000      8.1185      2.5739      0.0563      4.6103     30.1444    116.3596
  1175.6000      8.1185      2.5759      0.0506      4.4889     30.5094    116.4502
  1175.7000      8.1185      2.5769      0.0386      4.4331     30.4964    117.9847
  1175.8000      8.1176      2.5643      0.0599      5.1938     29.9158    119.5093
  1175.9000      8.1176      2.5490      0.0335      6.1183     29.1621    121.6869
  1176.0000      8.1180      2.5539      0.0628      5.8267     28.8291    128.9007
  1176.1000      8.1180      2.5696      0.0787      4.8713     29.1137    134.7790
  1176.2000      8.1180      2.5723      0.0396      4.7071     29.7774    131.7142
  1176.3000      8.1176      2.5666      0.0508      5.0532     30.1520    124.9299
  1176.4000      8.1176      2.5715      0.0413      4.7605     30.0607    122.6670
  1176.5000      8.1177      2.5876      0.0423      3.7794     29.9745    122.4934
  1176.6000      8.1177      2.6012      0.0738      2.9606     30.2477    118.5356
  1176.7000      8.1177      2.6044      0.0570      2.7617     30.5174    113.5558
  1176.8000      8.1176      2.6056      0.0835      2.6927     30.5021    112.8989
  1176.9000      8.1176      2.6173      0.0234      1.9823     30.4224    116.4257
  1177.0000      8.1159      2.6365      0.0666      0.8180     30.1649    121.2028
  1177.1000      8.1159      2.6438      0.0570      0.3753     29.7640    122.6947
  1177.2000      8.1159      2.6309      0.0381      1.1550     29.4905    121.4938
  1177.3000      8.1158      2.6052      0.0129      2.7174     29.4441    122.6402
  1177.4000      8.1158      2.5761     -0.0079      4.4788     29.7275    122.7870
  1177.5000      8.1164      2.5485     -0.0182      6.1498     30.2637    118.5329
  1177.6000      8.1164      2.5223      0.0072      7.7401     31.0167    115.6346
  1177.7000      8.1164      2.5006     -0.0086      9.0519     31.7718    119.8800
  1177.8000      8.1151      2.4857     -0.0158      9.9554     32.1459    128.6289
  1177.9000      8.1151      2.4640      0.0261     11.2752     32.3660    132.3209
  1178.0000      8.1141      2.4185     -0.0017     14.0328     32.7183    127.7792
  1178.1000      8.1141      2.3522      0.0068     18.0479     32.8876    119.8826
  1178.2000      8.1141      2.2857     -0.0198     22.0809     32.9199    112.4033
  1178.3000      8.1149      2.2443     -0.0777     24.5849     33.3392    108.3992
  1178.4000      8.1149      2.2414     -0.0368     24.7655     33.7112    109.1557
  1178.5000      8.1170      2.2658      0.0063     23.2878     33.2906    112.7425
  1178.6000      8.1170      2.2978      0.0903     21.3453     32.2016    116.6544
  1178.7000      8.1170      2.3246      0.1220     19.7225     30.8332    119.1541
  1178.8000      8.1183      2.3484      0.0979     18.2768     29.5201    120.2554
  1178.9000      8.1183      2.3755      0.1818     16.6334     28.6328    121.3396
  1179.0000      8.1181      2.4010      0.1480     15.0884     28.3049    121.7524
  1179.1000      8.1181      2.4256      0.1381     13.6022     28.2752    123.2910
  1179.2000      8.1181      2.4599      0.0581     11.5236     28.3864    125.6910
  1179.3000      8.1167      2.5028      0.0768      8.9220     28.6951    123.4720
  1179.4000      8.1167      2.5335      0.0757      7.0614     29.2980    118.3760
  1179.5000      8.1163      2.5448      0.0530      6.3765     30.0617    115.8212
  1179.6000      8.1163      2.5543      0.0637      5.8005     30.5439    116.9591
  1179.7000      8.1163      2.5746      0.0594      4.5671     30.4181    120.3399
  1179.8000      8.1170      2.5977      0.0985      3.1699     29.9228    124.9651
  1179.9000      8.1170      2.6046      0.0702      2.7526     29.8606    129.3809
  1180.0000      8.1184      2.5909      0.0467      3.5843     30.4543    130.0004
  1180.1000      8.1184      2.5772      0.0278      4.4141     31.0406    125.3901
  1180.2000      8.1184      2.5833      0.0686      4.0453     31.2530    121.8756
  1180.3000      8.1182      2.6043      0.0910      2.7727     31.1112    124.6450
  1180.4000      8.1182      2.6162      0.1086      2.0455     30.8306    129.6103
  1180.5000      8.1169      2.6010      0.0930      2.9667     30.8472    132.1526
  1180.6000      8.1169      2.5694      0.0585      4.8838     31.0322    132.7140
  1180.7000      8.1169      2.5416      0.0722      6.5726     30.9333    130.3525
  1180.8000      8.1161      2.5198      0.0580      7.8931     30.9679    124.5622
  1180.9000      8.1161      2.4970      0.0914      9.2753     31.8026    121.8861
  1181.0000      8.1153      2.4733     -0.0002     10.7077     32.8561    124.8056
  1181.1000      8.1153      2.4616      0.0172     11.4160     33.3559    127.0666
  1181.2000      8.1153      2.4689      0.0376     10.9772     33.4711    126.5200
  1181.3000      8.1121      2.4836      0.0466     10.0824     33.5763    127.7262
  1181.4000      8.1121      2.4859      0.0654      9.9451     33.6433    131.9391
  1181.5000      8.1063      2.4665      0.0469     11.1221     33.5338    135.4707
  1181.6000      8.1063      2.4360      0.0323     12.9699     33.4864    135.4222
  1181.7000      8.1063      2.4070      0.0556     14.7246     33.5539    130.7117
  1181.8000      8.0980      2.3845      0.0464     16.0905     33.3104    123.1717
  1181.9000      8.0980      2.3783      0.0272     16.4670     32.7635    118.7326
  1182.0000      8.0878      2.3959      0.0928     15.4023     32.0225    121.2619
  1182.1000      8.0878      2.4256      0.1222     13.6017     31.1446    128.5124
  1182.2000      8.0878      2.4494      0.1311     12.1576     30.4401    131.1534
  1182.3000      8.0778      2.4611      0.1635     11.4511     29.8122    124.4777
  1182.4000      8.0778      2.4684      0.1428     11.0041     29.0772    118.1794
  1182.5000      8.0724      2.4824      0.1386     10.1584     28.2496    120.2770
  1182.6000      8.0724      2.5001      0.1709      9.0828     27.1919    124.3415
  1182.7000      8.0724      2.5127      0.1566      8.3219     26.2735    123.3469
  1182.8000      8.0710      2.5284      0.0983      7.3701     26.0382    118.9977
  1182.9000      8.0710      2.5592      0.0770      5.5036     26.5174    113.3446
  1183.0000      8.0710      2.5886      0.0911      3.7190     27.2040    108.3754
  1183.1000      8.0710      2.5908      0.0837      3.5876     27.5520    106.4462
  1183.2000      8.0710      2.5697      0.0679      4.8658     27.5429    107.1640
  1183.3000      8.0738      2.5543      0.0337      5.8013     27.2976    109.3347
  1183.4000      8.0738      2.5575      0.0588      5.6087     27.0574    112.4055
  1183.5000      8.0795      2.5663      0.0547      5.0720     27.4592    116.2318
  1183.6000      8.0795      2.5723      0.0648      4.7084     28.5609    119.1496
  1183.7000      8.0795      2.5704      0.0666      4.8233     29.4936    119.9320
  1183.8000      8.0898      2.5588      0.0484      5.5248     29.7705    119.2859
  1183.9000      8.0898      2.5554      0.0137      5.7311     29.7317    117.8676
