~Version Information
VERS.                      2.0: CWLS Log ASCII Standard - VERSION 2.0
WRAP.                       NO: One line per depth step
~Well Information Block
STRT.FT               665.0000: 
STOP.FT              1972.0000: 
STEP.FT                 0.2500: 
NULL.                -999.2500: 
COMP.          Petrogulf Corporation: COMPANY
WELL.          Great Plains 22-21V: WELL
FLD.           Purgatorie River: FIELD
LOC.           63' FNL & 1895' FWL: LOCATION
PROV.                 Colorado: PROVINCE
CNTY.               Las Animas: COUNTRY
SRVC.                Patterson: SERVICE COMPANY
DATE.          Thu Sep 01 07:36:33 2005: LOG DATE
UWI.                          : UNIQUE WELL ID
~Curve Information Block
DEPT.FT            0 000 00 00: Depth
SP.mV                         : DIL Spontaneous Potential
RILD.Ohm-m                    : DIL Deep Resistivity
RILM.Ohm-m                    : DIL Medium Resistivity
RLL3.Ohm-m                    : DIL Shallow Resistivity
GR.GAPI                       : Gamma Ray
~Parameter Information Block
~A  Depth        SP         RILD        RILM        RLL3         GR     
# ...
  1785.0000    187.4537     18.8460     38.9317    271.4769     57.5870
  1785.2500    189.3623     17.7885     32.4033    171.3674     53.6771
  1785.5000    191.5283     16.7216     27.1311     84.0505     76.6735
  1785.7500    193.7569     15.5833     21.6118     47.3752     84.5319
  1786.0000    195.8252     14.3696     17.1490     29.5282     97.3138
  1786.2500    197.5524     13.9116     14.4528     15.5065    101.6729
  1786.5000    198.7671     13.1886     12.3387      9.9983    116.3598
  1786.7500    199.3269     12.5642     11.2104      8.9511    104.0047
  1787.0000    199.3229     12.0936     10.5969      9.4661    119.9019
  1787.2500    199.0200     11.5282     10.2471     10.2408    118.0146
  1787.5000    198.5693     11.1848     10.1324     11.5319    114.6325
  1787.7500    198.0915     10.6874     10.1078     12.8440    102.2377
  1788.0000    197.6804     10.3544     10.0265     14.2414    109.7911
  1788.2500    197.3818     10.1003     10.0163     14.9185    107.3537
  1788.5000    197.2410      9.9509      9.9580     14.8716     96.4519
  1788.7500    197.2139      9.9459      9.9968     14.2766    106.3160
  1789.0000    197.2644      9.8868     10.0104     14.2839    103.6418
  1789.2500    197.2800      9.9391     10.2037     14.7767     92.6654
  1789.5000    197.0536     10.3572     10.5507     15.7129     78.3577
  1789.7500    196.8987     10.6340     10.8599     15.9863     83.5914
  1790.0000    196.7794     10.8141     10.9890     15.4172     80.7970
  1790.2500    196.5147     10.8072     11.0289     14.4406     91.1843
  1790.5000    195.9639     11.0995     11.1653     13.9155    113.2501
  1790.7500    195.0098     11.0953     11.2618     13.8951    100.3798
  1791.0000    193.6419     11.4030     11.5002     14.1958     92.2668
  1791.2500    191.9937     11.2992     11.6424     14.5541     97.6864
  1791.5000    190.1137     11.2333     11.5682     14.8814     99.2865
  1791.7500    187.9321     11.2849     11.6011     15.7007     92.2532
  1792.0000    185.5525     11.1643     11.5320     16.0019     92.6506
  1792.2500    183.0402     11.1371     11.3841     14.6010     98.6378
  1792.5000    180.7447     11.2252     11.2995     13.0182    108.7009
  1792.7500    178.8333     11.0796     11.1708     12.6264    103.7318
  1793.0000    177.2642     10.6615     11.1103     12.9848     96.7006
  1793.2500    175.9759     10.7958     10.9611     12.9134     93.1967
  1793.5000    174.8969     10.8520     10.8731     12.8121    114.2385
  1793.7500    173.8945     10.7802     10.8658     13.0283    115.1062
  1794.0000    172.9385     10.8054     10.9932     13.3679     95.9016
  1794.2500    172.0011     10.7418     10.8615     13.1585    101.9079
  1794.5000    171.0906     11.0192     10.9585     12.2665     90.7064
  1794.7500    170.1515     11.2186     10.8700     11.4912    115.8020
  1795.0000    169.1370     11.2259     11.0366     11.4862    111.1752
  1795.2500    168.0238     11.2283     11.2679     12.2446     99.9094
  1795.5000    166.7586     11.3334     11.5269     13.3463     89.6116
  1795.7500    165.4072     11.3782     11.8456     14.2362    102.2567
  1796.0000    163.9796     11.3004     12.1724     15.4456    105.0118
  1796.2500    162.6170     11.1965     12.3330     16.7399    103.9128
  1796.5000    161.3673     11.3605     12.2007     16.8647     87.3731
  1796.7500    160.2081     11.4783     12.2747     15.9729     90.9899
  1797.0000    159.1912     11.5198     11.9887     14.9288     93.2439
  1797.2500    158.3698     11.4504     11.9277     14.4325     84.0527
  1797.5000    157.6348     11.8070     11.9581     14.0539     79.0759
  1797.7500    156.9485     11.7922     11.8621     13.7328     86.4401
  1798.0000    156.2913     11.7576     12.0622     13.5185     90.7691
  1798.2500    155.6820     12.1676     11.9479     13.2802     85.5074
  1798.5000    155.1539     12.1802     11.9070     13.3629     89.1277
  1798.7500    154.5681     12.1325     12.1156     14.0171     89.9065
  1799.0000    153.9879     12.0664     12.1869     14.9542     88.7456
  1799.2500    153.3827     11.7546     12.3589     16.6504     97.0397
  1799.5000    152.7787     12.3499     12.8161     18.3313     97.8360
  1799.7500    152.1378     12.3624     13.0748     19.0862     93.1703
  1800.0000    151.4510     12.3099     13.2083     19.1589     96.6523
  1800.2500    150.6994     12.5487     13.2649     18.7704     92.0883
  1800.5000    149.9398     12.7966     13.3554     17.8718     94.4692
  1800.7500    149.3428     13.2383     13.7477     16.5087     95.9780
  1801.0000    148.9944     13.3972     14.4386     15.2266    100.0585
  1801.2500    148.9818     13.7651     14.6708     15.1820     92.4283
  1801.5000    149.2751     13.8920     15.2869     17.5313     66.5815
  1801.7500    149.8880     13.8572     16.7162     25.2018     67.6031
  1802.0000    150.6242     14.0153     17.1296     42.7041     40.6397
  1802.2500    151.4743     13.8666     17.2315     69.5234     51.3587
  1802.5000    152.3289     13.4557     16.9042     78.9742     57.9912
  1802.7500    152.9530     13.5837     16.3223     62.3122     72.3038
  1803.0000    153.6380     13.6478     15.8528     34.5082     72.1116
  1803.2500    154.4238     13.8119     14.6779     18.0944     69.8969
  1803.5000    155.1661     14.2309     14.3918     13.9837     86.2219
  1803.7500    155.5363     14.4047     14.1657     15.2436     94.0346
  1804.0000    155.6240     14.4752     13.9873     16.3981     95.4636
  1804.2500    155.5619     14.8309     14.4610     14.8493     98.6049
  1804.5000    155.4460     15.0018     14.7209     15.0620     94.2218
  1804.7500    155.2905     15.2397     15.2395     18.6783     87.2119
  1805.0000    155.1210     15.1640     15.6196     21.7474     65.2689
  1805.2500    154.9520     15.2565     16.0410     22.9137     59.3256
  1805.5000    154.7961     15.5405     16.1926     23.9062     81.5512
  1805.7500    154.6209     15.7479     16.6742     24.2896     72.7507
  1806.0000    154.3665     16.0315     17.3507     24.0568     71.2263
  1806.2500    154.1693     16.2066     18.4311     23.7606     80.1267
  1806.5000    154.0383     17.1082     19.0212     24.5875     60.9680
  1806.7500    154.0028     18.0426     19.5437     25.5070     54.4274
  1807.0000    154.1286     17.8166     20.9631     26.8993     55.4448
  1807.2500    154.4954     18.3595     22.4766     31.3446     52.5906
  1807.5000    155.1173     19.0804     23.6573     36.0731     51.6625
  1807.7500    155.9692     20.2135     25.5023     38.0383     44.8554
  1808.0000    156.8792     20.4614     26.5782     37.7012     34.6017
  1808.2500    157.7049     21.0324     28.7720     35.6397     31.1739
  1808.5000    158.4960     20.4585     30.9801     38.6029     39.9128
  1808.7500    159.3323     21.2723     33.8834     51.1944     43.5463
  1809.0000    160.2515     20.4603     35.2920     79.7656     49.0051
  1809.2500    161.4763     19.4255     35.3206    123.8644     40.8175
  1809.5000    163.1398     18.9884     35.4356    156.3163     51.8445
  1809.7500    165.1282     18.7851     33.0123    170.9927     46.1300
  1810.0000    167.2703     17.3277     29.4552    153.6630     41.1402
  1810.2500    169.4572     16.7981     24.1130     88.6000     55.7354
  1810.5000    171.6767     16.1933     20.2005     40.0314     50.8051
  1810.7500    173.7846     15.6547     18.0911     22.3347     65.7740
  1811.0000    175.4730     14.5864     16.0494     16.9318     70.9638
  1811.2500    176.7350     13.7913     14.6963     14.8232     79.9454
  1811.5000    177.6320     13.5194     13.1898     13.8985     85.5857
  1811.7500    178.3553     13.1007     12.3080     13.6977     92.7740
  1812.0000    178.9968     12.7213     11.7413     13.4542    100.6692
  1812.2500    179.5751     12.4597     11.5519     13.3948     95.2894
  1812.5000    180.1317     12.1271     11.0605     13.7043     99.1054
  1812.7500    180.7243     11.9623     10.7391     13.5774    103.2152
