~Version Information
VERS.                      2.0: CWLS Log ASCII Standard - VERSION 2.0
WRAP.                       NO: One line per depth step
~Well Information Block
STRT.FT               430.0000: 
STOP.FT              2827.0000: 
STEP.FT                 0.1000: 
NULL.                -999.2500: 
COMP.          Pioneer Natural Resources: COMPANY
WELL.           Ei-ei-oh 31-24: WELL
FLD.           Purgatoire River: FIELD
LOC.           235' FNL & 2001' FEL--: LOCATION
PROV.                 Colorado: PROVINCE
CNTY.               Las Animas: COUNTRY
SRVC.                Patterson: SERVICE COMPANY
DATE.          Thu Jun 16 07:14:41 2005: LOG DATE
UWI.           05 071 08403 00: UNIQUE WELL ID
~Curve Information Block
DEPT.FT            0 000 00 00: Depth
DCAL.in                       : CDL Caliper
DPOR.pu                       : CDL Density Porosity
NPOR.pu                       : Neutron Porosity
RHOB.g/cc                     : CDL Bulk Density
RHOC.g/cc                     : CDL Density Correction
GR.GAPI                       : Gamma Ray
~Parameter Information Block
~A  Depth       DCAL        DPOR        NPOR        RHOB        RHOC         GR     
# ...
  1188.4000      8.0403     24.1279     29.3726      2.2519      0.0320     82.8447
  1188.5000      8.0436     22.3390     29.3677      2.2814      0.0370     92.5005
  1188.6000      8.0436     20.8193     29.5678      2.3065      0.1380     96.7994
  1188.7000      8.0436     19.6989     29.3166      2.3250      0.0984     96.3517
  1188.8000      8.0545     17.9293     28.7939      2.3542      0.1402     98.0038
  1188.9000      8.0545     14.5981     28.8375      2.4091      0.2016    102.9381
  1189.0000      8.0727     10.7552     29.0883      2.4725      0.2154    106.1150
  1189.1000      8.0727      8.4807     28.5425      2.5101      0.1915    106.3338
  1189.2000      8.0727      7.9858     27.5832      2.5182      0.0709    109.6169
  1189.3000      8.0905      7.2747     27.4021      2.5300      0.0513    117.3251
  1189.4000      8.0905      5.3245     28.2391      2.5621      0.0827    122.8771
  1189.5000      8.1060      2.9346     29.2851      2.6016      0.1116    124.9998
  1189.6000      8.1060      0.5933     29.9222      2.6402      0.0874    125.0097
  1189.7000      8.1060     -1.9324     30.1693      2.6819      0.1454    124.8572
  1189.8000      8.1245     -4.2323     30.0559      2.7198      0.1703    125.7726
  1189.9000      8.1245     -5.5590     29.4068      2.7417      0.1750    123.5678
  1190.0000      8.1425     -5.6390     28.2795      2.7430      0.1636    118.1268
  1190.1000      8.1425     -4.7355     27.1637      2.7281      0.1057    114.6354
  1190.2000      8.1425     -3.6139     26.5854      2.7096      0.1264    112.7963
  1190.3000      8.1580     -2.9037     26.6800      2.6979      0.0393    110.9557
  1190.4000      8.1580     -2.1199     27.2647      2.6850      0.0249    114.6121
  1190.5000      8.1768     -0.0587     27.7565      2.6510     -0.0430    124.5078
  1190.6000      8.1768      2.9897     27.7189      2.6007     -0.0863    130.2579
  1190.7000      8.1768      5.0233     27.3252      2.5671     -0.0630    130.2534
  1190.8000      8.1945      5.0263     27.2477      2.5671     -0.0018    134.3375
  1190.9000      8.1945      4.2944     27.8722      2.5791      0.0322    142.9990
  1191.0000      8.2034      4.3908     28.4663      2.5776      0.0290    146.2447
  1191.1000      8.2034      5.4323     28.2717      2.5604      0.0382    140.1702
  1191.2000      8.2034      6.8296     27.9286      2.5373      0.0308    130.7040
  1191.3000      8.2058      7.9363     28.1501      2.5191      0.0024    123.4187
  1191.4000      8.2058      8.2614     28.6486      2.5137      0.0077    123.4147
  1191.5000      8.2057      7.9188     29.1859      2.5193      0.0462    131.6544
  1191.6000      8.2057      7.0687     29.9460      2.5334      0.0368    135.9878
  1191.7000      8.2057      5.8437     30.6658      2.5536      0.0674    129.9651
  1191.8000      8.2048      5.0959     30.7710      2.5659      0.0713    122.8359
  1191.9000      8.2048      5.4841     30.4729      2.5595      0.0635    121.8727
  1192.0000      8.2046      6.2277     29.9936      2.5472      0.0274    123.5574
  1192.1000      8.2046      6.1983     29.0433      2.5477      0.0591    123.0551
  1192.2000      8.2046      5.4274     28.1660      2.5604      0.0539    124.1384
  1192.3000      8.2047      4.6253     28.0480      2.5737      0.0733    130.7317
  1192.4000      8.2047      4.1316     28.2258      2.5818      0.0868    137.7692
  1192.5000      8.2030      3.8794     28.4434      2.5860      0.0596    141.1142
  1192.6000      8.2030      3.9196     29.0113      2.5853      0.0584    141.3465
  1192.7000      8.2030      4.3612     29.3970      2.5780      0.0497    134.9685
  1192.8000      8.2018      5.2598     29.2198      2.5632      0.0580    125.0972
  1192.9000      8.2018      6.5815     29.1659      2.5414      0.0359    121.5100
  1193.0000      8.2023      7.6245     29.8879      2.5242      0.0200    122.2486
  1193.1000      8.2023      7.8932     31.1414      2.5198      0.0368    121.1404
  1193.2000      8.2023      8.1522     32.0699      2.5155      0.0495    118.9271
  1193.3000      8.2019      8.9962     32.1988      2.5016      0.0057    118.7085
  1193.4000      8.2019      9.9740     31.7122      2.4854      0.0048    122.6571
  1193.5000      8.2024     11.0978     31.3059      2.4669      0.0455    128.9940
  1193.6000      8.2024     12.6339     31.5799      2.4415      0.0141    133.7310
  1193.7000      8.2024     13.7065     31.8708      2.4238     -0.0013    135.9633
  1193.8000      8.2038     13.4011     31.6106      2.4289      0.0251    135.4903
  1193.9000      8.2038     11.7961     31.6124      2.4554      0.0677    132.9698
  1194.0000      8.2046      9.7690     32.1372      2.4888      0.0738    132.0778
  1194.1000      8.2046      8.2010     32.4369      2.5147      0.0665    132.8439
  1194.2000      8.2046      7.0155     32.3128      2.5342      0.0557    129.9008
  1194.3000      8.2059      5.8703     31.9475      2.5531      0.1140    122.3491
  1194.4000      8.2059      4.9161     31.1490      2.5689      0.0816    116.4290
  1194.5000      8.2056      4.3070     29.9809      2.5789      0.1053    114.9540
  1194.6000      8.2056      4.0805     29.2151      2.5827      0.0792    116.9018
  1194.7000      8.2056      4.4363     29.4818      2.5768      0.1241    120.9423
  1194.8000      8.2043      5.9066     30.1849      2.5525      0.0732    125.0453
  1194.9000      8.2043      8.4773     30.4104      2.5101      0.0075    126.2879
  1195.0000      8.2085     11.0734     30.0728      2.4673     -0.0601    126.1344
  1195.1000      8.2085     12.6336     29.2476      2.4415     -0.0205    128.2475
  1195.2000      8.2085     13.2831     28.2896      2.4308      0.0360    129.0951
  1195.3000      8.2148     13.7509     28.0553      2.4231      0.0662    124.1581
  1195.4000      8.2148     14.2923     28.5024      2.4142      0.0426    119.9369
  1195.5000      8.2148     14.3700     28.7114      2.4129      0.0579    122.6858
  1195.6000      8.2148     13.3487     28.5293      2.4297      0.0677    129.5802
  1195.7000      8.2148     11.8168     28.4784      2.4550      0.0869    135.3349
  1195.8000      8.2098     11.2210     28.7408      2.4649      0.1329    137.9583
  1195.9000      8.2098     11.7417     28.9911      2.4563      0.0362    138.1371
  1196.0000      8.2066     12.2501     28.9106      2.4479      0.0621    135.1488
  1196.1000      8.2066     12.4880     28.4704      2.4439      0.0728    128.4923
  1196.2000      8.2066     13.0185     27.8063      2.4352      0.0445    123.0032
  1196.3000      8.2072     13.6142     27.3428      2.4254      0.0293    121.1079
  1196.4000      8.2072     13.3651     27.4407      2.4295      0.0239    118.9548
  1196.5000      8.2086     12.1437     27.6489      2.4496      0.0590    115.9167
  1196.6000      8.2086     10.3478     27.2001      2.4793      0.0533    114.8137
  1196.7000      8.2086      8.3249     26.4082      2.5126      0.1137    117.7165
  1196.8000      8.2085      7.1549     26.0157      2.5319      0.1266    121.6586
  1196.9000      8.2085      7.4738     25.7349      2.5267      0.0993    121.8940
  1197.0000      8.2082      8.3318     25.5361      2.5125      0.0717    118.2894
  1197.1000      8.2082      8.5646     26.1593      2.5087      0.0155    112.9732
  1197.2000      8.2082      8.0140     27.4688      2.5178      0.0670    110.9731
  1197.3000      8.2104      7.0790     28.8047      2.5332      0.0441    116.6854
  1197.4000      8.2104      6.1886     29.9674      2.5479      0.0629    126.0181
  1197.5000      8.2171      6.3565     30.5896      2.5451      0.0853    132.2194
  1197.6000      8.2171      8.2426     30.5339      2.5140      0.0656    133.6875
  1197.7000      8.2171     10.7926     30.3243      2.4719     -0.0084    131.7462
  1197.8000      8.2256     12.6418     30.3564      2.4414      0.0185    130.2445
  1197.9000      8.2256     13.8869     30.6098      2.4209     -0.0241    133.2894
