~Version Information
VERS.                      2.0: CWLS Log ASCII Standard - VERSION 2.0
WRAP.                       NO: One line per depth step
~Well Information Block
STRT.FT               260.0000: 
STOP.FT              1200.5000: 
STEP.FT                 0.2500: 
NULL.                -999.2500: 
COMP.          Evergreen Operating Corporation: COMPANY
WELL.             Justin 32-10: WELL
FLD.           Purgatorie River: FIELD
LOC.           2994' FNL & 1449' FEL: LOCATION
PROV.                 Colorado: PROVINCE
CNTY.               Las Animas: COUNTRY
SRVC.                         : SERVICE COMPANY
DATE.          Sun Aug 29 20:47:20 2004: LOG DATE
UWI.           05 071 08053 00: UNIQUE WELL ID
~Curve Information Block
DEPT.FT            0 000 00 00: Depth
LTEN.lb                       : Surface Line Tension
SN.Ohm-m                      : IEL Short Normal
SP.mV                         : IEL Spontaneous Potential
DIR.Ohm-m                     : IEL Induction Resistivity
GR.GAPI                       : Gamma Ray
~Parameter Information Block
~A  Depth       LTEN         SN          SP         DIR          GR     
# ...
   988.0000    644.9679     29.3283     20.7805     23.4541     59.7778
   988.2500    644.5414     31.0243     20.6523     24.6119     58.9517
   988.5000    644.2603     32.4627     20.5380     25.6759     57.7061
   988.7500    644.4042     33.6065     20.4476     26.6278     56.4465
   989.0000    644.8889     34.4589     20.3916     27.4563     53.5655
   989.2500    645.1830     35.0425     20.3790     28.1590     51.1608
   989.5000    644.9053     35.3804     20.4156     28.7347     47.6770
   989.7500    644.3566     35.4866     20.5028     29.1653     46.0550
   990.0000    644.2859     35.3670     20.6379     29.4045     45.4624
   990.2500    645.2068     35.0220     20.8146     29.3906     46.3573
   990.5000    647.0218     34.4516     21.0238     29.0774     48.9347
   990.7500    649.1669     33.6639     21.2558     28.4574     50.7611
   991.0000    650.9574     32.6847     21.5014     27.5615     52.4765
   991.2500    651.9187     31.5595     21.7527     26.4422     52.5441
   991.5000    652.0070     30.3417     22.0039     25.1586     51.0862
   991.7500    651.5438     29.0710     22.2504     23.7697     49.4845
   992.0000    650.9044     27.7541     22.4888     22.3353     47.2315
   992.2500    650.2934     26.3651     22.7160     20.9167     46.5310
   992.5000    649.7723     24.8670     22.9281     19.5727     47.5930
   992.7500    649.3649     23.2457     23.1204     18.3494     49.7883
   993.0000    649.0792     21.5360     23.2869     17.2720     54.5054
   993.2500    648.8853     19.8210     23.4212     16.3417     57.9669
   993.5000    648.6874     18.2059     23.5166     15.5421     63.4125
   993.7500    648.3248     16.7793     23.5680     14.8481     67.7628
   994.0000    647.7054     15.5863     23.5725     14.2352     76.4582
   994.2500    646.9891     14.6239     23.5311     13.6839     83.6880
   994.5000    646.4961     13.8578     23.4484     13.1815     95.0869
   994.7500    646.3967     13.2474     23.3328     12.7213    101.6860
   995.0000    646.6419     12.7625     23.1955     12.3019    108.6413
   995.2500    647.1496     12.3876     23.0491     11.9265    111.6034
   995.5000    647.8334     12.1136     22.9056     11.6006    115.1663
   995.7500    648.4915     11.9283     22.7757     11.3293    117.4728
   996.0000    648.8990     11.8120     22.6669     11.1145    120.2264
   996.2500    649.0002     11.7412     22.5835     10.9543    121.0686
   996.5000    648.8854     11.6942     22.5261     10.8441    120.9114
   996.7500    648.6424     11.6555     22.4925     10.7786    120.3176
   997.0000    648.3524     11.6152     22.4781     10.7525    119.4033
   997.2500    648.1829     11.5674     22.4772     10.7584    119.0542
   997.5000    648.3549     11.5089     22.4842     10.7850    119.2903
   997.7500    648.9631     11.4373     22.4944     10.8180    119.9687
   998.0000    649.8408     11.3495     22.5053     10.8422    121.1189
   998.2500    650.6174     11.2394     22.5170     10.8458    121.3705
   998.5000    650.9510     11.0990     22.5322     10.8218    120.3759
   998.7500    650.7621     10.9225     22.5563     10.7698    118.8778
   999.0000    650.2653     10.7108     22.5960     10.6953    115.8557
   999.2500    649.7851     10.4760     22.6583     10.6065    113.5903
   999.5000    649.5518     10.2399     22.7486     10.5114    110.1779
   999.7500    649.6123     10.0281     22.8702     10.4148    108.0230
  1000.0000    649.8133      9.8605     23.0225     10.3180    105.0118
  1000.2500    649.8732      9.7438     23.2014     10.2192    103.1654
  1000.5000    649.5982      9.6694     23.3993     10.1154    100.8084
  1000.7500    649.0582      9.6187     23.6065     10.0036     99.6976
  1001.0000    648.5023      9.5724     23.8118      9.8830     98.9662
  1001.2500    648.1683      9.5190     24.0040      9.7557     98.9794
  1001.5000    648.2192      9.4573     24.1729      9.6269     98.9544
  1001.7500    648.6948      9.3936     24.3099      9.5034     98.4150
  1002.0000    649.4247      9.3370     24.4088      9.3918     96.6703
  1002.2500    650.1356      9.2949     24.4657      9.2969     95.1866
  1002.5000    650.6868      9.2718     24.4791      9.2213     93.0628
  1002.7500    651.0759      9.2698     24.4505      9.1655     91.9460
  1003.0000    651.3056      9.2877     24.3836      9.1284     91.1550
  1003.2500    651.4123      9.3199     24.2843      9.1076     91.5590
  1003.5000    651.5082      9.3556     24.1603      9.0998     93.9900
  1003.7500    651.6744      9.3820     24.0204      9.1016     96.7894
  1004.0000    651.9284      9.3892     23.8735      9.1103    102.1249
  1004.2500    652.2847      9.3747     23.7279      9.1253    105.7258
  1004.5000    652.6661      9.3451     23.5906      9.1478    109.4227
  1004.7500    652.8680      9.3137     23.4667      9.1801    109.7860
  1005.0000    652.8161      9.2963     23.3594      9.2248    107.0198
  1005.2500    652.6951      9.3061     23.2696      9.2843    104.0741
  1005.5000    652.6610      9.3502     23.1964      9.3608    100.6795
  1005.7500    652.6441      9.4286     23.1373      9.4571    100.0088
  1006.0000    652.5620      9.5363     23.0883      9.5761    100.9791
  1006.2500    652.5031      9.6660     23.0443      9.7201    101.9734
  1006.5000    652.6210      9.8107     23.0001      9.8889    102.3912
  1006.7500    653.0023      9.9645     22.9503     10.0787    101.6024
  1007.0000    653.5939     10.1231     22.8908     10.2829     99.6408
  1007.2500    654.1166     10.2849     22.8192     10.4941     98.8830
  1007.5000    654.2022     10.4518     22.7360     10.7048     99.9749
  1007.7500    653.7994     10.6293     22.6446     10.9085    101.9315
  1008.0000    653.2988     10.8238     22.5516     11.0976    104.4892
  1008.2500    653.1297     11.0383     22.4657     11.2629    104.6322
  1008.5000    653.3472     11.2690     22.3964     11.3954    102.0779
  1008.7500    653.6430     11.5048     22.3527     11.4909     99.3281
  1009.0000    653.6574     11.7306     22.3414     11.5516     95.3511
  1009.2500    653.2735     11.9313     22.3658     11.5853     93.4261
  1009.5000    652.6628     12.0968     22.4253     11.6017     92.0243
  1009.7500    652.0809     12.2222     22.5153     11.6087     91.9716
  1010.0000    651.6552     12.3071     22.6281     11.6119     92.3884
  1010.2500    651.3611     12.3523     22.7534     11.6142     92.3756
  1010.5000    651.1362     12.3576     22.8798     11.6167     91.5797
  1010.7500    650.9963     12.3220     22.9963     11.6179     90.9637
  1011.0000    651.0755     12.2456     23.0927     11.6134     90.9214
  1011.2500    651.5120     12.1327     23.1611     11.5969     91.6965
  1011.5000    652.2336     11.9938     23.1968     11.5637     93.7427
  1011.7500    652.9276     11.8463     23.1982     11.5152     95.3974
  1012.0000    653.3412     11.7118     23.1674     11.4619     97.8300
  1012.2500    653.5693     11.6117     23.1096     11.4221     99.1562
  1012.5000    653.9017     11.5620     23.0321     11.4171    100.5252
  1012.7500    654.4334     11.5695     22.9429     11.4645    101.1320
  1013.0000    654.9948     11.6312     22.8498     11.5721    101.6205
  1013.2500    655.4418     11.7350     22.7592     11.7367    101.4033
  1013.5000    655.8096     11.8643     22.6751     11.9460     99.7940
  1013.7500    656.1166     12.0060     22.5994     12.1842     97.9300
  1014.0000    656.1398     12.1597     22.5322     12.4376     94.5415
  1014.2500    655.5262     12.3417     22.4724     12.6970     92.2140
  1014.5000    654.2330     12.5818     22.4182     12.9575     88.7826
  1014.7500    652.8173     12.9099     22.3679     13.2185     86.3635
  1015.0000    652.0871     13.3403     22.3197     13.4846     82.0025
  1015.2500    652.3891     13.8598     22.2727     13.7669     78.4921
  1015.5000    653.3806     14.4276     22.2259     14.0789     73.0917
  1015.7500    654.4922     14.9887     22.1791     14.4301     70.3099
