~Version Information
VERS.                      2.0: CWLS Log ASCII Standard - VERSION 2.0
WRAP.                       NO: One line per depth step
~Well Information Block
STRT.FT               433.5000: 
STOP.FT              1880.2500: 
STEP.FT                 0.2500: 
NULL.                -999.2500: 
COMP.          Pioneer Natural Resources: COMPANY
WELL.           Buckhorn 12-21: WELL
FLD.           Purgatorie River: FIELD
LOC.           2450' FNL & 608' FWL--: LOCATION
PROV.                       CO: PROVINCE
CNTY.               Las Animas: COUNTRY
SRVC.                         : SERVICE COMPANY
DATE.          Fri Dec 03 14:13:08 2004: LOG DATE
UWI.          005 071 08129 : UNIQUE WELL ID
~Curve Information Block
DEPT.FT            0 000 00 00: Depth
NPOR.pu                       : Neutron Porosity
CCL.                          : Casing Collar Locator
TT3.usec                      : CBL 3' Travel Time
AMP3.mV                       : CBL 3' Amplitude
GR.GAPI                       : Gamma Ray
~Parameter Information Block
~A  Depth       NPOR        CCL         TT3         AMP3         GR     
# ...
   713.5000     22.1930      0.0000    265.1798     71.8878     53.6205
   713.7500     22.2141      0.0000    265.1934     71.8429     53.9711
   714.0000     22.3396      0.0000    265.1949     71.8356     55.9528
   714.2500     22.4823      0.0000    265.1871     71.8510     58.0449
   714.5000     22.4897      0.0000    265.1801     71.8706     59.3598
   714.7500     22.2844      0.0000    265.1819     71.8830     60.3566
   715.0000     21.9366      0.0000    265.1917     71.8841     61.9674
   715.2500     21.5770      0.0000    265.2004     71.8734     64.0774
   715.5000     21.2769      0.0000    265.1992     71.8525     65.3068
   715.7500     21.0517      0.0000    265.1866     71.8278     64.4015
   716.0000     20.9468      0.0000    265.1708     71.8079     61.4494
   716.2500     21.0493      0.0000    265.1655     71.7944     57.6154
   716.5000     21.3999      0.0000    265.1812     71.7771     54.0878
   716.7500     21.9349      0.0000    265.2149     71.7446     51.4359
   717.0000     22.5403      0.0000    265.2494     71.7008     49.5098
   717.2500     23.1365      0.0000    265.2650     71.6638     47.5527
   717.5000     23.6896      0.0000    265.2565     71.6483     44.7054
   717.7500     24.1561      0.0000    265.2354     71.6573     40.9315
   718.0000     24.4442      0.0000    265.2159     71.6883     37.5745
   718.2500     24.4264      0.0000    265.2040     71.7386     36.7550
   718.5000     23.9906      0.0000    265.1998     71.8029     39.7979
   718.7500     23.1390      0.0000    265.2037     71.8714     45.9343
   719.0000     22.0933      0.0000    265.2116     71.9299     52.5072
   719.2500     21.2563      0.0000    265.2129     71.9604     56.6526
   719.5000     20.9753      0.0000    265.2037     71.9467     57.0511
   719.7500     21.3017      0.0000    265.1953     71.8923     54.4226
   720.0000     21.9771      0.0000    265.1956     71.8284     50.6868
   720.2500     22.6366      0.0000    265.1908     71.7955     47.7366
   720.5000     23.0208      0.0000    265.1576     71.8092     46.7696
   720.7500     23.0377      0.0000    265.0952     71.8462     48.2503
   721.0000     22.7170      0.0000    265.0328     71.8646     51.8613
   721.2500     22.1758      0.0000    265.0015     71.8390     56.3618
   721.5000     21.5981      0.0000    265.0054     71.7778     60.0638
   721.7500     21.1778      0.0000    265.0258     71.7077     62.0053
   722.0000     21.0438      0.0000    265.0476     71.6455     62.6383
   722.2500     21.1975      0.0000    265.0740     71.5818     63.2027
   722.5000     21.4715      0.0000    265.1173     71.4865     64.5715
   722.7500     21.5852      0.0000    265.1776     71.3284     66.7904
   723.0000     21.3565      0.0000    265.2352     71.0963     69.3889
   723.2500     20.9216      0.0000    265.2672     70.8038     71.8333
   723.5000     20.7323      0.0000    265.2694     70.4872     73.7231
   723.7500     21.2971      0.0000    265.2560     70.2021     74.8660
   724.0000     22.8738      0.0000    265.2430     70.0024     75.3791
   724.2500     25.3378      0.0000    265.2406     69.9035     75.7413
   724.5000     28.2826      0.0000    265.2560     69.8760     76.6474
   724.7500     31.2299      0.0000    265.2873     69.8896     78.6785
   725.0000     33.7861      0.0000    265.3142     69.9511     82.0165
   725.2500     35.6943      0.0000    265.3082     70.0738     86.4520
   725.5000     36.8584      0.0000    265.2590     70.2197     91.6973
   725.7500     37.3697      0.0000    265.1893     70.2952     97.7153
   726.0000     37.4567      0.0000    265.1405     70.2179    104.6354
   726.2500     37.3400      0.0000    265.1452     69.9781    112.0881
   726.5000     37.1210      0.0000    265.2078     69.6390    118.8201
   726.7500     36.7891      0.0000    265.3065     69.2836    123.6867
   727.0000     36.2952      0.0000    265.4127     68.9581    127.1255
   727.2500     35.6215      0.0000    265.5071     68.6471    130.8588
   727.5000     34.8245      0.0000    265.5764     68.2876    135.7376
   727.7500     34.0272      0.0000    265.6031     67.7912    140.4952
   728.0000     33.3788      0.0000    265.5761     67.0549    143.0797
   728.2500     33.0133      0.0000    265.5096     65.9862    142.7431
   728.5000     32.9978      0.0000    265.4401     64.5588    140.3968
   728.7500     33.2616      0.0000    265.4044     62.8532    137.3666
   729.0000     33.5780      0.0000    265.4211     61.0303    134.2669
   729.2500     33.6550      0.0000    265.4867     59.2614    130.9326
   729.5000     33.2883      0.0000    265.5817     57.6728    127.1475
   729.7500     32.4633      0.0000    265.6796     56.3259    123.3703
   730.0000     31.3360      0.0000    265.7604     55.1953    120.6852
   730.2500     30.1036      0.0000    265.8228     54.1325    119.9731
   730.5000     28.8601      0.0000    265.8883     52.8636    121.3336
   730.7500     27.5517      0.0000    265.9930     51.0846    124.5748
   731.0000     26.0727      0.0000    266.1630     48.6457    129.8100
   731.2500     24.4103      0.0000    266.3917     45.7011    136.7395
   731.5000     22.6830      0.0000    266.6460     42.6592    143.4807
   731.7500     21.0349      0.0000    266.9040     39.9195    147.1911
   732.0000     19.5108      0.0000    267.1794     37.6259    146.0554
   732.2500     18.0592      0.0000    267.4986     35.6752    140.1035
   732.5000     16.6520      0.0000    267.8582     33.9363    130.5368
   732.7500     15.3605      0.0000    268.2130     32.4129    119.2654
   733.0000     14.2909      0.0000    268.5130     31.2050    108.8549
   733.2500     13.4758      0.0000    268.7517     30.3750    101.9632
   733.5000     12.8759      0.0000    269.0016     29.9002    100.3933
   733.7500     12.4761      0.0000    269.4280     29.7394    104.3769
   734.0000     12.3395      0.0000    270.3053     29.8852    112.2042
   734.2500     12.5569      0.0000    271.9394     30.3354    120.6179
   734.5000     13.1593      0.0000    274.3376     31.0855    126.4623
   734.7500     14.0610      0.0000    276.8322     32.1683    128.6565
   735.0000     15.0496      0.0000    278.3244     33.5518    128.3929
   735.2500     15.8715      0.0000    278.2376     34.9110    127.3108
   735.5000     16.4233      0.0000    277.0831     35.7225    125.8240
   735.7500     16.8627      0.0000    275.8604     35.7877    123.2725
   736.0000     17.4778      0.0000    275.1298     35.4970    119.0958
   736.2500     18.4543      0.0000    274.8372     35.4232    113.5978
   736.5000     19.7848      0.0000    274.7643     35.7915    107.9122
   736.7500     21.3370      0.0000    274.9051     36.4404    103.3997
   737.0000     22.9338      0.0000    275.5331     37.1395    100.7001
   737.2500     24.3920      0.0000    276.9850     37.9003     99.1334
   737.5000     25.5789      0.0000    279.1730     39.0977     97.1676
   737.7500     26.4932      0.0000    281.1580     41.2870     93.6423
   738.0000     27.2663      0.0000    281.5214     44.7430     88.6340
   738.2500     28.0430      0.0000    279.5392     49.1632     83.1966
   738.5000     28.8672      0.0000    275.9065     53.8727     78.3056
   738.7500     29.6729      0.0000    272.1000     58.1377     74.1571
   739.0000     30.3458      0.0000    269.2128     61.2232     70.4471
   739.2500     30.7923      0.0000    267.5046     62.5646     67.0764
   739.5000     30.9962      0.0000    266.7101     62.2055     64.4527
   739.7500     31.0286      0.0000    266.4495     60.9138     63.4259
   740.0000     30.9893      0.0000    266.4261     59.6984     64.9505
   740.2500     30.9413      0.0000    266.4675     59.2358     69.3289
   740.5000     30.9144      0.0000    266.5032     59.6806     75.7331
   740.7500     30.9446      0.0000    266.5172     60.8166     82.8181
   741.0000     31.0680      0.0000    266.5134     62.2666     89.6154
   741.2500     31.2837      0.0000    266.4980     63.6128     95.4561
