~Version Information
VERS.                      2.0: CWLS Log ASCII Standard - VERSION 2.0
WRAP.                       NO: One line per depth step
~Well Information Block
STRT.FT               265.0000: 
STOP.FT              1214.0000: 
STEP.FT                 0.2500: 
NULL.                -999.2500: 
COMP.          Pioneer Natural Resources: COMPANY
WELL.          Pacheco 33-27 Tr: WELL
FLD.           Purgatoire River: FIELD
LOC.           2251' FSL & 2342' FEL: LOCATION
PROV.                 Colorado: PROVINCE
CNTY.               Las Animas: COUNTRY
SRVC.                Patterson: SERVICE COMPANY
DATE.          Fri Jun 10 13:29:04 2005: LOG DATE
UWI.           05 071 08384 00: UNIQUE WELL ID
~Curve Information Block
DEPT.FT            0 000 00 00: Depth
SN.Ohm-m                      : IEL Short Normal
SP.mV                         : IEL Spontaneous Potential
DIR.Ohm-m                     : IEL Induction Resistivity
GR.GAPI                       : Gamma Ray
~Parameter Information Block
~A  Depth        SN          SP         DIR          GR     
# ...
   868.0000     22.1825      9.3092     24.2651     62.7788
   868.2500     22.1166      9.6807     24.0084     64.6874
   868.5000     21.9331     10.0415     23.6501     67.7840
   868.7500     21.6197     10.4100     23.2487     69.7306
   869.0000     21.2674     10.8046     22.8592     71.7329
   869.2500     20.9694     11.2319     22.5114     72.1717
   869.5000     20.7395     11.6786     22.2132     71.7892
   869.7500     20.5577     12.1130     21.9707     71.5227
   870.0000     20.3821     12.4975     21.7971     72.6829
   870.2500     20.1446     12.8088     21.7000     75.2375
   870.5000     19.8170     13.0472     21.6624     81.9624
   870.7500     19.4431     13.2305     21.6427     87.6426
   871.0000     19.0900     13.3816     21.5992     95.3057
   871.2500     18.7942     13.5185     21.5178     97.9686
   871.5000     18.5537     13.6520     21.4152     96.1955
   871.7500     18.3838     13.7868     21.3177     91.3414
   872.0000     18.3597     13.9225     21.2391     81.0863
   872.2500     18.5549     14.0529     21.1781     74.1376
   872.5000     18.9742     14.1653     21.1309     65.5996
   872.7500     19.5372     14.2448     21.1020     61.3906
   873.0000     20.0682     14.2798     21.1062     56.8803
   873.2500     20.3954     14.2693     21.1622     54.9788
   873.5000     20.5139     14.2264     21.2863     54.1865
   873.7500     20.5463     14.1736     21.4848     55.2520
   874.0000     20.5802     14.1304     21.7480     58.8554
   874.2500     20.6321     14.1028     22.0505     61.8732
   874.5000     20.7040     14.0854     22.3622     65.7713
   874.7500     20.8017     14.0741     22.6606     67.1644
   875.0000     20.9119     14.0768     22.9342     66.6392
   875.2500     21.0043     14.1097     23.1761     64.6071
   875.5000     21.0689     14.1823     23.3803     60.3304
   875.7500     21.1242     14.2873     23.5469     57.8210
   876.0000     21.1865     14.4059     23.6861     56.0303
   876.2500     21.2593     14.5232     23.8112     56.2675
   876.5000     21.3349     14.6395     23.9219     57.9048
   876.7500     21.3922     14.7672     23.9981     59.0991
   877.0000     21.4189     14.9163     24.0133     60.0126
   877.2500     21.4120     15.0806     23.9574     59.8655
   877.5000     21.3254     15.2417     23.8472     59.0389
   877.7500     21.1136     15.3848     23.7124     58.6213
   878.0000     20.8139     15.5108     23.5734     58.9095
   878.2500     20.5107     15.6326     23.4322     59.8200
   878.5000     20.2957     15.7613     23.2825     61.8883
   878.7500     20.2296     15.8977     23.1265     63.3297
   879.0000     20.2398     16.0324     22.9850     64.9890
   879.2500     20.1599     16.1541     22.8926     65.6227
   879.5000     19.9461     16.2562     22.8800     65.9690
   879.7500     19.7282     16.3371     22.9506     65.9067
   880.0000     19.6235     16.3956     23.0648     65.3456
   880.2500     19.6199     16.4279     23.1528     64.5358
   880.5000     19.6262     16.4303     23.1578     62.7652
   880.7500     19.5757     16.4064     23.0785     61.5900
   881.0000     19.4782     16.3727     22.9692     60.4350
   881.2500     19.3709     16.3545     22.8966     59.9948
   881.5000     19.2886     16.3742     22.8940     59.1921
   881.7500     19.2849     16.4359     22.9456     58.3818
   882.0000     19.3853     16.5197     23.0028     57.0674
   882.2500     19.5375     16.5918     23.0208     56.3290
   882.5000     19.6774     16.6249     22.9902     55.3080
   882.7500     19.7977     16.6164     22.9407     54.5213
   883.0000     19.9140     16.5879     22.9155     53.3022
   883.2500     20.0121     16.5681     22.9376     52.7142
   883.5000     20.0731     16.5729     22.9959     52.3625
   883.7500     20.1243     16.5974     23.0565     52.3686
   884.0000     20.1955     16.6207     23.0863     52.5479
   884.2500     20.2618     16.6163     23.0684     52.8237
   884.5000     20.2872     16.5641     22.9979     53.4967
   884.7500     20.2379     16.4586     22.8678     53.8752
   885.0000     20.0659     16.3092     22.6635     53.7465
   885.2500     19.7664     16.1344     22.3731     53.2070
   885.5000     19.3794     15.9528     22.0058     52.6376
   885.7500     18.9612     15.7793     21.5978     53.0205
   886.0000     18.5947     15.6265     21.1978     54.8599
   886.2500     18.3176     15.5073     20.8439     56.4819
   886.5000     18.0819     15.4324     20.5498     58.6540
   886.7500     17.8516     15.4021     20.3043     59.6147
   887.0000     17.6280     15.3998     20.0801     59.9666
   887.2500     17.4001     15.3958     19.8467     59.3819
   887.5000     17.1666     15.3628     19.5845     57.6801
   887.7500     16.9511     15.2979     19.2957     56.5994
   888.0000     16.7710     15.2322     19.0023     56.0717
   888.2500     16.6560     15.2164     18.7331     56.5340
   888.5000     16.6443     15.2971     18.5085     57.5111
   888.7500     16.7123     15.4980     18.3354     57.6276
   889.0000     16.7697     15.8112     18.2122     56.5517
   889.2500     16.7643     16.1951     18.1348     55.3380
   889.5000     16.7199     16.5884     18.0976     53.6621
   889.7500     16.6523     16.9393     18.0916     52.9390
   890.0000     16.5732     17.2265     18.1049     52.4775
   890.2500     16.5318     17.4571     18.1232     52.4725
   890.5000     16.5347     17.6490     18.1295     52.7202
   890.7500     16.5479     17.8176     18.1022     53.0148
   891.0000     16.5833     17.9729     18.0231     53.7482
   891.2500     16.6388     18.1206     17.8922     54.4532
   891.5000     16.6464     18.2598     17.7377     55.5035
   891.7500     16.5920     18.3814     17.6049     55.8773
   892.0000     16.5496     18.4733     17.5299     55.8777
   892.2500     16.5496     18.5317     17.5195     55.9696
   892.5000     16.5242     18.5669     17.5517     57.2672
   892.7500     16.4015     18.5968     17.5942     58.9951
   893.0000     16.2154     18.6333     17.6256     61.8489
   893.2500     16.0939     18.6725     17.6445     63.1441
   893.5000     16.1264     18.6985     17.6659     63.6687
   893.7500     16.2596     18.6991     17.7105     63.4106
   894.0000     16.3431     18.6761     17.7961     63.1206
   894.2500     16.3047     18.6383     17.9308     63.3426
   894.5000     16.2440     18.5886     18.1119     64.0244
   894.7500     16.2989     18.5226     18.3274     64.2005
   895.0000     16.4865     18.4395     18.5625     63.3464
   895.2500     16.7431     18.3499     18.8053     62.0127
   895.5000     17.0329     18.2747     19.0479     59.3562
   895.7500     17.3599     18.2363     19.2870     57.5077
   896.0000     17.7259     18.2505     19.5235     55.2275
   896.2500     18.1114     18.3214     19.7634     54.3917
   896.5000     18.4993     18.4386     20.0170     54.4718
   896.7500     18.8916     18.5810     20.2931     55.2126
   897.0000     19.2715     18.7254     20.5919     56.4784
   897.2500     19.5832     18.8581     20.9010     56.9184
   897.5000     19.7900     18.9796     21.1985     56.6293
   897.7500     19.9068     19.0991     21.4612     55.9400
   898.0000     19.9527     19.2264     21.6702     54.6336
   898.2500     19.9341     19.3641     21.8080     53.7769
   898.5000     19.8772     19.5051     21.8539     52.6288
   898.7500     19.8135     19.6365     21.7837     52.0079
   899.0000     19.7308     19.7481     21.5798     51.4858
   899.2500     19.6018     19.8399     21.2428     51.5413
   899.5000     19.4398     19.9205     20.7958     52.3910
   899.7500     19.2648     19.9981     20.2772     53.4965
   900.0000     19.0540     20.0694     19.7277     55.8305
   900.2500     18.7626     20.1149     19.1794     57.6563
   900.5000     18.3763     20.1026     18.6516     60.5432
   900.7500     17.9267     20.0003     18.1539     62.5712
   901.0000     17.4362     19.7875     17.6916     66.0121
   901.2500     16.8660     19.4576     17.2694     68.7240
