~Version Information
VERS.                      2.0: CWLS Log ASCII Standard - VERSION 2.0
WRAP.                       NO: One line per depth step
~Well Information Block
STRT.FT                -9.7500: 
STOP.FT              2374.2500: 
STEP.FT                 0.2500: 
NULL.                -999.2500: 
COMP.          Pioneer Natural Resources: COMPANY
WELL.            Chevron 13-13: WELL
FLD.           Purgatorie River: FIELD
LOC.           1560' FSL & 711' FWL--: LOCATION
CNTY.               Las Animas: COUNTY
SRVC.          Superior Well Services: SERVICE COMPANY
DATE.          Wed Apr 11 08:47:55 2007: LOG DATE
UWI.           05 071 08319 00: UNIQUE WELL ID
STAT.                       CO: STATE
~Curve Information Block
DEPT.FT            0 000 00 00: Depth
CCL.                          : Casing Collar Locator
TT3.usec                      : CBL 3' Travel Time
AMP3.mV                       : CBL 3' Amplitude
GR.GAPI                       : Gamma Ray
~Parameter Information Block
~A  Depth       CCL         TT3         AMP3         GR     
# ...
   459.2500      0.0000    261.4922     75.6462     98.4985
   459.5000      0.0000    261.4935     75.7286     98.9729
   459.7500      0.0000    261.4933     75.7696     97.5476
   460.0000      0.0000    261.4919     75.7632     93.7781
   460.2500      0.0000    261.4896     75.7256     88.2853
   460.5000      0.0000    261.4869     75.6876     82.5283
   460.7500      0.0000    261.4849     75.6768     77.8304
   461.0000      0.0000    261.4842     75.7034     74.6101
   461.2500      0.0000    261.4838     75.7537     72.4478
   461.5000      0.0000    261.4826     75.7739     70.7309
   461.7500      0.0000    261.4857     75.6327     69.3455
   462.0000      0.0000    261.5208     75.0508     68.8808
   462.2500      0.0000    261.6633     73.5618     69.9960
   462.5000      0.0000    262.0450     70.6305     72.5674
   462.7500      0.0000    262.7990     65.9921     75.7039
   463.0000      0.0000    263.9403     60.0553     78.6330
   463.2500      0.0000    265.2776     54.0177     81.1133
   463.5000      0.0000    266.4825     49.4004     82.7779
   463.7500      0.0000    267.2917     47.1541     82.8179
   464.0000      0.0000    267.6590     47.0617     81.1224
   464.2500      0.0000    267.7247     48.0511     79.2853
   464.5000     -2.0000    267.6660     49.0818     79.5224
   464.7500      2.0000    267.5846     49.7263     82.6521
   465.0000      0.0000    267.4900     50.1667     87.6315
   465.2500      0.0000    267.3315     50.9855     92.6871
   465.5000      0.0000    267.0307     52.9081     96.2405
   465.7500      0.0000    266.5083     56.3238     97.0835
   466.0000      0.0000    265.7234     60.8175     94.7066
   466.2500      0.0000    264.7150     65.3636     89.9746
   466.5000      0.0000    263.6168     69.0999     85.2793
   466.7500      0.0000    262.6148     71.7837     83.4688
   467.0000      0.0000    261.8619     73.5696     86.0506
   467.2500      0.0000    261.4057     74.6585     91.9430
   467.5000      0.0000    261.1882     75.2177     97.9224
   467.7500      0.0000    261.1079     75.4160    100.6440
   468.0000      0.0000    261.0837     75.4092     98.6426
   468.2500      0.0000    261.0752     75.3084     92.8427
   468.5000      0.0000    261.0710     75.1837     85.6939
   468.7500      0.0000    261.0703     75.0796     79.9215
   469.0000      0.0000    261.0735     75.0231     77.3709
   469.2500      0.0000    261.0809     75.0228     78.1183
   469.5000      0.0000    261.0916     75.0649     80.4927
   469.7500      0.0000    261.1024     75.1185     82.3128
   470.0000      0.0000    261.1089     75.1483     82.3181
   470.2500      0.0000    261.1085     75.1304     80.4357
   470.5000      0.0000    261.1029     75.0596     77.0736
   470.7500      0.0000    261.0965     74.9453     72.6611
   471.0000      0.0000    261.0926     74.8067     67.9361
   471.2500      0.0000    261.0930     74.6721     64.2471
   471.5000      0.0000    261.0984     74.5765     63.0990
   471.7500      0.0000    261.1094     74.5484     65.0416
   472.0000      0.0000    261.1237     74.5944     68.9121
   472.2500      0.0000    261.1364     74.6922     72.3562
   472.5000      0.0000    261.1427     74.7990     73.3858
   472.7500      0.0000    261.1411     74.8694     71.6348
   473.0000      0.0000    261.1349     74.8748     68.2500
   473.2500      0.0000    261.1283     74.8152     64.6566
   473.5000      0.0000    261.1246     74.7158     61.3342
   473.7500      0.0000    261.1259     74.6107     57.6852
   474.0000      0.0000    261.1340     74.5282     53.0934
   474.2500      0.0000    261.1481     74.4834     47.9328
   474.5000      0.0000    261.1632     74.4758     43.3491
   474.7500      0.0000    261.1733     74.4861     40.3125
   475.0000      0.0000    261.1757     74.4818     39.2761
   475.2500      0.0000    261.1728     74.4333     40.5121
   475.5000      0.0000    261.1691     74.3309     44.2728
   475.7500      0.0000    261.1671     74.1866     50.5795
   476.0000      0.0000    261.1671     74.0204     58.9735
   476.2500      0.0000    261.1687     73.8481     68.3496
   476.5000      0.0000    261.1722     73.6794     77.0062
   476.7500      0.0000    261.1769     73.5160     83.1682
   477.0000      0.0000    261.1804     73.3489     85.7944
   477.2500      0.0000    261.1806     73.1650     85.0421
   477.5000      0.0000    261.1776     72.9593     82.0416
   477.7500      0.0000    261.1743     72.7377     78.3740
   478.0000      0.0000    261.1730     72.5078     75.7450
   478.2500      0.0000    261.1737     72.2734     75.6531
   478.5000      0.0000    261.1744     72.0379     78.7056
   478.7500      0.0000    261.1735     71.8089     84.1176
   479.0000      0.0000    261.1705     71.5957     90.0070
   479.2500      0.0000    261.1669     71.4063     94.1273
   479.5000      0.0000    261.1644     71.2482     94.5307
   479.7500      0.0000    261.1651     71.1227     90.2365
   480.0000      0.0000    261.1704     71.0168     81.7502
   480.2500      0.0000    261.1798     70.9090     70.8754
   480.5000      0.0000    261.1906     70.7890     59.8447
   480.7500      0.0000    261.1998     70.6672     50.5424
   481.0000      0.0000    261.2064     70.5629     44.2203
   481.2500      0.0000    261.2120     70.4902     41.3594
   481.5000      0.0000    261.2194     70.4546     41.4653
   481.7500      0.0000    261.2313     70.4555     43.2816
   482.0000      0.0000    261.2496     70.4924     45.6425
   482.2500      0.0000    261.2728     70.5749     48.0951
   482.5000      0.0000    261.2938     70.7224     50.5062
   482.7500      0.0000    261.3022     70.9390     52.3713
   483.0000      0.0000    261.2926     71.1896     52.9416
   483.2500      0.0000    261.2694     71.4143     51.8943
   483.5000      0.0000    261.2433     71.5752     49.6206
   483.7500      0.0000    261.2221     71.6778     46.9712
   484.0000      0.0000    261.2076     71.7453     44.8360
   484.2500      0.0000    261.1999     71.7843     43.7407
   484.5000      0.0000    261.2000     71.7852     43.6005
   484.7500      0.0000    261.2090     71.7411     43.8116
   485.0000      0.0000    261.2226     71.6661     43.7311
   485.2500      0.0000    261.2308     71.6054     43.3304
   485.5000      0.0000    261.2244     71.6186     43.4035
   485.7500      0.0000    261.2018     71.7255     44.8736
   486.0000      0.0000    261.1711     71.8708     47.8127
   486.2500      0.0000    261.1432     71.9727     51.2403
   486.5000      0.0000    261.1249     72.0042     53.8430
   486.7500      0.0000    261.1172     72.0015     54.8424
   487.0000      0.0000    261.1176     72.0031     54.3002
   487.2500      0.0000    261.1221     72.0097     52.8470
   487.5000      0.0000    261.1267     72.0029     51.2907
   487.7500      0.0000    261.1288     71.9801     50.2219
   488.0000      0.0000    261.1286     71.9607     49.6647
   488.2500      0.0000    261.1277     71.9658     49.1916
   488.5000      0.0000    261.1269     72.0018     48.5049
   488.7500      0.0000    261.1261     72.0627     47.6388
   489.0000      0.0000    261.1265     72.1465     46.6050
   489.2500      0.0000    261.1311     72.2689     45.3021
   489.5000      0.0000    261.1421     72.4573     43.7773
   489.7500      0.0000    261.1574     72.7241     42.1551
   490.0000      0.0000    261.1712     73.0481     40.5115
   490.2500      0.0000    261.1786     73.3863     39.2776
   490.5000      0.0000    261.1794     73.7038     39.5240
   490.7500      0.0000    261.1774     73.9902     42.3198
   491.0000      0.0000    261.1767     74.2514     47.6713
   491.2500      0.0000    261.1795     74.4927     54.1149
   491.5000      0.0000    261.1862     74.7151     59.3405
   491.7500      0.0000    261.1962     74.9211     61.4199
   492.0000      0.0000    261.2084     75.1137     59.8970
   492.2500      0.0000    261.2199     75.2896     55.9997
   492.5000      0.0000    261.2266     75.4407     51.6691
