~Version Information
VERS.                      2.0: CWLS Log ASCII Standard - VERSION 2.0
WRAP.                       NO: One line per depth step
~Well Information Block
STRT.FT                -9.2500: 
STOP.FT              2685.7500: 
STEP.FT                 0.2500: 
NULL.                -999.2500: 
COMP.          Pioneer Natural Resources: COMPANY
WELL.          Beacon 11-18 Tr: WELL
FLD.           Purgatorie River: FIELD
LOC.           409' FNL & 203' FWL--: LOCATION
PROV.                       CO: PROVINCE
CNTY.               Las Animas: COUNTRY
SRVC.                         : SERVICE COMPANY
DATE.          Fri Jan 21 09:45:44 2005: LOG DATE
UWI.        005 071 08251  : UNIQUE WELL ID
~Curve Information Block
DEPT.FT            0 000 00 00: Depth
CCL.                          : Casing Collar Locator
TT3.usec                      : CBL 3' Travel Time
AMP3.mV                       : CBL 3' Amplitude
GR.GAPI                       : Gamma Ray
~Parameter Information Block
~A  Depth       CCL         TT3         AMP3         GR     
# ...
  1397.7500      0.0000    651.7875      5.0113    145.6678
  1398.0000      0.0000    627.6825      4.9739    147.6190
  1398.2500      0.0000    604.5515      4.9137    147.9814
  1398.5000      0.0000    596.0932      4.8738    147.3172
  1398.7500      0.0000    605.4746      4.8887    145.7101
  1399.0000      0.0000    623.2003      4.9602    142.2446
  1399.2500      0.0000    634.4784      5.0662    135.6899
  1399.5000      0.0000    629.1481      5.1879    125.8688
  1399.7500      0.0000    606.5408      5.3204    114.3516
  1400.0000      0.0000    574.4264      5.4556    103.6150
  1400.2500      0.0000    546.1779      5.5689     95.4410
  1400.5000      0.0000    536.3060      5.6350     90.1707
  1400.7500      0.0000    552.1050      5.6557     87.3445
  1401.0000      0.0000    587.2021      5.6606     86.4858
  1401.2500      0.0000    626.4487      5.6773     87.0665
  1401.5000      0.0000    657.9998      5.7108     88.5827
  1401.7500      0.0000    678.8322      5.7459     91.3607
  1402.0000      0.0000    690.9948      5.7652     96.5823
  1402.2500      0.0000    697.1135      5.7681    104.5260
  1402.5000      0.0000    699.4073      5.7712    113.1288
  1402.7500      0.0000    699.7907      5.7836    119.4210
  1403.0000      0.0000    699.5475      5.7928    122.5409
  1403.2500      0.0000    699.2432      5.7859    124.3720
  1403.5000      0.0000    699.0575      5.7655    127.0536
  1403.7500      0.0000    699.0456      5.7343    130.8065
  1404.0000      0.0000    699.1979      5.6862    134.2435
  1404.2500      0.0000    699.4796      5.6270    135.7790
  1404.5000      0.0000    699.9780      5.5813    134.4819
  1404.7500      0.0000    701.1270      5.5671    130.3768
  1405.0000      0.0000    703.7573      5.5841    124.3932
  1405.2500      0.0000    708.6579      5.6307    117.9333
  1405.5000      0.0000    715.6243      5.7110    112.2603
  1405.7500      0.0000    722.7835      5.8206    108.1282
  1406.0000      0.0000    727.2426      5.9445    105.8568
  1406.2500      0.0000    726.8845      6.0678    105.7384
  1406.5000      0.0000    721.8201      6.1691    108.3149
  1406.7500      0.0000    714.2751      6.2162    113.8065
  1407.0000      0.0000    707.0703      6.1935    121.0159
  1407.2500      0.0000    702.0002      6.1286    127.3973
  1407.5000      0.0000    699.3867      6.0706    130.7619
  1407.7500      0.0000    698.7098      6.0415    130.5630
  1408.0000      0.0000    699.1525      6.0189    127.4972
  1408.2500      0.0000    699.2971      5.9614    122.7734
  1408.5000      0.0000    696.9359      5.8456    118.1779
  1408.7500      0.0000    690.3822      5.6831    116.0540
  1409.0000      0.0000    680.6583      5.5142    118.1960
  1409.2500      0.0000    671.8619      5.3827    124.3588
  1409.5000      0.0000    668.5994      5.3057    131.8286
  1409.7500      0.0000    672.7578      5.2626    136.7869
  1410.0000      0.0000    682.2080      5.2218    136.5537
  1410.2500      0.0000    692.1863      5.1816    130.9675
  1410.5000      0.0000    698.4434      5.1703    122.0301
  1410.7500      0.0000    699.6893      5.1982    112.3222
  1411.0000      0.0000    697.5282      5.2285    103.5350
  1411.2500      0.0000    694.9039      5.2216     96.1503
  1411.5000      0.0000    694.7404      5.1932     90.1153
  1411.7500      0.0000    698.7489      5.2001     85.5151
  1412.0000      0.0000    706.2166      5.2738     82.5394
  1412.2500      0.0000    713.8082      5.3961     80.9253
  1412.5000      0.0000    717.5115      5.5338     79.7397
  1412.7500      0.0000    715.6628      5.6669     78.0203
  1413.0000      0.0000    710.1451      5.7880     75.6648
  1413.2500      0.0000    704.4382      5.8979     73.4917
  1413.5000      0.0000    700.9336      6.0009     72.3209
  1413.7500      0.0000    700.2775      6.0886     72.2110
  1414.0000      0.0000    702.3561      6.1357     72.7621
  1414.2500      0.0000    706.9018      6.1240     74.0923
  1414.5000      0.0000    713.0899      6.0648     77.3790
  1414.7500      0.0000    719.2745      5.9881     84.4182
  1415.0000      0.0000    723.7097      5.9121     96.3567
  1415.2500      0.0000    725.4012      5.8305    112.2058
  1415.5000      0.0000    724.0742      5.7351    128.4621
  1415.7500      0.0000    719.8636      5.6396    140.8026
  1416.0000      0.0000    713.3300      5.5699    146.7532
  1416.2500      0.0000    704.7615      5.5365    146.8242
  1416.5000      0.0000    692.1636      5.5298    143.3179
  1416.7500      0.0000    670.1195      5.5354    138.4447
  1417.0000      0.0000    632.6005      5.5418    133.4010
  1417.2500      0.0000    579.2565      5.5342    128.6664
  1417.5000      0.0000    519.3234      5.4951    124.7974
  1417.7500      0.0000    467.6692      5.4222    122.8271
  1418.0000      0.0000    436.3693      5.3462    123.8347
  1418.2500      0.0000    430.6142      5.3244    127.9879
  1418.5000      0.0000    450.6822      5.4047    134.0871
  1418.7500      0.0000    493.4583      5.5958    140.2803
  1419.0000      0.0000    550.4150      5.8645    145.2316
  1419.2500      0.0000    606.8394      6.1480    148.6446
  1419.5000      0.0000    646.7242      6.3739    151.0467
  1419.7500      0.0000    660.8502      6.4928    153.1754
  1420.0000      0.0000    652.0698      6.5124    155.3564
  1420.2500      0.0000    633.9306      6.4967    157.4206
  1420.5000      0.0000    622.7146      6.5174    159.1052
  1420.7500      0.0000    627.5223      6.5902    160.1146
  1421.0000      0.0000    645.7444      6.6567    159.7119
  1421.2500      0.0000    667.5730      6.6363    156.9976
  1421.5000      0.0000    684.6566      6.5013    152.2113
  1421.7500      0.0000    694.7849      6.3031    147.3898
  1422.0000      0.0000    700.2285      6.1258    145.1208
  1422.2500      0.0000    703.5099      6.0116    146.7383
  1422.5000      0.0000    704.5275      5.9280    151.6871
  1422.7500      0.0000    700.4380      5.8048    157.9476
  1423.0000      0.0000    688.3242      5.5984    163.0164
  1423.2500      0.0000    669.1519      5.3216    165.1773
  1423.5000      0.0000    649.0665      5.0258    164.1548
  1423.7500      0.0000    634.9644      4.7728    160.4418
  1424.0000      0.0000    628.0129      4.6172    154.4134
  1424.2500      0.0000    623.2513      4.5920    146.6272
  1424.5000      0.0000    616.7008      4.6854    138.7132
  1424.7500      0.0000    611.2910      4.8321    133.0231
  1425.0000      0.0000    614.1635      4.9444    130.6461
  1425.2500      0.0000    628.7407      4.9684    129.9896
  1425.5000      0.0000    650.8022      4.9187    127.9589
  1425.7500      0.0000    672.3766      4.8604    122.6717
  1426.0000      0.0000    687.9655      4.8586    114.8176
  1426.2500      0.0000    696.3154      4.9423    106.5946
  1426.5000      0.0000    697.6286      5.1028     99.7957
  1426.7500      0.0000    691.6643      5.3063     94.9429
  1427.0000      0.0000    679.9534      5.5012     91.7008
  1427.2500      0.0000    668.5709      5.6287     89.5568
  1427.5000      0.0000    665.4091      5.6460     88.0666
  1427.7500      0.0000    672.9917      5.5545     86.9018
  1428.0000      0.0000    685.7314      5.4072     86.0839
  1428.2500      0.0000    695.6025      5.2827     86.0543
  1428.5000      0.0000    698.6638      5.2344     87.2024
  1428.7500      0.0000    695.0007      5.2533     89.0894
  1429.0000      0.0000    684.7841      5.2784     90.1480
  1429.2500      0.0000    667.0221      5.2463     88.5971
  1429.5000      0.0000    642.3075      5.1332     84.0391
  1429.7500      0.0000    615.4224      4.9607     78.0490
  1430.0000      0.0000    594.0613      4.7782     73.0815
  1430.2500      0.0000    584.7371      4.6444     70.9103
  1430.5000      0.0000    589.4478      4.6072     71.7429
  1430.7500      0.0000    604.5295      4.6789     74.1456
  1431.0000      0.0000    621.3377      4.8199     75.7997
