~Version Information
VERS.                      2.0: CWLS Log ASCII Standard - VERSION 2.0
WRAP.                       NO: One line per depth step
~Well Information Block
STRT.FT                 1.5000: 
STOP.FT              1895.2500: 
STEP.FT                 0.2500: 
NULL.                -999.2500: 
COMP.          Petrogulf Corporation: COMPANY
WELL.             State 16-32R: WELL
FLD.           Purgatorie River: FIELD
LOC.           1849' FNL & 1677' FEL: LOCATION
CNTY.               Las Animas: COUNTY
SRVC.                         : SERVICE COMPANY
DATE.          Thu May 20 08:40:19 2004: LOG DATE
UWI.           05 071 08033 00: UNIQUE WELL ID
STAT.                 Colorado: STATE
~Curve Information Block
DEPT.FT            0 000 00 00: Depth
GR.GAPI                       : Gamma Ray
CCL.                          : Casing Collar Locator
TT3.usec                      : CBL 3' Travel Time
AMP3.mV                       : CBL 3' Amplitude
~Parameter Information Block
~A  Depth        GR         CCL         TT3         AMP3    
# ...
  1643.0000    120.3461      0.0000    243.0705     50.1815
  1643.2500    126.5870      0.0000    243.0795     49.6332
  1643.5000    133.6178      0.0000    243.0851     48.9451
  1643.7500    141.0774      0.0000    243.1104     47.6916
  1644.0000    148.2828      0.0000    243.1658     45.9577
  1644.2500    153.9816      0.0000    243.2257     44.0849
  1644.5000    157.0015      0.0000    243.2565     42.2894
  1644.7500    156.9321      0.0000    243.2648     40.5543
  1645.0000    154.4295      0.0000    243.2957     38.8322
  1645.2500    151.3124      0.0000    243.3836     37.2889
  1645.5000    149.9494      0.0000    243.5158     36.2185
  1645.7500    151.6082      0.0000    243.6486     35.7690
  1646.0000    155.2724      0.0000    243.7407     35.9368
  1646.2500    158.6310      0.0000    243.7680     36.7078
  1646.5000    160.0591      0.0000    243.7305     38.0564
  1646.7500    159.3207      0.0000    243.6492     39.9051
  1647.0000    156.8260      0.0000    243.5499     42.1644
  1647.2500    152.9497      0.0000    243.4535     44.7292
  1647.5000    148.2378      0.0000    243.3573     47.3482
  1647.7500    143.8380      0.0000    243.2328     49.5583
  1648.0000    141.1003      0.0000    243.0861     51.0319
  1648.2500    140.6012      0.0000    242.9818     52.0447
  1648.5000    141.8405      0.0000    242.9708     53.1538
  1648.7500    143.9329      0.0000    243.0397     54.4075
  1649.0000    146.1837      0.0000    243.1402     55.3591
  1649.2500    147.7247      0.0000    243.2324     55.7247
  1649.5000    146.9109      0.0000    243.2889     55.6125
  1649.7500    141.7222      0.0000    243.2777     55.2087
  1650.0000    131.2990      0.0000    243.1797     54.4942
  1650.2500    117.3524      0.0000    243.0199     53.3128
  1650.5000    103.7889      0.0000    242.8549     51.5269
  1650.7500     94.2009      0.0000    242.7643     48.9786
  1651.0000     89.0944      0.0000    243.0052     45.6607
  1651.2500     85.5998      0.0000    244.4548     42.0266
  1651.5000     80.2523      0.0000    248.8613     38.5629
  1651.7500     72.1035      0.0000    257.3780     35.1238
  1652.0000     63.0325      0.0000    268.0060     31.2836
  1652.2500     55.4293      0.0000    276.6034     27.0996
  1652.5000     50.1947      0.0000    281.1826     23.1640
  1652.7500     46.8588      0.0000    282.8652     20.1877
  1653.0000     44.7707      0.0000    283.3347     18.5631
  1653.2500     43.6256      0.0000    283.4407     18.1216
  1653.5000     43.1377      0.0000    283.4330     18.3290
  1653.7500     42.8788      0.0000    283.3450     18.7134
  1654.0000     42.6795      0.0000    283.1950     19.1402
  1654.2500     42.8532      0.0000    283.0444     19.7508
  1654.5000     43.7573      0.0000    282.9218     20.6648
  1654.7500     45.2570      0.0000    282.6331     21.8982
  1655.0000     46.8410      0.0000    281.3498     23.5797
  1655.2500     48.3175      0.0000    277.3401     25.9881
  1655.5000     50.3621      0.0000    269.3488     29.2864
  1655.7500     54.2511      0.0000    259.1356     33.2463
  1656.0000     60.7352      0.0000    250.6800     37.2500
  1656.2500     68.9315      0.0000    246.0662     40.6582
  1656.5000     76.4060      0.0000    244.3361     43.2230
  1656.7500     80.7797      0.0000    243.8222     45.1909
  1657.0000     81.5707      0.0000    243.6248     47.0543
  1657.2500     80.4202      0.0000    243.4872     49.1393
  1657.5000     79.4218      0.0000    243.3984     51.4395
  1657.7500     79.2960      0.0000    243.3717     53.8090
  1658.0000     79.3089      0.0000    243.3812     56.0932
  1658.2500     78.7966      0.0000    243.4008     58.0569
  1658.5000     78.3072      0.0000    243.4368     59.4414
  1658.7500     78.8803      0.0000    243.4927     60.2241
  1659.0000     80.4622      0.0000    243.5461     60.6790
  1659.2500     81.6672      0.0000    243.5759     61.0210
  1659.5000     81.2978      0.0000    243.5768     61.1125
  1659.7500     79.7005      0.0000    243.5531     60.6664
  1660.0000     78.3028      0.0000    243.5208     59.5847
  1660.2500     77.8435      0.0000    243.5058     57.9829
  1660.5000     77.3294      0.0000    243.5261     56.0767
  1660.7500     75.0291      0.0000    243.5692     54.1745
  1661.0000     70.3408      0.0000    243.5973     52.6290
  1661.2500     64.4391      0.0000    243.5853     51.7114
  1661.5000     59.3083      0.0000    243.5432     51.5242
  1661.7500     56.3496      0.0000    243.4950     51.8784
  1662.0000     55.6219      0.0000    243.4524     52.2493
  1662.2500     56.0078      0.0000    243.4201     52.1040
  1662.5000     56.0973      0.0000    243.4075     51.4139
  1662.7500     55.0677      0.0000    243.4078     50.6788
  1663.0000     52.9164      0.0000    243.3960     50.2829
  1663.2500     50.0957      0.0000    243.3766     50.1076
  1663.5000     47.0999      0.0000    243.3860     49.9546
  1663.7500     44.4651      0.0000    243.4362     49.9467
  1664.0000     42.9613      0.0000    243.4937     50.3610
  1664.2500     43.3011      0.0000    243.5214     51.2794
  1664.5000     45.4988      0.0000    243.5233     52.4553
  1664.7500     48.7805      0.0000    243.5381     53.5277
  1665.0000     52.2098      0.0000    243.5926     54.3961
  1665.2500     55.2395      0.0000    243.6728     55.3452
  1665.5000     57.6632      0.0000    243.7417     56.6758
  1665.7500     59.1983      0.0000    243.7552     58.2804
  1666.0000     59.3868      0.0000    243.5488     59.8358
  1666.2500     58.1858      0.0000    242.4822     61.2050
  1666.5000     56.5594      0.0000    239.2229     62.2602
  1666.7500     55.9631      0.0000    232.9074     62.6442
  1667.0000     57.0407      0.0000    225.2485     62.1776
  1667.2500     59.2544      0.0000    220.0421     61.0845
  1667.5000     62.0737      0.0000    219.9772     59.4740
  1667.7500     66.1089      0.0000    224.8675     57.2117
  1668.0000     72.6074      0.0000    231.9479     54.4169
  1668.2500     81.8526      0.0000    237.7373     51.4962
  1668.5000     92.2894      0.0000    240.7565     48.7450
  1668.7500    101.4042      0.0000    241.8336     46.1987
  1669.0000    107.4942      0.0000    242.1942     43.8426
  1669.2500    110.5345      0.0000    242.3960     41.8800
  1669.5000    111.5067      0.0000    242.5125     40.5878
  1669.7500    111.2569      0.0000    242.5588     39.8552
  1670.0000    110.0249      0.0000    242.9220     38.8492
  1670.2500    107.7708      0.0000    244.8584     36.2489
  1670.5000    104.8270      0.0000    250.3105     31.5095
  1670.7500    102.1502      0.0000    259.4997     25.9627
  1671.0000    100.6572      0.0000    268.0506     21.8962
  1671.2500    100.3144      0.0000    270.0320     20.4692
  1671.5000    100.2209      0.0000    265.2111     20.9468
  1671.7500     99.6581      2.0000    258.8874     21.9907
  1672.0000     98.6713      0.0000    254.9061     22.9783
  1672.2500     97.4694      0.0000    253.3222     23.8918
  1672.5000     95.7539      0.0000    253.4270     24.6978
  1672.7500     93.1277      0.0000    255.4171     25.2280
  1673.0000     89.9319      0.0000    258.6021     25.6122
  1673.2500     87.1128      0.0000    259.8635     26.4097
  1673.5000     85.2623      0.0000    256.8972     27.8979
  1673.7500     84.1181      0.0000    251.5682     30.0401
  1674.0000     83.0669      0.0000    246.9460     32.8054
  1674.2500     82.0977      0.0000    243.9595     35.1619
  1674.5000     82.1117      0.0000    242.3277     35.5213
  1674.7500     84.0311      0.0000    241.7664     33.8338
  1675.0000     87.7723      0.0000    242.1105     31.2942
  1675.2500     92.3555      0.0000    243.8322     28.6570
  1675.5000     96.6266      0.0000    248.4552     26.0527
  1675.7500     99.5566      0.0000    257.0437     23.5802
  1676.0000    100.4812      0.0000    267.5747     21.3828
  1676.2500     99.7716      0.0000    275.9327     19.4422
