~Version Information
VERS.                      2.0: CWLS Log ASCII Standard - VERSION 2.0
WRAP.                       NO: One line per depth step
~Well Information Block
STRT.FT                -8.0000: 
STOP.FT              2410.0000: 
STEP.FT                 0.2500: 
NULL.                -999.2500: 
COMP.          Petrogulf Corporation: COMPANY
WELL.            Torcom 17-33V: WELL
FLD.           Purgatorie River: FIELD
LOC.           1544' FSL & 1746' FEL--: LOCATION
PROV.                       CO: PROVINCE
CNTY.               Las Animas: COUNTRY
SRVC.          Patterson Wireline: SERVICE COMPANY
DATE.          Wed Dec 10 17:24:27 2003: LOG DATE
UWI.                          : UNIQUE WELL ID
~Curve Information Block
DEPT.FT            0 000 00 00: Depth
CCL.                          : Casing Collar Locator
TT3.usec                      : CBL 3' Travel Time
AMP3.mV                       : CBL 3' Amplitude
GR.GAPI                       : Gamma Ray
~Parameter Information Block
~A  Depth       CCL         TT3         AMP3         GR     
# ...
  2069.0000      0.0000    799.8938      1.4927     68.6921
  2069.2500      0.0000    775.4406      1.4068     65.9801
  2069.5000      2.0000    751.4283      1.3605     64.3139
  2069.7500      2.0000    738.2490      1.3902     63.0370
  2070.0000      0.0000    738.8453      1.5052     61.3707
  2070.2500      0.0000    748.0878      1.7069     58.9852
  2070.5000      0.0000    757.4370      1.9833     56.0451
  2070.7500      0.0000    760.4166      2.2844     53.0173
  2071.0000      0.0000    755.2661      2.5300     50.3107
  2071.2500      0.0000    743.7701      2.6636     47.9112
  2071.5000      0.0000    729.1551      2.6927     45.5454
  2071.7500      0.0000    715.1005      2.6684     43.3110
  2072.0000      0.0000    704.6459      2.6329     41.8099
  2072.2500      0.0000    698.7775      2.5961     41.4093
  2072.5000      0.0000    696.5380      2.5541     41.6286
  2072.7500      0.0000    696.6269      2.5169     41.6927
  2073.0000      0.0000    698.7815      2.5098     41.5163
  2073.2500      0.0000    704.1247      2.5420     41.6112
  2073.5000      0.0000    714.1494      2.5818     42.0887
  2073.7500      0.0000    728.1986      2.5779     42.2960
  2074.0000      0.0000    741.6930      2.4991     41.4557
  2074.2500      0.0000    748.4521      2.3537     39.3331
  2074.5000      0.0000    746.4762      2.1782     36.4165
  2074.7500      0.0000    740.9490      2.0111     33.8116
  2075.0000      0.0000    739.5953      1.8759     32.7823
  2075.2500      0.0000    744.8199      1.7798     33.9394
  2075.5000      0.0000    751.9824      1.7173     36.8147
  2075.7500      0.0000    755.4446      1.6773     40.4568
  2076.0000      0.0000    754.3333      1.6531     44.3995
  2076.2500      0.0000    752.1253      1.6363     48.7305
  2076.5000      0.0000    752.6437      1.6071     53.2376
  2076.7500      0.0000    756.8492      1.5541     56.9974
  2077.0000      0.0000    762.1887      1.4968     58.9925
  2077.2500      0.0000    765.4078      1.4698     58.7995
  2077.5000      0.0000    766.6757      1.4883     56.6126
  2077.7500      0.0000    769.3464      1.5400     52.9985
  2078.0000      0.0000    774.4769      1.5996     48.7912
  2078.2500      0.0000    777.3276      1.6491     44.9343
  2078.5000      0.0000    771.2211      1.6895     42.1326
  2078.7500      0.0000    754.4886      1.7289     40.5583
  2079.0000      0.0000    732.6658      1.7649     39.8117
  2079.2500      0.0000    713.9127      1.7860     39.1300
  2079.5000      0.0000    702.7266      1.7797     37.8085
  2079.7500      0.0000    698.0101      1.7411     35.6851
  2080.0000      0.0000    696.2629      1.6874     33.2851
  2080.2500      0.0000    695.6215      1.6564     31.4000
  2080.5000      0.0000    696.8413      1.6744     30.5489
  2080.7500      0.0000    701.4698      1.7367     30.8861
  2081.0000      0.0000    709.8231      1.8184     32.3702
  2081.2500      0.0000    720.3091      1.8826     34.7477
  2081.5000      0.0000    729.9522      1.8869     37.4522
  2081.7500      0.0000    736.2458      1.8196     39.7603
  2082.0000      0.0000    739.5327      1.7226     41.1461
  2082.2500      0.0000    742.6599      1.6535     41.4856
  2082.5000      0.0000    747.3650      1.6345     40.9005
  2082.7500      0.0000    752.3831      1.6449     39.4918
  2083.0000      0.0000    756.1644      1.6414     37.4253
  2083.2500      0.0000    759.2256      1.5909     35.2850
  2083.5000      0.0000    762.4928      1.5146     33.9933
  2083.7500      0.0000    765.6436      1.4939     34.1359
  2084.0000      0.0000    768.5136      1.6053     35.5706
  2084.2500      0.0000    772.2965      1.8505     38.0201
  2084.5000      0.0000    777.9291      2.1552     41.9662
  2084.7500      0.0000    784.1149      2.4057     48.5689
  2085.0000      0.0000    787.3843      2.4921     58.4582
  2085.2500      0.0000    783.8059      2.3723     70.6206
  2085.5000      0.0000    771.8194      2.1145     82.5933
  2085.7500      0.0000    754.9888      1.8466     91.9328
  2086.0000      0.0000    740.7964      1.6552     97.6690
  2086.2500      0.0000    734.6271      1.5560    100.4666
  2086.5000      0.0000    735.2183      1.5414    101.5657
  2086.7500      0.0000    737.3228      1.5988    101.7096
  2087.0000      0.0000    738.4274      1.6873    100.9264
  2087.2500      0.0000    741.0991      1.7505     98.9357
  2087.5000      0.0000    749.3250      1.7720     95.6143
  2087.7500      0.0000    764.9564      1.7770     91.3727
  2088.0000      0.0000    788.9252      1.7754     87.2717
  2088.2500      0.0000    822.6408      1.7404     84.5175
  2088.5000      0.0000    862.7181      1.6518     83.5441
  2088.7500      0.0000    893.9841      1.5295     83.7232
  2089.0000      0.0000    895.6971      1.4141     84.1075
  2089.2500      0.0000    861.0683      1.3342     84.3221
  2089.5000      0.0000    806.5018      1.2980     84.6808
  2089.7500      0.0000    756.6772      1.3020     85.7209
  2090.0000      0.0000    724.4434      1.3311     87.7896
  2090.2500      0.0000    708.1512      1.3514     90.9220
  2090.5000      0.0000    702.5090      1.3261     94.9284
  2090.7500      0.0000    706.0709      1.2575     99.4408
  2091.0000      0.0000    719.4531      1.1954    103.7465
  2091.2500      0.0000    739.9656      1.1892    106.8320
  2091.5000      0.0000    759.6138      1.2397    108.0545
  2091.7500      0.0000    768.9548      1.3087    107.8037
  2092.0000      0.0000    764.5522      1.3638    107.0778
  2092.2500      0.0000    752.8828      1.3962    106.2729
  2092.5000      0.0000    745.1163      1.4043    104.6995
  2092.7500      0.0000    746.7806      1.3896    101.4586
  2093.0000      0.0000    754.1139      1.3693     96.5388
  2093.2500      0.0000    761.3734      1.3720     90.9349
  2093.5000      0.0000    768.1984      1.4035     85.9491
  2093.7500      0.0000    776.6035      1.4333     82.5816
  2094.0000      0.0000    783.6255      1.4296     81.3400
  2094.2500      0.0000    782.4908      1.3999     82.3354
  2094.5000     -2.0000    771.8376      1.3739     85.4899
  2094.7500     -1.9260    760.0112      1.3579     90.4791
  2095.0000      0.0000    757.7466      1.3340     96.2742
  2095.2500      0.0000    767.4774      1.3020    101.0257
  2095.5000      0.0000    781.0656      1.2860    103.0209
  2095.7500      0.0000    787.6105      1.2920    102.0089
  2096.0000      0.0000    782.5964      1.2911     99.4647
  2096.2500      0.0000    769.3525      1.2642     97.4874
  2096.5000      0.0000    754.0663      1.2329     97.2682
  2096.7500      0.0000    742.0139      1.2227     98.2764
  2097.0000      0.0000    736.6865      1.2169     98.8613
  2097.2500      0.0000    738.0566      1.1806     97.8897
  2097.5000      0.0000    741.3002      1.1214     95.8256
  2097.7500      0.0000    740.3953      1.0943     94.1135
  2098.0000      0.0000    733.9778      1.1336     93.7106
  2098.2500      0.0000    727.0433      1.2040     94.3893
  2098.5000      0.0000    727.2991      1.2416     95.1566
  2098.7500      0.0000    739.3356      1.2333     95.0880
  2099.0000      0.0000    759.8907      1.2284     93.9585
  2099.2500      0.0000    778.1169      1.2680     92.2419
  2099.5000      0.0000    782.7520      1.3262     90.5729
  2099.7500      0.0000    770.9911      1.3429     89.4607
  2100.0000      0.0000    750.5132      1.3033     89.4949
  2100.2500      0.0000    732.6785      1.2611     91.2193
  2100.5000      0.0000    723.9199      1.2751     94.5006
  2100.7500      0.0000    723.0791      1.3395     98.3021
  2101.0000      0.0000    725.3224      1.3916    101.2458
  2101.2500      0.0000    727.1503      1.3846    102.4030
  2101.5000      0.0000    727.9797      1.3386    101.8288
  2101.7500      0.0000    728.6985      1.3108    100.5107
  2102.0000      0.0000    729.7877      1.3252     99.5248
  2102.2500      0.0000    730.5350      1.3453     99.0842
