~Version Information
VERS.                      2.0: CWLS Log ASCII Standard - VERSION 2.0
WRAP.                       NO: One line per depth step
~Well Information Block
STRT.FT               456.0000: 
STOP.FT              1700.7000: 
STEP.FT                 0.1000: 
NULL.                -999.2500: 
COMP.          Pioneer Natural Resources: COMPANY
WELL.                Mead 11-9: WELL
FLD.           Purgatoire River: FIELD
LOC.           1127' FNL & 668' FWL: LOCATION
PROV.                 Colorado: PROVINCE
CNTY.               Las Animas: COUNTRY
SRVC.                Patterson: SERVICE COMPANY
DATE.          Sat Feb 19 09:18:18 2005: LOG DATE
UWI.           05 071 08160 00: UNIQUE WELL ID
~Curve Information Block
DEPT.FT            0 000 00 00: Depth
DCAL.in                       : CDL Caliper
RHOB.g/cc                     : CDL Bulk Density
RHOC.g/cc                     : CDL Density Correction
DPOR.pu                       : CDL Density Porosity
GR.GAPI                       : Gamma Ray
NPOR.pu                       : Neutron Porosity
~Parameter Information Block
~A  Depth       DCAL        RHOB        RHOC        DPOR         GR         NPOR    
# ...
   868.8000      7.9155      2.5496      0.0644      6.0840     72.0415     20.4186
   868.9000      7.9155      2.5380      0.0603      6.7877     73.4079     20.6909
   869.0000      7.9149      2.5106      0.0388      8.4501     76.7580     21.0608
   869.1000      7.9149      2.4929     -0.0182      9.5197     80.6049     21.4967
   869.2000      7.9149      2.5040      0.0036      8.8497     82.8583     21.3699
   869.3000      7.9139      2.5258      0.0265      7.5298     82.6770     20.6647
   869.4000      7.9139      2.5314      0.0082      7.1903     81.8064     20.0433
   869.5000      7.9131      2.5229      0.0210      7.7004     83.0192     19.7175
   869.6000      7.9131      2.5171      0.0641      8.0530     85.6837     19.5469
   869.7000      7.9131      2.5204      0.0557      7.8553     86.2776     19.1788
   869.8000      7.9121      2.5324      0.0732      7.1256     83.9007     18.7421
   869.9000      7.9121      2.5512      0.0700      5.9860     80.7803     18.7989
   870.0000      7.9120      2.5688      0.1004      4.9199     79.1281     19.1630
   870.1000      7.9120      2.5782      0.0672      4.3535     78.9136     19.3121
   870.2000      7.9120      2.5827      0.0732      4.0762     76.8365     18.8719
   870.3000      7.9198      2.5832      0.1149      4.0490     71.3320     17.9506
   870.4000      7.9198      2.5809      0.0854      4.1908     65.7234     17.1762
   870.5000      7.9365      2.5861      0.0451      3.8704     64.1245     16.9463
   870.6000      7.9365      2.5911      0.1125      3.5685     66.8606     17.0937
   870.7000      7.9365      2.5735      0.0750      4.6380     71.4508     17.3888
   870.8000      7.9454      2.5459      0.0423      6.3097     75.1076     17.8494
   870.9000      7.9454      2.5403      0.0338      6.6474     76.0603     18.1100
   871.0000      7.9459      2.5563      0.0319      5.6765     74.7556     17.6824
   871.1000      7.9459      2.5704      0.0324      4.8269     72.8856     17.0715
   871.2000      7.9459      2.5731      0.0268      4.6612     71.2362     16.9177
   871.3000      7.9459      2.5704      0.0508      4.8239     69.5607     17.0269
   871.4000      7.9459      2.5715      0.0391      4.7574     69.1494     17.1522
   871.5000      7.9449      2.5817      0.0575      4.1366     70.5876     17.3710
   871.6000      7.9449      2.5909      0.0859      3.5828     73.1024     17.7487
   871.7000      7.9449      2.5865      0.1183      3.8505     76.6296     18.0960
   871.8000      7.9407      2.5714      0.0752      4.7612     78.8315     18.1510
   871.9000      7.9407      2.5569      0.1076      5.6401     76.9724     18.1238
   872.0000      7.9357      2.5500      0.0643      6.0626     73.6937     18.5942
   872.1000      7.9357      2.5590      0.0016      5.5137     71.5493     19.8692
   872.2000      7.9357      2.5769      0.1070      4.4333     69.8742     21.3495
   872.3000      7.9370      2.5713      0.1065      4.7722     70.7566     22.1662
   872.4000      7.9370      2.5390      0.0300      6.7255     76.4517     22.6112
   872.5000      7.9443      2.5093      0.0047      8.5288     84.6824     23.2344
   872.6000      7.9443      2.4867      0.0299      9.8951     91.4277     23.8130
   872.7000      7.9443      2.4450      0.0296     12.4254     95.0354     24.4381
   872.8000      7.9599      2.3690      0.0044     17.0290     98.0124     25.6134
   872.9000      7.9599      2.2741      0.0011     22.7817    102.5739     27.0194
   873.0000      7.9902      2.1681      0.0057     29.2076    106.7630     27.9454
   873.1000      7.9902      2.0357     -0.0258     37.2306    109.0281     28.3886
   873.2000      7.9902      1.8812     -0.0788     46.5918    108.9967     28.7001
   873.3000      8.0201      1.7381     -0.1290     55.2644    106.2699     28.7370
   873.4000      8.0201      1.6313     -0.1662     61.7402    102.7679     28.5725
   873.5000      8.0368      1.5600     -0.1155     66.0631     98.3375     28.8916
   873.6000      8.0368      1.5119     -0.1047     68.9782     91.5221     30.0553
   873.7000      8.0368      1.4766     -0.0795     71.1178     84.3682     31.4520
   873.8000      8.0449      1.4489     -0.0433     72.7957     79.4215     32.0878
   873.9000      8.0449      1.4294      0.0133     73.9750     75.1425     32.1154
   874.0000      8.0496      1.4214      0.0303     74.4609     70.9837     32.4766
   874.1000      8.0496      1.4381     -0.0513     73.4495     68.8639     33.3690
   874.2000      8.0496      1.4932     -0.0082     70.1069     65.7976     34.2891
   874.3000      8.0518      1.5746      0.0449     65.1778     60.1275     34.7444
   874.4000      8.0518      1.6681      0.0124     59.5086     56.7451     34.7021
   874.5000      8.0490      1.7742      0.0810     53.0809     59.8723     34.5274
   874.6000      8.0490      1.8841      0.1082     46.4189     68.7888     34.3293
   874.7000      8.0490      1.9970      0.1278     39.5760     77.6483     34.1041
   874.8000      8.0321      2.1283      0.1503     31.6159     82.1611     33.7546
   874.9000      8.0321      2.2687      0.1810     23.1062     85.2510     32.8861
   875.0000      8.0035      2.3796      0.2238     16.3890     88.4034     31.7359
   875.1000      8.0035      2.4407      0.1242     12.6861     89.7666     30.9866
   875.2000      8.0035      2.4644      0.0719     11.2489     90.8688     30.4685
   875.3000      7.9836      2.4763      0.0080     10.5263     92.7228     29.4189
   875.4000      7.9836      2.5003      0.0508      9.0735     93.3367     27.3447
   875.5000      7.9764      2.5316      0.0581      7.1740     92.3747     24.9145
   875.6000      7.9764      2.5533      0.0472      5.8629     93.1728     23.5862
   875.7000      7.9764      2.5669      0.0260      5.0355     97.3730     23.5097
   875.8000      7.9763      2.5772      0.1007      4.4129    102.7036     23.5835
   875.9000      7.9763      2.5777      0.0962      4.3816    107.0165     23.3369
   876.0000      7.9774      2.5643      0.0918      5.1954    108.7843     23.1487
   876.1000      7.9774      2.5417      0.0436      6.5635    108.1290     23.2557
   876.2000      7.9774      2.5211      0.0544      7.8094    106.1259     23.5312
   876.3000      7.9742      2.5104      0.0275      8.4577    101.8033     23.7347
   876.4000      7.9742      2.5077      0.0318      8.6264     96.8085     23.8373
   876.5000      7.9715      2.5102      0.0439      8.4736     96.4431     24.0064
   876.6000      7.9715      2.5151      0.0788      8.1750    100.4854     23.8295
   876.7000      7.9715      2.5098      0.0803      8.4952    103.9574     22.9115
   876.8000      7.9706      2.4951      0.0298      9.3854    104.9637     21.9651
   876.9000      7.9706      2.4902      0.0454      9.6819    105.7418     21.7243
   877.0000      7.9690      2.5003      0.0375      9.0713    107.0222     22.0554
   877.1000      7.9690      2.5188      0.0517      7.9519    106.3438     22.8024
   877.2000      7.9690      2.5364      0.1058      6.8874    104.1980     23.7699
   877.3000      7.9674      2.5464      0.0971      6.2797    104.0215     24.1959
   877.4000      7.9674      2.5608      0.0612      5.4053    106.3742     23.8921
   877.5000      7.9693      2.5843      0.1267      3.9803    109.1707     23.7205
   877.6000      7.9693      2.5958      0.1307      3.2853    110.0024     24.1792
   877.7000      7.9693      2.5857      0.0762      3.8948    110.3951     24.5581
   877.8000      7.9759      2.5648      0.0773      5.1621    113.6100     23.9987
   877.9000      7.9759      2.5425      0.0669      6.5153    115.7212     23.1885
   878.0000      7.9809      2.5273      0.0461      7.4336    112.0143     23.0296
   878.1000      7.9809      2.5230      0.0629      7.6981    107.8854     22.9781
   878.2000      7.9809      2.5260      0.0272      7.5126    108.2147     22.5224
   878.3000      7.9825      2.5364      0.0531      6.8848    109.4581     22.1515
