~Version Information
VERS.                      2.0: CWLS Log ASCII Standard - VERSION 2.0
WRAP.                       NO: One line per depth step
~Well Information Block
STRT.FT                -9.7500: 
STOP.FT              2158.2500: 
STEP.FT                 0.2500: 
NULL.                -999.2500: 
COMP.          Petrogulf Corporation: COMPANY
WELL.             State 16-41V: WELL
FLD.           Purgatoire River: FIELD
LOC.           335' FNL & 823' FEL--: LOCATION
PROV.                 Colorado: PROVINCE
CNTY.               Las Animas: COUNTRY
SRVC.                Patterson: SERVICE COMPANY
DATE.          Wed Aug 17 12:15:10 2005: LOG DATE
UWI.           05 071 08344 00: UNIQUE WELL ID
~Curve Information Block
DEPT.FT            0 000 00 00: Depth
CCL.                          : Casing Collar Locator
TT3.usec                      : CBL 3' Travel Time
AMP3.mV                       : CBL 3' Amplitude
GR.GAPI                       : Gamma Ray
~Parameter Information Block
~A  Depth       CCL         TT3         AMP3         GR     
# ...
   425.7500      0.0000    262.8798     71.9794     91.6517
   426.0000      0.0000    262.8692     71.5127     90.0697
   426.2500      0.0000    262.8627     70.9306     88.4133
   426.5000      0.0000    262.8678     70.4013     87.1281
   426.7500      0.0000    262.8854     70.0789     86.0980
   427.0000      0.0000    262.9100     70.0151     84.8101
   427.2500      0.0000    262.9343     70.1444     83.0457
   427.5000      0.0000    262.9536     70.3418     81.4000
   427.7500      0.0000    262.9684     70.4998     81.0102
   428.0000      0.0000    262.9835     70.5822     82.5688
   428.2500      0.0000    263.0025     70.6297     85.7056
   428.5000      0.0000    263.0219     70.7289     89.4044
   428.7500      0.0000    263.0319     70.9657     92.5896
   429.0000      0.0000    263.0239     71.3814     94.1692
   429.2500      0.0000    263.0002     71.9472     93.2451
   429.5000      0.0000    262.9728     72.5704     89.8349
   429.7500      0.0000    262.9575     73.1236     84.9582
   430.0000      0.0000    262.9799     73.4593     79.7188
   430.2500      0.0000    263.1320     73.3907     74.7734
   430.5000      0.0000    263.7195     72.6525     70.7321
   430.7500      0.0000    265.5126     70.8807     68.2296
   431.0000      0.0000    269.9389     67.6433     67.2198
   431.2500      0.0000    279.0254     62.5586     66.7653
   431.5000      0.0000    295.1409     55.5425     65.9156
   431.7500      0.0000    321.0038     47.0934     64.5387
   432.0000      0.0000    359.7518     38.2908     63.0506
   432.2500      0.0000    413.1395     30.3257     61.6785
   432.5000      0.0000    477.7425     23.9175     60.4013
   432.7500      2.0000    543.9750     19.1373     59.4687
   433.0000     -2.0000    601.1653     15.6590     59.4697
   433.2500      0.0000    643.1113     13.0842     60.7656
   433.5000      0.0000    667.2076     11.1277     63.0096
   433.7500      0.0000    670.1810      9.6503     65.1930
   434.0000      0.0000    647.8392      8.5672     66.1342
   434.2500      0.0000    600.0914      7.7349     65.2639
   434.5000      0.0000    535.8770      6.9654     63.3024
   434.7500      0.0000    471.3241      6.1603     62.0566
   435.0000      0.0000    420.9115      5.3818     63.0960
   435.2500      0.0000    390.0997      4.7696     66.4313
   435.5000      0.0000    375.8369      4.4112     70.5292
   435.7500      0.0000    371.7579      4.2899     73.5536
   436.0000      0.0000    372.0677      4.3126     74.5130
   436.2500      0.0000    372.8527      4.3734     73.4176
   436.5000      0.0000    372.5385      4.4138     70.7505
   436.7500      0.0000    371.8150      4.4407     67.0377
   437.0000      0.0000    372.4808      4.4802     62.8401
   437.2500      0.0000    375.7799      4.5225     58.9596
   437.5000      0.0000    381.2686      4.5283     56.3801
   437.7500      0.0000    386.9451      4.4848     55.8129
   438.0000      0.0000    390.6034      4.4345     57.2923
   438.2500      0.0000    391.4782      4.4420     60.2212
   438.5000      0.0000    390.6472      4.5398     63.6899
   438.7500      0.0000    389.7345      4.7052     66.7635
   439.0000      0.0000    389.2623      4.8816     68.6598
   439.2500      0.0000    388.2973      5.0190     68.9074
   439.5000      0.0000    385.6328      5.1045     67.5798
   439.7500      0.0000    381.2382      5.1611     65.4949
   440.0000      0.0000    376.4202      5.2210     64.0132
   440.2500      0.0000    372.6364      5.2972     64.2969
   440.5000      0.0000    370.4448      5.3780     66.5199
   440.7500      0.0000    369.6248      5.4438     69.7395
   441.0000      0.0000    370.0856      5.4897     72.6497
   441.2500      0.0000    372.8960      5.5364     74.5448
   441.5000      0.0000    381.1288      5.6281     75.5257
   441.7500      0.0000    399.8594      5.8188     75.9026
   442.0000      0.0000    433.8483      6.1421     75.6761
   442.2500      0.0000    483.2793      6.5790     74.6744
   442.5000      0.0000    541.4042      7.0599     72.9682
   442.7500      0.0000    597.4682      7.5092     70.9338
   443.0000      0.0000    641.8812      7.8897     68.9358
   443.2500      0.0000    667.9932      8.2022     67.0984
   443.5000      0.0000    671.4793      8.4533     65.4567
   443.7500      0.0000    652.5710      8.6327     64.2678
   444.0000      0.0000    619.9192      8.7220     63.9686
   444.2500      0.0000    588.7200      8.7198     64.7024
   444.5000      0.0000    571.4736      8.6572     66.1572
   444.7500      0.0000    569.7860      8.5836     68.0380
   445.0000      0.0000    575.6158      8.5292     70.3833
   445.2500      0.0000    580.3854      8.4780     73.3168
   445.5000      0.0000    582.2164      8.3839     76.7842
   445.7500      0.0000    584.4447      8.2150     80.5520
   446.0000      0.0000    589.1988      7.9826     84.2177
   446.2500      0.0000    594.6735      7.7340     87.3624
   446.5000      0.0000    597.7990      7.5268     89.9953
   446.7500      0.0000    596.8013      7.4017     92.7307
   447.0000      0.0000    591.0105      7.3630     96.2395
   447.2500      0.0000    581.0608      7.3732    100.4555
   447.5000      0.0000    570.1774      7.3778    104.2706
   447.7500      0.0000    563.7297      7.3442    106.0773
   448.0000      0.0000    566.9642      7.2794    104.9918
   448.2500      0.0000    582.6602      7.2046    101.7927
   448.5000      0.0000    608.9089      7.1166     98.4762
   448.7500      0.0000    638.4822      6.9770     96.6207
   449.0000      0.0000    662.3624      6.7442     96.1406
   449.2500      0.0000    675.3151      6.4238     95.5780
   449.5000      0.0000    677.9038      6.0902     93.3798
   449.7500      0.0000    673.7778      5.8512     88.8931
   450.0000      0.0000    665.6786      5.7703     82.4177
   450.2500      0.0000    653.2656      5.8111     74.6057
   450.5000      0.0000    634.5826      5.8572     66.0264
   450.7500      0.0000    609.9351      5.7969     57.3105
   451.0000      0.0000    583.1499      5.5999     49.3884
   451.2500      0.0000    557.9475      5.3197     43.2198
   451.5000      0.0000    534.1435      5.0361     39.2269
   451.7500      0.0000    508.7956      4.8027     37.1042
   452.0000      0.0000    480.7372      4.6400     36.1858
   452.2500      0.0000    452.9889      4.5593     36.0343
   452.5000      0.0000    430.6750      4.5828     36.8400
   452.7500      0.0000    417.5059      4.7359     39.2105
   453.0000      0.0000    414.8960      5.0163     43.3463
   453.2500      0.0000    423.5594      5.3707     48.3575
   453.5000      0.0000    443.8543      5.7114     52.5953
   453.7500      0.0000    473.4182      5.9642     54.9614
   454.0000      0.0000    505.8260      6.1067     55.9997
   454.2500      0.0000    534.2449      6.1677     57.5384
   454.5000      0.0000    557.2110      6.1928     61.0933
   454.7500      0.0000    579.2016      6.2168     66.4700
   455.0000      0.0000    604.4301      6.2627     71.7251
   455.2500      0.0000    630.8821      6.3514     74.5353
   455.5000      0.0000    651.0488      6.4947     73.9804
   455.7500      0.0000    657.6367      6.6830     71.2458
   456.0000      0.0000    648.1400      6.8836     68.5462
   456.2500      0.0000    625.6084      7.0480     67.4750
   456.5000      0.0000    596.7079      7.1157     68.5468
   456.7500      0.0000    568.3835      7.0294     71.9205
   457.0000      0.0000    544.9164      6.7708     77.7093
   457.2500      0.0000    527.5380      6.3859     85.3903
   457.5000      0.0000    516.2277      5.9701     93.5333
   457.7500      0.0000    511.4375      5.6185    100.4781
   458.0000      0.0000    514.7784      5.3820    105.0823
   458.2500      0.0000    528.3828      5.2573    106.8834
   458.5000      0.0000    552.3107      5.2080    106.1217
   458.7500      0.0000    581.1504      5.1967    103.7267
   459.0000      0.0000    603.1174      5.2013    100.8383
