~Version Information
VERS.                      2.0: CWLS Log ASCII Standard - VERSION 2.0
WRAP.                       NO: One line per depth step
~Well Information Block
STRT.FT               -10.3000: 
STOP.FT              1936.7000: 
STEP.FT                 0.1000: 
NULL.                -999.2500: 
COMP.          Petrogulf Corporation: COMPANY
WELL.              Graff 9-31R: WELL
FLD.           Purgatorie River: FIELD
LOC.           707' FNL & 1713' FEL------: LOCATION
CNTY.               Las Animas: COUNTY
SRVC.                         : SERVICE COMPANY
DATE.          Wed Nov 17 13:41:51 2004: LOG DATE
UWI.                          : UNIQUE WELL ID
STAT.                       CO: STATE
~Curve Information Block
DEPT.FT            0 000 00 00: Depth
GR.GAPI                       : Gamma Ray
CCL.                          : Casing Collar Locator
TT3.usec                      : CBL 3' Travel Time
AMP3.mV                       : CBL 3' Amplitude
~Parameter Information Block
~A  Depth        GR         CCL         TT3         AMP3    
# ...
   887.5000    113.1017      0.0000    761.6978     11.2379
   887.6000    113.1017      0.0000    761.6978     11.2379
   887.7000    113.1017      0.0000    761.6978     11.2379
   887.8000    112.9925      0.0000    771.3762     12.3028
   887.9000    112.9925      0.0000    771.3762     12.3028
   888.0000    107.6606      0.0000    783.1199     13.3488
   888.1000    107.6606      0.0000    783.1199     13.3488
   888.2000    107.6606      0.0000    783.1199     13.3488
   888.3000     97.5971      0.0000    797.3900     14.2610
   888.4000     97.5971      0.0000    797.3900     14.2610
   888.5000     84.7322      0.0000    814.4784     15.0052
   888.6000     84.7322      0.0000    814.4784     15.0052
   888.7000     84.7322      0.0000    814.4784     15.0052
   888.8000     71.8595      0.0000    833.0129     15.6200
   888.9000     71.8595      0.0000    833.0129     15.6200
   889.0000     61.8022      0.0000    849.4786     16.1463
   889.1000     61.8022      0.0000    849.4786     16.1463
   889.2000     61.8022      0.0000    849.4786     16.1463
   889.3000     56.6676      0.0000    859.7819     16.5630
   889.4000     56.6676      0.0000    859.7819     16.5630
   889.5000     57.7072      0.0000    861.4536     16.7786
   889.6000     57.7072      0.0000    861.4536     16.7786
   889.7000     57.7072      0.0000    861.4536     16.7786
   889.8000     65.5577      0.0000    855.2394     16.6718
   889.9000     65.5577      0.0000    855.2394     16.6718
   890.0000     80.0685      0.0000    845.4410     16.1539
   890.1000     80.0685      0.0000    845.4410     16.1539
   890.2000     80.0685      0.0000    845.4410     16.1539
   890.3000     99.5459      0.0000    837.6735     15.2236
   890.4000     99.5459      0.0000    837.6735     15.2236
   890.5000    120.3437      0.0000    834.8863     13.9976
   890.6000    120.3437      0.0000    834.8863     13.9976
   890.7000    120.3437      0.0000    834.8863     13.9976
   890.8000    137.8614      0.0000    835.9137     12.6848
   890.9000    137.8614      0.0000    835.9137     12.6848
   891.0000    148.9124      0.0000    838.0980     11.4979
   891.1000    148.9124      0.0000    838.0980     11.4979
   891.2000    148.9124      0.0000    838.0980     11.4979
   891.3000    153.7688      0.0000    839.6840     10.5537
   891.4000    153.7688      0.0000    839.6840     10.5537
   891.5000    155.6307      0.0000    839.5744      9.8460
   891.6000    155.6307      0.0000    839.5744      9.8460
   891.7000    155.6307      0.0000    839.5744      9.8460
   891.8000    157.6109      0.0000    837.7363      9.3057
   891.9000    157.6109      0.0000    837.7363      9.3057
   892.0000    160.3258      0.0000    837.0429      8.8840
   892.1000    160.3258      0.0000    837.0429      8.8840
   892.2000    160.3258      0.0000    837.0429      8.8840
   892.3000    162.3336      0.0000    841.8984      8.5785
   892.4000    162.3336      0.0000    841.8984      8.5785
   892.5000    162.0877      0.0000    853.2626      8.3945
   892.6000    162.0877      0.0000    853.2626      8.3945
   892.7000    162.0877      0.0000    853.2626      8.3945
   892.8000    159.0111      0.0000    866.8767      8.3016
   892.9000    159.0111      0.0000    866.8767      8.3016
   893.0000    153.4485      0.0000    877.4564      8.2431
   893.1000    153.4485      0.0000    877.4564      8.2431
   893.2000    153.4485      0.0000    877.4564      8.2431
   893.3000    146.5934      0.0000    883.1784      8.1790
   893.4000    146.5934     -2.0000    883.1784      8.1790
   893.5000    140.4455      0.0000    885.6678      8.0925
   893.6000    140.4455      2.0000    885.6678      8.0925
   893.7000    140.4455     -2.0000    885.6678      8.0925
   893.8000    137.1339      0.0000    887.2632      7.9620
   893.9000    137.1339      0.0000    887.2632      7.9620
   894.0000    137.6021      0.0000    888.8103      7.7623
   894.1000    137.6021      0.0000    888.8103      7.7623
   894.2000    137.6021      0.0000    888.8103      7.7623
   894.3000    140.5973      0.0000    889.0608      7.5235
   894.4000    140.5973      0.0000    889.0608      7.5235
   894.5000    143.3260      0.0000    885.9030      7.3761
   894.6000    143.3260      0.0000    885.9030      7.3761
   894.7000    143.3260      0.0000    885.9030      7.3761
   894.8000    143.7501      0.0000    878.9698      7.4920
   894.9000    143.7501      0.0000    878.9698      7.4920
   895.0000    142.1280      0.0000    870.9101      7.9374
   895.1000    142.1280      0.0000    870.9101      7.9374
   895.2000    142.1280      0.0000    870.9101      7.9374
   895.3000    139.9371      0.0000    864.9298      8.5820
   895.4000    139.9371      0.0000    864.9298      8.5820
   895.5000    138.0476      0.0000    861.1628      9.1795
   895.6000    138.0476      0.0000    861.1628      9.1795
   895.7000    138.0476      0.0000    861.1628      9.1795
   895.8000    136.9612      0.0000    856.6001      9.5414
   895.9000    136.9612      0.0000    856.6001      9.5414
   896.0000    137.9964      0.0000    848.5933      9.6299
   896.1000    137.9964      0.0000    848.5933      9.6299
   896.2000    137.9964      0.0000    848.5933      9.6299
   896.3000    142.3777      0.0000    837.5004      9.5183
   896.4000    142.3777      0.0000    837.5004      9.5183
   896.5000    148.9797      0.0000    826.0159      9.3109
   896.6000    148.9797      0.0000    826.0159      9.3109
   896.7000    148.9797      0.0000    826.0159      9.3109
   896.8000    154.3488      0.0000    816.8014      9.0997
   896.9000    154.3488      0.0000    816.8014      9.0997
   897.0000    155.7172      0.0000    810.8574      8.9493
   897.1000    155.7172      0.0000    810.8574      8.9493
   897.2000    155.7172      0.0000    810.8574      8.9493
   897.3000    153.6086      0.0000    807.4885      8.8832
   897.4000    153.6086      0.0000    807.4885      8.8832
   897.5000    151.1805      0.0000    805.2090      8.8786
   897.6000    151.1805      0.0000    805.2090      8.8786
   897.7000    151.1805      0.0000    805.2090      8.8786
   897.8000    151.2181      0.0000    802.6837      8.8876
   897.9000    151.2181      0.0000    802.6837      8.8876
   898.0000    153.7185      0.0000    799.3226      8.8730
   898.1000    153.7185      0.0000    799.3226      8.8730
   898.2000    153.7185      0.0000    799.3226      8.8730
   898.3000    156.0498      0.0000    795.4420      8.8264
   898.4000    156.0498      0.0000    795.4420      8.8264
   898.5000    155.4904      0.0000    791.7619      8.7592
   898.6000    155.4904      0.0000    791.7619      8.7592
   898.7000    155.4904      0.0000    791.7619      8.7592
   898.8000    151.9723      0.0000    788.6769      8.6888
   898.9000    151.9723      0.0000    788.6769      8.6888
   899.0000    148.1662      0.0000    786.3850      8.6343
   899.1000    148.1662      0.0000    786.3850      8.6343
   899.2000    148.1662      0.0000    786.3850      8.6343
   899.3000    146.5423      0.0000    785.6738      8.6123
   899.4000    146.5423      0.0000    785.6738      8.6123
   899.5000    146.8640      0.0000    787.6279      8.6246
   899.6000    146.8640      0.0000    787.6279      8.6246
   899.7000    146.8640      0.0000    787.6279      8.6246
   899.8000    147.1898      0.0000    792.1708      8.6530
   899.9000    147.1898      0.0000    792.1708      8.6530
   900.0000    146.7031      0.0000    797.6132      8.6753
   900.1000    146.7031      0.0000    797.6132      8.6753
   900.2000    146.7031      0.0000    797.6132      8.6753
   900.3000    146.5333      0.0000    802.0163      8.6840
   900.4000    146.5333      0.0000    802.0163      8.6840
   900.5000    147.9755      0.0000    804.5847      8.6895
   900.6000    147.9755      0.0000    804.5847      8.6895
   900.7000    147.9755      0.0000    804.5847      8.6895
   900.8000    150.7111      0.0000    805.6736      8.7068
