~Version Information
 VERS.                                  2.0 : CWLS LAS VERSION
 WRAP.                                   NO : WRAPING MODE
 SWARE .                 MController 2.5.0J : SOFTWARE VERSION
~Well Information
 WELL.                      McDaniel 09-34V : WELL
 COMP.                Petrogulf Corporation : COMPANY
 FLD.                      Purgatoire River : FIELD
 LOC.                SW/SE Sec 09 T33S R67W : LOCATION
 DATE.                             09/27/05 : DATE(S) LOGGED
 SRVC.       BLANCO Geological Services LLC : SERVICE COMPANY
 STAT.                                   CO : STATE
 CNTY.                           Las Animas : COUNTY
 CTRY.                                  USA : COUNTRY
 API.                       05-071-08333-00 : API NUMBER
 STRT.FT                               0.00 : START DEPTH
 STOP.FT                             2433.0 : STOP DEPTH 775.00
 STEP.FT                               1.00 : DEPTH INCREMENT
 NULL.                                -9999 : NULL VALUE
~Curve information
 DEPTH.FT                                   :
 ROP.MIN/FT                                 :
 GAS.UNITS                                  :
~ASCII Log data
# ...
       200.0         0.27         10.3 
       201.0         0.27         11.3 
       202.0         0.28         10.8 
       203.0         0.30         10.8 
       204.0         0.27         10.7 
       205.0         0.23         11.4 
       206.0         1.27         11.4 
       207.0         0.20         10.8 
       208.0         0.27         10.7 
       209.0         0.23         10.8 
       210.0         0.27         11.0 
       211.0         0.25         10.9 
       212.0         0.27         11.4 
       213.0         0.30         11.1 
       214.0         0.30         11.0 
       215.0         0.27         11.0 
       216.0         0.23         11.3 
       217.0         0.27         11.0 
       218.0         0.30         11.0 
       219.0         0.27         11.9 
       220.0         0.20         11.0 
       221.0         0.20         10.8 
       222.0         0.23         11.1 
       223.0         0.27         11.0 
       224.0         0.25         11.2 
       225.0         0.23         12.0 
       226.0         0.23         11.4 
       227.0         0.30         10.9 
       228.0         0.23         11.2 
       229.0         0.30         10.8 
       230.0         0.23         10.9 
       231.0         0.23         11.4 
       232.0         0.27         11.1 
       233.0         0.20         11.9 
       234.0         0.23         11.8 
       235.0         0.23         10.9 
       236.0         1.22         11.7 
       237.0         0.30         11.3 
       238.0         0.27         10.8 
       239.0         0.23         10.9 
       240.0         0.20         10.8 
       241.0         0.23         11.3 
       242.0         0.33         11.2 
       243.0         0.27         11.8 
       244.0         0.27         10.9 
       245.0         0.23         11.7 
       246.0         0.28         11.3 
       247.0         0.17         11.4 
       248.0         0.27         11.2 
       249.0         0.27         11.2 
       250.0         0.37         11.1 
       251.0         0.50         11.5 
       252.0         0.47         11.6 
       253.0         0.47         11.5 
       254.0         0.33         11.5 
       255.0         0.27         11.3 
       256.0         0.25         11.6 
       257.0         0.23         10.8 
       258.0         0.23         10.6 
       259.0         0.23         10.9 
       260.0         0.23         10.3 
       261.0         0.27         10.5 
       262.0         0.23         10.8 
       263.0         0.23         10.6 
       264.0         0.23         10.4 
       265.0         0.23         10.5 
       266.0         1.25         10.2 
       267.0         0.20         10.7 
       268.0         0.23         10.4 
       269.0         0.23         10.8 
       270.0         0.20         11.1 
       271.0         0.23         11.0 
       272.0         0.20         10.5 
       273.0         0.23         10.5 
       274.0         0.23         10.8 
       275.0         0.27         10.9 
       276.0         0.27         10.4 
       277.0         0.27         10.3 
       278.0         0.27         10.5 
       279.0         0.23         10.5 
       280.0         0.28         11.3 
       281.0         0.23         10.8 
       282.0         0.23         10.8 
       283.0         0.20         11.7 
       284.0         0.23         11.0 
       285.0         0.23         11.3 
       286.0         0.20         11.8 
       287.0         0.23         13.2 
       288.0         0.20         13.6 
       289.0         0.23         12.7 
       290.0         0.20         13.1 
       291.0         0.27         13.6 
       292.0         0.23         12.2 
       293.0         0.27         11.0 
       294.0         0.25         10.8 
       295.0         0.23         11.5 
       296.0         1.47         11.9 
       297.0         0.30         11.3 
       298.0         0.23         11.1 
       299.0         0.23         11.0 
       300.0         0.23         10.9 
       301.0         0.23         11.1 
       302.0         0.22         10.8 
       303.0         0.27         10.7 
       304.0         0.23         10.7 
       305.0         0.23         10.8 
       306.0         0.23         11.0 
       307.0         0.23         11.6 
       308.0         0.23         11.3 
       309.0         0.27         11.1 
       310.0         0.27         11.2 
       311.0         0.30         11.1 
       312.0         0.27         11.9 
       313.0         0.37         12.2 
       314.0         0.35         11.3 
       315.0         0.33         11.6 
       316.0         0.27         11.6 
       317.0         0.27         11.3 
       318.0         0.23         11.6 
       319.0         0.27         12.2 
       320.0         0.23         11.7 
       321.0         0.27         11.8 
       322.0         0.27         11.8 
       323.0         0.20         12.2 
       324.0         0.23         11.8 
       325.0         0.30         11.6 
       326.0         1.05         12.6 
       327.0         0.27         12.0 
       328.0         0.27         12.2 
       329.0         0.27         12.3 
       330.0         0.27         11.7 
       331.0         0.23         11.7 
       332.0         0.27         12.6 
       333.0         0.23         11.9 
       334.0         0.23         12.4 
       335.0         0.27         12.0 
       336.0         0.17         11.6 
       337.0         0.22         11.9 
       338.0         0.23         12.2 
       339.0         0.23         11.8 
       340.0         0.27         12.7 
       341.0         0.30         12.2 
       342.0         0.27         12.4 
       343.0         0.27         11.9 
       344.0         0.20         12.6 
       345.0         0.23         12.4 
       346.0         0.30         12.4 
       347.0         0.23         12.2 
       348.0         0.30         12.2 
       349.0         0.28         12.4 
       350.0         0.27         12.3 
       351.0         0.27         11.8 
       352.0         0.30         12.8 
       353.0         0.37         12.4 
       354.0         0.33         12.1 
       355.0         0.33         12.2 
       356.0         1.35         12.5 
       357.0         0.30         13.0 
       358.0         0.33         13.2 
       359.0         0.43         13.1 
       360.0         0.47         12.6 
       361.0         0.27         12.7 
       362.0         0.27         13.1 
       363.0         0.27         12.4 
       364.0         0.23         12.1 
       365.0         0.25         12.3 
       366.0         0.27         12.7 
       367.0         0.17         12.5 
       368.0         0.23         13.0 
       369.0         0.23         12.6 
       370.0         0.23         13.3 
       371.0         0.33         12.1 
       372.0         0.23         11.9 
       373.0         0.23         12.2 
       374.0         0.27         12.0 
       375.0         0.23         12.5 
       376.0         0.28         11.8 
       377.0         0.27         12.1 
       378.0         0.23         13.2 
       379.0         0.33         13.0 
       380.0         0.30         12.4 
       381.0         0.33         12.7 
       382.0         0.33         12.5 
       383.0         0.23         13.1 
       384.0         0.20         12.9 
       385.0         0.25         12.3 
       386.0         1.17         12.3 
       387.0         0.33         13.0 
       388.0         0.37         13.7 
       389.0         0.40         12.9 
       390.0         0.43         12.6 
       391.0         0.48         13.3 
       392.0         0.53         13.1 
       393.0         0.47         13.0 
       394.0         0.30         13.8 
       395.0         0.53         12.6 
       396.0         0.70         13.1 
       397.0         0.68         12.8 
       398.0         0.70         13.6 
       399.0         0.67         13.2 
