~Version Information
VERS.                      2.0: CWLS Log ASCII Standard - VERSION 2.0
WRAP.                       NO: One line per depth step
~Well Information Block
STRT.FT               860.0000: 
STOP.FT              2733.7000: 
STEP.FT                 0.1000: 
NULL.                -999.2500: 
COMP.          Pioneer Natural Resources: COMPANY
WELL.          Beacon 11-18 Tr: WELL
FLD.           Purgatoire River: FIELD
LOC.           409' FNL & 203' FWL: LOCATION
PROV.                 Colorado: PROVINCE
CNTY.               Las Animas: COUNTRY
SRVC.                Patterson: SERVICE COMPANY
DATE.          Mon Jan 17 07:36:09 2005: LOG DATE
UWI.           05 071 08251 00: UNIQUE WELL ID
~Curve Information Block
DEPT.FT            0 000 00 00: Depth
DCAL.in                       : CDL Caliper
RHOB.g/cc                     : CDL Bulk Density
RHOC.g/cc                     : CDL Density Correction
DPOR.pu                       : CDL Density Porosity
NPOR.pu                       : Neutron Porosity
GR.GAPI                       : Gamma Ray
~Parameter Information Block
~A  Depth       DCAL        RHOB        RHOC        DPOR        NPOR         GR     
# ...
  1599.2000      8.0931      2.5053      0.0721      8.7707     29.5578    117.6214
  1599.3000      8.1144      2.4564      0.0585     11.7346     29.7669    119.3858
  1599.4000      8.1144      2.4220      0.0073     13.8194     29.6939    122.2388
  1599.5000      8.1508      2.4129      0.0469     14.3726     29.6532    125.0923
  1599.6000      8.1508      2.4128      0.0255     14.3785     29.5010    127.5898
  1599.7000      8.1508      2.4096      0.0465     14.5704     29.1284    131.2283
  1599.8000      8.2067      2.3989      0.0685     15.2176     28.7754    133.6985
  1599.9000      8.2067      2.3719      0.0597     16.8556     28.3694    132.4102
  1600.0000      8.2515      2.3292      0.0220     19.4397     27.7661    130.6885
  1600.1000      8.2515      2.2743      0.0604     22.7723     27.0585    129.7924
  1600.2000      8.2515      2.2015      0.0294     27.1825     25.9590    127.6076
  1600.3000      8.2813      2.1065      0.0340     32.9404     24.1130    127.1513
  1600.4000      8.2813      1.9875     -0.0068     40.1486     21.8174    130.2375
  1600.5000      8.3157      1.8541     -0.0457     48.2355     19.4136    133.7591
  1600.6000      8.3157      1.7297     -0.0812     55.7783     16.8432    134.6565
  1600.7000      8.3157      1.6316     -0.0905     61.7237     14.0017    131.7318
  1600.8000      8.3599      1.5496     -0.0247     66.6934     11.1786    125.3006
  1600.9000      8.3599      1.4629     -0.0531     71.9437      8.8490    115.2488
  1601.0000      8.4242      1.3819     -0.0853     76.8544      7.2824    102.8803
  1601.1000      8.4242      1.3440     -0.0364     79.1507      6.4270     91.6704
  1601.2000      8.4242      1.3777      0.0457     77.1092      6.1135     87.0116
  1601.3000      8.5263      1.4725      0.1793     71.3658      6.3403     90.4639
  1601.4000      8.5263      1.5873      0.2261     64.4038      7.1905     98.1316
  1601.5000      8.6256      1.7032      0.2183     57.3827      8.6167    105.5076
  1601.6000      8.6256      1.8301      0.2818     49.6931     10.3341    109.4415
  1601.7000      8.6256      1.9625      0.3774     41.6647     12.1038    112.8044
  1601.8000      8.6005      2.0747      0.4030     34.8669     13.8656    120.8366
  1601.9000      8.6005      2.1605      0.3397     29.6692     15.5072    128.0771
  1602.0000      8.4617      2.2405      0.3205     24.8182     16.9420    127.0868
  1602.1000      8.4617      2.3246      0.3200     19.7235     18.0212    121.5422
  1602.2000      8.4617      2.3941      0.3557     15.5063     18.6913    118.3558
  1602.3000      8.3639      2.4278      0.2820     13.4637     19.1834    118.5700
  1602.4000      8.3639      2.4308      0.2241     13.2861     19.5702    121.7059
  1602.5000      8.3216      2.4217      0.2320     13.8362     19.9732    127.2011
  1602.6000      8.3216      2.4181      0.1393     14.0524     20.4937    129.5554
  1602.7000      8.3216      2.4329      0.1976     13.1582     21.0590    128.1519
  1602.8000      8.2757      2.4560      0.2322     11.7570     21.8299    127.9401
  1602.9000      8.2757      2.4726      0.1720     10.7520     22.7085    128.7641
  1603.0000      8.2355      2.4899      0.1633      9.7014     23.3993    128.3874
  1603.1000      8.2355      2.5123      0.1775      8.3428     23.9468    128.3615
  1603.2000      8.2355      2.5260      0.1751      7.5167     24.3993    129.3410
  1603.3000      8.2215      2.5213      0.1896      7.8020     24.7798    128.8928
  1603.4000      8.2215      2.5105      0.1109      8.4521     24.9743    126.7827
  1603.5000      8.2207      2.5151      0.1005      8.1730     25.0565    125.2485
  1603.6000      8.2207      2.5378      0.0904      6.7980     25.3716    124.1881
  1603.7000      8.2207      2.5629      0.1080      5.2771     25.8438    120.2689
  1603.8000      8.2135      2.5803      0.1100      4.2249     26.1379    111.8556
  1603.9000      8.2135      2.5860      0.1408      3.8787     26.1701    103.6485
  1604.0000      8.1949      2.5808      0.0971      4.1915     26.0372    103.8348
  1604.1000      8.1949      2.5765      0.0995      4.4528     26.0393    112.7350
  1604.2000      8.1949      2.5698      0.0758      4.8624     26.6226    121.6939
  1604.3000      8.1598      2.5468      0.0500      6.2522     27.5853    126.2264
  1604.4000      8.1598      2.5204      0.0329      7.8522     28.3976    129.6186
  1604.5000      8.1226      2.5130      0.0350      8.3022     29.1073    133.9382
  1604.6000      8.1226      2.5245      0.0293      7.6039     29.7826    137.0397
  1604.7000      8.1226      2.5394      0.0137      6.7022     30.2355    138.3797
  1604.8000      8.1049      2.5420      0.0454      6.5464     30.2612    138.2326
  1604.9000      8.1049      2.5244      0.0371      7.6100     29.7872    135.4666
  1605.0000      8.1051      2.4987     -0.0222      9.1687     29.1627    130.5281
  1605.1000      8.1051      2.4777      0.0322     10.4453     28.7227    126.9381
  1605.2000      8.1051      2.4489      0.0271     12.1854     28.3070    126.7510
  1605.3000      8.1187      2.3994      0.0527     15.1886     27.5488    127.5357
  1605.4000      8.1187      2.3347      0.0080     19.1101     26.3674    128.9298
  1605.5000      8.1387      2.2756     -0.0224     22.6921     24.8851    132.6339
  1605.6000      8.1387      2.2421     -0.0545     24.7199     23.2503    137.8996
  1605.7000      8.1387      2.2253      0.0019     25.7423     21.8219    139.3840
  1605.8000      8.1649      2.1888     -0.0074     27.9498     20.6741    135.4280
  1605.9000      8.1649      2.1218     -0.0203     32.0110     19.7287    129.0699
  1606.0000      8.2684      2.0606      0.0275     35.7207     19.2935    122.3706
  1606.1000      8.2684      2.0505      0.0303     36.3334     19.4172    119.7656
  1606.2000      8.2684      2.1074      0.1630     32.8826     19.6477    124.6727
  1606.3000      8.5002      2.2037      0.3201     27.0508     19.9939    132.3087
  1606.4000      8.5002      2.2895      0.3918     21.8492     20.6233    135.1684
  1606.5000      8.7574      2.3366      0.4356     18.9945     21.1221    133.3408
  1606.6000      8.7574      2.3481      0.3779     18.2941     21.2985    131.9034
  1606.7000      8.7574      2.3535      0.3038     17.9713     21.5285    132.3113
  1606.8000      8.8901      2.3860      0.3347     15.9988     21.8317    133.1562
  1606.9000      8.8901      2.4325      0.4970     13.1846     21.8660    134.1408
  1607.0000      8.8425      2.4357      0.5024     12.9892     21.7512    133.3613
  1607.1000      8.8425      2.3766      0.4201     16.5700     21.5947    129.0851
  1607.2000      8.8425      2.3026      0.2903     21.0549     21.4137    124.7868
  1607.3000      8.7682      2.2672      0.2775     23.2004     21.4251    123.9830
  1607.4000      8.7682      2.2820      0.2990     22.3047     21.4097    126.6705
  1607.5000      8.8161      2.3211      0.3244     19.9304     21.2993    130.7463
  1607.6000      8.8161      2.3515      0.3624     18.0911     21.6201    132.5084
  1607.7000      8.8161      2.3569      0.3370     17.7642     22.4732    131.4562
  1607.8000      8.9077      2.3428      0.3426     18.6197     23.3852    129.6095
  1607.9000      8.9077      2.3325      0.3141     19.2448     24.0927    126.5099
  1608.0000      8.8806      2.3478      0.3298     18.3132     24.4451    122.6443
  1608.1000      8.8806      2.3781      0.3494     16.4764     24.2636    122.1995
  1608.2000      8.8806      2.3984      0.2969     15.2471     23.9109    125.6852
  1608.3000      8.7316      2.4135      0.2460     14.3358     23.8308    127.0452
  1608.4000      8.7316      2.4404      0.3068     12.7045     23.9719    123.2709
  1608.5000      8.5740      2.4646      0.3834     11.2359     24.2324    118.4680
  1608.6000      8.5740      2.4549      0.3560     11.8240     24.5667    116.0094
  1608.7000      8.5740      2.4090      0.2384     14.6067     24.8064    114.9746
