~Version Information
VERS.                      2.0: CWLS Log ASCII Standard - VERSION 2.0
WRAP.                       NO: One line per depth step
~Well Information Block
STRT.FT               456.0000: 
STOP.FT              1700.7000: 
STEP.FT                 0.1000: 
NULL.                -999.2500: 
COMP.          Pioneer Natural Resources: COMPANY
WELL.                Mead 11-9: WELL
FLD.           Purgatoire River: FIELD
LOC.           1127' FNL & 668' FWL: LOCATION
PROV.                 Colorado: PROVINCE
CNTY.               Las Animas: COUNTRY
SRVC.                Patterson: SERVICE COMPANY
DATE.          Sat Feb 19 09:18:18 2005: LOG DATE
UWI.           05 071 08160 00: UNIQUE WELL ID
~Curve Information Block
DEPT.FT            0 000 00 00: Depth
DCAL.in                       : CDL Caliper
RHOB.g/cc                     : CDL Bulk Density
RHOC.g/cc                     : CDL Density Correction
DPOR.pu                       : CDL Density Porosity
GR.GAPI                       : Gamma Ray
NPOR.pu                       : Neutron Porosity
~Parameter Information Block
~A  Depth       DCAL        RHOB        RHOC        DPOR         GR         NPOR    
# ...
  1272.0000      7.7905      2.5605      0.0693      5.4268    123.7606     24.3167
  1272.1000      7.7905      2.5461      0.0566      6.2943    131.6768     24.1517
  1272.2000      7.7905      2.5218      0.0013      7.7722    136.8044     23.5089
  1272.3000      7.7962      2.5069      0.0096      8.6716    139.0874     23.1063
  1272.4000      7.7962      2.5064      0.0590      8.7012    140.9671     23.7111
  1272.5000      7.8295      2.5074      0.0811      8.6403    145.2740     24.8879
  1272.6000      7.8295      2.5088      0.0285      8.5570    146.2753     26.0009
  1272.7000      7.8295      2.5164      0.0637      8.0965    143.3780     26.6438
  1272.8000      7.8627      2.5266      0.0504      7.4816    142.2798     26.5349
  1272.9000      7.8627      2.5382      0.0343      6.7788    139.3134     26.0900
  1273.0000      7.8877      2.5412      0.0668      6.5955    132.2720     25.8353
  1273.1000      7.8877      2.5179      0.0846      8.0043    130.0104     25.8070
  1273.2000      7.8877      2.4773      0.0276     10.4658    136.0539     25.9602
  1273.3000      7.8996      2.4463     -0.0021     12.3475    140.5362     26.1973
  1273.4000      7.8996      2.4357      0.0233     12.9863    138.2944     26.4735
  1273.5000      7.8853      2.4412      0.0140     12.6531    136.6828     26.7809
  1273.6000      7.8853      2.4622      0.0094     11.3830    140.7501     26.5972
  1273.7000      7.8853      2.4935      0.0308      9.4875    147.0203     25.4286
  1273.8000      7.8558      2.5153      0.0679      8.1636    148.8718     23.9965
  1273.9000      7.8558      2.5158      0.0419      8.1329    143.3793     23.3622
  1274.0000      7.8337      2.5060      0.0610      8.7267    133.2983     23.5644
  1274.1000      7.8337      2.5065      0.0505      8.6991    125.0196     23.9914
  1274.2000      7.8337      2.5222      0.0642      7.7439    121.6845     24.2905
  1274.3000      7.8195      2.5296      0.0917      7.2944    119.9233     24.4370
  1274.4000      7.8195      2.5159      0.0270      8.1258    116.4582     24.5248
  1274.5000      7.8164      2.5023     -0.0020      8.9514    112.0736     24.6267
  1274.6000      7.8164      2.4961      0.0700      9.3291    107.4398     24.3844
  1274.7000      7.8164      2.4817      0.0192     10.1973    102.0178     23.3280
  1274.8000      7.8160      2.4646     -0.0248     11.2383     97.5684     21.5216
  1274.9000      7.8160      2.4614      0.0094     11.4297     95.4308     19.7827
  1275.0000      7.7999      2.4722      0.0264     10.7728     93.4033     18.8270
  1275.1000      7.7999      2.4848      0.0544     10.0092     90.0427     18.6834
  1275.2000      7.7999      2.4870      0.0251      9.8780     86.0491     18.9373
  1275.3000      7.7759      2.4684      0.0395     11.0090     79.6379     18.7761
  1275.4000      7.7759      2.4284      0.0099     13.4305     71.8112     18.1257
  1275.5000      7.7556      2.3911     -0.0333     15.6887     67.1491     17.8526
  1275.6000      7.7556      2.3762      0.0173     16.5931     64.1670     17.9830
  1275.7000      7.7556      2.3666      0.0384     17.1751     58.1325     17.8445
  1275.8000      7.7525      2.3389      0.0433     18.8568     50.9818     17.5987
  1275.9000      7.7525      2.3014     -0.0110     21.1302     46.6396     17.5773
  1276.0000      7.7501      2.2750      0.0153     22.7296     43.7263     17.5019
  1276.1000      7.7501      2.2654      0.0048     23.3086     41.8186     17.5301
  1276.2000      7.7501      2.2746      0.0031     22.7518     42.1476     17.9600
  1276.3000      7.7292      2.2964      0.0828     21.4298     42.9692     17.8925
  1276.4000      7.7292      2.3141      0.0559     20.3566     43.0130     16.6925
  1276.5000      7.6974      2.3303      0.0568     19.3734     44.0576     15.3504
  1276.6000      7.6974      2.3530      0.0980     18.0030     45.8414     14.6374
  1276.7000      7.6974      2.3702      0.1061     16.9601     45.8987     14.2058
  1276.8000      7.6725      2.3708      0.1111     16.9240     43.6630     13.7533
  1276.9000      7.6725      2.3608      0.0839     17.5287     40.7602     13.6665
  1277.0000      7.6640      2.3513      0.1106     18.1019     38.3428     13.9037
  1277.1000      7.6640      2.3443      0.0814     18.5280     35.2298     13.8293
  1277.2000      7.6640      2.3422      0.0787     18.6516     32.0915     13.6833
  1277.3000      7.6737      2.3475      0.0692     18.3309     32.8291     14.0096
  1277.4000      7.6737      2.3525      0.0675     18.0324     36.1508     14.2534
  1277.5000      7.6907      2.3485      0.0841     18.2698     37.9086     13.9476
  1277.6000      7.6907      2.3356      0.0603     19.0557     38.1492     13.6098
  1277.7000      7.6907      2.3245      0.0297     19.7262     36.9659     13.5925
  1277.8000      7.7007      2.3310      0.0145     19.3333     34.7740     13.5892
  1277.9000      7.7007      2.3547      0.1002     17.8977     34.3927     13.3520
  1278.0000      7.7058      2.3735      0.0917     16.7583     35.2329     13.1750
  1278.1000      7.7058      2.3686      0.0763     17.0539     33.5233     13.0696
  1278.2000      7.7058      2.3486      0.0206     18.2676     29.3251     12.9633
  1278.3000      7.7197      2.3415     -0.0027     18.6968     26.5498     13.2089
  1278.4000      7.7197      2.3549      0.0513     17.8871     27.1641     13.6538
  1278.5000      7.7528      2.3652      0.0747     17.2613     28.7791     13.7307
  1278.6000      7.7528      2.3573      0.0693     17.7396     28.5207     13.4258
  1278.7000      7.7528      2.3399      0.0099     18.7949     27.7101     13.2588
  1278.8000      7.7921      2.3203      0.0508     19.9791     29.2365     13.5946
  1278.9000      7.7921      2.2982     -0.0140     21.3206     32.1584     14.1023
  1279.0000      7.8143      2.2821     -0.0042     22.2952     32.8422     14.1072
  1279.1000      7.8143      2.2826      0.0105     22.2649     31.1485     13.5901
  1279.2000      7.8143      2.2961      0.0239     21.4493     30.1513     13.3709
  1279.3000      7.8088      2.3081      0.0609     20.7215     31.1087     13.6842
  1279.4000      7.8088      2.3137      0.0332     20.3800     33.4229     13.9783
  1279.5000      7.7967      2.3215      0.0145     19.9079     36.0567     14.0802
  1279.6000      7.7967      2.3301      0.0738     19.3853     37.1776     13.9661
  1279.7000      7.7967      2.3332      0.0466     19.1973     37.0364     13.6672
  1279.8000      7.7930      2.3354      0.0267     19.0638     37.6836     13.6111
  1279.9000      7.7930      2.3380      0.0575     18.9067     39.0969     14.1520
  1280.0000      7.7897      2.3396      0.0306     18.8134     40.5482     15.0939
  1280.1000      7.7897      2.3410      0.0604     18.7246     41.1595     15.7219
  1280.2000      7.7897      2.3486     -0.0107     18.2690     40.6877     15.7597
  1280.3000      7.7854      2.3778     -0.0050     16.4969     40.9254     15.8360
  1280.4000      7.7854      2.4244      0.0522     13.6710     43.4064     16.4775
  1280.5000      7.7943      2.4555      0.1002     11.7884     47.6018     17.3639
  1280.6000      7.7943      2.4546      0.0521     11.8419     53.3045     17.9623
  1280.7000      7.7943      2.4409      0.0400     12.6736     57.2978     18.3196
  1280.8000      7.8027      2.4264      0.0716     13.5514     56.9509     18.2039
  1280.9000      7.8027      2.4024      0.0324     15.0068     57.6033     17.1196
  1281.0000      7.7992      2.3704      0.0185     16.9429     60.9656     15.5946
  1281.1000      7.7992      2.3398     -0.0103     18.7974     62.9396     14.5352
  1281.2000      7.7992      2.3174     -0.0882     20.1552     62.3642     14.3119
  1281.3000      7.7967      2.3076     -0.0128     20.7526     58.3010     14.6547
  1281.4000      7.7967      2.3118     -0.0398     20.4991     50.1669     15.1020
  1281.5000      7.8080      2.3323      0.0072     19.2518     40.9681     15.4193
