~Version Information
VERS.                      2.0: CWLS Log ASCII Standard - VERSION 2.0
WRAP.                       NO: One line per depth step
~Well Information Block
STRT.FT               294.0000: 
STOP.FT              1958.0000: 
STEP.FT                 0.1000: 
NULL.                -999.2500: 
COMP.          Pioneer Natural Resources: COMPANY
WELL.          Commander 43-26 Tr: WELL
FLD.           Purgatoire River: FIELD
LOC.           2439' FSL & 446' FEL: LOCATION
PROV.                 Colorado: PROVINCE
CNTY.               Las Animas: COUNTRY
SRVC.                Patterson: SERVICE COMPANY
DATE.          Fri Apr 15 07:31:08 2005: LOG DATE
UWI.           05 071 08341 00: UNIQUE WELL ID
~Curve Information Block
DEPT.FT            0 000 00 00: Depth
DCAL.in                       : CDL Caliper
RHOB.g/cc                     : CDL Bulk Density
RHOC.g/cc                     : CDL Density Correction
DPOR.pu                       : CDL Density Porosity
GR.GAPI                       : Gamma Ray
NPOR.pu                       : Neutron Porosity
~Parameter Information Block
~A  Depth       DCAL        RHOB        RHOC        DPOR         GR         NPOR    
# ...
  1062.0000      8.1200      2.0157      0.0953     38.4451    104.1337     29.2856
  1062.1000      8.1200      1.9974      0.0715     39.5543    107.6682     29.4949
  1062.2000      8.1200      1.9701     -0.0093     41.2074    110.0825     30.0311
  1062.3000      8.1371      1.9548     -0.0015     42.1353    107.3729     30.4405
  1062.4000      8.1371      1.9519      0.0675     42.3074    102.4400     30.4382
  1062.5000      8.1533      1.9327      0.0908     43.4708    100.8358     30.5037
  1062.6000      8.1533      1.8857      0.0761     46.3190    100.7080     31.1724
  1062.7000      8.1533      1.8255      0.0585     49.9699     98.7243     31.8370
  1062.8000      8.1498      1.7594      0.0090     53.9728     94.9707     32.1593
  1062.9000      8.1498      1.6899     -0.0587     58.1854     92.0171     32.7195
  1063.0000      8.1458      1.6327     -0.0774     61.6537     96.2005     33.1503
  1063.1000      8.1458      1.6161     -0.0643     62.6630    107.4723     32.2807
  1063.2000      8.1458      1.6603      0.0006     59.9821    116.2667     30.6235
  1063.3000      8.1904      1.7562      0.0822     54.1691    116.9358     30.1347
  1063.4000      8.1904      1.8750      0.1271     46.9695    114.4301     31.1045
  1063.5000      8.1430      2.0028      0.1351     39.2225    115.3092     31.6921
  1063.6000      8.1430      2.1432      0.2458     30.7157    117.5701     31.0850
  1063.7000      8.1430      2.2811      0.2835     22.3591    116.6650     30.6330
  1063.8000      8.1810      2.3895      0.3154     15.7849    114.6364     31.1974
  1063.9000      8.1810      2.4664      0.2440     11.1266    114.0164     31.7290
  1064.0000      8.1295      2.5218      0.2050      7.7675    113.5155     31.3356
  1064.1000      8.1295      2.5554      0.1045      5.7333    112.8242     30.7060
  1064.2000      8.1295      2.5668      0.0785      5.0423    114.6274     30.1667
  1064.3000      8.0711      2.5685      0.0353      4.9369    118.0418     29.3983
  1064.4000      8.0711      2.5807      0.0233      4.1984    119.8368     28.8664
  1064.5000      8.0231      2.6003      0.0624      3.0145    119.9119     28.3235
  1064.6000      8.0231      2.6039      0.0686      2.7940    120.1716     27.0335
  1064.7000      8.0231      2.5871      0.0613      3.8122    120.0175     25.7192
  1064.8000      8.0286      2.5730      0.0220      4.6696    115.8404     25.3775
  1064.9000      8.0286      2.5787      0.0765      4.3228    108.3472     25.8808
  1065.0000      8.0387      2.5928      0.0838      3.4650    103.8721     26.2241
  1065.1000      8.0387      2.5905      0.0940      3.6046    106.4549     25.6242
  1065.2000      8.0387      2.5566      0.0298      5.6605    110.7388     24.6890
  1065.3000      8.0215      2.5058     -0.0503      8.7410    111.9453     24.1641
  1065.4000      8.0215      2.4628     -0.0312     11.3430    113.1631     24.0459
  1065.5000      8.0155      2.4337     -0.0125     13.1114    113.6609     24.3339
  1065.6000      8.0155      2.4142      0.0152     14.2896    110.3505     25.0615
  1065.7000      8.0155      2.4000     -0.0035     15.1486    107.4501     26.2963
  1065.8000      8.0133      2.3878      0.0424     15.8902    109.2445     27.5427
  1065.9000      8.0133      2.3708      0.0277     16.9222    111.2290     27.4960
  1066.0000      8.0128      2.3393      0.0172     18.8304    108.7546     26.3295
  1066.1000      8.0128      2.3003     -0.0165     21.1922    105.3271     25.5416
  1066.2000      8.0128      2.2779     -0.0399     22.5519    104.6857     25.5041
  1066.3000      8.0336      2.2902      0.0066     21.8067    106.7828     26.1768
  1066.4000      8.0336      2.3420     -0.0251     18.6646    110.6999     27.3377
  1066.5000      8.0527      2.4125      0.0779     14.3959    113.8966     27.9630
  1066.6000      8.0527      2.4610      0.0655     11.4561    114.0872     27.4389
  1066.7000      8.0527      2.4856      0.0242      9.9608    113.6326     26.2347
  1066.8000      8.0432      2.5218      0.0227      7.7715    116.2373     25.4721
  1066.9000      8.0432      2.5726      0.1278      4.6925    122.0791     25.7614
  1067.0000      8.0232      2.5994      0.1205      3.0685    127.7795     26.6594
  1067.1000      8.0232      2.5842      0.0941      3.9900    131.0738     27.7154
  1067.2000      8.0232      2.5513      0.0369      5.9813    133.2737     28.5179
  1067.3000      8.0201      2.5251      0.0675      7.5688    133.4603     28.1743
  1067.4000      8.0201      2.5083      0.0434      8.5858    131.1499     26.9773
  1067.5000      8.0177      2.4967      0.0217      9.2934    128.5010     26.3433
  1067.6000      8.0177      2.4811      0.0578     10.2387    124.2994     26.7082
  1067.7000      8.0177      2.4564     -0.0222     11.7345    119.9374     27.4527
  1067.8000      8.0610      2.4134      0.0560     14.3406    120.9654     28.0781
  1067.9000      8.0610      2.3252      0.0046     19.6870    126.4856     28.5668
  1068.0000      8.0939      2.2057     -0.0843     26.9296    131.7797     28.8865
  1068.1000      8.0939      2.1085     -0.0768     32.8209    135.4197     28.8630
  1068.2000      8.0939      2.0500     -0.0220     36.3620    135.8877     28.6530
  1068.3000      8.1005      2.0174     -0.0402     38.3410    132.2661     28.5669
  1068.4000      8.1005      2.0116     -0.0471     38.6932    128.3824     28.5957
  1068.5000      8.0613      2.0341      0.0027     37.3248    128.1596     28.8116
  1068.6000      8.0613      2.0830     -0.0008     34.3647    131.1291     29.3872
  1068.7000      8.0613      2.1612      0.1326     29.6229    132.2717     29.9612
  1068.8000      8.0653      2.2536      0.2271     24.0229    129.7117     30.0433
  1068.9000      8.0653      2.3299      0.2995     19.3981    128.6270     29.8908
  1069.0000      8.1472      2.3810      0.1563     16.3043    131.5395     30.2719
  1069.1000      8.1472      2.4116      0.1004     14.4499    133.6778     31.2263
  1069.2000      8.1472      2.4145      0.0379     14.2741    129.5008     32.2000
  1069.3000      8.2269      2.3935      0.0203     15.5463    123.6449     32.4909
  1069.4000      8.2269      2.3748     -0.0392     16.6815    124.0587     31.7733
  1069.5000      8.1045      2.3707      0.0302     16.9255    128.3081     30.5332
  1069.6000      8.1045      2.3621      0.0202     17.4515    129.2185     29.5894
  1069.7000      8.1045      2.3368      0.0216     18.9806    124.3089     29.2786
  1069.8000      8.1020      2.3105     -0.0447     20.5755    115.5836     29.2796
  1069.9000      8.1020      2.3044      0.0285     20.9466    107.9198     29.4774
  1070.0000      8.1174      2.3195      0.0058     20.0303    105.2026     29.6971
  1070.1000      8.1174      2.3352      0.0598     19.0769    106.2917     29.3786
  1070.2000      8.1174      2.3399      0.0664     18.7915    107.4794     28.5798
  1070.3000      8.2070      2.3547      0.0073     17.8966    108.4295     28.3963
  1070.4000      8.2070      2.3942      0.0810     15.5058    111.1291     29.0357
  1070.5000      8.1524      2.4407      0.0777     12.6827    114.5899     29.1170
  1070.6000      8.1524      2.4859      0.0367      9.9484    117.1570     28.3046
  1070.7000      8.1524      2.5295      0.1344      7.3021    121.7984     27.8885
  1070.8000      8.0987      2.5488      0.1262      6.1326    131.4747     28.4020
  1070.9000      8.0987      2.5353      0.0856      6.9518    139.0271     28.7761
  1071.0000      8.0595      2.5144      0.0628      8.2185    139.9221     28.0268
  1071.1000      8.0595      2.5052      0.1000      8.7772    140.2149     27.1173
  1071.2000      8.0595      2.5119      0.0841      8.3673    139.9710     27.2698
  1071.3000      8.0760      2.5360      0.0931      6.9092    136.2267     28.0396
  1071.4000      8.0760      2.5594      0.0915      5.4901    133.1252     28.7060
  1071.5000      8.0822      2.5508      0.1175      6.0133    131.9515     28.9091
