~Version Information
VERS.                      2.0: CWLS Log ASCII Standard - VERSION 2.0
WRAP.                       NO: One line per depth step
~Well Information Block
STRT.FT               -11.2500: 
STOP.FT              1767.0000: 
STEP.FT                 0.2500: 
NULL.                -999.2500: 
COMP.          Petrogulf Corporation: COMPANY
WELL.             McLeod 9-42R: WELL
FLD.           Purgatoire River: FIELD
LOC.           1748' FNL & 372' FEL--: LOCATION
PROV.                 Colorado: PROVINCE
CNTY.               Las Animas: COUNTRY
SRVC.                         : SERVICE COMPANY
DATE.          Thu Sep 29 13:28:07 2005: LOG DATE
UWI.                          : UNIQUE WELL ID
~Curve Information Block
DEPT.FT            0 000 00 00: Depth
GR.GAPI                       : Gamma Ray
CCL.                          : Casing Collar Locator
AMP3.mV                       : CBL 3' Amplitude
AMP5.mV                       : CBL 5' Amplitude
~Parameter Information Block
~A  Depth        GR         CCL         AMP3        AMP5    
# ...
   457.7500     87.7702      0.0000      1.0567      0.4318
   458.0000     88.1086      0.0000      1.1338      0.4241
   458.2500     87.4189      0.0000      1.1660      0.4194
   458.5000     86.9543      0.0000      1.1401      0.4057
   458.7500     87.6903      0.0000      1.0730      0.3751
   459.0000     89.1374      0.0000      0.9888      0.3323
   459.2500     89.7941      0.0000      0.9019      0.2926
   459.5000     88.7119      0.0000      0.8252      0.2722
   459.7500     86.3556      0.0000      0.7838      0.2759
   460.0000     84.0902      0.0000      0.8034      0.2963
   460.2500     83.1056      0.0000      0.8823      0.3224
   460.5000     83.7118      0.0000      0.9816      0.3479
   460.7500     85.3713      0.0000      1.0503      0.3716
   461.0000     87.2810      0.0000      1.0577      0.3926
   461.2500     88.9143      0.0000      1.0042      0.4094
   461.5000     90.0871      0.0000      0.9098      0.4200
   461.7500     90.5665      0.0000      0.8001      0.4233
   462.0000     89.6856      0.0000      0.7047      0.4196
   462.2500     86.6317      0.0000      0.6546      0.4110
   462.5000     81.4625      0.0000      0.6709      0.3995
   462.7500     75.6637      0.0000      0.7527      0.3861
   463.0000     71.2050      0.0000      0.8747      0.3729
   463.2500     68.9197      0.0000      0.9960      0.3675
   463.5000     67.9530      0.0000      1.0788      0.3800
   463.7500     66.7074      0.0000      1.1100      0.4123
   464.0000     64.2194      0.0000      1.1070      0.4519
   464.2500     60.8280      0.0000      1.0986      0.4818
   464.5000     57.6194      0.0000      1.1021      0.4958
   464.7500     55.1912      0.0000      1.1188      0.5014
   465.0000     53.1902      0.0000      1.1495      0.5087
   465.2500     51.2295      0.0000      1.2054      0.5195
   465.5000     49.8442      0.0000      1.2963      0.5307
   465.7500     50.0285      0.0000      1.4103      0.5415
   466.0000     51.8245      0.0000      1.5107      0.5562
   466.2500     53.7397      0.0000      1.5563      0.5778
   466.5000     53.9576      0.0000      1.5287      0.6010
   466.7500     52.1556      0.0000      1.4440      0.6138
   467.0000     49.7589      0.0000      1.3423      0.6086
   467.2500     48.2743      0.0000      1.2624      0.5926
   467.5000     47.7539      0.0000      1.2210      0.5811
   467.7500     47.1165      0.0000      1.2131      0.5794
   468.0000     45.6183      0.0000      1.2296      0.5762
   468.2500     43.6531      0.0000      1.2677      0.5575
   468.5000     42.2376      0.0000      1.3246      0.5245
   468.7500     42.0195      0.0000      1.3890      0.4932
   469.0000     42.8428      0.0000      1.4462      0.4775
   469.2500     44.1066      0.0000      1.4899      0.4763
   469.5000     45.3188      0.0000      1.5246      0.4762
   469.7500     46.3112      0.0000      1.5616      0.4644
   470.0000     47.1383      0.0000      1.6104      0.4389
   470.2500     47.8927      0.0000      1.6672      0.4097
   470.5000     48.5038      0.0000      1.7144      0.3920
   470.7500     48.6498      0.0000      1.7369      0.3934
   471.0000     48.0060      0.0000      1.7362      0.4069
   471.2500     46.5903      0.0000      1.7248      0.4175
   471.5000     44.7158      0.0000      1.7129      0.4183
   471.7500     42.7126      0.0000      1.7060      0.4155
   472.0000     40.9061      0.0000      1.7072      0.4161
   472.2500     39.6716      0.0000      1.7171      0.4154
   472.5000     39.2297      0.0000      1.7383      0.4018
   472.7500     39.5009      0.0000      1.7806      0.3722
   473.0000     40.2955      0.0000      1.8531      0.3381
   473.2500     41.4675      0.0000      1.9486      0.3145
   473.5000     42.7935      0.0000      2.0422      0.3055
   473.7500     43.9514      0.0000      2.1054      0.3001
   474.0000     44.8819      0.0000      2.1187      0.2834
   474.2500     46.1563      0.0000      2.0733      0.2509
   474.5000     48.7003      0.0000      1.9717      0.2115
   474.7500     52.9999      0.0000      1.8303      0.1777
   475.0000     58.7241      0.0000      1.6755      0.1542
   475.2500     65.1507      0.0000      1.5290      0.1388
   475.5000     71.6616      0.0000      1.3955      0.1280
   475.7500     77.6819      0.0000      1.2653      0.1195
   476.0000     82.5286      0.0000      1.1262      0.1099
   476.2500     85.7385      0.0000      0.9747      0.0958
   476.5000     87.4390      0.0000      0.8210      0.0768
   476.7500     88.1891      0.0000      0.6904      0.0584
   477.0000     88.6169      0.0000      0.6162      0.0510
   477.2500     89.3132      0.0000      0.6246      0.0610
   477.5000     90.8034      0.0000      0.7201      0.0819
   477.7500     93.3640      0.0000      0.8840      0.0976
   478.0000     96.7160      0.0000      1.0819      0.0964
   478.2500     99.7509      0.0000      1.2741      0.0811
   478.5000    100.9360      0.0000      1.4311      0.0623
   478.7500     99.7062      0.0000      1.5481      0.0459
   479.0000     97.3803      0.0000      1.6420      0.0291
   479.2500     96.0813      0.0000      1.7317      0.0078
   479.5000     96.8141      0.0000      1.8251     -0.0134
   479.7500     98.9544      0.0000      1.9211     -0.0233
   480.0000    101.2740      0.0000      2.0173     -0.0144
   480.2500    102.9340      0.0000      2.1131      0.0094
   480.5000    103.5841      0.0000      2.2063      0.0362
   480.7500    102.9670      0.0000      2.2905      0.0555
   481.0000    100.8184      0.0000      2.3548      0.0638
   481.2500     97.4616      0.0000      2.3847      0.0626
   481.5000     94.3717      0.0000      2.3683      0.0562
   481.7500     93.5421      0.0000      2.3068      0.0500
   482.0000     95.8417      0.0000      2.2212      0.0497
   482.2500    100.0132      0.0000      2.1424      0.0588
   482.5000    103.4950      0.0000      2.0921      0.0777
   482.7500    104.4250      0.0000      2.0741      0.1035
   483.0000    102.9210      0.0000      2.0836      0.1299
   483.2500    100.5141      0.0000      2.1175      0.1502
   483.5000     98.7195      0.0000      2.1721      0.1646
   483.7500     98.2280      0.0000      2.2340      0.1811
   484.0000     98.7092      0.0000      2.2780      0.2064
   484.2500     98.9292      0.0000      2.2783      0.2347
   484.5000     97.5858      0.0000      2.2262      0.2486
   484.7500     94.4971      0.0000      2.1386      0.2334
   485.0000     90.8310      0.0000      2.0498      0.1921
   485.2500     88.0735      0.0000      1.9889      0.1449
   485.5000     86.8570      0.0000      1.9626      0.1122
   485.7500     86.7681      0.0000      1.9594      0.0993
   486.0000     87.0144      0.0000      1.9686      0.0987
   486.2500     86.9775      0.0000      1.9860      0.1049
   486.5000     86.2197      0.0000      1.9992      0.1219
   486.7500     84.4957      0.0000      1.9819      0.1534
   487.0000     82.1498      0.0000      1.9088      0.1904
   487.2500     80.3364      0.0000      1.7757      0.2145
   487.5000     80.4556      0.0000      1.6096      0.2134
   487.7500     83.1912      0.0000      1.4649      0.1912
   488.0000     88.0164      0.0000      1.3914      0.1606
   488.2500     93.4186      0.0000      1.3916      0.1318
   488.5000     97.5834      0.0000      1.4191      0.1080
   488.7500     99.3224      0.0000      1.4289      0.0907
   489.0000     98.7485      0.0000      1.4099      0.0826
   489.2500     97.0171      0.0000      1.3639      0.0862
   489.5000     95.2689      0.0000      1.2868      0.0984
   489.7500     93.8551      0.0000      1.1841      0.1102
   490.0000     92.4603      0.0000      1.0839      0.1150
   490.2500     90.7503      0.0000      1.0191      0.1149
   490.5000     88.9404      0.0000      1.0092      0.1178
   490.7500     87.7538      0.0000      1.0593      0.1268
   491.0000     87.5648      0.0000      1.1600      0.1375
