~Version Information
VERS.                      2.0: CWLS Log ASCII Standard - VERSION 2.0
WRAP.                       NO: One line per depth step
~Well Information Block
STRT.FT               580.0000: 
STOP.FT              1756.7500: 
STEP.FT                 0.2500: 
NULL.                -999.2500: 
COMP.          Pioneer Natural Resources: COMPANY
WELL.          Lookout Point 31-23 Tr: WELL
FLD.           Purgatoire River: FIELD
LOC.           541' FNL & 1786' FEL: LOCATION
PROV.                 Colorado: PROVINCE
CNTY.               Las Animas: COUNTRY
SRVC.                Patterson: SERVICE COMPANY
DATE.          Sun Jan 23 04:14:25 2005: LOG DATE
UWI.           05 071 08260 00: UNIQUE WELL ID
~Curve Information Block
DEPT.FT            0 000 00 00: Depth
DIR.Ohm-m                     : IEL Induction Resistivity
GR.GAPI                       : Gamma Ray
SN.Ohm-m                      : IEL Short Normal
SP.mV                         : IEL Spontaneous Potential
~Parameter Information Block
~A  Depth       DIR          GR          SN          SP     
# ...
  1652.0000      7.9584    171.0171      8.7304    188.4892
  1652.2500      7.8454    168.7549      8.7406    188.2814
  1652.5000      7.7594    162.9635      8.7570    188.0023
  1652.7500      7.6920    157.9601      8.7737    187.6950
  1653.0000      7.6387    150.6801      8.7911    187.3984
  1653.2500      7.6010    146.8617      8.8099    187.1363
  1653.5000      7.5852    142.8204      8.8375    186.9089
  1653.7500      7.5995    140.9102      8.8902    186.6924
  1654.0000      7.6502    139.0224      8.9843    186.4472
  1654.2500      7.7389    138.5271      9.1241    186.1308
  1654.5000      7.8624    138.6361      9.2982    185.7099
  1654.7500      8.0134    138.6789      9.4830    185.1662
  1655.0000      8.1834    137.7837      9.6557    184.4946
  1655.2500      8.3644    136.4943      9.8080    183.6971
  1655.5000      8.5516    133.9771      9.9511    182.7775
  1655.7500      8.7443    132.1493     10.1075    181.7378
  1656.0000      8.9448    129.5485     10.2968    180.5785
  1656.2500      9.1563    128.2144     10.5273    179.2999
  1656.5000      9.3795    127.2113     10.7954    177.9054
  1656.7500      9.6103    127.0712     11.0870    176.4069
  1657.0000      9.8409    126.8150     11.3801    174.8330
  1657.2500     10.0630    126.2234     11.6465    173.2379
  1657.5000     10.2716    125.0571     11.8568    171.7069
  1657.7500     10.4668    124.8377     11.9848    170.3516
  1658.0000     10.6514    126.3460     12.0089    169.2929
  1658.2500     10.8260    128.4771     11.9142    168.6340
  1658.5000     10.9849    132.3321     11.6985    168.4316
  1658.7500     11.1157    134.7210     11.3773    168.6789
  1659.0000     11.2048    137.2210     10.9814    169.3081
  1659.2500     11.2424    137.8210     10.5496    170.2142
  1659.5000     11.2260    137.1164     10.1267    171.2904
  1659.7500     11.1584    136.0935      9.7685    172.4597
  1660.0000     11.0452    135.0559      9.5431    173.6889
  1660.2500     10.8929    135.3079      9.5170    174.9769
  1660.5000     10.7100    137.5919      9.7212    176.3279
  1660.7500     10.5063    140.4332     10.1147    177.7243
  1661.0000     10.2909    146.6027     10.5785    179.1158
  1661.2500     10.0715    151.9604     10.9644    180.4290
  1661.5000      9.8537    161.7461     11.1722    181.5875
  1661.7500      9.6436    168.9818     11.1974    182.5300
  1662.0000      9.4499    178.9071     11.1149    183.2143
  1662.2500      9.2848    183.3262     11.0210    183.6089
  1662.5000      9.1630    184.8616     10.9848    183.6800
  1662.7500      9.0991    182.7528     11.0300    183.3844
  1663.0000      9.1060    177.4606     11.1467    182.6727
  1663.2500      9.1934    174.1928     11.3185    181.4992
  1663.5000      9.3692    170.5947     11.5508    179.8367
  1663.7500      9.6401    168.1556     11.8795    177.6899
  1664.0000     10.0108    161.8389     12.3479    175.1092
  1664.2500     10.4815    154.7119     12.9728    172.2028
  1664.5000     11.0426    139.4163     13.7241    169.1420
  1664.7500     11.6710    127.2588     14.5341    166.1531
  1665.0000     12.3300    109.6812     15.3326    163.4931
  1665.2500     12.9754    100.6229     16.0873    161.4121
  1665.5000     13.5628     93.3954     16.8139    160.1155
  1665.7500     14.0539     93.2173     17.5379    159.7341
  1666.0000     14.4196     99.6156     18.2326    160.3066
  1666.2500     14.6417    107.6047     18.7919    161.7713
  1666.5000     14.7134    122.3526     19.0674    163.9676
  1666.7500     14.6399    131.6770     18.9426    166.6507
  1667.0000     14.4372    141.6290     18.3910    169.5248
  1667.2500     14.1332    144.9538     17.4891    172.2920
  1667.5000     13.7653    145.8124     16.3895    174.7057
  1667.7500     13.3737    144.5632     15.2731    176.6090
  1668.0000     12.9920    141.7375     14.2981    177.9468
  1668.2500     12.6419    140.2996     13.5657    178.7496
  1668.5000     12.3352    140.0602     13.1098    179.1006
  1668.7500     12.0793    140.9919     12.9081    179.1002
  1669.0000     11.8830    142.0734     12.8995    178.8391
  1669.2500     11.7544    141.2729     13.0043    178.3846
  1669.5000     11.6961    137.0700     13.1448    177.7820
  1669.7500     11.6985    133.1369     13.2634    177.0672
  1670.0000     11.7398    128.3664     13.3318    176.2847
  1670.2500     11.7939    127.2679     13.3486    175.5022
  1670.5000     11.8414    128.8595     13.3263    174.8108
  1670.7500     11.8746    131.0062     13.2714    174.3049
  1671.0000     11.8944    133.7698     13.1759    174.0500
  1671.2500     11.9032    134.6927     13.0246    174.0544
  1671.5000     11.8994    134.7440     12.8121    174.2620
  1671.7500     11.8789    134.2234     12.5492    174.5730
  1672.0000     11.8399    133.1150     12.2575    174.8808
  1672.2500     11.7875    132.2386     11.9681    175.1074
  1672.5000     11.7334    130.7595     11.7310    175.2221
  1672.7500     11.6898    130.0025     11.6132    175.2405
  1673.0000     11.6648    130.3125     11.6694    175.2103
  1673.2500     11.6606    131.8294     11.9019    175.1920
  1673.5000     11.6753    135.2818     12.2488    175.2407
  1673.7500     11.7052    137.4680     12.6174    175.3905
  1674.0000     11.7466    139.6020     12.9317    175.6449
  1674.2500     11.7959    140.2318     13.1522    175.9752
  1674.5000     11.8514    140.3283     13.2667    176.3259
  1674.7500     11.9139    140.0848     13.2803    176.6260
  1675.0000     11.9875    139.7622     13.2242    176.8002
  1675.2500     12.0793    139.7493     13.1625    176.7783
  1675.5000     12.1987    140.0260     13.1714    176.5031
  1675.7500     12.3564    140.4569     13.3025    175.9394
  1676.0000     12.5632    141.7135     13.5603    175.0825
  1676.2500     12.8281    142.7575     13.9086    173.9609
  1676.5000     13.1559    143.2342     14.2994    172.6325
  1676.7500     13.5437    141.8668     14.7002    171.1718
  1677.0000     13.9783    136.7915     15.1063    169.6572
  1677.2500     14.4358    132.0049     15.5385    168.1608
  1677.5000     14.8875    124.5222     16.0281    166.7453
  1677.7500     15.3120    120.2940     16.5990    165.4635
  1678.0000     15.7039    116.1395     17.2553    164.3566
  1678.2500     16.0722    114.9587     17.9765    163.4513
  1678.5000     16.4294    114.7623     18.7143    162.7563
  1678.7500     16.7816    114.8933     19.3979    162.2619
  1679.0000     17.1262    114.8021     19.9576    161.9406
  1679.2500     17.4573    114.7759     20.3586    161.7491
  1679.5000     17.7702    115.1801     20.6175    161.6307
  1679.7500     18.0629    115.4133     20.7923    161.5215
  1680.0000     18.3376    114.7277     20.9514    161.3648
  1680.2500     18.6036    113.5434     21.1428    161.1284
  1680.5000     18.8775    111.8526     21.3796    160.8159
  1680.7500     19.1720    111.5002     21.6518    160.4612
  1681.0000     19.4792    111.9453     21.9465    160.1058
  1681.2500     19.7650    111.9033     22.2610    159.7701
  1681.5000     19.9894    109.5518     22.6090    159.4353
  1681.7500     20.1402    106.1976     23.0196    159.0444
  1682.0000     20.2505     99.3538     23.5261    158.5182
  1682.2500     20.3829     94.1136     24.1473    157.7754
  1682.5000     20.5955     85.3639     24.8710    156.7476
  1682.7500     20.9153     78.8849     25.6542    155.3884
  1683.0000     21.3321     68.7845     26.4422    153.6788
  1683.2500     21.8108     62.5091     27.2009    151.6348
  1683.5000     22.3125     54.8856     27.9339    149.3119
  1683.7500     22.8135     51.2786     28.6581    146.8033
  1684.0000     23.3084     47.8921     29.3566    144.2339
  1684.2500     23.7953     46.5643     29.9598    141.7544
  1684.5000     24.2555     45.0326     30.3742    139.5428
  1684.7500     24.6421     43.9688     30.5215    137.8092
  1685.0000     24.8844     42.4374     30.3471    136.7881
  1685.2500     24.9031     41.8369     29.8099    136.7052
