~Version Information
VERS.                                  2.0 : CWLS LAS VERSION
WRAP.                                   NO : WRAPING MODE
SWARE .                 MController 2.5.0E : SOFTWARE VERSION
~Well Information
WELL.                         Warrior 32-1 : WELL
COMP.             Evergreen Operating Corp : COMPANY
FLD.                      Purgatorie River : FIELD
LOC.                SW/NE Sec 11 T33S R67W : LOCATION
DATE.                    10/02/04-10/03/04 : DATE(S) LOGGED
SRVC.       Blanco Geological Services LLC : SERVICE COMPANY
STAT.                                   CO : STATE
CNTY.                           Las Animas : COUNTY
CTRY.                                  USA : COUNTRY
API.                       05-071-08176-00 : API NUMBER
STRT.FT                             386.00 : START DEPTH
STOP.FT                            2265.00 : STOP DEPTH
STEP.FT                               1.00 : DEPTH INCREMENT
NULL.                                -9999 : NULL VALUE
~Curve information
DEPTH.FT                                   :
ROP.MIN/FT                                 :
GAS.UNITS                                  :
~ASCII Log data
      386.00    -9999.000          1.2
      387.00        0.267          1.2
      388.00        0.267          0.8
      389.00        0.300          1.1
      390.00        0.133          0.6
      391.00        0.167          0.7
      392.00        0.133          0.5
      393.00        0.200          1.1
      394.00        0.267          0.9
      395.00        0.233          0.7
      396.00        0.200          0.9
      397.00        0.200          1.0
      398.00        0.233          1.0
      399.00        0.167          0.7
      400.00        0.167          1.2
      401.00        0.200          1.2
      402.00        0.183          0.9
      403.00        0.100          0.9
      404.00        0.133          0.8
      405.00        0.133          0.8
      406.00        0.100          0.7
      407.00        0.100          0.7
      408.00        0.067          0.5
      409.00        0.133          0.8
      410.00        0.167          0.4
      411.00        0.100          0.4
      412.00        0.233          0.7
      413.00        0.267          0.6
      414.00        0.267          0.8
      415.00        0.267          1.0
      416.00        2.217          1.2
      417.00        0.267          0.7
      418.00        0.200          0.4
      419.00        0.233          0.1
      420.00        0.200          0.5
      421.00        0.200          0.3
      422.00        0.167          0.6
      423.00        0.133          1.1
      424.00        0.133          1.4
      425.00        0.100          1.1
      426.00        0.133          1.1
      427.00        0.133          1.1
      428.00        0.150          1.2
      429.00        0.133          1.2
      430.00        0.100          1.1
      431.00        0.133          1.8
      432.00        0.167          1.2
      433.00        0.133          1.1
      434.00        0.133          1.1
      435.00        0.100          1.1
      436.00        0.133          0.8
      437.00        0.100          0.4
      438.00        0.100          0.4
      439.00        0.100          0.8
      440.00        0.133          0.8
      441.00        0.133          0.7
      442.00        0.100          0.7
      443.00        0.133          0.6
      444.00        0.133          0.6
      445.00        0.100          0.1
      446.00        2.517          1.0
      447.00        0.267          1.0
      448.00        0.200          0.9
      449.00        0.167          0.9
      450.00        0.167          0.7
      451.00        0.167          0.9
      452.00        0.167          0.9
      453.00        0.167          0.8
      454.00        0.133          0.6
      455.00        0.167          1.1
      456.00        0.133          1.0
      457.00        0.167          1.1
      458.00        0.167          1.4
      459.00        0.150          1.0
      460.00        0.167          0.9
      461.00        0.133          1.3
      462.00        0.133          1.0
      463.00        0.167          1.2
      464.00        0.200          1.1
      465.00        0.133          1.1
      466.00        0.133          1.2
      467.00        0.167          1.2
      468.00        0.133          1.2
      469.00        0.167          1.4
      470.00        0.133          1.4
      471.00        0.133          1.4
      472.00        0.167          1.4
      473.00        0.133          1.3
      474.00        0.133          1.3
      475.00        0.133          1.9
      476.00        2.383          2.1
      477.00        0.200          1.2
      478.00        0.100          1.5
      479.00        0.200          1.7
      480.00        0.167          1.8
      481.00        0.133          1.8
      482.00        0.133          1.9
      483.00        0.167          2.1
      484.00        0.233          2.4
      485.00        0.133          1.6
      486.00        0.167         23.1
      487.00        0.167        128.1
      488.00        0.183        141.0
      489.00        0.200         57.3
      490.00        0.133         39.6
      491.00        0.100         38.9
      492.00        0.133         38.8
      493.00        0.167         37.7
      494.00        0.167         38.3
      495.00        0.100         38.3
      496.00        0.100         34.5
      497.00        0.100         34.5
      498.00        0.100         34.5
      499.00        0.133         30.5
      500.00        0.133         30.5
      501.00        0.133         25.4
      502.00        0.133         25.4
      503.00        0.133         22.0
      504.00        0.133         22.0
      505.00        0.133         19.0
      506.00        2.950        387.1
      507.00        0.133        143.9
      508.00        0.200        129.8
      509.00        0.200         95.0
      510.00        0.200         62.6
      511.00        0.200         51.1
      512.00        0.167         44.9
      513.00        0.183         37.9
      514.00        0.167         37.1
      515.00        0.167         36.2
      516.00        0.167         34.8
      517.00        0.167         33.7
      518.00        0.167         29.0
      519.00        0.100         29.7
      520.00        0.100         29.8
      521.00        0.133         30.2
      522.00        0.167         29.7
      523.00        0.133         31.1
      524.00        0.167         31.1
      525.00        0.167         30.0
      526.00        0.200         25.5
      527.00        0.133         21.3
      528.00        0.133         21.3
      529.00        0.167         18.4
      530.00        0.133         18.4
      531.00        0.133         17.2
      532.00        0.133         17.2
      533.00        0.133         17.0
      534.00        0.133         17.0
      535.00        2.550        140.1
      536.00        0.200        107.0
      537.00        0.233         98.8
      538.00        0.200         78.9
      539.00        0.167         61.7
      540.00        0.117         54.8
      541.00        0.133         49.7
      542.00        0.200         43.8
      543.00        0.167         41.4
      544.00        0.200         39.4
      545.00        0.167         35.0
      546.00        0.167         30.0
      547.00        0.100         28.5
      548.00        0.133         27.4
      549.00        0.133         27.4
      550.00        0.133         26.4
      551.00        0.133         25.5
      552.00        0.133         25.2
      553.00        0.133         25.2
      554.00        0.167         25.4
      555.00        0.200         24.6
      556.00        0.233         22.8
      557.00        0.300         24.1
      558.00        0.133         25.2
      559.00        0.133         19.9
      560.00        0.167         20.4
      561.00        0.183         17.9
      562.00        0.233         14.8
      563.00        0.233         14.3
      564.00        0.267         13.3
      565.00        0.133         13.3
      566.00        2.233        102.7
      567.00        0.250         78.0
      568.00        0.200         64.7
      569.00        0.133         53.6
      570.00        0.100         53.6
      571.00        0.167         52.5
      572.00        0.100         44.0
      573.00        0.133         41.2
      574.00        0.200         39.3
      575.00        0.167         39.0
      576.00        0.167         32.8
      577.00        0.133         31.2
      578.00        0.100         30.0
      579.00        0.233         29.4
      580.00        0.167         27.7
      581.00        0.167         27.6
      582.00        0.167         27.8
      583.00        0.133         27.4
      584.00        0.133         25.8
      585.00        0.167         25.8
      586.00        0.167         24.7
      587.00        0.167         23.2
      588.00        0.150         19.9
      589.00        0.167         17.4
      590.00        0.133         17.4
      591.00        0.133         14.6
