~Version Information
VERS.                      2.0: CWLS Log ASCII Standard - VERSION 2.0
WRAP.                       NO: One line per depth step
~Well Information Block
STRT.FT               563.6000: 
STOP.FT              2133.0000: 
STEP.FT                 0.1000: 
NULL.                -999.2500: 
COMP.          Petrogulf Corporation: COMPANY
WELL.             State 16-43V: WELL
FLD.           Purgatorie River: FIELD
LOC.           2437' FSL & 734' FEL: LOCATION
CNTY.               Las Animas: COUNTY
SRVC.                         : SERVICE COMPANY
DATE.          Mon Dec 06 06:01:26 2004: LOG DATE
UWI.           05 071 08015 00: UNIQUE WELL ID
STAT.                 Colorado: STATE
~Curve Information Block
DEPT.FT            0 000 00 00: Depth
DCAL.in                       : CDL Caliper
RHOB.g/cc                     : CDL Bulk Density
RHOC.g/cc                     : CDL Density Correction
DPOR.pu                       : CDL Density Porosity
GR.GAPI                       : Gamma Ray
NPOR.pu                       : Neutron Porosity
~Parameter Information Block
~A  Depth       DCAL        RHOB        RHOC        DPOR         GR         NPOR    
# ...
   784.4000      8.1378      2.5675      0.1304      4.9992    126.7898     23.9596
   784.5000      8.1670      2.5874      0.0521      3.7958    132.1554     23.7645
   784.6000      8.1670      2.5988      0.0905      3.1059    136.7312     23.6334
   784.7000      8.1670      2.5927      0.0795      3.4709    139.4297     23.9390
   784.8000      8.2323      2.5749      0.0651      4.5541    142.5573     24.6673
   784.9000      8.2323      2.5613      0.0945      5.3731    146.2148     25.1785
   785.0000      8.2121      2.5489      0.0811      6.1279    149.2706     25.1894
   785.1000      8.2121      2.5256      0.0253      7.5369    152.1115     25.1275
   785.2000      8.2121      2.4972     -0.0322      9.2627    152.8013     25.1283
   785.3000      8.2351      2.4749     -0.0095     10.6106    148.6974     24.7903
   785.4000      8.2351      2.4599     -0.0437     11.5202    142.0623     23.9694
   785.5000      8.1971      2.4436      0.0239     12.5092    139.0658     23.1277
   785.6000      8.1971      2.4193      0.0073     13.9818    141.9487     22.5491
   785.7000      8.1971      2.3936     -0.0129     15.5420    147.0823     22.0132
   785.8000      8.2024      2.3759      0.0023     16.6095    149.1210     21.5243
   785.9000      8.2024      2.3686     -0.0802     17.0535    146.5589     21.2834
   786.0000      8.2901      2.3696     -0.0061     16.9955    142.8275     21.2462
   786.1000      8.2901      2.3671      0.0117     17.1446    141.1926     21.2544
   786.2000      8.2901      2.3502      0.0385     18.1714    140.1080     21.0464
   786.3000      8.3198      2.3224      0.0550     19.8541    135.9197     20.5698
   786.4000      8.3198      2.2986     -0.0103     21.2990    129.5956     20.0176
   786.5000      8.3045      2.2844      0.0231     22.1578    127.5453     19.5907
   786.6000      8.3045      2.2639      0.0498     23.4025    130.2599     19.4540
   786.7000      8.3045      2.2215     -0.0040     25.9675    131.8623     19.4265
   786.8000      8.3001      2.1554      0.0299     29.9760    132.0291     19.0606
   786.9000      8.3001      2.0726     -0.0131     34.9933    132.1095     18.2373
   787.0000      8.2805      1.9868      0.0079     40.1916    127.6669     17.1500
   787.1000      8.2805      1.8984      0.0733     45.5525    121.8058     15.9838
   787.2000      8.2805      1.8015      0.0450     51.4264    122.6170     14.6942
   787.3000      8.3175      1.7052     -0.0187     57.2600    125.8654     13.2390
   787.4000      8.3175      1.6218     -0.0313     62.3165    124.9983     11.8327
   787.5000      8.3389      1.5562      0.0086     66.2913    119.4885     10.6477
   787.6000      8.3389      1.5022      0.0429     69.5616    110.9671      9.7733
   787.7000      8.3389      1.4472      0.1041     72.8979    103.6880      9.1008
   787.8000      8.3886      1.3959      0.0744     76.0045     99.7231      8.4744
   787.9000      8.3886      1.3655      0.1168     77.8503     96.4315      7.9150
   788.0000      8.4488      1.3562      0.1915     78.4134     91.1513      7.4737
   788.1000      8.4488      1.3583      0.1762     78.2859     81.5143      7.2058
   788.2000      8.4488      1.3659      0.1919     77.8259     68.8601      7.1286
   788.3000      8.8457      1.3738      0.1691     77.3438     59.0235      7.2176
   788.4000      8.8457      1.3818      0.1875     76.8604     54.2521      7.5171
   788.5000      9.0829      1.3919      0.2076     76.2466     50.9471      7.9761
   788.6000      9.0829      1.3994      0.2404     75.7960     46.1181      8.4430
   788.7000      9.0829      1.3972      0.2165     75.9278     41.2303      8.9680
   788.8000      9.1470      1.3887      0.1709     76.4446     37.8830      9.6498
   788.9000      9.1470      1.3866      0.1421     76.5702     34.8828     10.4662
   789.0000      9.2469      1.4027      0.0899     75.5917     30.9555     11.4787
   789.1000      9.2469      1.4293      0.1910     73.9790     27.5968     12.6179
   789.2000      9.2469      1.4365      0.1841     73.5484     26.4249     13.4537
   789.3000      9.1696      1.4099      0.0781     75.1603     26.6286     13.7648
   789.4000      9.1696      1.3634      0.0761     77.9731     27.5101     13.7014
   789.5000      8.6894      1.3153      0.0293     80.8900     29.2245     13.3821
   789.6000      8.6894      1.2814      0.0028     82.9440     31.6295     12.8865
   789.7000      8.6894      1.2711     -0.0207     83.5687     33.6322     12.3001
   789.8000      8.5355      1.2819      0.0069     82.9173     34.2992     11.6894
   789.9000      8.5355      1.3030      0.0199     81.6365     33.2768     11.1084
   790.0000      8.4927      1.3246      0.0117     80.3285     30.9426     10.5817
   790.1000      8.4927      1.3404      0.0876     79.3704     29.8081     10.1968
   790.2000      8.4927      1.3456      0.0862     79.0543     30.3124      9.9998
   790.3000      8.5173      1.3398      0.1645     79.4067     30.0322      9.8018
   790.4000      8.5173      1.3281      0.1147     80.1176     28.6423      9.4828
   790.5000      8.5772      1.3192      0.1334     80.6534     28.0055      9.2364
   790.6000      8.5772      1.3139      0.1485     80.9763     28.8426      9.2213
   790.7000      8.5772      1.3106      0.0949     81.1770     30.3168      9.4814
   790.8000      8.7237      1.3311      0.0478     79.9309     32.2796     10.0184
   790.9000      8.7237      1.4096      0.0623     75.1760     35.0808     10.7378
   791.0000      8.5615      1.5471      0.2132     66.8405     39.0611     11.4526
   791.1000      8.5615      1.6958      0.3734     57.8293     43.7338     12.1620
   791.2000      8.5615      1.8003      0.4244     51.4940     45.7184     13.1132
   791.3000      8.4474      1.8478      0.3699     48.6211     44.6741     14.3518
   791.4000      8.4474      1.8616      0.3429     47.7848     44.9546     15.5362
   791.5000      8.4962      1.8601      0.2967     47.8750     48.9630     16.3666
   791.6000      8.4962      1.8507      0.1993     48.4416     55.4102     17.2289
   791.7000      8.4962      1.8431      0.1379     48.9007     63.0015     18.6750
   791.8000      8.5540      1.8450      0.0837     48.7850     70.9282     20.5912
   791.9000      8.5540      1.8624      0.0402     47.7306     77.5422     22.5422
   792.0000      8.3612      1.9043      0.0380     45.1969     80.6862     24.2198
   792.1000      8.3612      1.9735      0.1389     41.0003     80.6309     25.3710
   792.2000      8.3612      2.0590      0.1611     35.8152     82.7224     25.9076
   792.3000      8.3296      2.1393      0.2229     30.9501     90.4214     25.9258
   792.4000      8.3296      2.1978      0.1954     27.4059     98.9738     25.4469
   792.5000      8.3582      2.2449      0.1572     24.5516    105.1665     24.7065
   792.6000      8.3582      2.2891      0.1887     21.8745    110.7893     23.8316
   792.7000      8.3582      2.3069      0.1396     20.7964    116.0087     22.7015
   792.8000      8.3422      2.2783      0.0878     22.5269    118.7870     21.2824
   792.9000      8.3422      2.2041      0.0834     27.0266    117.3123     19.6522
   793.0000      8.3300      2.0846      0.1008     34.2661    112.9674     18.0050
   793.1000      8.3300      1.9248      0.0451     43.9501    110.2793     16.4933
   793.2000      8.3300      1.7455     -0.0269     54.8155    108.8241     15.1986
   793.3000      8.3634      1.5615     -0.0467     65.9716    103.8340     14.1649
   793.4000      8.3634      1.3823     -0.1565     76.8294     99.6795     13.3718
   793.5000      8.3499      1.2528     -0.1918     84.6798    102.8713     12.8512
   793.6000      8.3499      1.2394     -0.1354     85.4882    106.4958     12.6067
   793.7000      8.3499      1.3664      0.0178     77.7964    102.3403     12.7269
   793.8000      8.4244      1.5835      0.2203     64.6355     94.6957     13.4491
   793.9000      8.4244      1.8140      0.3386     50.6669     89.8627     14.7809
