~Version Information
VERS.                      2.0: CWLS Log ASCII Standard - VERSION 2.0
WRAP.                       NO: One line per depth step
~Well Information Block
STRT.FT                 0.0000: 
STOP.FT              2159.0000: 
STEP.FT                 0.2500: 
NULL.                -999.2500: 
COMP.          Petrogulf Corporation: COMPANY
WELL.               Furu 6-23R: WELL
FLD.           Purgatoire River: FIELD
LOC.           2211' FSL & 1780' FWL: LOCATION
CNTY.               Las Animas: COUNTY
SRVC.                         : SERVICE COMPANY
DATE.          Fri Jul 14 16:00:32 2006: LOG DATE
UWI.           05 071 08266 00: UNIQUE WELL ID
STAT.                       CO: STATE
~Curve Information Block
DEPT.FT            0 000 00 00: Depth
GR.GAPI                       : Gamma Ray
CCL.                          : Casing Collar Locator
TT3.usec                      : CBL 3' Travel Time
AMP3.mV                       : CBL 3' Amplitude
~Parameter Information Block
~A  Depth        GR         CCL         TT3         AMP3    
# ...
   837.5000    144.7951      0.0000    256.7395     84.4082
   837.7500    141.6842      0.0000    256.7582     84.4852
   838.0000    142.1794      0.0000    256.7653     84.5900
   838.2500    142.5475      0.0000    256.7661     84.7181
   838.5000    140.7281      0.0000    256.7631     84.8607
   838.7500    138.9659      0.0000    256.7565     85.0057
   839.0000    141.6350      0.0000    256.7491     85.1420
   839.2500    150.3529      0.0000    256.7456     85.2624
   839.5000    161.8642      0.0000    256.7458     85.3657
   839.7500    170.7789      0.0000    256.7420     85.4564
   840.0000    173.8022      0.0000    256.7288     85.5422
   840.2500    171.1908      0.0000    256.7104     85.6298
   840.5000    165.1303      0.0000    256.6965     85.7204
   840.7500    158.0285      0.0000    256.6927     85.8063
   841.0000    152.3241      0.0000    256.6971     85.8718
   841.2500    150.2999      0.0000    256.7052     85.8982
   841.5000    152.8062      0.0000    256.7136     85.8732
   841.7500    158.4055      0.0000    256.7206     85.7980
   842.0000    164.1098      0.0000    256.7235     85.6882
   842.2500    166.9365      0.0000    256.7186     85.5675
   842.5000    165.3643      0.0000    256.7048     85.4570
   842.7500    160.0933      0.0000    256.6862     85.3681
   843.0000    153.2341      0.0000    256.6704     85.3024
   843.2500    146.4828      0.0000    256.6644     85.2548
   843.5000    140.6051      0.0000    256.6715     85.2186
   843.7500    136.6107      0.0000    256.6886     85.1866
   844.0000    136.0412      0.0000    256.7095     85.1507
   844.2500    139.2874      0.0000    256.7309     85.1011
   844.5000    144.3846      0.0000    256.7525     85.0280
   844.7500    148.4227      0.0000    256.7712     84.9264
   845.0000    150.1732      0.0000    256.7805     84.8006
   845.2500    150.9531      0.0000    256.7774     84.6647
   845.5000    152.8582      0.0000    256.7653     84.5396
   845.7500    156.4359      0.0000    256.7474     84.4449
   846.0000    160.0294      0.0000    256.7207     84.3934
   846.2500    161.0894      0.0000    256.6841     84.3881
   846.5000    158.2505      0.0000    256.6491     84.4256
   846.7500    152.4858      0.0000    256.6335     84.5000
   847.0000    146.3310      0.0000    256.6432     84.6049
   847.2500    142.1292      0.0000    256.6657     84.7328
   847.5000    140.9836      0.0000    256.6830     84.8738
   847.7500    142.8033      0.0000    256.6872     85.0155
   848.0000    146.7464      0.0000    256.6850     85.1453
   848.2500    151.7471      0.0000    256.6886     85.2532
   848.5000    156.9790      0.0000    256.7046     85.3349
   848.7500    161.9653      0.0000    256.7308     85.3924
   849.0000    166.3543      0.0000    256.7592     85.4336
   849.2500    169.7599      0.0000    256.7808     85.4687
   849.5000    171.7044      0.0000    256.7904     85.5073
   849.7500    171.6022      0.0000    256.7896     85.5557
   850.0000    169.1364      0.0000    256.7842     85.6134
   850.2500    165.0180      0.0000    256.7775     85.6721
   850.5000    161.1619      0.0000    256.7662     85.7157
   850.7500    159.7014      0.0000    256.7444     85.7251
   851.0000    161.8195      0.0000    256.7094     85.6873
   851.2500    167.3484      0.0000    256.6637     85.6029
   851.5000    174.8229      0.0000    256.6129     85.4888
   851.7500    181.5689      0.0000    256.5663     85.3718
   852.0000    184.6823      0.0000    256.5355     85.2774
   852.2500    183.1862      0.0000    256.5268     85.2194
   852.5000    179.0473      0.0000    256.5371     85.1956
   852.7500    175.1038      0.0000    256.5591     85.1916
   853.0000    172.3074      0.0000    256.5870     85.1889
   853.2500    169.9009      0.0000    256.6162     85.1743
   853.5000    167.6538      0.0000    256.6420     85.1465
   853.7500    166.3581      0.0000    256.6611     85.1174
   854.0000    165.9802      0.0000    256.6734     85.1073
   854.2500    164.9727      0.0000    256.6797     85.1341
   854.5000    162.4359      0.0000    256.6793     85.2029
   854.7500    159.9376      0.0000    256.6706     85.3003
   855.0000    159.8615      0.0000    256.6531     85.3988
   855.2500    162.4712      0.0000    256.6306     85.4690
   855.5000    165.9617      0.0000    256.6132     85.4935
   855.7500    169.0689      0.0000    256.6139     85.4736
   856.0000    172.1352      0.0000    256.6388     85.4266
   856.2500    175.5600      0.0000    256.6769     85.3752
   856.5000    178.5376      0.0000    256.7050     85.3361
   856.7500    179.8173      0.0000    256.7061     85.3135
   857.0000    178.9726      0.0000    256.6834     85.2999
   857.2500    176.3881      0.0000    256.6537     85.2811
   857.5000    172.5764      0.0000    256.6302     85.2441
   857.7500    168.3472      0.0000    256.6160     85.1829
   858.0000    165.2868      0.0000    256.6115     85.0997
   858.2500    164.9792      0.0000    256.6195     85.0038
   858.5000    167.5963      0.0000    256.6401     84.9080
   858.7500    171.8731      0.0000    256.6643     84.8241
   859.0000    176.3064      0.0000    256.6800     84.7572
   859.2500    179.9250      0.0000    256.6836     84.7021
   859.5000    182.2487      0.0000    256.6815     84.6370
   859.7500    182.8185      0.0000    256.6834     84.5231
   860.0000    180.3902      0.0000    256.6980     84.3073
   860.2500    172.9625      0.0000    256.7328     83.9225
   860.5000    159.7330      0.0000    256.7906     83.2854
   860.7500    143.0701      0.0000    256.8637     82.2839
   861.0000    127.7203      0.0000    256.9445     80.7689
   861.2500    118.1142      0.0000    257.0544     78.5631
   861.5000    116.6530      0.0000    257.2724     75.5061
   861.7500    123.4953      0.0000    257.7302     71.5268
   862.0000    136.4170      0.0000    258.5471     66.7175
   862.2500    150.8154      0.0000    259.7185     61.3640
   862.5000    161.3045      0.0000    261.0514     55.9016
   862.7500    164.7043      0.0000    262.2482     50.8037
   863.0000    161.8344      0.0000    263.0987     46.4539
   863.2500    156.3145      0.0000    263.5973     43.0584
   863.5000    151.6875      0.0000    263.9085     40.6422
   863.7500    149.4233      0.0000    264.2863     39.1241
   864.0000    148.9521      0.0000    265.0537     38.4349
   864.2500    149.1676      0.0000    266.5088     38.6186
   864.5000    149.8174      0.0000    268.5525     39.8625
   864.7500    151.3260      0.0000    270.3007     42.4214
   865.0000    153.6470      0.0000    270.4258     46.4534
   865.2500    156.1121      0.0000    268.3068     51.8418
   865.5000    158.5988      0.0000    264.7390     58.1112
   865.7500    162.2369      0.0000    261.2456     64.5141
   866.0000    168.6620      0.0000    258.8410     70.2565
   866.2500    178.5277      0.0000    257.6056     74.7534
   866.5000    190.4150      0.0000    257.1263     77.7830
   866.7500    201.1047      0.0000    257.0020     79.4778
   867.0000    207.4044      0.0000    257.0053     80.1923
   867.2500    208.2144      0.0000    257.0345     80.3332
   867.5000    204.8288      0.0000    257.0546     80.2314
   867.7500    199.1856      0.0000    257.0642     80.0875
   868.0000    192.3419      0.0000    257.0754     79.9779
   868.2500    184.9359      0.0000    257.0961     79.8917
   868.5000    178.2238      0.0000    257.1269     79.7720
   868.7500    173.5521      0.0000    257.1660     79.5526
   869.0000    171.1172      0.0000    257.2121     79.1848
   869.2500    170.0642      0.0000    257.2661     78.6540
   869.5000    169.5785      0.0000    257.3286     77.9880
   869.7500    169.2826      0.0000    257.3936     77.2516
   870.0000    168.7163      0.0000    257.4452     76.5288
   870.2500    166.8833      0.0000    257.4680     75.8991
   870.5000    162.5079      0.0000    257.4623     75.4174
   870.7500    154.8488      0.0000    257.4471     75.1042
