~Version Information
VERS.                      2.0: CWLS Log ASCII Standard - VERSION 2.0
WRAP.                       NO: One line per depth step
~Well Information Block
STRT.FT               823.7000: 
STOP.FT              2444.0000: 
STEP.FT                 0.1000: 
NULL.                -999.2500: 
COMP.          Petrogulf Corporation: COMPANY
WELL.            Kraft 17-23 V: WELL
FLD.           Purgatorie River: FIELD
LOC.           1500' FSL & 1773' FWL: LOCATION
CNTY.               Las Animas: COUNTY
SRVC.                         : SERVICE COMPANY
DATE.          Thu Nov 20 07:09:00 2003: LOG DATE
UWI.                          : UNIQUE WELL ID
STAT.                 Colorado: STATE
~Curve Information Block
DEPT.FT            0 000 00 00: Depth
DCAL.in                       : CDL Caliper
RHOB.g/cc                     : CDL Bulk Density
RHOC.g/cc                     : CDL Density Correction
DPOR.pu                       : CDL Density Porosity
GR.GAPI                       : Gamma Ray
NPOR.pu                       : Neutron Porosity
~Parameter Information Block
~A  Depth       DCAL        RHOB        RHOC        DPOR         GR         NPOR    
# ...
  1582.1000      8.2035      2.5515      0.0858      5.9701    100.5895     22.0903
  1582.2000      8.2035      2.5689      0.1100      4.9127     96.2169     21.0753
  1582.3000      8.2522      2.5879      0.1088      3.7615    100.6697     20.6328
  1582.4000      8.2522      2.5983      0.1822      3.1308    105.7981     21.1499
  1582.5000      8.3040      2.6006      0.0801      2.9937    105.5053     21.6284
  1582.6000      8.3040      2.6029      0.1099      2.8537    101.1352     20.9352
  1582.7000      8.3040      2.6000      0.1249      3.0318     94.9842     19.4918
  1582.8000      8.2685      2.5938      0.0882      3.4030     89.1963     18.4239
  1582.9000      8.2685      2.5995      0.0513      3.0636     86.8418     18.2547
  1583.0000      8.2052      2.6164      0.0542      2.0377     87.4073     18.9220
  1583.1000      8.2052      2.6330      0.1008      1.0326     85.5765     19.8367
  1583.2000      8.2052      2.6449      0.1147      0.3084     77.7957     20.5362
  1583.3000      8.1703      2.6416      0.1001      0.5068     70.6237     21.2638
  1583.4000      8.1703      2.6125      0.0804      2.2741     71.5189     22.0462
  1583.5000      8.1471      2.5807     -0.0014      4.2015     77.0260     22.4057
  1583.6000      8.1471      2.5705      0.0669      4.8164     80.7425     22.4263
  1583.7000      8.1471      2.5642      0.0975      5.1972     81.0528     22.5768
  1583.8000      8.1270      2.5518      0.0080      5.9522     79.4541     22.6171
  1583.9000      8.1270      2.5532      0.0641      5.8656     76.6812     22.1432
  1584.0000      8.1156      2.5648      0.0712      5.1651     71.5101     21.1887
  1584.1000      8.1156      2.5595      0.0496      5.4860     65.9201     20.1618
  1584.2000      8.1156      2.5338     -0.0078      7.0396     63.8432     19.5590
  1584.3000      8.1300      2.5196     -0.0561      7.9048     62.9095     19.4792
  1584.4000      8.1300      2.5327      0.0426      7.1119     60.1886     19.7641
  1584.5000      8.1502      2.5491      0.0525      6.1135     59.3601     20.3725
  1584.6000      8.1502      2.5586      0.0160      5.5397     62.3025     21.2439
  1584.7000      8.1502      2.5711      0.0715      4.7799     63.8739     22.0848
  1584.8000      8.1169      2.5802      0.0680      4.2296     60.1967     22.5324
  1584.9000      8.1169      2.5691      0.1056      4.9016     54.8406     22.5435
  1585.0000      8.0747      2.5365      0.0507      6.8766     52.3583     22.0753
  1585.1000      8.0747      2.5069     -0.0297      8.6724     53.3567     21.1322
  1585.2000      8.0747      2.4985      0.0105      9.1845     56.1455     20.5796
  1585.3000      8.0942      2.5018     -0.0331      8.9824     57.3009     21.0414
  1585.4000      8.0942      2.5046      0.0731      8.8123     54.5681     21.9011
  1585.5000      8.1926      2.5045      0.0323      8.8184     52.7101     22.2069
  1585.6000      8.1926      2.5121      0.0262      8.3547     55.6515     22.1297
  1585.7000      8.1926      2.5261      0.0631      7.5086     58.9028     22.4042
  1585.8000      8.2742      2.5284      0.0755      7.3702     59.3897     22.5420
  1585.9000      8.2742      2.5170      0.0622      8.0595     59.7198     21.6757
  1586.0000      8.2354      2.5026      0.0814      8.9325     62.5368     20.2381
  1586.1000      8.2354      2.4907      0.0690      9.6556     65.6323     19.3333
  1586.2000      8.2354      2.4830      0.0473     10.1209     67.6421     19.2881
  1586.3000      8.1858      2.4769      0.0954     10.4880     68.8721     19.7071
  1586.4000      8.1858      2.4743     -0.0217     10.6510     65.6126     20.1042
  1586.5000      8.1848      2.4783      0.0842     10.4053     59.1026     20.0990
  1586.6000      8.1848      2.4762      0.0780     10.5359     56.4502     19.5902
  1586.7000      8.1848      2.4752     -0.0232     10.5923     59.5057     18.8216
  1586.8000      8.1880      2.4997      0.0803      9.1119     63.6738     18.1234
  1586.9000      8.1880      2.5366      0.1173      6.8701     64.6985     17.8625
  1587.0000      8.1307      2.5480      0.1890      6.1807     63.4984     18.3389
  1587.1000      8.1307      2.5206      0.1205      7.8448     62.4006     19.2276
  1587.2000      8.1307      2.4865      0.0232      9.9107     62.4064     19.9263
  1587.3000      8.0619      2.4761      0.0451     10.5422     65.0643     20.4103
  1587.4000      8.0619      2.4768      0.0852     10.4957     67.3245     20.7506
  1587.5000      8.0554      2.4678      0.0580     11.0453     63.5885     20.8113
  1587.6000      8.0554      2.4581     -0.0108     11.6311     55.8708     20.7060
  1587.7000      8.0554      2.4657      0.0209     11.1691     51.5972     20.6097
  1587.8000      8.1336      2.4880      0.0610      9.8187     54.9989     20.3721
  1587.9000      8.1336      2.5118      0.0807      8.3738     62.8983     19.9127
  1588.0000      8.2268      2.5267      0.1062      7.4726     67.8102     19.3109
  1588.1000      8.2268      2.5260      0.1111      7.5127     65.8893     18.5149
  1588.2000      8.2268      2.5137      0.0381      8.2627     62.1609     17.7383
  1588.3000      8.2215      2.5042      0.0607      8.8372     60.1964     17.7234
  1588.4000      8.2215      2.5060      0.0257      8.7271     58.0091     18.7809
  1588.5000      8.1617      2.5167      0.0413      8.0767     55.9462     19.8819
  1588.6000      8.1617      2.5296      0.0639      7.2996     54.4419     20.3425
  1588.7000      8.1617      2.5376      0.0811      6.8105     51.6533     20.8502
  1588.8000      8.0984      2.5416      0.0984      6.5696     50.2969     21.7209
  1588.9000      8.0984      2.5557      0.0578      5.7153     53.6467     22.4169
  1589.0000      8.0945      2.5825      0.1559      4.0889     55.1010     22.8001
  1589.1000      8.0945      2.5961      0.1003      3.2657     51.5823     22.9646
  1589.2000      8.0945      2.5843      0.1311      3.9792     50.5184     22.7179
  1589.3000      8.1133      2.5613      0.0889      5.3774     55.9956     22.1411
  1589.4000      8.1133      2.5380      0.0981      6.7870     63.8983     21.5122
  1589.5000      8.1183      2.5182      0.0854      7.9899     68.1244     21.0639
  1589.6000      8.1183      2.5143      0.0383      8.2226     67.4312     20.8075
  1589.7000      8.1183      2.5361      0.1019      6.9018     65.4886     20.3362
  1589.8000      8.1079      2.5698      0.0956      4.8607     65.9449     19.7225
  1589.9000      8.1079      2.5938      0.0905      3.4071     67.4843     19.6606
  1590.0000      8.0953      2.5912      0.1733      3.5622     66.4360     20.5848
  1590.1000      8.0953      2.5628      0.0755      5.2870     63.9069     22.3202
  1590.2000      8.0953      2.5335      0.1144      7.0605     66.7601     24.1261
  1590.3000      8.1059      2.5117      0.1238      8.3797     74.6953     25.3568
  1590.4000      8.1059      2.4822      0.1056     10.1668     78.8133     25.8700
  1590.5000      8.1239      2.4466      0.0287     12.3245     76.4740     25.5551
  1590.6000      8.1239      2.4224      0.0253     13.7930     74.4285     24.5458
  1590.7000      8.1239      2.4131      0.0610     14.3556     77.1692     23.6646
  1590.8000      8.1377      2.4145      0.0226     14.2710     82.7130     23.6116
  1590.9000      8.1377      2.4364      0.0845     12.9465     86.4944     24.0742
  1591.0000      8.1428      2.4781      0.1974     10.4207     88.2877     24.4678
  1591.1000      8.1428      2.5183      0.2199      7.9812     93.2845     25.0621
  1591.2000      8.1428      2.5515      0.2345      5.9668    100.5223     26.1935
  1591.3000      8.1197      2.5807      0.3262      4.2013    105.4883     27.1616
  1591.4000      8.1197      2.5990      0.3144      3.0888    108.3863     27.3679
  1591.5000      8.1095      2.6041      0.3367      2.7819    110.4522     27.2099
  1591.6000      8.1095      2.5950      0.3068      3.3318    112.0766     27.3750
