~Version Information
VERS.                      2.0: CWLS Log ASCII Standard - VERSION 2.0
WRAP.                       NO: One line per depth step
~Well Information Block
STRT.FT               245.0000: 
STOP.FT              1919.7000: 
STEP.FT                 0.1000: 
NULL.                -999.2500: 
COMP.          Pioneer Natural Resources: COMPANY
WELL.          Oink Oink 14-36 Tr: WELL
FLD.           Purgatoire River: FIELD
LOC.           236' FSL & 164' FWL--: LOCATION
PROV.                 Colorado: PROVINCE
CNTY.               Las Animas: COUNTRY
SRVC.                Patterson: SERVICE COMPANY
DATE.          Fri Jun 10 08:23:18 2005: LOG DATE
UWI.           05 071 08393 00: UNIQUE WELL ID
~Curve Information Block
DEPT.FT            0 000 00 00: Depth
DCAL.in                       : CDL Caliper
RHOB.g/cc                     : CDL Bulk Density
RHOC.g/cc                     : CDL Density Correction
DPOR.pu                       : CDL Density Porosity
NPOR.pu                       : Neutron Porosity
GR.GAPI                       : Gamma Ray
~Parameter Information Block
~A  Depth       DCAL        RHOB        RHOC        DPOR        NPOR         GR     
# ...
  1781.0000      8.0640      2.5249     -0.0039      7.5825     27.4729    138.0744
  1781.1000      8.0640      2.5402      0.0796      6.6565     28.1056    138.5333
  1781.2000      8.0640      2.5428      0.0533      6.4993     28.7325    138.6465
  1781.3000      8.0634      2.5359      0.0173      6.9167     29.2398    138.3208
  1781.4000      8.0634      2.5392      0.0806      6.7142     29.8220    138.6911
  1781.5000      8.0646      2.5468      0.0841      6.2549     30.2338    139.7347
  1781.6000      8.0646      2.5448      0.1012      6.3770     30.4814    144.3847
  1781.7000      8.0646      2.5338      0.0782      7.0415     30.7754    149.1388
  1781.8000      8.0660      2.5229      0.0667      7.7032     31.0004    146.2393
  1781.9000      8.0660      2.5142      0.0852      8.2301     30.9165    137.6941
  1782.0000      8.0660      2.5007      0.0763      9.0496     30.7892    134.0496
  1782.1000      8.0660      2.4836      0.0499     10.0822     31.0184    140.3950
  1782.2000      8.0660      2.4742      0.0486     10.6524     31.2642    149.8962
  1782.3000      8.0649      2.4808      0.0677     10.2566     30.9820    154.1423
  1782.4000      8.0649      2.4978      0.0849      9.2246     30.2924    152.0479
  1782.5000      8.0638      2.5123      0.0810      8.3465     29.9698    146.9041
  1782.6000      8.0638      2.5227      0.0875      7.7177     30.1851    144.5495
  1782.7000      8.0638      2.5294      0.1001      7.3062     30.2736    151.3331
  1782.8000      8.0646      2.5239      0.0858      7.6406     30.1382    163.6195
  1782.9000      8.0646      2.5066      0.0701      8.6923     29.9424    171.1136
  1783.0000      8.0676      2.4926      0.0561      9.5403     29.6192    171.9124
  1783.1000      8.0676      2.4932      0.0753      9.5005     29.5129    170.2160
  1783.2000      8.0676      2.5083      0.1040      8.5898     29.7053    165.0183
  1783.3000      8.0680      2.5284      0.1273      7.3707     29.6273    155.8154
  1783.4000      8.0680      2.5410      0.1212      6.6038     29.1544    152.6770
  1783.5000      8.0680      2.5432      0.1045      6.4711     28.7573    162.9876
  1783.6000      8.0680      2.5430      0.0961      6.4830     28.4245    176.1609
  1783.7000      8.0680      2.5447      0.0738      6.3810     28.0893    178.4279
  1783.8000      8.0699      2.5419      0.1051      6.5513     28.1199    172.6595
  1783.9000      8.0699      2.5319      0.0844      7.1602     28.6058    167.1577
  1784.0000      8.0736      2.5232      0.0659      7.6854     29.2957    164.1312
  1784.1000      8.0736      2.5156      0.0891      8.1464     29.7711    163.2256
  1784.2000      8.0736      2.4963      0.0667      9.3179     29.8691    163.6593
  1784.3000      8.0780      2.4669      0.0430     11.0955     29.8914    163.6301
  1784.4000      8.0780      2.4515      0.0305     12.0315     29.9705    168.1122
  1784.5000      8.0784      2.4629      0.0763     11.3377     30.0072    178.3876
  1784.6000      8.0784      2.4798      0.1227     10.3172     30.0092    186.6299
  1784.7000      8.0784      2.4824      0.1079     10.1547     29.9506    191.3291
  1784.8000      8.0737      2.4828      0.0964     10.1339     29.8967    195.7894
  1784.9000      8.0737      2.4917      0.1182      9.5966     29.9839    197.2071
  1785.0000      8.0673      2.5011      0.1401      9.0272     30.1872    195.7747
  1785.1000      8.0673      2.5122      0.1035      8.3524     30.1882    197.4919
  1785.2000      8.0673      2.5354      0.1435      6.9465     29.8722    199.2589
  1785.3000      8.0644      2.5640      0.1858      5.2126     29.3861    197.3886
  1785.4000      8.0644      2.5834      0.1891      4.0389     28.8785    194.1495
  1785.5000      8.0639      2.5863      0.1516      3.8594     28.6453    195.1551
  1785.6000      8.0639      2.5723      0.1346      4.7089     28.5392    198.8111
  1785.7000      8.0639      2.5538      0.0452      5.8291     28.1871    196.9964
  1785.8000      8.0639      2.5482      0.0599      6.1723     27.8645    190.4955
  1785.9000      8.0639      2.5552      0.0529      5.7440     28.1348    186.2820
  1786.0000      8.0643      2.5629      0.0733      5.2799     28.7926    188.2110
  1786.1000      8.0643      2.5652      0.0893      5.1365     29.2019    193.9885
  1786.2000      8.0643      2.5693      0.0769      4.8934     29.2855    195.3004
  1786.3000      8.0635      2.5738      0.1175      4.6161     29.2066    188.5353
  1786.4000      8.0635      2.5605      0.0754      5.4239     29.0616    182.7741
  1786.5000      8.0640      2.5283      0.0348      7.3730     29.2655    184.6503
  1786.6000      8.0640      2.4995      0.0361      9.1189     29.8162    187.2955
  1786.7000      8.0640      2.4830      0.0469     10.1228     30.0194    181.7598
  1786.8000      8.0699      2.4689      0.0607     10.9756     29.6499    171.5525
  1786.9000      8.0699      2.4580      0.0291     11.6352     29.1501    166.4339
  1787.0000      8.0793      2.4647     -0.0017     11.2308     28.9580    167.7786
  1787.1000      8.0793      2.4865      0.0465      9.9098     28.9714    171.8233
  1787.2000      8.0793      2.5037      0.0514      8.8676     28.7373    176.2664
  1787.3000      8.0853      2.5088      0.0790      8.5551     28.3284    176.5984
  1787.4000      8.0853      2.5072      0.0914      8.6545     28.3233    172.3985
  1787.5000      8.0871      2.5007      0.1058      9.0459     28.8496    170.1468
  1787.6000      8.0871      2.4873      0.0793      9.8622     29.1586    171.1439
  1787.7000      8.0871      2.4754      0.0501     10.5826     28.8445    171.0757
  1787.8000      8.0888      2.4821      0.0556     10.1781     28.3622    168.6536
  1787.9000      8.0888      2.5036      0.0997      8.8745     28.0810    166.1488
  1788.0000      8.0905      2.5146      0.1089      8.2078     28.2842    162.6161
  1788.1000      8.0905      2.4991      0.0977      9.1461     29.0711    158.3807
  1788.2000      8.0905      2.4578      0.0558     11.6477     29.8393    159.2056
  1788.3000      8.0943      2.3926      0.0464     15.6029     30.3457    166.1183
  1788.4000      8.0943      2.3085      0.0205     20.6951     30.8945    174.5862
  1788.5000      8.1069      2.2219     -0.0438     25.9459     31.6131    179.2718
  1788.6000      8.1069      2.1314     -0.0089     31.4286     32.6618    176.3984
  1788.7000      8.1069      2.0115     -0.0370     38.6950     34.0347    167.6762
  1788.8000      8.1351      1.8634     -0.1436     47.6750     35.2595    157.6597
  1788.9000      8.1351      1.7270     -0.1699     55.9371     35.7995    147.3983
  1789.0000      8.1791      1.6246     -0.1749     62.1465     35.6027    133.4682
  1789.1000      8.1791      1.5346     -0.1258     67.6000     35.1552    116.1478
  1789.2000      8.1791      1.4477     -0.1380     72.8655     34.9959    102.2078
  1789.3000      8.2512      1.4047     -0.1689     75.4751     35.1070     95.7301
  1789.4000      8.2512      1.4339     -0.0137     73.7056     35.3268     92.5576
  1789.5000      8.3794      1.5045      0.0974     69.4251     35.4851     89.2880
  1789.6000      8.3794      1.5794      0.1288     64.8876     35.0284     86.7352
  1789.7000      8.3794      1.6528      0.1637     60.4335     33.6326     83.9959
  1789.8000      8.5682      1.7325      0.2062     55.6077     31.8240     80.7137
  1789.9000      8.5682      1.8318      0.2087     49.5856     30.4837     79.7019
  1790.0000      8.6798      1.9602      0.2359     41.8032     30.1945     85.7339
  1790.1000      8.6798      2.0937      0.3113     33.7173     30.5991     97.5167
  1790.2000      8.6798      2.1956      0.2803     27.5406     30.7152    108.4773
  1790.3000      8.5022      2.2688      0.2012     23.1002     30.2152    119.1034
  1790.4000      8.5022      2.3407      0.1812     18.7446     29.5843    133.0277
  1790.5000      8.1522      2.4097      0.2247     14.5619     29.2496    146.3296
