~Version Information
VERS.                      2.0: CWLS Log ASCII Standard - VERSION 2.0
WRAP.                       NO: One line per depth step
~Well Information Block
STRT.FT               741.2000: 
STOP.FT              2461.0000: 
STEP.FT                 0.1000: 
NULL.                -999.2500: 
COMP.          Petrogulf Corporation: COMPANY
WELL.           Montoya 12-44V: WELL
FLD.           Purgatorie River: FIELD
LOC.           698' FSL & 599' FEL: LOCATION
CNTY.               Las Animas: COUNTY
SRVC.                         : SERVICE COMPANY
DATE.          Mon Aug 09 06:09:04 2004: LOG DATE
UWI.           05 071 08094 00: UNIQUE WELL ID
STAT.                 Colorado: STATE
~Curve Information Block
DEPT.FT            0 000 00 00: Depth
DCAL.in                       : CDL Caliper
RHOB.g/cc                     : CDL Bulk Density
RHOC.g/cc                     : CDL Density Correction
DPOR.pu                       : CDL Density Porosity
GR.GAPI                       : Gamma Ray
NPOR.pu                       : Neutron Porosity
~Parameter Information Block
~A  Depth       DCAL        RHOB        RHOC        DPOR         GR         NPOR    
# ...
  1326.8000      8.0740      2.5311      0.0371      7.2087     87.0601     20.1495
  1326.9000      8.0740      2.5574      0.0401      5.6093     88.2552     20.1189
  1327.0000      8.0744      2.5764      0.0820      4.4618     85.9372     20.4263
  1327.1000      8.0744      2.5773      0.0482      4.4064     85.2460     20.6114
  1327.2000      8.0744      2.5721      0.0560      4.7202     88.4807     20.1278
  1327.3000      8.0735      2.5706      0.0347      4.8118     88.3913     19.5785
  1327.4000      8.0735      2.5737      0.0521      4.6218     82.7794     19.6730
  1327.5000      8.0749      2.5795      0.0397      4.2704     78.5208     19.7225
  1327.6000      8.0749      2.5818      0.0686      4.1304     79.1445     19.0528
  1327.7000      8.0749      2.5755      0.0366      4.5151     81.7213     18.6285
  1327.8000      8.0755      2.5625      0.0450      5.3031     82.6607     19.0937
  1327.9000      8.0755      2.5449      0.0221      6.3714     82.5237     19.6695
  1328.0000      8.0755      2.5262     -0.0052      7.5036     82.7498     19.6773
  1328.1000      8.0755      2.5173      0.0019      8.0439     83.4869     19.4056
  1328.2000      8.0755      2.5170      0.0524      8.0605     88.4887     19.2354
  1328.3000      8.0756      2.5152     -0.0145      8.1705     96.7818     18.8659
  1328.4000      8.0756      2.5143      0.0128      8.2223     98.2363     18.1887
  1328.5000      8.0764      2.5162      0.0483      8.1100     90.9163     17.8993
  1328.6000      8.0764      2.5170      0.0143      8.0601     84.0844     18.4728
  1328.7000      8.0764      2.5193      0.0142      7.9187     80.3317     19.4952
  1328.8000      8.0768      2.5256      0.0245      7.5381     75.8674     20.2066
  1328.9000      8.0768      2.5320      0.0273      7.1526     72.6927     20.3162
  1329.0000      8.0763      2.5311      0.0282      7.2077     74.4169     20.3130
  1329.1000      8.0763      2.5260      0.0344      7.5124     78.5451     20.6440
  1329.2000      8.0763      2.5298      0.0139      7.2877     81.3212     20.9983
  1329.3000      8.0772      2.5428      0.0356      6.4956     82.3253     20.4686
  1329.4000      8.0772      2.5545      0.0454      5.7876     82.1081     19.3808
  1329.5000      8.0771      2.5597      0.0778      5.4717     81.3535     19.0237
  1329.6000      8.0771      2.5590      0.0494      5.5146     81.7412     19.4521
  1329.7000      8.0771      2.5566      0.0611      5.6605     83.3658     19.8251
  1329.8000      8.0781      2.5573      0.0391      5.6211     81.2952     19.7244
  1329.9000      8.0781      2.5601      0.0513      5.4473     75.6310     19.4750
  1330.0000      8.0803      2.5672      0.0236      5.0156     73.5650     19.4219
  1330.1000      8.0803      2.5775      0.0678      4.3955     76.7548     19.4202
  1330.2000      8.0803      2.5743      0.0478      4.5894     81.0736     19.2903
  1330.3000      8.0787      2.5560      0.0403      5.6941     82.0732     19.0348
  1330.4000      8.0787      2.5434      0.0242      6.4595     80.6764     18.8620
  1330.5000      8.0652      2.5421      0.0388      6.5371     81.3853     19.1311
  1330.6000      8.0652      2.5367      0.0576      6.8685     84.3742     19.8460
  1330.7000      8.0652      2.5169      0.0331      8.0660     82.7914     20.4623
  1330.8000      8.0514      2.4913      0.0431      9.6162     76.7030     20.5550
  1330.9000      8.0514      2.4801     -0.0241     10.2959     74.7193     20.3950
  1331.0000      8.0462      2.4960      0.0191      9.3326     76.6819     20.3481
  1331.1000      8.0462      2.5262      0.0588      7.5046     76.1974     20.5133
  1331.2000      8.0462      2.5519      0.0500      5.9429     73.9158     21.0325
  1331.3000      8.0441      2.5693      0.0662      4.8921     73.6716     21.5292
  1331.4000      8.0441      2.5800      0.0812      4.2434     76.6221     21.7046
  1331.5000      8.0456      2.5812      0.0641      4.1685     80.7072     22.0403
  1331.6000      8.0456      2.5704      0.0563      4.8225     83.3877     22.4069
  1331.7000      8.0456      2.5574      0.0698      5.6143     85.0416     22.2342
  1331.8000      8.0447      2.5522      0.0763      5.9277     85.6355     21.8537
  1331.9000      8.0447      2.5510      0.0822      5.9970     84.6732     21.7514
  1332.0000      8.0445      2.5490      0.0945      6.1242     83.8605     21.6743
  1332.1000      8.0445      2.5504      0.0501      6.0338     83.2010     21.2149
  1332.2000      8.0445      2.5616      0.0702      5.3547     80.3085     20.5644
  1332.3000      8.0443      2.5757      0.0617      4.5035     75.9889     20.0736
  1332.4000      8.0443      2.5778      0.0566      4.3736     75.3042     19.5856
  1332.5000      8.0451      2.5606      0.1021      5.4210     77.6225     19.0842
  1332.6000      8.0451      2.5304      0.0572      7.2487     75.4489     19.0375
  1332.7000      8.0451      2.5090     -0.0142      8.5455     69.4495     19.3187
  1332.8000      8.0430      2.5108      0.0129      8.4375     68.5711     19.5407
  1332.9000      8.0430      2.5232      0.0535      7.6855     73.9207     19.8066
  1333.0000      8.0425      2.5244      0.0586      7.6150     79.4014     20.2933
  1333.1000      8.0425      2.5107      0.0633      8.4420     81.1617     20.9749
  1333.2000      8.0425      2.4958      0.0141      9.3467     79.6772     21.2844
  1333.3000      8.0417      2.4880      0.0383      9.8175     76.6815     21.0090
  1333.4000      8.0417      2.4890      0.0051      9.7549     72.0851     20.7471
  1333.5000      8.0438      2.4985      0.0094      9.1796     68.6747     20.9559
  1333.6000      8.0438      2.5032      0.0409      8.8989     70.4958     21.4368
  1333.7000      8.0438      2.4968      0.0392      9.2863     74.7079     21.8093
  1333.8000      8.0442      2.4939      0.0210      9.4580     77.9641     22.0269
  1333.9000      8.0442      2.4992      0.0451      9.1417     79.5009     21.8618
  1334.0000      8.0449      2.5030      0.0352      8.9062     75.8006     21.2653
  1334.1000      8.0449      2.5081      0.0063      8.5971     67.8264     21.1467
  1334.2000      8.0449      2.5172      0.0691      8.0461     64.2023     21.9651
  1334.3000      8.0418      2.5200      0.0399      7.8813     68.2972     23.1045
  1334.4000      8.0418      2.5130      0.0337      8.3039     74.6564     24.1347
  1334.5000      8.0420      2.5027      0.0362      8.9266     78.2814     24.6794
  1334.6000      8.0420      2.4951      0.0258      9.3863     78.4365     24.6181
  1334.7000      8.0420      2.4959      0.0162      9.3373     75.9266     24.5620
  1334.8000      8.0412      2.5020      0.0720      8.9694     74.1614     24.6446
  1334.9000      8.0412      2.5046      0.0399      8.8146     77.1697     24.5309
  1335.0000      8.0428      2.5066      0.0443      8.6900     81.0021     24.1711
  1335.1000      8.0428      2.5159      0.0335      8.1282     81.5945     23.7759
  1335.2000      8.0428      2.5285      0.0812      7.3643     81.8588     23.3298
  1335.3000      8.0423      2.5344      0.0439      7.0090     81.7617     22.3671
  1335.4000      8.0423      2.5270      0.0726      7.4549     78.8565     21.2905
  1335.5000      8.0431      2.5091      0.0309      8.5421     72.8648     20.7834
  1335.6000      8.0431      2.4991      0.0155      9.1461     67.3397     20.5569
  1335.7000      8.0431      2.5050      0.0620      8.7880     67.7645     20.6262
  1335.8000      8.0485      2.5096      0.0568      8.5062     73.1514     21.2555
  1335.9000      8.0485      2.5045      0.0326      8.8165     76.4318     22.0090
  1336.0000      8.0397      2.5001      0.0181      9.0824     75.8655     21.9452
  1336.1000      8.0397      2.5005      0.0417      9.0605     75.2037     21.0590
  1336.2000      8.0397      2.5012      0.0321      9.0159     73.3011     20.1954
  1336.3000      8.0379      2.5041      0.0408      8.8452     66.9684     19.8509
