~Version Information
VERS.                      2.0: CWLS Log ASCII Standard - VERSION 2.0
WRAP.                       NO: One line per depth step
~Well Information Block
STRT.FT               483.0000: 
STOP.FT              1701.5000: 
STEP.FT                 0.1000: 
NULL.                -999.2500: 
COMP.          Pioneer Natural Resources: COMPANY
WELL.            Mad Dog 42-31: WELL
FLD.           Purgatorie River: FIELD
LOC.           2064' FNL & 479' FEL: LOCATION
PROV.                 Colorado: PROVINCE
CNTY.               Las Animas: COUNTRY
SRVC.                         : SERVICE COMPANY
DATE.          Sun Oct 10 04:38:02 2004: LOG DATE
UWI.           05 071 08195 00: UNIQUE WELL ID
~Curve Information Block
DEPT.FT            0 000 00 00: Depth
LTEN.lb                       : Surface Line Tension
DCAL.in                       : CDL Caliper
RHOB.g/cc                     : CDL Bulk Density
RHOC.g/cc                     : CDL Density Correction
DPOR.pu                       : CDL Density Porosity
GR.GAPI                       : Gamma Ray
NPOR.pu                       : Neutron Porosity
~Parameter Information Block
~A  Depth       LTEN        DCAL        RHOB        RHOC        DPOR         GR         NPOR    
   483.0000    744.7139      8.0747      2.3759     -0.3889     16.6128    120.0293     27.6880
   483.1000    744.7139      8.0747      2.4312     -0.3677     13.2580    113.3012     27.4037
   483.2000    744.7139      8.0747      2.4752     -0.4240     10.5918    113.9966     26.4833
   483.3000    736.9965      8.0747      2.4924     -0.2993      9.5510    112.9452     25.6757
   483.4000    736.9965      8.0747      2.4848     -0.4641     10.0127    107.3293     25.1175
   483.5000    828.6044      8.0760      2.4895     -0.4004      9.7287    102.0502     24.7115
   483.6000    828.6044      8.0760      2.5204     -0.4104      7.8559     96.9371     24.4062
   483.7000    828.6044      8.0760      2.5377     -0.2941      6.8054     92.3961     23.9642
   483.8000    835.3751      8.0754      2.5074     -0.3035      8.6418     93.0634     23.6036
   483.9000    835.3751      8.0754      2.4452     -0.4056     12.4143     96.1652     23.6836
   484.0000    827.5314      8.0764      2.3850     -0.3856     16.0614     96.8838     23.7401
   484.1000    827.5314      8.0764      2.3450     -0.4971     18.4826     98.2206     23.5123
   484.2000    827.5314      8.0764      2.3246     -0.4406     19.7222    105.7889     23.4930
   484.3000    824.4654      8.0776      2.3084     -0.4139     20.7020    114.7435     23.6297
   484.4000    824.4654      8.0776      2.2868     -0.4249     22.0147    113.6466     23.6310
   484.5000    825.3051      8.0754      2.2705     -0.4579     22.9983    102.9040     23.7263
   484.6000    825.3051      8.0754      2.2731     -0.4619     22.8429     93.2596     23.9425
   484.7000    825.3051      8.0754      2.2926     -0.4655     21.6590     89.3608     23.9085
   484.8000    828.3256      8.0786      2.3139     -0.3691     20.3686     87.0556     23.6124
   484.9000    828.3256      8.0786      2.3238     -0.4070     19.7720     83.0154     23.4499
   485.0000    849.5034      8.0771      2.3263     -0.4099     19.6192     80.8018     23.5020
   485.1000    849.5034      8.0771      2.3255     -0.4319     19.6647     82.3188     23.4117
   485.2000    849.5034      8.0771      2.3315     -0.4971     19.3036     83.2747     22.9584
   485.3000    851.6721      8.0766      2.3585     -0.4376     17.6694     83.9856     22.4878
   485.4000    851.6721      8.0766      2.3842     -0.3407     16.1113     87.7272     22.5058
   485.5000    846.3685      8.0776      2.3720     -0.3522     16.8476     91.0680     22.8657
   485.6000    846.3685      8.0776      2.3266     -0.4274     19.5997     91.6428     23.2147
   485.7000    846.3685      8.0776      2.2817     -0.5150     22.3183     91.9099     23.5110
   485.8000    842.9007      8.0755      2.2645     -0.5135     23.3661     93.2474     23.6317
   485.9000    842.9007      8.0755      2.2806     -0.4928     22.3880     97.9266     23.2921
   486.0000    831.1107      8.0763      2.3148     -0.4025     20.3152    106.9116     22.5601
   486.1000    831.1107      8.0763      2.3418     -0.4194     18.6803    112.6802     21.9993
   486.2000    831.1107      8.0763      2.3539     -0.4054     17.9475    106.9497     21.9974
   486.3000    832.3412      8.0770      2.3611     -0.3955     17.5073     93.9036     22.2676
   486.4000    832.3412      8.0770      2.3628     -0.3879     17.4053     85.9277     22.5460
   486.5000    830.9458      8.0778      2.3505     -0.4066     18.1542     89.0879     22.8031
   486.6000    830.9458      8.0778      2.3344     -0.3849     19.1264     96.2800     22.9654
   486.7000    830.9458      8.0778      2.3357     -0.4475     19.0510     95.8202     23.2517
   486.8000    819.0218      8.0760      2.3571     -0.3794     17.7541     85.6919     23.6264
   486.9000    819.0218      8.0760      2.3732     -0.3513     16.7747     73.9564     23.7004
   487.0000    826.7867      8.0762      2.3652     -0.4070     17.2604     69.2266     23.6090
   487.1000    826.7867      8.0762      2.3436     -0.4212     18.5672     72.9006     23.7578
   487.2000    826.7867      8.0762      2.3274     -0.4370     19.5530     78.5859     24.0605
   487.3000    831.1896      8.0760      2.3313     -0.3799     19.3123     82.0171     24.2371
   487.4000    831.1896      8.0760      2.3617     -0.3803     17.4758     84.0717     24.2347
   487.5000    832.2513      8.0773      2.4080     -0.3629     14.6676     84.0423     24.0047
   487.6000    832.2513      8.0773      2.4502     -0.3777     12.1095     80.2617     23.5282
   487.7000    832.2513      8.0773      2.4782     -0.3574     10.4115     74.1180     23.2607
   487.8000    823.9512      8.0775      2.4876     -0.3125      9.8396     68.1117     23.5982
   487.9000    823.9512      8.0775      2.4809     -0.4158     10.2470     63.2319     24.0876
   488.0000    847.9736      8.0774      2.4627     -0.3498     11.3534     60.1835     24.2972
   488.1000    847.9736      8.0774      2.4262     -0.4099     13.5651     61.5189     24.1993
   488.2000    847.9736      8.0774      2.3875     -0.4786     15.9098     67.8066     23.6189
   488.3000    853.8037      8.0764      2.3746     -0.4212     16.6930     73.9822     22.4563
   488.4000    853.8037      8.0764      2.3794     -0.4021     16.3987     76.5191     21.2839
   488.5000    846.1315      8.0762      2.3797     -0.4301     16.3806     75.2755     20.9611
   488.6000    846.1315      8.0762      2.3702     -0.4136     16.9606     70.8274     21.6660
   488.7000    846.1315      8.0762      2.3491     -0.4262     18.2367     64.2338     22.7296
   488.8000    837.1855      8.0758      2.3294     -0.4840     19.4294     59.5506     23.4430
   488.9000    837.1855      8.0758      2.3303     -0.4141     19.3771     60.9429     23.5678
   489.0000    816.0366      8.0756      2.3411     -0.3860     18.7240     64.8768     23.2801
   489.1000    816.0366      8.0756      2.3362     -0.3942     19.0210     66.9529     22.8366
   489.2000    816.0366      8.0756      2.3106     -0.3845     20.5685     69.2722     22.4323
   489.3000    815.4780      8.0754      2.2901     -0.4497     21.8108     71.6115     22.2297
   489.4000    815.4780      8.0754      2.2925     -0.3670     21.6658     69.6496     22.1990
   489.5000    824.6508      8.0763      2.3016     -0.4082     21.1135     66.3753     22.2965
   489.6000    824.6508      8.0763      2.3043     -0.3794     20.9532     67.7730     22.4440
   489.7000    824.6508      8.0763      2.2964     -0.3821     21.4316     72.9824     22.6512
   489.8000    834.7997      8.0733      2.2700     -0.4323     23.0302     75.4976     23.1267
   489.9000    834.7997      8.0733      2.2400     -0.5084     24.8485     69.8581     23.7641
   490.0000    846.1260      8.0743      2.2352     -0.4311     25.1392     59.0259     24.2390
   490.1000    846.1260      8.0743      2.2450     -0.4387     24.5428     53.8002     24.3043
   490.2000    846.1260      8.0743      2.2365     -0.4125     25.0614     58.9942     23.9326
   490.3000    835.2426      8.0744      2.2162     -0.5308     26.2916     67.4861     23.5960
   490.4000    835.2426      8.0744      2.2166     -0.4621     26.2641     71.6464     23.8041
   490.5000    835.2716      8.0742      2.2365     -0.4190     25.0631     70.8122     24.4005
   490.6000    835.2716      8.0742      2.2570     -0.4165     23.8181     67.5334     24.6855
   490.7000    835.2716      8.0742      2.2700     -0.4184     23.0309     65.3965     24.3585
   490.8000    841.8432      8.0759      2.2660     -0.4014     23.2706     69.6478     23.9631
   490.9000    841.8432      8.0759      2.2462     -0.4287     24.4735     79.9646     23.8647
   491.0000    829.0958      8.0752      2.2305     -0.4976     25.4233     88.0891     23.7754
   491.1000    829.0958      8.0752      2.2281     -0.4687     25.5692     86.2075     23.5645
   491.2000    829.0958      8.0752      2.2250     -0.4242     25.7582     74.3531     23.2322
   491.3000    836.9098      8.0746      2.2074     -0.4127     26.8242     59.3882     22.7384
