~Version Information
VERS.                      2.0: CWLS Log ASCII Standard - VERSION 2.0
WRAP.                       NO: One line per depth step
~Well Information Block
STRT.FT               380.0000: 
STOP.FT               899.2000: 
STEP.FT                 0.1000: 
NULL.                -999.2500: 
COMP.          Pioneer Natural Resources: COMPANY
WELL.          Prospector 12-19: WELL
FLD.           Purgatoire River: FIELD
LOC.           2262' FNL & 634' FWL: LOCATION
PROV.                 Colorado: PROVINCE
CNTY.               Las Animas: COUNTRY
SRVC.                Patterson: SERVICE COMPANY
DATE.          Mon Apr 25 09:33:09 2005: LOG DATE
UWI.           05 071 08191 00: UNIQUE WELL ID
~Curve Information Block
DEPT.FT            0 000 00 00: Depth
DCAL.in                       : CDL Caliper
RHOB.g/cc                     : CDL Bulk Density
RHOC.g/cc                     : CDL Density Correction
DPOR.pu                       : CDL Density Porosity
GR.GAPI                       : Gamma Ray
NPOR.pu                       : Neutron Porosity
~Parameter Information Block
~A  Depth       DCAL        RHOB        RHOC        DPOR         GR         NPOR    
# ...
   850.4000      7.8285      2.4713      0.0089     10.8318     80.0026     20.2870
   850.5000      7.8212      2.4986      0.0188      9.1751     82.5551     20.1023
   850.6000      7.8212      2.5351      0.0687      6.9627     86.0216     20.1555
   850.7000      7.8212      2.5519      0.0881      5.9442     87.4905     20.3092
   850.8000      7.8087      2.5445      0.0487      6.3926     86.3474     20.1543
   850.9000      7.8087      2.5333      0.0191      7.0732     85.4031     19.1726
   851.0000      7.7959      2.5348      0.0780      6.9795     84.6348     17.9450
   851.1000      7.7959      2.5457      0.0924      6.3198     84.2493     17.4748
   851.2000      7.7959      2.5534      0.1042      5.8561     85.2089     18.1479
   851.3000      7.8001      2.5596      0.0409      5.4762     85.3063     19.5637
   851.4000      7.8001      2.5787      0.0365      4.3212     83.6446     21.0041
   851.5000      7.8119      2.6081      0.0272      2.5418     81.6629     21.6096
   851.6000      7.8119      2.6246      0.1008      1.5401     81.9148     20.6486
   851.7000      7.8119      2.6173      0.0663      1.9789     88.0719     18.8713
   851.8000      7.7495      2.6011      0.0713      2.9614     97.0592     17.4810
   851.9000      7.7495      2.5885      0.1081      3.7299     98.2365     16.1869
   852.0000      7.8004      2.5771      0.1159      4.4190     91.1238     14.7705
   852.1000      7.8004      2.5673      0.0702      5.0118     85.2070     14.0335
   852.2000      7.8004      2.5686      0.0609      4.9344     83.4284     14.3712
   852.3000      7.7619      2.5872      0.0566      3.8051     84.7443     15.2997
   852.4000      7.7619      2.6220      0.0752      1.6951     88.4387     15.7904
   852.5000      7.7845      2.6622      0.1422     -0.7367     90.0156     15.4459
   852.6000      7.7845      2.6862      0.1531     -2.1910     87.7710     15.0054
   852.7000      7.7845      2.6798      0.1414     -1.8087     87.3679     14.9470
   852.8000      7.7881      2.6513      0.1660     -0.0786     90.8103     15.2465
   852.9000      7.7881      2.6230      0.1373      1.6354     92.5082     16.0458
   853.0000      7.7559      2.6088      0.1376      2.4980     89.6124     17.2609
   853.1000      7.7559      2.6025      0.1339      2.8809     89.1236     18.4135
   853.2000      7.7559      2.5981      0.1077      3.1469     99.6530     19.2250
   853.3000      7.7187      2.6017      0.0503      2.9272    115.2827     19.6918
   853.4000      7.7187      2.6180      0.1197      1.9394    123.4652     19.8071
   853.5000      7.7784      2.6394      0.1223      0.6412    122.7454     19.8040
   853.6000      7.7784      2.6510      0.1673     -0.0600    117.2708     19.6160
   853.7000      7.7784      2.6400      0.1577      0.6080    109.0108     19.0566
   853.8000      7.7285      2.6138      0.0757      2.1918    100.0411     18.9204
   853.9000      7.7285      2.5976      0.0921      3.1746     93.6353     19.5231
   854.0000      7.7425      2.6020      0.0904      2.9074     91.5931     20.0067
   854.1000      7.7425      2.6048      0.1337      2.7371     93.6446     20.1779
   854.2000      7.7425      2.5861      0.0704      3.8742     97.6053     20.4554
   854.3000      7.7791      2.5665      0.0294      5.0601    100.7880     20.8955
   854.4000      7.7791      2.5582      0.0954      5.5610    103.1493     21.1188
   854.5000      7.8119      2.5341      0.1198      7.0247    105.2341     20.7077
   854.6000      7.8119      2.4999     -0.0346      9.0977    103.2105     19.8074
   854.7000      7.8119      2.5012      0.0178      9.0178     94.5128     18.9389
   854.8000      7.8008      2.5363      0.0981      6.8935     86.9305     18.8628
   854.9000      7.8008      2.5604      0.1156      5.4287     87.2137     19.6477
   855.0000      7.7748      2.5575      0.1058      5.6063     91.0889     20.4868
   855.1000      7.7748      2.5422      0.0816      6.5338     93.1050     21.1580
   855.2000      7.7748      2.5331      0.0607      7.0875     95.3216     21.6090
   855.3000      7.7108      2.5393      0.1182      6.7117    100.1432     21.3984
   855.4000      7.7108      2.5528      0.1370      5.8904    103.3717     20.9000
   855.5000      7.7199      2.5684      0.1191      4.9434    100.8437     20.6637
   855.6000      7.7199      2.5928      0.1403      3.4689     94.7207     20.2938
   855.7000      7.7199      2.6199      0.1518      1.8263     90.8630     19.8897
   855.8000      7.7303      2.6328      0.1225      1.0428     90.4365     19.8215
   855.9000      7.7303      2.6254      0.1097      1.4894     89.3205     19.8693
   856.0000      7.7921      2.5975      0.0976      3.1846     87.8266     19.9768
   856.1000      7.7921      2.5527      0.0691      5.8966     90.9588     20.0131
   856.2000      7.7921      2.5102      0.0210      8.4707     96.3361     19.7505
   856.3000      7.7999      2.4906      0.0219      9.6632     97.4453     19.4786
   856.4000      7.7999      2.4954     -0.0109      9.3724     94.1490     19.2744
   856.5000      7.8273      2.5149      0.0281      8.1884     89.1769     18.7671
   856.6000      7.8273      2.5395     -0.0041      6.6967     85.6875     17.7861
   856.7000      7.8273      2.5567      0.0630      5.6529     84.0537     17.0132
   856.8000      7.8391      2.5513      0.0721      5.9794     83.3251     17.2483
   856.9000      7.8391      2.5265      0.0611      7.4845     89.6320     17.8356
   857.0000      7.8375      2.5134      0.0032      8.2767    103.0933     17.7506
   857.1000      7.8375      2.5373      0.0279      6.8296    110.3143     17.4720
   857.2000      7.8375      2.5800      0.0349      4.2423    103.2359     17.6281
   857.3000      7.8263      2.5957      0.1128      3.2899     91.4305     17.8383
   857.4000      7.8263      2.5723      0.0331      4.7099     87.2744     17.8900
   857.5000      7.8169      2.5443      0.0072      6.4077     89.0906     18.0287
   857.6000      7.8169      2.5369      0.0150      6.8540     91.3264     18.4220
   857.7000      7.8169      2.5468      0.0285      6.2543     97.6154     19.1178
   857.8000      7.8227      2.5645      0.0282      5.1836    108.8598     20.0195
   857.9000      7.8227      2.5899      0.0681      3.6398    117.7166     20.4888
   858.0000      7.8253      2.6200      0.1285      1.8198    118.5370     20.2034
   858.1000      7.8253      2.6390      0.0977      0.6654    112.6983     19.9584
   858.2000      7.8253      2.6369      0.1101      0.7915    105.7406     20.3372
   858.3000      7.8111      2.6154      0.0836      2.0953    100.3975     21.1325
   858.4000      7.8111      2.5837      0.0889      4.0203     98.0740     21.6892
   858.5000      7.7908      2.5539      0.0330      5.8213    101.8308     21.7784
   858.6000      7.7908      2.5370      0.0356      6.8462    110.3723     22.0007
   858.7000      7.7908      2.5360      0.0204      6.9080    117.4714     22.1703
   858.8000      7.8117      2.5509      0.0162      6.0084    120.2617     21.6067
   858.9000      7.8117      2.5673      0.0767      5.0112    119.2646     20.9302
   859.0000      7.8300      2.5577      0.0512      5.5957    114.8287     20.9025
   859.1000      7.8300      2.5277     -0.0064      7.4144    111.3951     21.4782
   859.2000      7.8300      2.5122      0.0076      8.3494    113.6590     22.3232
   859.3000      7.8037      2.5166      0.0434      8.0839    121.2731     22.8727
   859.4000      7.8037      2.5259      0.0582      7.5195    129.9074     22.5084
   859.5000      7.8159      2.5425      0.0389      6.5171    130.5900     21.6754
   859.6000      7.8159      2.5689      0.0878      4.9151    122.8562     21.0795
   859.7000      7.8159      2.5942      0.0659      3.3832    118.8229     20.6399
   859.8000      7.8046      2.6118      0.0558      2.3181    120.0792     20.2794
   859.9000      7.8046      2.6210      0.0846      1.7548    119.2810     19.9837
