~Version Information
VERS.                      2.0: CWLS Log ASCII Standard - VERSION 2.0
WRAP.                       NO: One line per depth step
~Well Information Block
STRT.FT               350.0000: 
STOP.FT              1391.5000: 
STEP.FT                 0.2500: 
NULL.                -999.2500: 
COMP.          Petrogulf Corporation: COMPANY
WELL.             Leier 17-42R: WELL
FLD.           Purgatorie River: FIELD
LOC.           2398' FNL & 1109' FEL: LOCATION
PROV.                 Colorado: PROVINCE
CNTY.               Las Animas: COUNTRY
SRVC.                Patterson: SERVICE COMPANY
DATE.          Mon Oct 17 09:42:26 2005: LOG DATE
UWI.                          : UNIQUE WELL ID
~Curve Information Block
DEPT.FT            0 000 00 00: Depth
SP.mV                         : DIL Spontaneous Potential
RILD.Ohm-m                    : DIL Deep Resistivity
RILM.Ohm-m                    : DIL Medium Resistivity
RLL3.Ohm-m                    : DIL Shallow Resistivity
GR.GAPI                       : Gamma Ray
~Parameter Information Block
~A  Depth        SP         RILD        RILM        RLL3         GR     
# ...
  1358.0000    234.4612     21.5846     22.1425     24.2606     96.7861
  1358.2500    234.1579     21.7400     22.4536     24.4281     98.0736
  1358.5000    233.8442     21.9160     22.8085     25.3589    100.4308
  1358.7500    233.5339     22.1254     23.1836     27.0965    101.2036
  1359.0000    233.2291     22.3731     23.5554     29.3639     99.4540
  1359.2500    232.9200     22.6607     23.9077     31.5574     96.2754
  1359.5000    232.5983     22.9938     24.2392     32.9258     90.3245
  1359.7500    232.2705     23.3849     24.5674     32.9308     87.1411
  1360.0000    231.9551     23.8498     24.9269     31.5970     85.4146
  1360.2500    231.6615     24.3980     25.3626     29.5789     86.3845
  1360.5000    231.3762     25.0257     25.9196     27.8533     89.4188
  1360.7500    231.0680     25.7152     26.6342     27.2515     90.9495
  1361.0000    230.7077     26.4441     27.5294     28.1549     90.3285
  1361.2500    230.2841     27.1995     28.6137     30.4700     87.7914
  1361.5000    229.8109     27.9835     29.8855     33.7520     82.5030
  1361.7500    229.3257     28.8057     31.3398     37.3561     79.4543
  1362.0000    228.8842     29.6685     32.9743     40.6890     77.4544
  1362.2500    228.5452     30.5595     34.7919     43.6241     78.0263
  1362.5000    228.3540     31.4535     36.7960     46.8100     80.3050
  1362.7500    228.3349     32.3222     38.9803     51.3863     81.2923
  1363.0000    228.5002     33.1399     41.3141     58.0213     79.8731
  1363.2500    228.8663     33.8800     43.7260     66.0043     76.7992
  1363.5000    229.4584     34.5032     46.0873     73.4297     70.6397
  1363.7500    230.2998     34.9445     48.1984     78.6542     66.8528
  1364.0000    231.3984     35.1120     49.7859     81.8439     62.8449
  1364.2500    232.7410     34.9099     50.5308     85.0337     61.0066
  1364.5000    234.3002     34.2805     50.1461     90.3584     58.0769
  1364.7500    236.0519     33.2388     48.4954     97.8257     55.0320
  1365.0000    237.9974     31.8702     45.6863    104.5166     47.3142
  1365.2500    240.1603     30.2927     42.0593    106.0420     39.7531
  1365.5000    242.5460     28.6152     38.0650     99.3465     26.2115
  1365.7500    245.0931     26.9182     34.1130     84.8198     17.5016
  1366.0000    247.6673     25.2556     30.4824     66.1175      7.6635
  1366.2500    250.0973     23.6631     27.3113     47.9444      3.7658
  1366.5000    252.2171     22.1670     24.6326     33.6422      1.0032
  1366.7500    253.9001     20.7892     22.4176     24.2198      0.3471
  1367.0000    255.0962     19.5487     20.6099     18.9298      0.0524
  1367.2500    255.8499     18.4601     19.1455     16.3939      0.0119
  1367.5000    256.2709     17.5286     17.9638     15.3932      0.0000
  1367.7500    256.4779     16.7490     17.0119     15.1184   -999.2500
  1368.0000    256.5635     16.1067     16.2471     15.1066   -999.2500
  1368.2500    256.5955     15.5824     15.6366     15.1186   -999.2500
  1368.5000    256.6272     15.1573     15.1562     15.0677   -999.2500
  1368.7500    256.6922     14.8144     14.7890     14.9789   -999.2500
  1369.0000    256.7939     14.5377     14.5219     14.9331   -999.2500
  1369.2500    256.9103     14.3106     14.3442     14.9985   -999.2500
  1369.5000    257.0126     14.1156     14.2452     15.1868   -999.2500
  1369.7500    257.0761     13.9392     14.2136     15.4573   -999.2500
  1370.0000    257.0757     13.7772     14.2375     15.7496   -999.2500
  1370.2500    256.9786     13.6381     14.3051     16.0129   -999.2500
  1370.5000    256.7541     13.5379     14.4061     16.2195   -999.2500
  1370.7500    256.3879     13.4899     14.5323     16.3660   -999.2500
  1371.0000    255.8827     13.4965     14.6785     16.4646   -999.2500
  1371.2500    255.2428     13.5467     14.8418     16.5244   -999.2500
  1371.5000    254.4653     13.6213     15.0208     16.5395   -999.2500
  1371.7500    253.5477     13.7017     15.2142     16.5063   -999.2500
  1372.0000    252.5030     13.7768     15.4199     16.4644   -999.2500
  1372.2500    251.3654     13.8459     15.6342     16.5038   -999.2500
  1372.5000    250.1845     13.9158     15.8519     16.7005   -999.2500
  1372.7500    249.0085     13.9409     16.0672     17.0324   -999.2500
  1373.0000    247.8702     13.9858     16.2747     17.3794   -999.2500
  1373.2500    246.7892     14.1143     16.4702     17.6252   -999.2500
  1373.5000    245.7861     14.2744     16.6516     17.7542   -999.2500
  1373.7500    244.8838     14.4634     16.8190     17.8416   -999.2500
  1374.0000    244.0915     14.6715     16.9738     17.9657   -999.2500
  1374.2500    243.3927     14.8840     17.1190     18.1468   -999.2500
  1374.5000    242.7493     15.0886     17.2589     18.3510   -999.2500
  1374.7500    242.1094     15.2826     17.4001     18.5202   -999.2500
  1375.0000    241.4021     15.4779     17.5516     18.6007   -999.2500
  1375.2500    240.5161     15.7041     17.7251     18.5724   -999.2500
  1375.5000    239.1122     16.0173     17.9321     18.4719   -999.2500
  1375.7500    236.0933     16.5209     18.1799     18.4016   -999.2500
  1376.0000    228.7609     17.3954     18.4656     18.5305   -999.2500
  1376.2500    212.5979     18.9329     18.7694     19.1029   -999.2500
  1376.5000    183.3637     21.7405     19.0504     20.4226   -999.2500
  1376.7500    141.4210     26.2518     19.2467     22.7319   -999.2500
  1377.0000     94.2179     33.5947     19.2838     25.9553   -999.2500
  1377.2500     52.7139     44.9710     19.0945     29.4543   -999.2500
  1377.5000     24.2489     60.9749     18.6411     32.0769   -999.2500
  1377.7500      9.0323     79.8632     17.9351     32.6549   -999.2500
  1378.0000      2.6943     97.0489     17.0397     30.7017   -999.2500
  1378.2500      0.6378    108.6918     16.0522     26.7595   -999.2500
  1378.5000      0.1180    115.0018     15.0799     22.0713   -999.2500
  1378.7500      0.0157    118.5538     14.2198     17.8512   -999.2500
  1379.0000   -999.2500    121.6988     13.5514     14.7436   -999.2500
  1379.2500   -999.2500    125.9431     13.1399     12.7740   -999.2500
  1379.5000   -999.2500    405.3004     13.0474     11.6243   -999.2500
  1379.7500   -999.2500    495.5107     13.3469     10.9276   -999.2500
  1380.0000   -999.2500    649.0579     14.1406     10.4445   -999.2500
  1380.2500   -999.2500    905.0145     15.5837     10.1381   -999.2500
  1380.5000   -999.2500   1307.8193     17.9165     10.1774   -999.2500
  1380.7500   -999.2500   1860.2983     21.5080     10.8683   -999.2500
  1381.0000   -999.2500   2449.7190     26.9030     12.4997   -999.2500
  1381.2500   -999.2500   2895.4995     34.8373     15.1540   -999.2500
  1381.5000   -999.2500   3131.6287     45.9768     18.6122   -999.2500
  1381.7500   -999.2500   3224.5315     61.1583     22.4788   -999.2500
  1382.0000   -999.2500   3253.5801     79.1561     26.4756   -999.2500
  1382.2500   -999.2500   3261.1204     97.4823     30.6480   -999.2500
  1382.5000   -999.2500 100000.0000    112.6802     35.2641   -999.2500
  1382.7500   -999.2500 100000.0000    122.6895     40.5197   -999.2500
  1383.0000   -999.2500 100000.0000    127.7822     46.4056   -999.2500
  1383.2500   -999.2500 100000.0000    129.5064     52.8259   -999.2500
  1383.5000   -999.2500 100000.0000    129.4070     59.5474   -999.2500
  1383.7500   -999.2500 100000.0000    128.5474     65.7429   -999.2500
  1384.0000   -999.2500 100000.0000    127.5699     69.7467   -999.2500
  1384.2500   -999.2500 100000.0000    660.6985     69.7691   -999.2500
  1384.5000   -999.2500 100000.0000    655.8092     65.1406   -999.2500
  1384.7500   -999.2500 100000.0000    670.7982     56.7997   -999.2500
  1385.0000   -999.2500 100000.0000    710.8524     46.5453   -999.2500
  1385.2500   -999.2500 100000.0000    783.9425     35.9367   -999.2500
  1385.5000   -999.2500 100000.0000    902.5914     25.8717   -999.2500
  1385.7500   -999.2500 100000.0000   1086.3566     16.9058   -999.2500
