~Version Information
VERS.                      2.0: CWLS Log ASCII Standard - VERSION 2.0
WRAP.                       NO: One line per depth step
~Well Information Block
STRT.FT               557.0000: 
STOP.FT              2136.0000: 
STEP.FT                 0.2500: 
NULL.                -999.2500: 
COMP.          Petrogulf Corporation: COMPANY
WELL.           Montoya 12-41R: WELL
FLD.           Purgatorie River: FIELD
LOC.           1086' FNL & 610' FEL: LOCATION
CNTY.               Las Animas: COUNTY
SRVC.                         : SERVICE COMPANY
DATE.          Thu Nov 18 06:03:03 2004: LOG DATE
UWI.           05 071 08241 00: UNIQUE WELL ID
STAT.                 Colorado: STATE
~Curve Information Block
DEPT.FT            0 000 00 00: Depth
SP.mV                         : DIL Spontaneous Potential
RILD.Ohm-m                    : DIL Deep Resistivity
RILM.Ohm-m                    : DIL Medium Resistivity
RLL3.Ohm-m                    : DIL Shallow Resistivity
GR.GAPI                       : Gamma Ray
~Parameter Information Block
~A  Depth        SP         RILD        RILM        RLL3         GR     
# ...
  1285.0000   -130.8160     44.0474     51.9928     64.9411     54.6846
  1285.2500   -131.7945     44.6260     51.8097     65.1290     55.1076
  1285.5000   -132.6608     45.4501     51.7408     65.4087     55.1417
  1285.7500   -133.3925     46.5218     51.8056     65.7675     54.7614
  1286.0000   -134.0242     47.8219     52.0035     66.1884     53.7995
  1286.2500   -134.6209     49.3059     52.3207     66.6599     53.0250
  1286.5000   -135.2429     50.8936     52.7377     67.1805     51.8383
  1286.7500   -135.9243     52.4710     53.2330     67.7548     51.1180
  1287.0000   -136.6662     53.9011     53.7880     68.3834     50.2253
  1287.2500   -137.4392     55.0521     54.3815     69.0517     49.7531
  1287.5000   -138.2038     55.8325     54.9889     69.7252     49.3304
  1287.7500   -138.9258     56.2226     55.5819     70.3557     49.4201
  1288.0000   -139.5814     56.2834     56.1263     70.8940     50.3008
  1288.2500   -140.1620     56.1400     56.5840     71.3048     51.2174
  1288.5000   -140.6697     55.9394     56.9229     71.5756     52.5457
  1288.7500   -141.1140     55.8169     57.1253     71.7153     53.2497
  1289.0000   -141.5032     55.8620     57.1876     71.7455     54.1027
  1289.2500   -141.8375     56.1112     57.1221     71.6895     54.5291
  1289.5000   -142.1084     56.5382     56.9571     71.5667     54.7510
  1289.7500   -142.2962     57.0685     56.7268     71.3947     54.5727
  1290.0000   -142.3808     57.5921     56.4709     71.1969     53.9845
  1290.2500   -142.3533     57.9873     56.2267     71.0106     53.5090
  1290.5000   -142.2295     58.1477     56.0304     70.8880     52.8205
  1290.7500   -142.0540     58.0108     55.9060     70.8874     52.4477
  1291.0000   -141.8944     57.5672     55.8654     71.0589     52.1298
  1291.2500   -141.8199     56.8601     55.9043     71.4309     52.1318
  1291.5000   -141.8778     55.9687     56.0002     72.0038     52.5370
  1291.7500   -142.0696     54.9884     56.1175     72.7536     53.0720
  1292.0000   -142.3450     54.0082     56.2118     73.6405     54.0200
  1292.2500   -142.6148     53.1027     56.2411     74.6178     54.5051
  1292.5000   -142.7761     52.3212     56.1786     75.6360     54.7992
  1292.7500   -142.7520     51.6943     56.0168     76.6436     54.8229
  1293.0000   -142.5237     51.2325     55.7705     77.5872     54.9082
  1293.2500   -142.1404     50.9326     55.4677     78.4162     54.9658
  1293.5000   -141.7173     50.7829     55.1411     79.0903     54.6115
  1293.7500   -141.4028     50.7656     54.8185     79.5908     53.8862
  1294.0000   -141.3414     50.8571     54.5140     79.9277     52.1249
  1294.2500   -141.6379     51.0276     54.2273     80.1411     50.5923
  1294.5000   -142.3358     51.2400     53.9458     80.2920     47.7835
  1294.7500   -143.4161     51.4505     53.6537     80.4455     45.7379
  1295.0000   -144.8057     51.6132     53.3398     80.6473     43.2786
  1295.2500   -146.3989     51.6932     53.0057     80.9061     42.6144
  1295.5000   -148.0775     51.6748     52.6691     81.1881     43.3320
  1295.7500   -149.7137     51.5747     52.3540     81.4298     44.6178
  1296.0000   -151.1774     51.4425     52.0867     81.5656     46.9567
  1296.2500   -152.3358     51.3516     51.8851     81.5569     48.4122
  1296.5000   -153.0568     51.3851     51.7521     81.4114     49.8630
  1296.7500   -153.2227     51.6170     51.6754     81.1806     50.0599
  1297.0000   -152.7552     52.0942     51.6298     80.9411     49.2253
  1297.2500   -151.6510     52.8204     51.5884     80.7657     48.3656
  1297.5000   -150.0052     53.7477     51.5325     80.6987     47.6794
  1297.7500   -148.0155     54.7717     51.4562     80.7472     47.9290
  1298.0000   -145.9547     55.7365     51.3730     80.8860     48.9473
  1298.2500   -144.1182     56.4673     51.3088     81.0761     49.4968
  1298.5000   -142.7585     56.8018     51.2988     81.2842     49.3854
  1298.7500   -142.0294     56.6447     51.3756     81.4975     48.6241
  1299.0000   -141.9607     55.9937     51.5661     81.7240     46.9990
  1299.2500   -142.4618     54.9384     51.8861     81.9798     46.0979
  1299.5000   -143.3646     53.6265     52.3418     82.2676     45.6115
  1299.7500   -144.4676     52.2224     52.9285     82.5570     45.8420
  1300.0000   -145.5810     50.8642     53.6353     82.7799     46.5153
  1300.2500   -146.5522     49.6471     54.4441     82.8454     46.8759
  1300.5000   -147.2729     48.6169     55.3324     82.6683     47.1190
  1300.7500   -147.6847     47.7785     56.2710     82.2006     47.2072
  1301.0000   -147.7778     47.1079     57.2279     81.4515     47.5307
  1301.2500   -147.5976     46.5660     58.1699     80.4880     47.9472
  1301.5000   -147.2390     46.1077     59.0684     79.4173     48.7890
  1301.7500   -146.8307     45.6958     59.8995     78.3601     49.3889
  1302.0000   -146.5003     45.3061     60.6485     77.4263     50.2592
  1302.2500   -146.3328     44.9291     61.3018     76.6988     50.9507
  1302.5000   -146.3344     44.5674     61.8409     76.2317     52.5805
  1302.7500   -146.4278     44.2291     62.2347     76.0582     54.1327
  1303.0000   -146.4702     43.9203     62.4299     76.2030     56.6570
  1303.2500   -146.3091     43.6374     62.3552     76.6918     57.9995
  1303.5000   -145.8338     43.3633     61.9362     77.5495     58.8939
  1303.7500   -145.0108     43.0657     61.1145     78.7809     58.5999
  1304.0000   -143.8980     42.7017     59.8625     80.3343     56.9622
  1304.2500   -142.6130     42.2238     58.1987     82.0571     55.4046
  1304.5000   -141.2960     41.5888     56.1800     83.6631     53.2246
  1304.7500   -140.0663     40.7680     53.8863     84.7377     52.3308
  1305.0000   -139.0026     39.7542     51.4100     84.7959     52.3019
  1305.2500   -138.1364     38.5660     48.8342     83.3939     53.3375
  1305.5000   -137.4640     37.2460     46.2326     80.2632     56.8939
  1305.7500   -136.9616     35.8521     43.6636     75.4187     60.9257
  1306.0000   -136.5978     34.4462     41.1729     69.1890     70.0043
  1306.2500   -136.3340     33.0846     38.7954     62.1526     78.2421
  1306.5000   -136.1221     31.8107     36.5563     54.9962     93.4658
  1306.7500   -135.9004     30.6500     34.4721     48.3502    104.6694
  1307.0000   -135.6033     29.6124     32.5544     42.6575    120.8165
  1307.2500   -135.1701     28.6944     30.8076     38.1139    129.9479
  1307.5000   -134.5693     27.8831     29.2343     34.6838    140.2422
  1307.7500   -133.8069     27.1624     27.8329     32.1702    144.9578
  1308.0000   -132.9346     26.5158     26.6004     30.3061    149.6429
  1308.2500   -132.0398     25.9289     25.5323     28.8396    151.7307
  1308.5000   -131.2305     25.3917     24.6226     27.5941    154.1735
  1308.7500   -130.6133     24.8964     23.8645     26.4948    155.7801
  1309.0000   -130.2692     24.4373     23.2505     25.5618    158.5882
  1309.2500   -130.2413     24.0101     22.7726     24.8743    160.5889
  1309.5000   -130.5220     23.6109     22.4215     24.5232    162.8163
  1309.7500   -131.0545     23.2370     22.1867     24.5643    163.0186
  1310.0000   -131.7405     22.8874     22.0548     24.9879    160.3786
  1310.2500   -132.4601     22.5639     22.0100     25.7123    156.6031
  1310.5000   -133.0975     22.2709     22.0331     26.5987    149.1254
  1310.7500   -133.5716     22.0157     22.1029     27.4816    144.1681
  1311.0000   -133.8561     21.8065     22.1983     28.2038    138.7053
  1311.2500   -133.9884     21.6513     22.2996     28.6462    136.8434
  1311.5000   -134.0500     21.5563     22.3919     28.7468    136.1697
  1311.7500   -134.1367     21.5240     22.4651     28.5067    136.4525
  1312.0000   -134.3156     21.5526     22.5145     27.9837    137.2738
  1312.2500   -134.5873     21.6362     22.5397     27.2782    138.1526
  1312.5000   -134.8812     21.7651     22.5432     26.5139    140.3925
  1312.7500   -135.0745     21.9280     22.5290     25.8142    142.6045
