~Version Information
 VERS.                      2.0: CWLS Log ASCII Standard - VERSION 2.0
 WRAP.                       NO: One line per depth step
 ~Well Information Block
 STRT.FT               130.0000: 
 STOP.FT              1766.9000: 
 STEP.FT                 0.1000: 
 NULL.                -999.2500: 
 COMP.          Petrogulf Corporation: COMPANY
 WELL.           Parsons 23-15V: WELL
 FLD.           Purgatorie River: FIELD
 LOC.           2095' FSL & 1817' FWL--API 05 071 07556 00----: LOCATION
 CNTY.               Las Animas: COUNTY
 SRVC.                         : SERVICE COMPANY
 DATE.          Fri Apr 19 17:40:55 2002: LOG DATE
 UWI.                          : UNIQUE WELL ID
 STAT.                       CO: STATE
 PROV.                         :Province
 ~Curve Information Block
 DEPT.FT            0 000 00 00: Depth
 DCAL.in                       : CDL Caliper
 RHOB.g/cc                     : CDL Bulk Density
 RHOC.g/cc                     : CDL Density Correction
 DPOR.pu                       : CDL Density Porosity
 GR.GAPI                       : Gamma Ray
 NPOR.pu                       : Neutron Porosity
 ~Parameter Information Block
 ~A  Depth       DCAL        RHOB        RHOC        DPOR         GR         NPOR    
# ...
  1109.2000      7.7907      2.5922      0.0542      3.5043    133.0269     19.5494
  1109.3000      7.7659      2.5887      0.0551      3.7147    135.9902     19.9681
  1109.4000      7.7659      2.5854      0.0564      3.9174    139.4502     20.4144
  1109.5000      7.7575      2.5823      0.0580      4.1057    143.3930     20.8830
  1109.6000      7.7575      2.5795      0.0602      4.2741    147.7475     21.3675
  1109.7000      7.7575      2.5771      0.0627      4.4179    152.3874     21.8617
  1109.8000      7.7538      2.5752      0.0655      4.5343    157.1267     22.3591
  1109.9000      7.7538      2.5737      0.0684      4.6218    161.7393     22.8539
  1110.0000      7.7548      2.5728      0.0711      4.6811    165.9825     23.3414
  1110.1000      7.7548      2.5722      0.0734      4.7140    169.6249     23.8170
  1110.2000      7.7548      2.5721      0.0751      4.7235    172.4807     24.2771
  1110.3000      7.7633      2.5722      0.0760      4.7134    174.4353     24.7168
  1110.4000      7.7633      2.5727      0.0761      4.6875    175.4608     25.1305
  1110.5000      7.7809      2.5733      0.0754      4.6495    175.6145     25.5109
  1110.6000      7.7809      2.5741      0.0740      4.6024    175.0267     25.8487
  1110.7000      7.7809      2.5749      0.0721      4.5489    173.8729     26.1330
  1110.8000      7.8007      2.5759      0.0700      4.4906    172.3452     26.3511
  1110.9000      7.8007      2.5769      0.0678      4.4283    170.6221     26.4915
  1111.0000      7.8182      2.5780      0.0656      4.3622    168.8479     26.5438
  1111.1000      7.8182      2.5792      0.0636      4.2919    167.1168     26.5015
  1111.2000      7.8182      2.5804      0.0618      4.2168    165.4683     26.3630
  1111.3000      7.8333      2.5818      0.0601      4.1359    163.8920     26.1328
  1111.4000      7.8333      2.5832      0.0586      4.0483    162.3315     25.8215
  1111.5000      7.8490      2.5848      0.0570      3.9535    160.6996     25.4441
  1111.6000      7.8490      2.5865      0.0554      3.8512    158.8860     25.0193
  1111.7000      7.8490      2.5883      0.0537      3.7416    156.7745     24.5664
  1111.8000      7.8506      2.5902      0.0518      3.6252    154.2534     24.1033
  1111.9000      7.8506      2.5922      0.0499      3.5034    151.2360     23.6440
  1112.0000      7.8344      2.5943      0.0478      3.3778    147.6712     23.1987
  1112.1000      7.8344      2.5964      0.0457      3.2508    143.5546     22.7728
  1112.2000      7.8344      2.5984      0.0436      3.1248    138.9390     22.3693
  1112.3000      7.8238      2.6005      0.0414      3.0028    133.9306     21.9902
  1112.4000      7.8238      2.6024      0.0393      2.8879    128.6817     21.6379
  1112.5000      7.8225      2.6041      0.0371      2.7831    123.3790     21.3158
  1112.6000      7.8225      2.6056      0.0351      2.6915    118.2205     21.0288
  1112.7000      7.8225      2.6068      0.0331      2.6158    113.3972     20.7820
  1112.8000      7.8202      2.6078      0.0313      2.5581    109.0711     20.5788
  1112.9000      7.8202      2.6084      0.0296      2.5203    105.3578     20.4197
  1113.0000      7.8150      2.6087      0.0282      2.5031    102.3222     20.3014
  1113.1000      7.8150      2.6086      0.0271      2.5072     99.9676     20.2166
  1113.2000      7.8150      2.6082      0.0262      2.5320     98.2524     20.1548
  1113.3000      7.8104      2.6075      0.0256      2.5765     97.0925     20.1043
  1113.4000      7.8104      2.6065      0.0252      2.6389     96.3816     20.0540
  1113.5000      7.8132      2.6052      0.0250      2.7174     96.0153     19.9954
  1113.6000      7.8132      2.6036      0.0249      2.8095     95.8978     19.9243
  1113.7000      7.8132      2.6019      0.0249      2.9131     95.9621     19.8404
  1113.8000      7.8184      2.6001      0.0252      3.0265     96.1718     19.7487
  1113.9000      7.8184      2.5981      0.0257      3.1481     96.5241     19.6578
  1114.0000      7.8144      2.5959      0.0265      3.2775     97.0340     19.5788
  1114.1000      7.8144      2.5937      0.0277      3.4146     97.7283     19.5244
  1114.2000      7.8144      2.5913      0.0294      3.5600     98.6331     19.5078
  1114.3000      7.7948      2.5887      0.0317      3.7142     99.7594     19.5401
  1114.4000      7.7948      2.5860      0.0344      3.8780    101.1000     19.6302
  1114.5000      7.7729      2.5832      0.0374      4.0506    102.6245     19.7823
  1114.6000      7.7729      2.5802      0.0405      4.2300    104.2862     19.9954
  1114.7000      7.7729      2.5772      0.0436      4.4122    106.0272     20.2632
  1114.8000      7.7600      2.5743      0.0466      4.5907    107.7865     20.5732
  1114.9000      7.7600      2.5715      0.0495      4.7563    109.5079     20.9079
  1115.0000      7.7538      2.5692      0.0526      4.8980    111.1475     21.2466
  1115.1000      7.7538      2.5674      0.0561      5.0032    112.6806     21.5673
  1115.2000      7.7538      2.5665      0.0606      5.0587    114.1055     21.8495
  1115.3000      7.7557      2.5666      0.0666      5.0525    115.4427     22.0774
  1115.4000      7.7557      2.5679      0.0746      4.9749    116.7342     22.2418
  1115.5000      7.7696      2.5705      0.0849      4.8195    118.0357     22.3406
  1115.6000      7.7696      2.5743      0.0973      4.5851    119.4079     22.3801
  1115.7000      7.7696      2.5795      0.1116      4.2755    120.9023     22.3738
  1115.8000      7.7907      2.5857      0.1271      3.9000    122.5456     22.3403
  1115.9000      7.7907      2.5927      0.1428      3.4729    124.3332     22.3009
  1116.0000      7.8043      2.6003      0.1576      3.0126    126.2160     22.2770
  1116.1000      7.8043      2.6081      0.1704      2.5399    128.1099     22.2873
  1116.2000      7.8043      2.6157      0.1802      2.0769    129.9057     22.3460
  1116.3000      7.8022      2.6229      0.1863      1.6448    131.4854     22.4606
  1116.4000      7.8022      2.6292      0.1883      1.2627    132.7473     22.6323
  1116.5000      7.7846      2.6344      0.1860      0.9457    133.6291     22.8563
  1116.6000      7.7846      2.6384      0.1797      0.7051    134.1212     23.1235
  1116.7000      7.7846      2.6410      0.1700      0.5466    134.2771     23.4217
  1116.8000      7.7610      2.6422      0.1576      0.4717    134.2069     23.7383
  1116.9000      7.7610      2.6421      0.1435      0.4772    134.0673     24.0611
  1117.0000      7.7655      2.6408      0.1287      0.5565    134.0388     24.3800
  1117.1000      7.7655      2.6384      0.1139      0.7008    134.3040     24.6865
  1117.2000      7.7655      2.6352      0.1000      0.8995    135.0251     24.9746
  1117.3000      7.7890      2.6312      0.0873      1.1420    136.3236     25.2385
  1117.4000      7.7890      2.6266      0.0762      1.4180    138.2645     25.4734
  1117.5000      7.7965      2.6217      0.0668      1.7181    140.8475     25.6743
  1117.6000      7.7965      2.6164      0.0589      2.0347    144.0054     25.8368
  1117.7000      7.7965      2.6110      0.0525      2.3612    147.6137     25.9572
  1117.8000      7.7984      2.6056      0.0474      2.6924    151.5032     26.0346
  1117.9000      7.7984      2.6001      0.0435      3.0238    155.4762     26.0699
  1118.0000      7.8110      2.5947      0.0406      3.3514    159.3326     26.0674
  1118.1000      7.8110      2.5894      0.0389      3.6713    162.8891     26.0350
  1118.2000      7.8110      2.5843      0.0382      3.9789    166.0011     25.9821
  1118.3000      7.8304      2.5796      0.0386      4.2695    168.5728     25.9200
  1118.4000      7.8304      2.5751      0.0402      4.5376    170.5651     25.8604
  1118.5000      7.8498      2.5712      0.0431      4.7774    171.9927     25.8146
  1118.6000      7.8498      2.5678      0.0473      4.9834    172.9209     25.7921
  1118.7000      7.8498      2.5650      0.0530      5.1505    173.4529     25.8007
