~Version Information
VERS.                      2.0: CWLS Log ASCII Standard - VERSION 2.0
WRAP.                       NO: One line per depth step
~Well Information Block
STRT.FT               953.8000: 
STOP.FT              2226.0000: 
STEP.FT                 0.1000: 
NULL.                -999.2500: 
COMP.          Petrogulf Corporation: COMPANY
WELL.             Burson 8-13R: WELL
FLD.           Purgatorie River: FIELD
LOC.           1045' FNL & 2189' FEL: LOCATION
CNTY.               Las Animas: COUNTY
SRVC.                         : SERVICE COMPANY
DATE.          Fri Apr 30 07:30:36 2004: LOG DATE
UWI.           05 071 08039 00: UNIQUE WELL ID
STAT.                 Colorado: STATE
~Curve Information Block
DEPT.FT            0 000 00 00: Depth
DCAL.in                       : CDL Caliper
RHOB.g/cc                     : CDL Bulk Density
RHOC.g/cc                     : CDL Density Correction
DPOR.pu                       : CDL Density Porosity
NPOR.pu                       : Neutron Porosity
GR.GAPI                       : Gamma Ray
~Parameter Information Block
~A  Depth       DCAL        RHOB        RHOC        DPOR        NPOR         GR     
# ...
  2105.8000      7.8877      2.6638      0.0836     -0.8385     20.7990    146.4353
  2105.9000      7.8877      2.6958      0.0897     -2.7741     20.1726    140.3453
  2106.0000      7.8895      2.7107      0.1108     -3.6777     19.8292    136.7182
  2106.1000      7.8895      2.7058      0.0755     -3.3797     19.5383    132.9589
  2106.2000      7.8895      2.6984      0.0684     -2.9324     19.1701    133.2345
  2106.3000      7.8926      2.6888      0.0621     -2.3537     18.7352    136.0893
  2106.4000      7.8926      2.6693      0.0435     -1.1699     18.4348    135.1425
  2106.5000      7.8871      2.6440      0.0512      0.3607     18.4547    130.8563
  2106.6000      7.8871      2.6217      0.0214      1.7171     18.4445    126.3149
  2106.7000      7.8871      2.6121     -0.0072      2.2970     18.2422    121.4939
  2106.8000      7.8890      2.6159      0.0083      2.0678     18.3322    115.8727
  2106.9000      7.8890      2.6234      0.0148      1.6129     18.7317    110.4398
  2107.0000      7.8912      2.6274      0.0825      1.3727     18.7546    106.8309
  2107.1000      7.8912      2.6248      0.0223      1.5303     18.2582    106.2601
  2107.2000      7.8912      2.6161      0.0695      2.0566     17.8961    108.2770
  2107.3000      7.8905      2.5938      0.0566      3.4053     18.1048    108.7977
  2107.4000      7.8905      2.5573      0.0226      5.6153     18.7435    105.8765
  2107.5000      7.8895      2.5209      0.0086      7.8233     19.2255    101.3093
  2107.6000      7.8895      2.4939      0.0240      9.4611     18.9110     94.2955
  2107.7000      7.8895      2.4818     -0.0114     10.1968     18.0587     84.1371
  2107.8000      7.9028      2.4895     -0.0110      9.7261     17.4641     72.7985
  2107.9000      7.9028      2.5099      0.0441      8.4925     17.5557     64.3203
  2108.0000      7.9097      2.5269      0.0753      7.4608     17.9102     63.0907
  2108.1000      7.9097      2.5312      0.0844      7.2022     17.5358     65.6806
  2108.2000      7.9097      2.5262      0.0696      7.5056     16.3459     62.8493
  2108.3000      7.8722      2.5205      0.0946      7.8483     15.1272     54.4181
  2108.4000      7.8722      2.5181      0.0834      7.9940     14.4181     48.9537
  2108.5000      7.8885      2.5185      0.0881      7.9678     14.3112     48.8431
  2108.6000      7.8885      2.5106      0.1459      8.4478     14.6455     47.5479
  2108.7000      7.8885      2.4922      0.0512      9.5651     15.3281     42.7406
  2108.8000      7.9088      2.4805      0.0867     10.2732     16.4334     40.3469
  2108.9000      7.9088      2.4736      0.0957     10.6904     17.5692     44.5667
  2109.0000      7.9279      2.4611      0.0435     11.4496     17.8377     50.7887
  2109.1000      7.9279      2.4440      0.0693     12.4859     17.2901     51.3404
  2109.2000      7.9279      2.4252      0.0425     13.6213     17.2125     45.6168
  2109.3000      7.9378      2.4183     -0.0001     14.0419     18.0306     40.2919
  2109.4000      7.9378      2.4328      0.0512     13.1666     18.8038     40.5499
  2109.5000      7.9388      2.4464      0.1013     12.3386     18.6639     45.2377
  2109.6000      7.9388      2.4373      0.0296     12.8893     18.0593     48.6050
  2109.7000      7.9388      2.4218     -0.0052     13.8283     18.0671     48.4474
  2109.8000      7.9390      2.4220      0.0486     13.8174     18.7913     49.0184
  2109.9000      7.9390      2.4337      0.0486     13.1111     19.3322     50.8416
  2110.0000      7.9401      2.4436      0.0508     12.5115     19.2217     51.2750
  2110.1000      7.9401      2.4455      0.0557     12.3960     18.8132     51.4276
  2110.2000      7.9401      2.4453      0.0341     12.4090     18.5812     49.6284
  2110.3000      7.9394      2.4487      0.0405     12.2006     18.6404     44.6936
  2110.4000      7.9394      2.4497      0.0589     12.1417     18.6777     43.9567
  2110.5000      7.9419      2.4426      0.0431     12.5693     18.5262     50.9251
  2110.6000      7.9419      2.4340      0.0135     13.0919     18.5741     56.3197
  2110.7000      7.9419      2.4324      0.0450     13.1894     18.8850     53.7412
  2110.8000      7.9379      2.4377      0.0435     12.8640     18.9912     48.8078
  2110.9000      7.9379      2.4477      0.0393     12.2593     18.6479     46.8480
  2111.0000      7.9382      2.4597      0.0763     11.5355     18.0059     46.5546
  2111.1000      7.9382      2.4709      0.0484     10.8570     17.5018     46.1540
  2111.2000      7.9382      2.4823      0.0541     10.1610     17.3837     45.0175
  2111.3000      7.9397      2.4848      0.0924     10.0127     17.2760     43.5537
  2111.4000      7.9397      2.4664      0.0454     11.1292     16.6551     44.1836
  2111.5000      7.9360      2.4394      0.0302     12.7653     15.5368     46.6431
  2111.6000      7.9360      2.4280      0.0089     13.4567     14.5176     49.0796
  2111.7000      7.9360      2.4372      0.0445     12.8964     14.2618     50.6144
  2111.8000      7.9354      2.4509      0.0516     12.0640     14.8276     50.7116
  2111.9000      7.9354      2.4612      0.0152     11.4452     15.2525     50.1408
  2112.0000      7.9398      2.4694      0.0563     10.9463     14.7985     49.2886
  2112.1000      7.9398      2.4671      0.0540     11.0857     14.1679     48.9133
  2112.2000      7.9398      2.4550      0.0235     11.8179     14.4741     50.4430
  2112.3000      7.9404      2.4524      0.0112     11.9785     15.7080     52.5160
  2112.4000      7.9404      2.4609      0.0621     11.4630     16.9041     53.8599
  2112.5000      7.9396      2.4687      0.0161     10.9876     17.5565     56.2681
  2112.6000      7.9396      2.4838      0.0294     10.0714     17.9835     58.8075
  2112.7000      7.9396      2.5128      0.0662      8.3128     18.3172     58.9107
  2112.8000      7.9391      2.5370      0.0926      6.8460     18.3765     57.0721
  2112.9000      7.9391      2.5390      0.0868      6.7294     18.2665     53.9681
  2113.0000      7.9401      2.5190      0.0729      7.9364     18.2167     50.8017
  2113.1000      7.9401      2.4882      0.0304      9.8068     18.1676     51.1806
  2113.2000      7.9401      2.4628      0.0240     11.3444     18.2446     55.2431
  2113.3000      7.9391      2.4535      0.0271     11.9099     18.5712     59.1988
  2113.4000      7.9391      2.4574      0.0158     11.6749     18.7271     60.9317
  2113.5000      7.9396      2.4689      0.0351     10.9771     18.5437     62.3070
  2113.6000      7.9396      2.4900      0.0382      9.6946     18.5299     64.6825
  2113.7000      7.9396      2.5188      0.0812      7.9500     19.0415     65.8854
  2113.8000      7.9395      2.5438      0.0665      6.4346     19.4544     65.2801
  2113.9000      7.9395      2.5549      0.1212      5.7658     19.2506     64.9864
  2114.0000      7.9377      2.5513      0.0600      5.9847     18.9067     66.9994
  2114.1000      7.9377      2.5422      0.0665      6.5343     18.7817     68.7328
  2114.2000      7.9377      2.5291      0.0686      7.3294     18.6631     68.0954
  2114.3000      7.9336      2.5152      0.0091      8.1711     18.3443     66.8608
  2114.4000      7.9336      2.5180      0.0446      8.0016     17.9469     63.9159
  2114.5000      7.9278      2.5335      0.0896      7.0621     17.8595     58.5714
  2114.6000      7.9278      2.5376      0.0507      6.8130     18.0402     54.9030
  2114.7000      7.9278      2.5222      0.0773      7.7444     18.1829     54.4389
  2114.8000      7.9306      2.4938      0.0435      9.4661     18.3524     54.0019
  2114.9000      7.9306      2.4669      0.0193     11.0939     18.6592     53.0916
  2115.0000      7.9334      2.4542      0.0566     11.8688     18.8241     55.5851
  2115.1000      7.9334      2.4541      0.0300     11.8744     18.5462     58.8587
  2115.2000      7.9334      2.4598      0.0710     11.5266     18.1128     56.3455
  2115.3000      7.9329      2.4637      0.0467     11.2922     17.8651     50.5739
