~Version Information
VERS.                      2.0: CWLS Log ASCII Standard - VERSION 2.0
WRAP.                       NO: One line per depth step
~Well Information Block
STRT.FT               952.6000: 
STOP.FT              2511.5000: 
STEP.FT                 0.1000: 
NULL.                -999.2500: 
COMP.          Petrogulf Corporation: COMPANY
WELL.             Royal 8-33 V: WELL
FLD.           Purgatoire River: FIELD
LOC.           2365' FSL & 2336' FEL: LOCATION
PROV.                 Colorado: PROVINCE
CNTY.               Las Animas: COUNTRY
SRVC.                Patterson: SERVICE COMPANY
DATE.          Fri Dec 05 09:15:49 2003: LOG DATE
UWI.                          : UNIQUE WELL ID
~Curve Information Block
DEPT.FT            0 000 00 00: Depth
DCAL.in                       : CDL Caliper
RHOB.g/cc                     : CDL Bulk Density
RHOC.g/cc                     : CDL Density Correction
DPOR.pu                       : CDL Density Porosity
GR.GAPI                       : Gamma Ray
NPOR.pu                       : Neutron Porosity
~Parameter Information Block
~A  Depth       DCAL        RHOB        RHOC        DPOR         GR         NPOR    
# ...
  2095.0000      8.1198      2.4791      0.1341     10.3554     80.4198     23.4165
  2095.1000      8.1198      2.4860      0.1152      9.9415     82.9116     23.1144
  2095.2000      8.1198      2.5048      0.1222      8.7986     92.6635     23.0353
  2095.3000      8.1156      2.5326      0.1293      7.1132    102.1937     23.1094
  2095.4000      8.1156      2.5564      0.1438      5.6719    104.0069     22.8038
  2095.5000      8.0964      2.5673      0.1589      5.0109    100.5753     21.9642
  2095.6000      8.0964      2.5603      0.1368      5.4352     97.5513     21.2074
  2095.7000      8.0964      2.5448      0.0988      6.3751     95.4134     20.6817
  2095.8000      8.0914      2.5395      0.0852      6.6941     91.7029     20.3410
  2095.9000      8.0914      2.5459      0.1673      6.3090     86.2422     20.2646
  2096.0000      8.1093      2.5506      0.1105      6.0270     81.5056     20.2171
  2096.1000      8.1093      2.5507      0.1182      6.0164     83.6550     20.1652
  2096.2000      8.1093      2.5495      0.0909      6.0926     92.4834     20.1948
  2096.3000      8.0983      2.5488      0.0601      6.1320     99.2683     20.1366
  2096.4000      8.0983      2.5533      0.1082      5.8595     99.9218     19.9018
  2096.5000      8.0734      2.5650      0.0925      5.1530     96.0118     19.4487
  2096.6000      8.0734      2.5832      0.0815      4.0512     88.7125     18.6551
  2096.7000      8.0734      2.6006      0.1388      2.9921     81.5123     17.9812
  2096.8000      8.0792      2.6029      0.1051      2.8546     80.1428     18.0854
  2096.9000      8.0792      2.5846      0.0859      3.9642     84.7232     18.6909
  2097.0000      8.0911      2.5572      0.0509      5.6248     87.6630     19.1013
  2097.1000      8.0911      2.5388      0.0974      6.7404     82.2419     19.5038
  2097.2000      8.0911      2.5441      0.0602      6.4198     71.5128     20.1121
  2097.3000      8.1000      2.5733      0.1506      4.6476     65.6995     20.4406
  2097.4000      8.1000      2.5951      0.1882      3.3246     69.3288     20.2724
  2097.5000      8.0501      2.5843      0.1263      3.9789     75.8496     19.8773
  2097.6000      8.0501      2.5542      0.1062      5.8039     78.7511     19.3224
  2097.7000      8.0501      2.5255      0.0624      7.5445     78.8325     18.6963
  2097.8000      8.0962      2.5110      0.0274      8.4261     77.7434     18.7263
  2097.9000      8.0962      2.5164      0.0736      8.0940     76.4279     19.8385
  2098.0000      8.1031      2.5309      0.1115      7.2190     77.2884     21.1939
  2098.1000      8.1031      2.5327      0.1375      7.1119     80.3487     21.8843
  2098.2000      8.1031      2.5213      0.0574      7.8014     83.6978     22.0779
  2098.3000      8.1503      2.5215      0.0853      7.7867     85.4386     22.4174
  2098.4000      8.1503      2.5470      0.0716      6.2424     82.4147     22.9326
  2098.5000      8.1686      2.5994      0.0755      3.0660     77.7684     23.1674
  2098.6000      8.1686      2.6750      0.1651     -1.5135     78.6467     23.1305
  2098.7000      8.1686      2.7597      0.1599     -6.6470     81.2812     23.1047
  2098.8000      8.2044      2.8375      0.2107    -11.3625     81.4220     23.0845
  2098.9000      8.2044      2.8829      0.2387    -14.1180     83.8004     22.8113
  2099.0000      8.1908      2.8787      0.1913    -13.8589     86.5256     22.3600
  2099.1000      8.1908      2.8408      0.1909    -11.5651     82.8753     22.1599
  2099.2000      8.1908      2.8017      0.1197     -9.1928     76.0451     22.3911
  2099.3000      8.1501      2.7715      0.1904     -7.3617     72.9768     22.7098
  2099.4000      8.1501      2.7276      0.1213     -4.7031     75.3482     22.8499
  2099.5000      8.1027      2.6641      0.1049     -0.8570     80.2950     23.0849
  2099.6000      8.1027      2.6071      0.0910      2.5995     83.8461     23.5686
  2099.7000      8.1027      2.5853      0.0792      3.9206     84.6866     24.1653
  2099.8000      8.0818      2.5933      0.1289      3.4353     85.7261     24.8698
  2099.9000      8.0818      2.5902      0.2107      3.6240     92.1074     25.4683
  2100.0000      8.0199      2.5690      0.0977      4.9073    108.0582     25.6515
  2100.1000      8.0199      2.5619      0.1142      5.3403    123.6304     25.4089
  2100.2000      8.0199      2.5673      0.1149      5.0096    122.5639     25.1088
  2100.3000      8.0149      2.5631      0.1606      5.2661    110.2689     25.1105
  2100.4000      8.0149      2.5482      0.0989      6.1708    100.7508     25.2147
  2100.5000      8.0788      2.5349      0.1019      6.9770     95.4455     25.0755
  2100.6000      8.0788      2.5325      0.0679      7.1210     90.0897     24.8376
  2100.7000      8.0788      2.5412      0.1266      6.5933     85.0528     24.7669
  2100.8000      8.1101      2.5380      0.1986      6.7863     83.5458     24.6037
  2100.9000      8.1101      2.5074      0.1403      8.6412     86.5287     24.4520
  2101.0000      8.1358      2.4886     -0.0259      9.7831     91.7552     24.7310
  2101.1000      8.1358      2.5144      0.0866      8.2211     93.9162     25.0701
  2101.2000      8.1358      2.5486      0.1373      6.1438     93.1593     24.9981
  2101.3000      8.1094      2.5496      0.1542      6.0828     93.9024     24.8645
  2101.4000      8.1094      2.5234      0.0900      7.6721     95.2447     25.2155
  2101.5000      8.1098      2.4995      0.0722      9.1189     96.0161     25.8165
  2101.6000      8.1098      2.4901      0.0873      9.6887     98.2621     25.9383
  2101.7000      8.1098      2.4885      0.0852      9.7880    101.2066     25.3277
  2101.8000      8.1552      2.4939      0.0535      9.4626    102.3222     24.5522
  2101.9000      8.1552      2.5093      0.0768      8.5301    102.7103     24.3440
  2102.0000      8.1113      2.5199      0.1449      7.8872    103.1532     24.7439
  2102.1000      8.1113      2.5099      0.0812      8.4937    105.2549     24.8192
  2102.2000      8.1113      2.4854      0.1270      9.9762    111.7840     24.0677
  2102.3000      8.0958      2.4588      0.0959     11.5880    117.9404     23.5674
  2102.4000      8.0958      2.4389      0.0638     12.7956    117.6779     24.3159
  2102.5000      8.0900      2.4255      0.0566     13.6090    114.0094     25.3669
  2102.6000      8.0900      2.4049      0.1393     14.8569    110.4972     25.4135
  2102.7000      8.0900      2.3672      0.0791     17.1420    106.6117     24.8974
  2102.8000      8.0590      2.3246      0.0488     19.7210    100.6066     24.7390
  2102.9000      8.0590      2.2944      0.0601     21.5529     92.4187     24.8958
  2103.0000      8.0771      2.2880      0.0331     21.9365     84.0156     24.9173
  2103.1000      8.0771      2.3089      0.1167     20.6741     76.1727     24.8941
  2103.2000      8.0771      2.3428      0.1292     18.6209     70.0364     25.0086
  2103.3000      8.0771      2.3691      0.1441     17.0233     68.7965     25.1956
  2103.4000      8.0771      2.3781      0.0951     16.4804     72.8030     25.4904
  2103.5000      8.0597      2.3800      0.1050     16.3660     77.3019     25.8175
  2103.6000      8.0597      2.3947      0.0820     15.4709     79.7258     25.9819
  2103.7000      8.0597      2.4311      0.1107     13.2655     80.7024     25.7472
  2103.8000      8.0976      2.4725      0.1652     10.7601     78.8355     25.1592
  2103.9000      8.0976      2.4927      0.1632      9.5330     74.5674     24.5153
  2104.0000      8.1165      2.4958      0.0878      9.3441     71.3793     23.9005
  2104.1000      8.1165      2.5062      0.1313      8.7175     71.5136     23.4188
  2104.2000      8.1165      2.5270      0.1543      7.4544     73.3358     23.0308
  2104.3000      8.1274      2.5450      0.1585      6.3613     73.0046     22.5620
  2104.4000      8.1274      2.5516      0.1227      5.9641     71.8240     22.1880
  2104.5000      8.1173      2.5468      0.1067      6.2540     74.0334     22.0180
