~Version Information
 VERS.                                  2.0 : CWLS LAS VERSION
 WRAP.                                   NO : WRAPING MODE
 SWARE .                 MController 2.5.0J : SOFTWARE VERSION
~Well Information
 WELL.                        Montoya 7-12R : WELL
 COMP.                       Petrogulf Corp : COMPANY
 FLD.                      Purgatorie River : FIELD
 LOC.                 SW/NW Sec 7 T33S R67W : LOCATION
 DATE.                    11/18/04 11/19/04 : DATE(S) LOGGED
 SRVC.       Blanco Geological Services LLC : SERVICE COMPANY
 STAT.                                   CO : STATE
 CNTY.                           Las Animas : COUNTY
 CTRY.                                  USA : COUNTRY
 API.                       05-071-08240-00 : API NUMBER
 STRT.FT                              30.00 : START DEPTH
 STOP.FT                            2040.00 : STOP DEPTH
 STEP.FT                               1.00 : DEPTH INCREMENT
 NULL.                                -9999 : NULL VALUE
~Curve information
 DEPTH.FT                                   :
 ROP.MIN/FT                                 :
 GAS.UNITS                                  :
~ASCII Log data
# ...
       630.0         0.20         10.1 
       631.0         0.20          9.8 
       632.0         0.27         10.0 
       633.0         0.20         10.0 
       634.0         0.20         10.1 
       635.0         0.17          9.7 
       636.0         0.20         10.0 
       637.0         0.27         10.5 
       638.0         0.30         10.4 
       639.0         0.30          9.7 
       640.0         0.22         10.4 
       641.0         0.13          9.9 
       642.0         0.17          9.9 
       643.0         0.20         10.7 
       644.0         0.17         10.3 
       645.0         0.17         10.5 
       646.0         0.20         10.5 
       647.0         0.20         10.5 
       648.0         0.20         10.5 
       649.0         0.20          5.8 
       650.0         0.20          3.9 
       651.0         0.20          3.7 
       652.0         0.17          3.7 
       653.0         0.20         10.5 
       654.0         0.17         28.3 
       655.0         0.10         35.3 
       656.0         0.27         30.8 
       657.0         0.23         29.1 
       658.0         0.30         24.5 
       659.0         0.20         25.2 
       660.0         0.20         26.2 
       661.0         0.20         25.8 
       662.0         0.17         23.5 
       663.0         0.23         16.6 
       664.0         0.30         14.1 
       665.0         0.38         10.7 
       666.0         0.23          7.4 
       667.0         0.17          6.5 
       668.0         0.27          6.4 
       669.0         0.20          6.6 
       670.0         0.17          6.0 
       671.0         0.13          6.2 
       672.0         0.20          6.7 
       673.0         0.20          6.5 
       674.0         0.20          8.3 
       675.0         0.17         20.9 
       676.0         0.13         24.7 
       677.0         0.17         59.5 
       678.0         0.13        146.6 
       679.0         0.13        202.1 
       680.0         0.13        208.3 
       681.0         0.17        221.3 
       682.0         0.17        202.6 
       683.0         0.13        181.4 
       684.0         0.15        148.8 
       685.0         0.10        131.0 
       686.0         0.10        104.1 
       687.0         0.23         90.8 
       688.0         0.20         78.0 
       689.0         0.20         57.0 
       690.0         0.17         38.1 
       691.0         0.20         22.9 
       692.0         0.20         21.3 
       693.0         0.20         12.3 
       694.0         0.20          8.8 
       695.0         0.17          6.5 
       696.0         0.13          5.6 
       697.0         0.17          5.6 
       698.0         0.28          4.6 
       699.0         0.20          5.1 
       700.0         0.20          4.6 
       701.0         0.17          4.8 
       702.0         0.17          5.0 
       703.0         0.13          5.0 
       704.0         0.17          5.2 
       705.0         0.17         24.0 
       706.0         0.17         24.0 
       707.0         0.17        117.2 
       708.0         0.20        226.2 
       709.0         0.20        241.8 
       710.0         0.17        224.7 
       711.0         0.20        217.1 
       712.0         0.17        156.8 
       713.0         0.20        110.7 
       714.0         0.17        104.1 
       715.0         0.20         57.9 
       716.0         0.18         31.6 
       717.0         0.10         30.0 
       718.0         0.23         16.8 
       719.0         0.27         10.3 
       720.0         0.23          6.3 
       721.0         0.30          5.0 
       722.0         0.27          4.9 
       723.0         0.28          5.7 
       724.0         0.27          5.4 
       725.0         0.27          5.1 
       726.0         0.23          5.2 
       727.0         0.20          6.0 
       728.0         0.13          6.0 
       729.0         0.13          6.1 
       730.0         0.13          5.3 
       731.0         0.20          5.6 
       732.0         0.27          5.9 
       733.0         0.20          5.3 
       734.0         0.17         37.5 
       735.0         0.23         37.5 
       736.0         0.17        133.9 
       737.0         0.17        299.5 
       738.0         0.20        408.5 
       739.0         0.17        409.5 
       740.0         0.17        334.2 
       741.0         0.22        319.6 
       742.0         0.17        223.2 
       743.0         0.17        150.9 
       744.0         0.20        142.8 
       745.0         0.17         86.2 
       746.0         0.27         48.3 
       747.0         0.17         24.6 
       748.0         0.20         17.0 
       749.0         0.25         11.0 
       750.0         0.17          5.9 
       751.0         0.17          5.9 
       752.0         0.17          5.7 
       753.0         0.13          4.6 
       754.0         0.17          4.2 
       755.0         0.17          4.2 
       756.0         0.20          4.8 
       757.0         0.20          4.6 
       758.0         0.20          4.4 
       759.0         0.17          5.1 
       760.0         0.20          5.2 
       761.0         0.20          4.5 
       762.0         0.20          4.8 
       763.0         0.20         18.5 
       764.0         0.17         35.0 
       765.0         0.23        108.8 
       766.0         0.13        178.0 
       767.0         0.22        195.9 
       768.0         0.17        197.1 
       769.0         0.17        195.4 
       770.0         0.17        181.1 
       771.0         0.13        155.4 
       772.0         0.13        132.1 
       773.0         0.17        126.4 
       774.0         0.13         88.4 
       775.0         0.10         69.3 
       776.0         0.27         62.1 
       777.0         0.27         38.0 
       778.0         0.22         19.1 
       779.0         0.23         13.1 
       780.0         0.20          9.7 
       781.0         0.20          8.6 
       782.0         0.13          8.5 
       783.0         0.17          9.1 
       784.0         0.17         10.2 
       785.0         0.27         11.1 
       786.0         0.17         12.1 
       787.0         0.20         12.2 
       788.0         0.23          8.6 
       789.0         0.23          6.7 
       790.0         0.33          5.4 
       791.0         0.30          5.1 
       792.0         0.23          4.9 
       793.0         0.15          3.9 
       794.0         0.20          4.8 
       795.0         0.17         15.4 
       796.0         0.17         15.4 
       797.0         0.13         33.8 
       798.0         0.17         94.3 
       799.0         0.17        308.5 
       800.0         0.17        414.9 
       801.0         0.20       1253.8 
       802.0         0.27       1197.5 
       803.0         0.30        802.7 
       804.0         0.17        719.6 
       805.0         0.27        545.2 
       806.0         0.27        440.0 
       807.0         0.27         53.9 
       808.0         0.20         39.3 
       809.0         0.23         32.9 
       810.0         0.23         24.3 
       811.0         0.20         16.3 
       812.0         0.20          9.9 
       813.0         0.17          8.2 
       814.0         0.20          8.1 
       815.0         0.13          8.1 
       816.0         0.13          8.5 
       817.0         0.17          7.8 
       818.0         0.17          7.1 
       819.0         0.13          6.8 
       820.0         0.13        262.3 
       821.0         0.13         18.1 
       822.0         0.10         18.1 
       823.0         0.10         20.3 
       824.0         0.08         20.3 
       825.0         0.10         15.6 
       826.0         0.07         15.6 
       827.0         0.17         15.6 
       828.0         0.13         14.2 
       829.0         0.17         10.7 
