~Version Information
VERS.                      2.0: CWLS Log ASCII Standard - VERSION 2.0
WRAP.                       NO: One line per depth step
~Well Information Block
STRT.FT               743.8000: 
STOP.FT              1975.8000: 
STEP.FT                 0.1000: 
NULL.                -999.2500: 
COMP.          Petrogulf Corporation: COMPANY
WELL.            Montoya 6-14V: WELL
FLD.           Purgatorie River: FIELD
LOC.           318' FSL & 882' FWL: LOCATION
CNTY.               Las Animas: COUNTY
SRVC.                         : SERVICE COMPANY
DATE.          Sat Aug 14 09:19:43 2004: LOG DATE
UWI.           05 071 08020 00: UNIQUE WELL ID
STAT.                 Colorado: STATE
~Curve Information Block
DEPT.FT            0 000 00 00: Depth
DCAL.in                       : CDL Caliper
RHOB.g/cc                     : CDL Bulk Density
RHOC.g/cc                     : CDL Density Correction
DPOR.pu                       : CDL Density Porosity
GR.GAPI                       : Gamma Ray
NPOR.pu                       : Neutron Porosity
~Parameter Information Block
~A  Depth       DCAL        RHOB        RHOC        DPOR         GR         NPOR    
# ...
   945.4000      8.0295      2.5439      0.0435      6.4312     90.2475     21.3190
   945.5000      8.0049      2.5636      0.0814      5.2342     86.6783     19.6673
   945.6000      8.0049      2.5657      0.0468      5.1110     84.2365     17.3929
   945.7000      8.0049      2.5501      0.0414      6.0551     78.4880     15.9615
   945.8000      8.0066      2.5341      0.0157      7.0242     72.6914     15.4851
   945.9000      8.0066      2.5315      0.0241      7.1841     67.7766     14.8403
   946.0000      8.0191      2.5367      0.0385      6.8667     59.0327     13.5322
   946.1000      8.0191      2.5388      0.0076      6.7423     48.4171     12.1972
   946.2000      8.0191      2.5452      0.0107      6.3524     42.9293     11.4983
   946.3000      7.9966      2.5661      0.0367      5.0832     45.4226     11.2261
   946.4000      7.9966      2.5872      0.0648      3.8071     51.7899     10.7492
   946.5000      7.9466      2.5810      0.0778      4.1790     55.4926      9.9893
   946.6000      7.9466      2.5473      0.0135      6.2251     55.7141      9.5216
   946.7000      7.9466      2.5200      0.0286      7.8769     57.5860      9.7449
   946.8000      7.9524      2.5180      0.0826      7.9982     62.0029     10.6528
   946.9000      7.9524      2.5283      0.0524      7.3743     63.8454     11.9128
   947.0000      7.9452      2.5460      0.0701      6.3023     63.1284     13.0358
   947.1000      7.9452      2.5827      0.0826      4.0806     64.4580     13.7933
   947.2000      7.9452      2.6356      0.1267      0.8737     68.8138     14.3192
   947.3000      7.9625      2.6826      0.1645     -1.9767     73.1763     14.7290
   947.4000      7.9625      2.7061      0.1921     -3.3972     76.2779     15.0756
   947.5000      7.9786      2.7000      0.1966     -3.0282     79.0911     15.0220
   947.6000      7.9786      2.6700      0.1412     -1.2106     82.1622     14.2906
   947.7000      7.9786      2.6339      0.0880      0.9758     84.2202     13.6094
   947.8000      7.9936      2.6112      0.0264      2.3533     83.9245     13.6209
   947.9000      7.9936      2.6098      0.0424      2.4334     84.5636     14.2154
   948.0000      7.9655      2.6164      0.0473      2.0344     90.6511     15.0906
   948.1000      7.9655      2.6130      0.0075      2.2405    100.6531     16.0566
   948.2000      7.9655      2.5992      0.0403      3.0798    109.7414     16.6222
   948.3000      8.0757      2.5817      0.0493      4.1401    117.2469     16.5488
   948.4000      8.0757      2.5654      0.0318      5.1284    125.1816     16.5746
   948.5000      8.1687      2.5553      0.0065      5.7364    131.1026     17.1950
   948.6000      8.1687      2.5501      0.0356      6.0546    131.9993     18.4084
   948.7000      8.1687      2.5432      0.0054      6.4753    130.6475     20.0019
   948.8000      8.1692      2.5383     -0.0252      6.7690    132.0710     21.2756
   948.9000      8.1692      2.5387      0.0419      6.7443    136.1619     21.6028
   949.0000      8.1346      2.5340      0.0174      7.0326    138.9771     21.1580
   949.1000      8.1346      2.5248      0.0003      7.5882    141.6525     20.5417
   949.2000      8.1346      2.5232     -0.0056      7.6820    146.1310     20.0403
   949.3000      8.1760      2.5280      0.0136      7.3962    148.7990     19.9473
   949.4000      8.1760      2.5295      0.0109      7.3022    146.8762     20.4457
   949.5000      8.1503      2.5250      0.0486      7.5730    142.5924     20.8955
   949.6000      8.1503      2.5219     -0.0378      7.7609    140.1606     20.8081
   949.7000      8.1503      2.5280      0.0000      7.3925    136.6045     20.6433
   949.8000      8.1826      2.5334      0.0079      7.0681    130.4824     21.1207
   949.9000      8.1826      2.5311     -0.0224      7.2064    128.5806     22.1585
   950.0000      8.1737      2.5339     -0.0359      7.0348    131.8604     23.0475
   950.1000      8.1737      2.5456      0.0098      6.3255    133.1773     23.5167
   950.2000      8.1737      2.5512      0.0522      5.9907    131.9503     23.5770
   950.3000      8.1770      2.5429     -0.0154      6.4900    135.8107     23.4562
   950.4000      8.1770      2.5254      0.0464      7.5533    142.5954     23.6388
   950.5000      8.1706      2.5019     -0.0048      8.9741    144.8178     24.0810
   950.6000      8.1706      2.4781      0.0070     10.4176    146.0786     24.3839
   950.7000      8.1706      2.4624     -0.0465     11.3676    150.1888     24.6275
   950.8000      8.1887      2.4586     -0.0239     11.5990    153.6989     24.9835
   950.9000      8.1887      2.4592     -0.0039     11.5662    155.3176     25.1203
   951.0000      8.1877      2.4633     -0.0311     11.3137    155.1158     24.8172
   951.1000      8.1877      2.4801      0.0019     10.2945    152.4315     24.3372
   951.2000      8.1877      2.5090      0.0213      8.5446    149.1004     23.8644
   951.3000      8.1614      2.5404      0.0329      6.6449    145.5216     23.3282
   951.4000      8.1614      2.5621      0.0887      5.3244    139.2779     23.0879
   951.5000      8.1409      2.5699      0.0560      4.8534    134.2018     23.1975
   951.6000      8.1409      2.5698      0.0917      4.8586    138.7173     22.8683
   951.7000      8.1409      2.5664      0.0895      5.0652    150.3107     22.2847
   951.8000      8.1441      2.5647      0.0583      5.1723    159.4254     22.4736
   951.9000      8.1441      2.5696      0.0792      4.8757    164.4411     23.5467
   952.0000      8.1770      2.5771      0.0584      4.4170    164.3741     24.6744
   952.1000      8.1770      2.5790      0.0545      4.3039    153.3505     24.9812
   952.2000      8.1770      2.5740      0.0410      4.6070    133.2444     24.4253
   952.3000      8.1647      2.5729      0.0333      4.6749    115.2245     23.9410
   952.4000      8.1647      2.5852      0.0540      3.9280    107.5889     24.2186
   952.5000      8.1754      2.6022      0.0589      2.8999    110.4972     24.9293
   952.6000      8.1754      2.6105      0.0898      2.3935    118.4680     25.0388
   952.7000      8.1754      2.6191      0.0274      1.8702    125.7255     24.1066
   952.8000      8.1843      2.6391      0.0854      0.6594    129.4806     22.8933
   952.9000      8.1843      2.6522      0.1202     -0.1351    130.2938     22.0686
   953.0000      8.1785      2.6469      0.0877      0.1880    128.9419     21.5427
   953.1000      8.1785      2.6413      0.1036      0.5303    123.8587     21.2811
   953.2000      8.1785      2.6392      0.0975      0.6542    120.0098     21.8266
   953.3000      8.1765      2.6243      0.1037      1.5594    125.4504     23.1760
   953.4000      8.1765      2.5996      0.0324      3.0540    136.9976     24.1902
   953.5000      8.1814      2.5850      0.0121      3.9374    143.1136     24.2142
   953.6000      8.1814      2.5806      0.0386      4.2036    139.0350     23.7916
   953.7000      8.1814      2.5715      0.0105      4.7546    132.4707     23.2962
   953.8000      8.1958      2.5478      0.0267      6.1964    130.1597     22.7567
   953.9000      8.1958      2.5017      0.0393      8.9897    131.9181     22.4139
   954.0000      8.1711      2.4334      0.0167     13.1290    135.2175     22.5869
   954.1000      8.1711      2.3532     -0.0426     17.9880    139.4485     23.3736
   954.2000      8.1711      2.2695     -0.0512     23.0590    145.8349     24.3247
   954.3000      8.2001      2.1896     -0.0883     27.9034    149.4629     24.9425
   954.4000      8.2001      2.1195     -0.1117     32.1521    146.0587     25.3694
   954.5000      8.1889      2.0608     -0.0731     35.7089    139.5093     26.0390
   954.6000      8.1889      2.0317     -0.0288     37.4725    137.1501     26.9758
   954.7000      8.1889      2.0574      0.0438     35.9166    138.8959     27.7712
   954.8000      8.2259      2.1243      0.2795     31.8580    136.2303     28.1578
   954.9000      8.2259      2.1978      0.2962     27.4042    129.4679     28.2824
