~Version Information
VERS.                      2.0: CWLS Log ASCII Standard - VERSION 2.0
WRAP.                       NO: One line per depth step
~Well Information Block
STRT.FT               480.0000: 
STOP.FT              1629.0000: 
STEP.FT                 0.2500: 
NULL.                -999.2500: 
COMP.          Pioneer Natural Resources: COMPANY
WELL.          Dude Canyon 22-32 Tr: WELL
FLD.           Purgatoire River: FIELD
LOC.           1741' FNL & 2331' FWL: LOCATION
PROV.                 Colorado: PROVINCE
CNTY.               Las Animas: COUNTRY
SRVC.                Patterson: SERVICE COMPANY
DATE.          Sat Jul 09 01:36:28 2005: LOG DATE
UWI.           05 071 08421 00: UNIQUE WELL ID
~Curve Information Block
DEPT.FT            0 000 00 00: Depth
SN.Ohm-m                      : IEL Short Normal
SP.mV                         : IEL Spontaneous Potential
DIR.Ohm-m                     : IEL Induction Resistivity
GR.GAPI                       : Gamma Ray
~Parameter Information Block
~A  Depth        SN          SP         DIR          GR     
# ...
  1150.0000     26.0238     27.7620     23.4257    124.5865
  1150.2500     24.7988     27.7669     22.4475    127.6202
  1150.5000     23.7255     27.7965     21.5435    130.2805
  1150.7500     22.7431     27.8389     20.6753    130.5635
  1151.0000     21.7789     27.8872     19.8258    129.4445
  1151.2500     20.8481     27.9449     19.0002    128.2129
  1151.5000     20.0080     28.0224     18.2167    126.4567
  1151.7500     19.2985     28.1289     17.4952    125.8756
  1152.0000     18.7346     28.2642     16.8468    126.7330
  1152.2500     18.3177     28.4164     16.2715    128.5759
  1152.5000     18.0161     28.5665     15.7620    132.6154
  1152.7500     17.7268     28.6990     15.3123    135.6040
  1153.0000     17.3608     28.8118     14.9222    139.7682
  1153.2500     16.9691     28.9179     14.5965    141.9571
  1153.5000     16.6446     29.0366     14.3406    143.8003
  1153.7500     16.3679     29.1792     14.1559    144.1021
  1154.0000     16.0774     29.3405     14.0384    144.0836
  1154.2500     15.7864     29.5002     13.9815    144.3378
  1154.5000     15.5661     29.6337     13.9802    145.1077
  1154.7500     15.4675     29.7229     14.0347    145.2498
  1155.0000     15.4943     29.7609     14.1471    143.8934
  1155.2500     15.6480     29.7497     14.3142    142.0650
  1155.5000     15.9396     29.6986     14.5218    139.2426
  1155.7500     16.3391     29.6264     14.7466    137.8388
  1156.0000     16.7652     29.5609     14.9666    135.7535
  1156.2500     17.0994     29.5290     15.1719    133.4114
  1156.5000     17.1982     29.5415     15.3660    127.6548
  1156.7500     16.9745     29.5873     15.5598    122.8818
  1157.0000     16.4963     29.6433     15.7664    116.5164
  1157.2500     16.0039     29.6876     16.0020    114.0456
  1157.5000     15.8487     29.7057     16.2852    113.8791
  1157.7500     16.3175     29.6891     16.6304    115.6695
  1158.0000     17.4249     29.6357     17.0355    119.2132
  1158.2500     18.8863     29.5519     17.4757    120.9073
  1158.5000     20.2717     29.4565     17.9099    121.2757
  1158.7500     21.2070     29.3789     18.2970    120.0868
  1159.0000     21.5643     29.3513     18.6140    116.8444
  1159.2500     21.4944     29.3911     18.8657    114.1726
  1159.5000     21.2556     29.4845     19.0792    110.3066
  1159.7500     21.0216     29.5856     19.2923    108.6434
  1160.0000     20.8522     29.6373     19.5416    109.1484
  1160.2500     20.8434     29.5985     19.8557    111.8902
  1160.5000     21.1854     29.4575     20.2504    118.4671
  1160.7500     21.9668     29.2235     20.7244    123.1121
  1161.0000     23.0204     28.9116     21.2559    128.4433
  1161.2500     24.0698     28.5384     21.8003    130.4556
  1161.5000     24.9596     28.1264     22.2902    131.3522
  1161.7500     25.6919     27.7065     22.6440    130.7486
  1162.0000     26.3159     27.3128     22.7918    128.2769
  1162.2500     26.8352     26.9706     22.7094    125.8182
  1162.5000     27.1851     26.6883     22.4361    121.7560
  1162.7500     27.2397     26.4536     22.0588    119.5177
  1163.0000     26.9270     26.2381     21.6720    118.1825
  1163.2500     26.3398     26.0090     21.3432    119.0861
  1163.5000     25.6274     25.7439     21.0983    122.6548
  1163.7500     24.8844     25.4398     20.9277    125.6235
  1164.0000     24.1555     25.1070     20.8022    129.5067
  1164.2500     23.4400     24.7541     20.6936    131.3680
  1164.5000     22.7249     24.3790     20.5922    133.1559
  1164.7500     22.0247     23.9750     20.5127    133.6987
  1165.0000     21.3850     23.5398     20.4861    133.3097
  1165.2500     20.8830     23.0776     20.5427    132.3080
  1165.5000     20.6327     22.5942     20.7010    130.4255
  1165.7500     20.7918     22.0971     20.9687    129.1744
  1166.0000     21.5243     21.6031     21.3551    126.3423
  1166.2500     22.8827     21.1451     21.8794    122.6971
  1166.5000     24.8073     20.7639     22.5682    113.3602
  1166.7500     27.3574     20.4913     23.4431    104.7540
  1167.0000     30.7702     20.3382     24.5080     89.5577
  1167.2500     35.1712     20.2991     25.7403     78.6711
  1167.5000     40.4539     20.3676     27.0953     62.4398
  1167.7500     46.4631     20.5483     28.5275     52.5767
  1168.0000     52.9926     20.8533     30.0220     40.8195
  1168.2500     59.5580     21.2883     31.6108     35.5519
  1168.5000     65.3912     21.8377     33.3479     31.5075
  1168.7500     69.6946     22.4558     35.2548     31.2336
  1169.0000     71.8206     23.0690     37.2700     34.8476
  1169.2500     71.3458     23.5970     39.2434     40.5105
  1169.5000     68.3425     23.9849     40.9860     54.3404
  1169.7500     63.7232     24.2254     42.3528     66.5005
  1170.0000     58.9498     24.3516     43.2966     86.5335
  1170.2500     55.0971     24.4094     43.8580     99.1005
  1170.5000     52.3461     24.4335     44.1100    113.7276
  1170.7500     50.3731     24.4414     44.1131    119.6613
  1171.0000     48.9157     24.4405     43.9020    123.0225
  1171.2500     47.9680     24.4364     43.4932    122.6357
  1171.5000     47.7308     24.4358     42.8960    120.2729
  1171.7500     48.3837     24.4475     42.1312    118.0767
  1172.0000     49.7431     24.4851     41.2584    113.2653
  1172.2500     51.1918     24.5674     40.3840    108.6305
  1172.5000     52.0575     24.7127     39.6224    100.4278
  1172.7500     51.9933     24.9284     39.0231     95.5804
  1173.0000     50.9990     25.2053     38.5202     91.8981
  1173.2500     49.3124     25.5205     37.9488     92.7473
  1173.5000     47.2914     25.8467     37.1318     98.8884
  1173.7500     45.1957     26.1595     35.9865    105.3410
  1174.0000     43.1000     26.4369     34.5618    116.2420
  1174.2500     41.0102     26.6567     32.9780    122.8933
  1174.5000     38.9325     26.8012     31.3378    130.2144
  1174.7500     36.8431     26.8700     29.6918    133.1905
  1175.0000     34.6985     26.8846     28.0649    135.8460
  1175.2500     32.5551     26.8779     26.4940    137.0045
  1175.5000     30.6170     26.8762     25.0319    137.8897
  1175.7500     29.0852     26.8880     23.7230    137.7984
  1176.0000     27.9633     26.9064     22.5851    137.2133
  1176.2500     27.0714     26.9175     21.6176    137.0586
  1176.5000     26.2778     26.9062     20.8234    137.3805
  1176.7500     25.6254     26.8531     20.2203    137.7528
  1177.0000     25.1790     26.7309     19.8336    138.4239
  1177.2500     24.8637     26.5046     19.6818    138.8777
  1177.5000     24.5757     26.1394     19.7672    138.5887
  1177.7500     24.3761     25.6165     20.0772    136.7507
  1178.0000     24.4356     24.9505     20.5904    130.2278
  1178.2500     24.8821     24.1950     21.2840    123.2710
  1178.5000     25.8528     23.4252     22.1391    109.6075
  1178.7500     27.5743     22.7089     23.1463     98.9086
  1179.0000     30.3225     22.0845     24.3136     81.6336
  1179.2500     34.4256     21.5619     25.6798     70.2106
  1179.5000     40.3589     21.1375     27.3261     54.8477
  1179.7500     48.7954     20.8081     29.3764     46.3586
  1180.0000     60.2529     20.5752     31.9855     36.3087
  1180.2500     74.3583     20.4426     35.3204     31.1623
  1180.5000     89.5928     20.4131     39.5443     25.4534
  1180.7500    104.0699     20.4850     44.7917     22.8929
  1181.0000    116.5737     20.6488     51.1124     20.7088
  1181.2500    126.7523     20.8863     58.3501     20.1454
  1181.5000    134.5592     21.1770     65.9760     20.2479
  1181.7500    139.8414     21.5092     73.0102     20.8383
  1182.0000    142.4953     21.8885     78.2695     22.6228
  1182.2500    142.8137     22.3348     80.9536     24.5579
  1182.5000    141.4695     22.8686     81.0927     28.6690
  1182.7500    139.1117     23.4942     79.3738     32.1437
  1183.0000    135.9985     24.1908     76.6102     38.4166
  1183.2500    131.9166     24.9130     73.3850     43.4732
