~Version Information
VERS.                      2.0: CWLS Log ASCII Standard - VERSION 2.0
WRAP.                       NO: One line per depth step
~Well Information Block
STRT.FT                -8.5000: 
STOP.FT              1597.7500: 
STEP.FT                 0.2500: 
NULL.                -999.2500: 
COMP.          Pioneer Natural Resources: COMPANY
WELL.          Dude Canyon 22-32 Tr: WELL
FLD.           Purgatorie River: FIELD
LOC.           1741' FnL & 2331' FWL--: LOCATION
PROV.                       CO: PROVINCE
CNTY.               Las Animas: COUNTRY
SRVC.          Patterson Wireline: SERVICE COMPANY
DATE.          Fri Jul 15 14:44:37 2005: LOG DATE
UWI.           05 071 08421 00: UNIQUE WELL ID
~Curve Information Block
DEPT.FT            0 000 00 00: Depth
CCL.                          : Casing Collar Locator
TT3.usec                      : CBL 3' Travel Time
AMP3.mV                       : CBL 3' Amplitude
GR.GAPI                       : Gamma Ray
~Parameter Information Block
~A  Depth       CCL         TT3         AMP3         GR     
# ...
  1465.5000      0.0000    762.7150      1.7219     64.8192
  1465.7500      0.0000    780.8888      1.7719     73.7161
  1466.0000      0.0000    790.7440      1.9449     85.1057
  1466.2500      0.0000    790.7021      2.2072     96.7217
  1466.5000      0.0000    778.9360      2.4737    106.0040
  1466.7500      0.0000    754.6659      2.6600    111.4896
  1467.0000      0.0000    721.3261      2.7301    113.1513
  1467.2500      0.0000    686.9373      2.7123    112.0170
  1467.5000      0.0000    660.5176      2.6695    109.2881
  1467.7500      0.0000    647.8358      2.6465    105.1326
  1468.0000      0.0000    649.4958      2.6382     98.5714
  1468.2500      0.0000    661.8870      2.6090     89.3007
  1468.5000      0.0000    679.9844      2.5460     79.3459
  1468.7500      0.0000    699.8477      2.4921     72.1505
  1469.0000      0.0000    718.4175      2.5190     70.0479
  1469.2500      0.0000    731.6014      2.6673     72.9398
  1469.5000      0.0000    734.9716      2.9263     79.1300
  1469.7500      0.0000    728.0851      3.2802     87.0062
  1470.0000      0.0000    716.8303      3.7516     96.0273
  1470.2500      0.0000    709.3638      4.3734    106.3888
  1470.5000      0.0000    709.5759      5.1227    117.8154
  1470.7500      0.0000    715.0040      5.9048    128.8172
  1471.0000      0.0000    720.2369      6.6183    137.4366
  1471.2500      0.0000    720.7918      7.2433    142.7845
  1471.5000      0.0000    714.5657      7.8677    145.6133
  1471.7500      0.0000    702.8815      8.5990    147.3796
  1472.0000      0.0000    691.7335      9.4255    148.9265
  1472.2500      0.0000    688.7977     10.1810    149.9305
  1472.5000      0.0000    695.6308     10.6654    149.3118
  1472.7500      0.0000    704.8970     10.7964    146.1333
  1473.0000      0.0000    708.3562     10.6548    140.3289
  1473.2500      0.0000    705.5505     10.4224    132.7569
  1473.5000      0.0000    702.6146     10.2830    124.8084
  1473.7500      0.0000    705.2317     10.3351    118.2759
  1474.0000      0.0000    714.6929     10.5489    115.2594
  1474.2500      0.0000    728.6910     10.7906    117.1586
  1474.5000      0.0000    743.5792     10.8943    123.1232
  1474.7500      0.0000    755.8838     10.7433    129.9446
  1475.0000      0.0000    763.2811     10.3263    134.2354
  1475.2500      0.0000    765.0844      9.7390    134.8261
  1475.5000      0.0000    761.9968      9.1083    132.8462
  1475.7500      0.0000    755.4559      8.5025    129.9511
  1476.0000      0.0000    747.2642      7.9216    127.0876
  1476.2500      0.0000    739.0134      7.3648    124.6492
  1476.5000      0.0000    731.1213      6.8721    122.9565
  1476.7500      0.0000    723.0415      6.4903    122.3196
  1477.0000      0.0000    715.0603      6.2178    122.9593
  1477.2500      0.0000    709.1356      5.9803    124.9380
  1477.5000      0.0000    707.0070      5.6637    127.8781
  1477.7500      0.0000    707.9000      5.1909    130.6925
  1478.0000      0.0000    708.6643      4.5824    131.8717
  1478.2500      0.0000    706.0704      3.9505    130.2505
  1478.5000      0.0000    699.1327      3.4362    125.6259
  1478.7500      0.0000    689.7353      3.1401    118.7569
  1479.0000      0.0000    681.2675      3.0867    110.7673
  1479.2500      0.0000    676.2190      3.2259    102.5092
  1479.5000      0.0000    674.4609      3.4488     94.5811
  1479.7500      0.0000    673.5567      3.6153     87.9835
  1480.0000      0.0000    671.0145      3.6115     84.3934
  1480.2500      0.0000    666.4840      3.4242     85.2092
  1480.5000      0.0000    661.7766      3.1569     90.1203
  1480.7500      0.0000    659.0624      2.9429     96.8448
  1481.0000      0.0000    659.3828      2.8400    102.3677
  1481.2500      0.0000    662.5131      2.8176    104.4590
  1481.5000      0.0000    667.4750      2.8264    102.5231
  1481.7500      0.0000    673.0753      2.8506     97.7268
  1482.0000      0.0000    678.2599      2.8991     92.2124
  1482.2500      0.0000    682.0980      2.9757     87.5319
  1482.5000      0.0000    683.6689      3.0605     83.7947
  1482.7500      2.0000    682.4150      3.1118     80.5248
  1483.0000      0.0000    678.6193      3.0966     77.9066
  1483.2500      0.0000    673.3124      3.0270     76.6749
  1483.5000      0.0000    667.8235      2.9541     76.9737
  1483.7500      0.0000    663.4021      2.9193     77.7859
  1484.0000      0.0000    660.7945      2.9223     77.7539
  1484.2500      0.0000    659.8896      2.9479     76.4841
  1484.5000      0.0000    659.8875      3.0015     74.7214
  1484.7500      0.0000    659.9233      3.0983     73.2273
  1485.0000      0.0000    659.5698      3.2339     71.9861
  1485.2500      0.0000    658.9218      3.3860     70.5768
  1485.5000      0.0000    658.3490      3.5344     68.8698
  1485.7500      0.0000    658.1855      3.6685     67.3283
  1486.0000      0.0000    658.5413      3.7764     66.8188
  1486.2500      0.0000    659.3005      3.8375     67.7812
  1486.5000      0.0000    660.2111      3.8292     69.3804
  1486.7500      0.0000    660.9816      3.7439     70.1126
  1487.0000      0.0000    661.4035      3.5941     69.6391
  1487.2500      0.0000    661.5377      3.3965     69.3119
  1487.5000      0.0000    661.8799      3.1623     70.3893
  1487.7500      0.0000    663.2686      2.9225     72.4666
  1488.0000      0.0000    666.2767      2.7444     74.3048
  1488.2500      0.0000    670.2932      2.6936     75.4211
  1488.5000      0.0000    673.3118      2.7784     76.0447
  1488.7500      0.0000    673.2553      2.9510     76.1023
  1489.0000      0.0000    669.8198      3.1528     75.1655
  1489.2500      0.0000    664.7593      3.3410     73.1836
  1489.5000      0.0000    660.3129      3.4833     70.5760
  1489.7500      0.0000    657.6449      3.5607     67.6882
  1490.0000      0.0000    656.6592      3.5801     64.7180
  1490.2500      0.0000    656.7540      3.5617     62.0939
  1490.5000      0.0000    657.5613      3.5116     60.3727
  1490.7500      0.0000    659.3007      3.4287     59.7015
  1491.0000      0.0000    662.6373      3.3298     59.6998
  1491.2500      0.0000    667.9257      3.2397     59.8927
  1491.5000      0.0000    674.3044      3.1603     60.0663
  1491.7500      0.0000    679.7796      3.0812     60.2696
  1492.0000      0.0000    682.6431      3.0144     60.6296
  1492.2500      0.0000    682.7589      2.9845     61.0939
  1492.5000      0.0000    681.3208      2.9974     61.3811
  1492.7500      0.0000    679.7988      3.0549     61.3270
  1493.0000      0.0000    679.6115      3.1856     61.0771
  1493.2500      0.0000    682.4272      3.4167     60.7583
  1493.5000      0.0000    689.6883      3.7160     60.3272
  1493.7500      0.0000    700.9432      3.9940     59.9610
  1494.0000      0.0000    712.6821      4.1731     60.2030
  1494.2500      0.0000    719.7298      4.2479     61.4670
  1494.5000      0.0000    718.6973      4.2805     63.4853
  1494.7500      0.0000    710.4396      4.3398     65.3101
  1495.0000      0.0000    699.2281      4.4560     65.9942
  1495.2500      0.0000    689.6198      4.6356     65.4177
  1495.5000      0.0000    683.9751      4.8878     64.2855
  1495.7500      0.0000    682.3683      5.2071     63.2483
  1496.0000      0.0000    683.9832      5.5568     62.2716
  1496.2500      0.0000    688.1337      5.9080     60.9329
  1496.5000      0.0000    694.3325      6.2746     59.1630
  1496.7500      0.0000    702.2925      6.6717     57.6011
  1497.0000      0.0000    712.3079      7.0464     57.1434
  1497.2500      0.0000    724.8128      7.2796     58.0704
  1497.5000      0.0000    738.3343      7.2687     59.6150
  1497.7500      0.0000    748.2528      7.0075     60.3399
  1498.0000      0.0000    749.5411      6.5887     58.9878
  1498.2500      0.0000    741.7480      6.1174     55.4050
  1498.5000      0.0000    730.2648      5.6217     51.0888
  1498.7500      0.0000    721.6617      5.0562     48.7137
