~Version Information
VERS.                      2.0: CWLS Log ASCII Standard - VERSION 2.0
WRAP.                       NO: One line per depth step
~Well Information Block
STRT.FT               395.0000: 
STOP.FT              1998.0000: 
STEP.FT                 0.1000: 
NULL.                -999.2500: 
COMP.          Pioneer Natural Resources: COMPANY
WELL.          Easton 12-30 Tr: WELL
FLD.           Purgatoire River: FIELD
LOC.           549' FWL & 2416' FNL--: LOCATION
PROV.                 Colorado: PROVINCE
CNTY.               Las Animas: COUNTRY
SRVC.                Patterson: SERVICE COMPANY
DATE.          Thu Jun 02 09:14:44 2005: LOG DATE
UWI.           05 071 08379 00: UNIQUE WELL ID
~Curve Information Block
DEPT.FT            0 000 00 00: Depth
DCAL.in                       : CDL Caliper
RHOB.g/cc                     : CDL Bulk Density
RHOC.g/cc                     : CDL Density Correction
DPOR.pu                       : CDL Density Porosity
NPOR.pu                       : Neutron Porosity
GR.GAPI                       : Gamma Ray
~Parameter Information Block
~A  Depth       DCAL        RHOB        RHOC        DPOR        NPOR         GR     
# ...
  1028.6000      8.1317      2.4533      0.0037     11.9218     22.0530    126.1739
  1028.7000      8.1317      2.4774      0.0652     10.4592     22.7073    127.2287
  1028.8000      8.1299      2.5062      0.0755      8.7164     23.0141    132.2674
  1028.9000      8.1299      2.5314      0.0606      7.1857     23.1331    136.9944
  1029.0000      8.1299      2.5494      0.0621      6.0946     23.1901    133.7011
  1029.1000      8.1299      2.5519      0.0805      5.9478     23.2696    124.7828
  1029.2000      8.1299      2.5413      0.0619      6.5873     23.2914    121.4116
  1029.3000      8.1304      2.5308      0.0707      7.2258     23.1442    125.8653
  1029.4000      8.1304      2.5151      0.0766      8.1746     22.7843    129.5698
  1029.5000      8.1299      2.4810      0.0168     10.2423     22.3728    126.5440
  1029.6000      8.1299      2.4405     -0.0223     12.6946     22.1571    120.6363
  1029.7000      8.1299      2.4198     -0.0107     13.9504     22.1274    117.0959
  1029.8000      8.1252      2.4255      0.0095     13.6059     22.2287    114.8122
  1029.9000      8.1252      2.4432      0.0230     12.5312     22.4286    112.3272
  1030.0000      8.1057      2.4595      0.0112     11.5448     22.9719    111.4666
  1030.1000      8.1057      2.4703      0.0460     10.8931     23.9782    111.5768
  1030.2000      8.1057      2.4808      0.0504     10.2543     24.8625    109.4587
  1030.3000      8.0709      2.4997      0.0978      9.1087     25.2673    105.0311
  1030.4000      8.0709      2.5254      0.1010      7.5503     25.4059    100.2960
  1030.5000      8.0439      2.5525      0.1423      5.9067     25.5752     96.1772
  1030.6000      8.0439      2.5761      0.1533      4.4783     25.9941     94.8650
  1030.7000      8.0439      2.5898      0.1795      3.6480     26.2818     99.4605
  1030.8000      8.0382      2.5947      0.1386      3.3542     25.9603    107.3079
  1030.9000      8.0382      2.5951      0.1752      3.3267     25.3349    111.0679
  1031.0000      8.0462      2.5898      0.1083      3.6476     24.9678    109.3962
  1031.1000      8.0462      2.5866      0.0744      3.8398     25.0059    106.7005
  1031.2000      8.0462      2.5914      0.1208      3.5531     25.1969    105.2082
  1031.3000      8.0556      2.5913      0.0635      3.5589     25.2094    106.4993
  1031.4000      8.0556      2.5813      0.0666      4.1636     25.1037    111.2869
  1031.5000      8.0601      2.5708      0.0913      4.7982     25.1054    116.9642
  1031.6000      8.0601      2.5667      0.0811      5.0457     25.0786    119.7871
  1031.7000      8.0601      2.5675      0.0656      5.0008     24.9132    118.6319
  1031.8000      8.0609      2.5665      0.0830      5.0623     24.8389    115.8039
  1031.9000      8.0609      2.5665      0.0311      5.0579     25.0873    112.3651
  1032.0000      8.0589      2.5758      0.0840      4.4940     25.8710    109.0731
  1032.1000      8.0589      2.5857      0.0811      3.8989     26.9490    107.8286
  1032.2000      8.0589      2.5879      0.0777      3.7633     27.4956    107.0897
  1032.3000      8.0574      2.5910      0.0652      3.5787     27.3160    105.3514
  1032.4000      8.0574      2.5967      0.0632      3.2321     27.1649    105.0692
  1032.5000      8.0584      2.5968      0.0882      3.2256     27.4716    107.1759
  1032.6000      8.0584      2.6031      0.0298      2.8405     27.9537    110.7976
  1032.7000      8.0584      2.6445      0.0194      0.3359     28.3812    115.3901
  1032.8000      8.0612      2.7088      0.1254     -3.5648     28.7299    120.6567
  1032.9000      8.0612      2.7414      0.1567     -5.5372     28.8682    125.0811
  1033.0000      8.0649      2.7191      0.1194     -4.1892     28.9182    124.8708
  1033.1000      8.0649      2.6651      0.0601     -0.9160     29.1146    123.0857
  1033.2000      8.0649      2.5981      0.0577      3.1455     29.2275    127.0111
  1033.3000      8.0715      2.5281     -0.0273      7.3885     29.1171    135.4460
  1033.4000      8.0715      2.4803     -0.0840     10.2871     28.9942    142.7757
  1033.5000      8.0873      2.4685     -0.0777     10.9975     28.6835    144.5823
  1033.6000      8.0873      2.4796     -0.0690     10.3254     27.9114    139.9884
  1033.7000      8.0873      2.4995     -0.1000      9.1206     26.8557    133.6062
  1033.8000      8.1074      2.5103      0.0346      8.4697     25.9602    128.6881
  1033.9000      8.1074      2.4854      0.0902      9.9768     25.5342    126.6738
  1034.0000      8.1199      2.4302      0.0481     13.3194     25.4769    126.6065
  1034.1000      8.1199      2.3874      0.0394     15.9175     25.4180    126.9221
  1034.2000      8.1199      2.3860      0.0896     16.0008     25.0515    127.9825
  1034.3000      8.1376      2.4192      0.1446     13.9896     24.6698    129.0400
  1034.4000      8.1376      2.4629      0.1569     11.3409     24.6860    129.9665
  1034.5000      8.1633      2.4889      0.2112      9.7665     24.7622    131.2139
  1034.6000      8.1633      2.4780      0.1847     10.4214     24.4264    134.2540
  1034.7000      8.1633      2.4451      0.1050     12.4204     23.7613    142.3362
  1034.8000      8.1707      2.4305      0.0638     13.3021     23.1070    151.2257
  1034.9000      8.1707      2.4482      0.1473     12.2311     22.7200    150.2254
  1035.0000      8.1592      2.4654      0.1753     11.1894     22.5110    139.8735
  1035.1000      8.1592      2.4517      0.1516     12.0161     22.3039    133.7788
  1035.2000      8.1592      2.4067      0.0898     14.7461     22.0505    138.1373
  1035.3000      8.1476      2.3463      0.0233     18.4063     21.5556    142.2376
  1035.4000      8.1476      2.2935      0.0110     21.6049     20.8123    135.9072
  1035.5000      8.1402      2.2689      0.0095     23.0949     20.1898    125.5419
  1035.6000      8.1402      2.2730      0.0573     22.8458     19.8678    121.0936
  1035.7000      8.1402      2.2884      0.0738     21.9152     19.7404    123.4316
  1035.8000      8.1316      2.3058      0.0323     20.8588     19.5451    126.8755
  1035.9000      8.1316      2.3332      0.0500     19.1974     19.1277    126.0995
  1036.0000      8.1218      2.3744      0.1202     16.7025     18.8376    122.8744
  1036.1000      8.1218      2.4168      0.1476     14.1330     18.9599    119.7484
  1036.2000      8.1218      2.4525      0.1439     11.9670     19.4164    113.8617
  1036.3000      8.1169      2.4887      0.1550      9.7786     20.2656    105.8999
  1036.4000      8.1169      2.5231      0.1836      7.6934     21.4224    102.7246
  1036.5000      8.1154      2.5443      0.1136      6.4048     22.4843    106.6916
  1036.6000      8.1154      2.5577      0.0550      5.5921     23.3026    112.8193
  1036.7000      8.1154      2.5718      0.0865      4.7414     24.1159    118.0222
  1036.8000      8.1143      2.5809      0.0479      4.1893     25.0388    120.4934
  1036.9000      8.1143      2.5807      0.0598      4.1975     25.9211    119.6318
  1037.0000      8.1138      2.5778      0.0266      4.3759     26.5447    118.8448
  1037.1000      8.1138      2.5834      0.0562      4.0388     26.8050    120.4206
  1037.2000      8.1138      2.5998      0.0684      3.0451     26.9569    123.8204
  1037.3000      8.1149      2.6169      0.0965      2.0086     27.2528    125.2262
  1037.4000      8.1149      2.6281      0.0542      1.3289     27.4243    123.5657
  1037.5000      8.1163      2.6373      0.0772      0.7668     27.3652    123.6553
  1037.6000      8.1163      2.6411      0.0822      0.5406     27.3418    124.8157
  1037.7000      8.1163      2.6296      0.0577      1.2353     27.4451    121.8631
  1037.8000      8.1170      2.6077      0.0159      2.5619     27.6022    116.0955
  1037.9000      8.1170      2.5938      0.0154      3.4075     27.5569    111.2725
  1038.0000      8.1171      2.5962      0.0324      3.2611     27.3067    107.5376
  1038.1000      8.1171      2.6043      0.0495      2.7672     27.4320    105.2720
