~Version Information
 VERS.                                  2.0 : CWLS LAS VERSION
 WRAP.                                   NO : WRAPING MODE
 SWARE .                  MController 2.5.1 : SOFTWARE VERSION
~Well Information
 WELL.                 Big Cat Federal 44-1 : WELL
 COMP.  Pioneer Natural Resources USA, Inc. : COMPANY
 FLD.                      Purgatoire River : FIELD
 LOC.               SE/SE Sec.1, T34S, R66W : LOCATION
 DATE.                04/23/2006-04/23/2006 : DATE(S) LOGGED
 SRVC.                  Entrada GeoSciences : SERVICE COMPANY
 STAT.                             Colorado : STATE
 CNTY.                           Las Animas : COUNTY
 CTRY.                        United States : COUNTRY
 API.                          071-08042-00 : API NUMBER
 STRT.FT                             266.00 : START DEPTH
 STOP.FT                            1570.00 : STOP DEPTH
 STEP.FT                               1.00 : DEPTH INCREMENT
 NULL.                                -9999 : NULL VALUE
~Curve information
 DEPTH.FT                                   :
 ROP.MIN/FT                                 :
 GAS.UNITS                                  :
~ASCII Log data
# ...
      666.00         0.20         11.2 
      667.00         0.23         10.6 
      668.00         0.17         11.0 
      669.00         0.17         11.0 
      670.00         0.17         11.4 
      671.00         0.17         11.8 
      672.00         0.13         11.8 
      673.00         0.17         11.6 
      674.00         0.20         11.4 
      675.00         0.17         11.3 
      676.00         0.15         11.3 
      677.00         0.17         11.0 
      678.00         0.13         11.7 
      679.00         0.17         10.7 
      680.00         0.10         11.0 
      681.00         0.13         10.5 
      682.00         0.27         10.8 
      683.00         0.13         10.8 
      684.00         0.13         10.2 
      685.00         0.10         11.6 
      686.00         0.27         11.8 
      687.00         0.27         12.0 
      688.00         0.07         12.5 
      689.00         0.27         13.3 
      690.00         0.13         15.8 
      691.00         0.27         14.7 
      692.00         0.27         15.2 
      693.00         0.37         12.8 
      694.00         0.18         11.4 
      695.00         0.30         11.5 
      696.00         0.27         11.1 
      697.00         0.30         11.6 
      698.00         0.20         11.9 
      699.00         0.20         14.9 
      700.00         0.13         16.8 
      701.00         0.20         14.2 
      702.00         0.13         13.0 
      703.00         0.17         11.5 
      704.00         0.17         10.5 
      705.00         0.20         11.0 
      706.00         0.17          9.9 
      707.00         0.20         10.5 
      708.00         0.17         10.0 
      709.00         0.20         10.1 
      710.00         0.17         10.3 
      711.00         0.18         10.0 
      712.00         0.17         10.3 
      713.00         0.17          9.7 
      714.00         0.17          9.7 
      715.00         0.13         10.2 
      716.00         0.17          9.8 
      717.00         0.13          9.6 
      718.00         0.17          9.9 
      719.00         0.17         10.9 
      720.00         0.20         10.2 
      721.00         0.20          9.7 
      722.00         0.20         10.3 
      723.00         0.20         10.2 
      724.00         0.37         10.3 
      725.00         0.20         10.9 
      726.00         0.20         11.1 
      727.00         0.17         11.4 
      728.00         0.17         12.9 
      729.00         0.17         14.1 
      730.00         0.17         12.3 
      731.00         0.20         10.9 
      732.00         0.17         11.4 
      733.00         0.17         10.2 
      734.00         0.20         10.1 
      735.00         0.13         10.3 
      736.00         0.23         11.2 
      737.00         0.32          9.9 
      738.00         0.17         10.7 
      739.00         0.17         10.2 
      740.00         0.20         10.1 
      741.00         0.23         10.1 
      742.00         0.20          9.8 
      743.00         0.17         10.2 
      744.00         0.17         10.2 
      745.00         0.20         11.0 
      746.00         0.17         10.4 
      747.00         0.17         10.7 
      748.00         0.13         10.1 
      749.00         0.20         10.0 
      750.00         0.17         10.1 
      751.00         0.13         10.1 
      752.00         0.20         10.2 
      753.00         0.27         10.0 
      754.00         0.27         10.1 
      755.00         0.13         11.0 
      756.00         0.23         11.4 
      757.00         0.23         11.1 
      758.00         0.23         10.7 
      759.00         0.23         13.0 
      760.00         0.23         11.4 
      761.00         0.27         11.4 
      762.00         0.27         10.0 
      763.00         0.23         11.2 
      764.00         0.20         10.3 
      765.00         0.18         10.7 
      766.00         0.17         10.3 
      767.00         0.17         11.7 
      768.00         0.20         10.7 
      769.00         0.17         10.6 
      770.00         0.17         10.3 
      771.00         0.17          9.9 
      772.00         0.17         11.4 
      773.00         0.20         10.6 
      774.00         0.23         10.4 
      775.00         0.17         10.6 
      776.00         0.13         10.7 
      777.00         0.20         11.3 
      778.00         0.13         11.5 
      779.00         0.17         10.5 
      780.00         0.17         10.2 
      781.00         0.13         10.2 
      782.00         0.13         10.5 
      783.00         0.53         10.4 
      784.00         0.27         11.2 
      785.00         0.27         10.6 
      786.00         0.20         10.9 
      787.00         0.33         11.8 
      788.00         0.17         11.5 
      789.00         0.17         13.0 
      790.00         0.17         12.1 
      791.00         0.17         11.4 
      792.00         0.13         11.9 
      793.00         0.20         10.5 
      794.00         0.18         10.3 
      795.00         0.27         10.8 
      796.00         0.20         10.7 
      797.00         0.13         11.5 
      798.00         0.17         10.3 
      799.00         0.13         10.6 
      800.00         0.13         11.0 
      801.00         0.17         10.6 
      802.00         0.13         10.6 
      803.00         0.13         10.9 
      804.00         0.13         11.1 
      805.00         0.17         10.7 
      806.00         0.10         11.2 
      807.00         0.17         10.9 
      808.00         0.13         11.5 
      809.00         0.10         11.3 
      810.00         0.20         11.4 
      811.00         0.20         10.7 
      812.00         0.13         11.0 
      813.00         0.30         11.1 
      814.00         0.20         10.9 
      815.00         0.37         11.4 
      816.00         0.30         11.2 
      817.00         0.20         11.9 
      818.00         0.17         11.5 
      819.00         0.17         13.8 
      820.00         0.17         14.4 
      821.00         0.10         14.2 
      822.00         0.10         12.6 
      823.00         0.13         12.2 
      824.00         0.20         12.7 
      825.00         0.13         12.8 
      826.00         0.17         13.9 
      827.00         0.25         11.9 
      828.00         0.20         11.5 
      829.00         0.20         10.9 
      830.00         0.23         12.2 
      831.00         0.13         11.4 
      832.00         0.17         11.4 
      833.00         0.20         11.0 
      834.00         0.13         10.8 
      835.00         0.13         11.9 
      836.00         0.13         11.1 
      837.00         0.10         11.1 
      838.00         0.13         11.0 
      839.00         0.13         10.6 
      840.00         0.13         10.2 
      841.00         0.17         10.6 
      842.00         0.13         11.6 
      843.00         0.20          8.9 
      844.00         0.27          8.8 
      845.00         0.23          9.1 
      846.00         0.20          8.7 
      847.00         0.17          8.9 
      848.00         0.17          9.1 
      849.00         0.13          9.7 
      850.00         0.17          9.5 
      851.00         0.17          8.9 
      852.00         0.13          8.9 
      853.00         0.13          9.5 
      854.00         0.17          8.9 
      855.00         0.13          8.7 
      856.00         0.17          8.8 
      857.00         0.13          8.7 
      858.00         0.13          8.9 
      859.00         0.17          8.9 
      860.00         0.17          9.5 
      861.00         0.13          8.5 
      862.00         0.13          9.0 
      863.00         0.17          8.4 
      864.00         0.18          8.9 
      865.00         0.13          9.6 
