~Version Information
VERS.                      2.0: CWLS Log ASCII Standard - VERSION 2.0
WRAP.                       NO: One line per depth step
~Well Information Block
STRT.FT               392.5000: 
STOP.FT              2252.6000: 
STEP.FT                 0.1000: 
NULL.                -999.2500: 
COMP.          Petrogulf Corporation: COMPANY
WELL.          Alexander 9-43V: WELL
FLD.           Purgatorie River: FIELD
LOC.           1651' FSL & 1081' FEL: LOCATION
CNTY.               Las Animas: COUNTY
SRVC.                         : SERVICE COMPANY
DATE.          Mon Mar 17 08:48:25 2003: LOG DATE
UWI.           05 071 07727 00: UNIQUE WELL ID
STAT.                 Colorado: STATE
~Curve Information Block
DEPT.FT            0 000 00 00: Depth
DCAL.in                       : CDL Caliper
RHOB.g/cc                     : CDL Bulk Density
RHOC.g/cc                     : CDL Density Correction
DPOR.pu                       : CDL Density Porosity
GR.GAPI                       : Gamma Ray
NPOR.pu                       : Neutron Porosity
~Parameter Information Block
~A  Depth       DCAL        RHOB        RHOC        DPOR         GR         NPOR    
# ...
  1880.5000      7.9160      2.3399      0.1180     18.7913    112.5800     25.9248
  1880.6000      7.9160      2.3551      0.1159     17.8708    112.5800     26.0671
  1880.7000      7.9160      2.3709      0.1141     16.9122    112.5800     26.1517
  1880.8000      7.9094      2.3870      0.1128     15.9408    110.9854     26.1767
  1880.9000      7.9094      2.4028      0.1120     14.9819    110.9854     26.1439
  1881.0000      7.8974      2.4180      0.1117     14.0591    109.6858     26.0596
  1881.1000      7.8974      2.4323      0.1114     13.1939    109.6858     25.9333
  1881.2000      7.8974      2.4453      0.1108     12.4044    109.6858     25.7776
  1881.3000      7.8953      2.4569      0.1095     11.7050    109.5498     25.6068
  1881.4000      7.8953      2.4668      0.1071     11.1053    109.5498     25.4362
  1881.5000      7.9096      2.4749      0.1035     10.6104    111.1198     25.2805
  1881.6000      7.9096      2.4814      0.0987     10.2207    111.1198     25.1529
  1881.7000      7.9096      2.4861      0.0928      9.9318    111.1198     25.0647
  1881.8000      7.9436      2.4894      0.0862      9.7354    114.4745     25.0240
  1881.9000      7.9436      2.4913      0.0791      9.6202    114.4745     25.0356
  1882.0000      7.9816      2.4921      0.0720      9.5725    119.1778     25.1005
  1882.1000      7.9816      2.4920      0.0652      9.5773    119.1778     25.2159
  1882.2000      7.9816      2.4913      0.0590      9.6195    119.1778     25.3752
  1882.3000      8.0005      2.4902      0.0537      9.6846    124.1725     25.5681
  1882.4000      8.0005      2.4890      0.0492      9.7594    124.1725     25.7811
  1882.5000      8.0041      2.4878      0.0456      9.8328    127.9475     25.9982
  1882.6000      8.0041      2.4867      0.0426      9.8959    127.9475     26.2020
  1882.7000      8.0041      2.4860      0.0404      9.9424    127.9475     26.3747
  1882.8000      8.0043      2.4855      0.0385      9.9689    129.0618     26.4995
  1882.9000      8.0043      2.4854      0.0371      9.9744    129.0618     26.5622
  1883.0000      8.0039      2.4857      0.0359      9.9604    126.7623     26.5522
  1883.1000      8.0039      2.4861      0.0350      9.9305    126.7623     26.4638
  1883.2000      8.0039      2.4868      0.0343      9.8905    126.7623     26.2959
  1883.3000      8.0007      2.4875      0.0339      9.8476    121.5004     26.0527
  1883.4000      8.0007      2.4881      0.0337      9.8105    121.5004     25.7425
  1883.5000      7.9897      2.4885      0.0336      9.7886    115.0264     25.3772
  1883.6000      7.9897      2.4884      0.0338      9.7915    115.0264     24.9712
  1883.7000      7.9897      2.4878      0.0341      9.8284    115.0264     24.5395
  1883.8000      7.9634      2.4865      0.0343      9.9080    109.6055     24.0975
  1883.9000      7.9634      2.4844      0.0343     10.0370    109.6055     23.6590
  1884.0000      7.9299      2.4814      0.0341     10.2203    106.6819     23.2362
  1884.1000      7.9299      2.4774      0.0335     10.4599    106.6819     22.8386
  1884.2000      7.9299      2.4725      0.0324     10.7551    106.6819     22.4738
  1884.3000      7.9259      2.4668      0.0310     11.1023    106.0792     22.1472
  1884.4000      7.9259      2.4603      0.0294     11.4948    106.0792     21.8630
  1884.5000      7.9586      2.4533      0.0276     11.9236    106.3541     21.6244
  1884.6000      7.9586      2.4458      0.0261     12.3776    106.3541     21.4346
  1884.7000      7.9586      2.4381      0.0250     12.8447    106.3541     21.2958
  1884.8000      7.9891      2.4303      0.0244     13.3125    105.8806     21.2104
  1884.9000      7.9891      2.4228      0.0246     13.7688    105.8806     21.1791
  1885.0000      7.9975      2.4157      0.0256     14.2030    103.7729     21.2011
  1885.1000      7.9975      2.4090      0.0272     14.6065    103.7729     21.2731
  1885.2000      7.9975      2.4029      0.0293     14.9731    103.7729     21.3893
  1885.3000      7.9966      2.3976      0.0317     15.2997    100.1129     21.5408
  1885.4000      7.9966      2.3928      0.0341     15.5858    100.1129     21.7163
  1885.5000      8.0014      2.3887      0.0362     15.8344     95.6370     21.9024
  1885.6000      8.0014      2.3852      0.0378     16.0508     95.6370     22.0847
  1885.7000      8.0014      2.3820      0.0387     16.2429     95.6370     22.2483
  1885.8000      8.0146      2.3790      0.0389     16.4213     91.1917     22.3797
  1885.9000      8.0146      2.3761      0.0385     16.5978     91.1917     22.4666
  1886.0000      8.0309      2.3730      0.0374     16.7867     87.2052     22.4994
  1886.1000      8.0309      2.3695      0.0360     17.0030     87.2052     22.4713
  1886.2000      8.0309      2.3652      0.0344     17.2633     87.2052     22.3784
  1886.3000      8.0389      2.3599      0.0328     17.5848     83.6095     22.2196
  1886.4000      8.0389      2.3532      0.0313     17.9853     83.6095     21.9961
  1886.5000      8.0318      2.3450      0.0300     18.4823     80.3511     21.7108
  1886.6000      8.0318      2.3350      0.0289     19.0926     80.3511     21.3680
  1886.7000      8.0318      2.3228      0.0278     19.8312     80.3511     20.9725
  1886.8000      8.0167      2.3083      0.0266     20.7100     77.7282     20.5303
  1886.9000      8.0167      2.2913      0.0249     21.7368     77.7282     20.0484
  1887.0000      8.0105      2.2719      0.0227     22.9139     75.9235     19.5357
  1887.1000      8.0105      2.2501      0.0198     24.2370     75.9235     19.0034
  1887.2000      8.0105      2.2261      0.0164     25.6938     75.9235     18.4659
  1887.3000      8.0160      2.2001      0.0125     27.2645     74.4401     17.9410
  1887.4000      8.0160      2.1728      0.0087     28.9207     74.4401     17.4492
  1887.5000      8.0291      2.1447      0.0055     30.6270     72.4730     17.0128
  1887.6000      8.0291      2.1164      0.0034     32.3411     72.4730     16.6548
  1887.7000      8.0291      2.0887      0.0033     34.0169     72.4730     16.3965
  1887.8000      8.0398      2.0625      0.0054     35.6055     69.8893     16.2563
  1887.9000      8.0398      2.0385      0.0103     37.0581     69.8893     16.2483
  1888.0000      8.0396      2.0176      0.0180     38.3285     67.5809     16.3812
  1888.1000      8.0396      2.0003      0.0283     39.3752     67.5809     16.6577
  1888.2000      8.0396      1.9873      0.0408     40.1631     67.5809     17.0741
  1888.3000      8.0410      1.9790      0.0546     40.6653     66.8600     17.6195
  1888.4000      8.0410      1.9757      0.0690     40.8638     66.8600     18.2763
  1888.5000      8.0636      1.9776      0.0828     40.7500     68.7032     19.0209
  1888.6000      8.0636      1.9846      0.0953     40.3244     68.7032     19.8251
  1888.7000      8.0636      1.9967      0.1054     39.5960     68.7032     20.6583
  1888.8000      8.1098      2.0134      0.1126     38.5822     73.4763     21.4901
  1888.9000      8.1098      2.0344      0.1166     37.3072     73.4763     22.2922
  1889.0000      8.1492      2.0593      0.1171     35.8011     80.8797     23.0412
  1889.1000      8.1492      2.0874      0.1146     34.0990     80.8797     23.7193
  1889.2000      8.1492      2.1180      0.1097     32.2396     80.8797     24.3150
  1889.3000      8.1018      2.1506      0.1031     30.2642     89.8270     24.8228
  1889.4000      8.1018      2.1844      0.0959     28.2153     89.8270     25.2425
  1889.5000      7.9866      2.2188      0.0891     26.1353     98.5930     25.5779
  1889.6000      7.9866      2.2529      0.0834     24.0653     98.5930     25.8356
  1889.7000      7.9866      2.2863      0.0795     22.0436     98.5930     26.0239
  1889.8000      7.9151      2.3183      0.0778     20.1051    105.5284     26.1517
  1889.9000      7.9151      2.3484      0.0781     18.2795    105.5284     26.2275
  1890.0000      7.8964      2.3762      0.0802     16.5916    109.8340     26.2596
