~Version Information
VERS.                      2.0: CWLS Log ASCII Standard - VERSION 2.0
WRAP.                       NO: One line per depth step
~Well Information Block
STRT.FT               801.5000: 
STOP.FT              2513.0000: 
STEP.FT                 0.2500: 
NULL.                -999.2500: 
COMP.          Petrogulf Corporation: COMPANY
WELL.               YWAM 7-32V: WELL
FLD.           Purgatoire River: FIELD
LOC.           2423' FNL & 2412' FEL: LOCATION
PROV.                 Colorado: PROVINCE
CNTY.               Las Animas: COUNTRY
SRVC.                Patterson: SERVICE COMPANY
DATE.          Sun Dec 14 06:58:17 2003: LOG DATE
UWI.                          : UNIQUE WELL ID
~Curve Information Block
DEPT.FT            0 000 00 00: Depth
SP.mV                         : DIL Spontaneous Potential
RILD.Ohm-m                    : DIL Deep Resistivity
RILM.Ohm-m                    : DIL Medium Resistivity
RLL3.Ohm-m                    : DIL Shallow Resistivity
GR.GAPI                       : Gamma Ray
~Parameter Information Block
~A  Depth        SP         RILD        RILM        RLL3         GR     
# ...
  2369.5000    -15.3278      9.5939      9.3222     11.8890     93.4170
  2369.7500    -14.8261      9.0582      8.9048     11.4619     94.0094
  2370.0000    -14.9559      8.6076      8.6015     11.7355     92.5079
  2370.2500    -15.6018      8.2463      8.3755     12.0948     91.5202
  2370.5000    -16.7285      7.9786      8.2125     12.3202     91.7577
  2370.7500    -18.3113      7.8059      8.1146     12.4347     93.2629
  2371.0000    -20.2999      7.7243      8.0916     12.5747     96.9811
  2371.2500    -22.6355      7.7222      8.1545     12.8722     99.8770
  2371.5000    -25.2585      7.7794      8.3107     13.4314    103.5228
  2371.7500    -28.0531      7.8679      8.5627     14.5311    104.4510
  2372.0000    -30.7637      7.9565      8.9041     16.9977    101.9946
  2372.2500    -32.9577      8.0182      9.3127     22.3025     97.4660
  2372.5000    -34.0773      8.0371      9.7396     31.6863     87.1698
  2372.7500    -33.5928      8.0106     10.1054     44.3002     79.1487
  2373.0000    -31.2324      7.9447     10.3175     56.0326     68.1461
  2373.2500    -27.1664      7.8477     10.3135     61.2483     63.1286
  2373.5000    -22.0032      7.7258     10.0999     56.9219     60.9573
  2373.7500    -16.5873      7.5830      9.7477     45.2150     63.3459
  2374.0000    -11.7211      7.4216      9.3452     31.6572     71.8509
  2374.2500     -7.9362      7.2431      8.9547     20.9886     79.8121
  2374.5000     -5.3896      7.0468      8.5989     14.7748     93.2808
  2374.7500     -3.9243      6.8319      8.2716     12.0398    102.3351
  2375.0000     -3.2503      6.5993      7.9562     11.1000    114.8652
  2375.2500     -3.1034      6.3552      7.6409     10.7605    121.9962
  2375.5000     -3.2856      6.1110      7.3240     10.5251    130.2251
  2375.7500     -3.6399      5.8814      7.0120     10.3067    133.9500
  2376.0000     -4.0480      5.6800      6.7161     10.1116    137.1721
  2376.2500     -4.4545      5.5165      6.4484      9.9031    138.2058
  2376.5000     -4.8780      5.3960      6.2198      9.6262    139.3831
  2376.7500     -5.3943      5.3200      6.0381      9.2829    140.6988
  2377.0000     -6.0882      5.2871      5.9073      8.9509    144.1586
  2377.2500     -6.9876      5.2946      5.8285      8.7252    147.5125
  2377.5000     -8.0374      5.3383      5.8022      8.6555    153.9521
  2377.7500     -9.1495      5.4138      5.8306      8.7565    158.7756
  2378.0000    -10.2798      5.5181      5.9182      9.0754    165.2025
  2378.2500    -11.4535      5.6501      6.0695      9.7044    167.6890
  2378.5000    -12.7231      5.8116      6.2859     10.6634    166.7146
  2378.7500    -14.1094      6.0059      6.5644     11.7690    162.2879
  2379.0000    -15.5758      6.2356      6.8995     12.7005    150.9252
  2379.2500    -17.0478      6.5018      7.2885     13.2703    142.1080
  2379.5000    -18.4558      6.8037      7.7358     13.6422    130.6283
  2379.7500    -19.7602      7.1399      8.2521     14.2584    124.8909
  2380.0000    -20.9502      7.5091      8.8465     15.5079    117.4121
  2380.2500    -22.0404      7.9090      9.5154     17.4037    111.5279
  2380.5000    -23.0786      8.3336     10.2352     19.5382    100.0877
  2380.7500    -24.1338      8.7721     10.9652     21.3561     91.4189
  2381.0000    -25.2467      9.2097     11.6601     22.4984     79.4223
  2381.2500    -26.3904      9.6326     12.2824     22.9322     73.2987
  2381.5000    -27.4875     10.0310     12.8078     22.8249     67.2682
  2381.7500    -28.4662     10.3985     13.2237     22.3475     64.7921
  2382.0000    -29.3057     10.7310     13.5282     21.5912     62.5910
  2382.2500    -30.0459     11.0258     13.7308     20.6165     62.2364
  2382.5000    -30.7684     11.2831     13.8506     19.5402     63.9034
  2382.7500    -31.5707     11.5044     13.9115     18.5543     66.3691
  2383.0000    -32.5437     11.6896     13.9350     17.8488     70.9575
  2383.2500    -33.7580     11.8359     13.9349     17.5055     73.8377
  2383.5000    -35.2471     11.9396     13.9157     17.4592     77.1882
  2383.7500    -36.9865     12.0007     13.8754     17.5550     78.7948
  2384.0000    -38.8915     12.0260     13.8138     17.6394     80.6805
  2384.2500    -40.8496     12.0288     13.7380     17.6230     81.8420
  2384.5000    -42.7626     12.0255     13.6643     17.5017     83.6824
  2384.7500    -44.5602     12.0320     13.6123     17.3436     84.9823
  2385.0000    -46.1951     12.0608     13.5991     17.2453     86.8515
  2385.2500    -47.6489     12.1193     13.6331     17.2751     87.7558
  2385.5000    -48.9389     12.2105     13.7126     17.4390     87.6051
  2385.7500    -50.1012     12.3352     13.8271     17.6894     85.7734
  2386.0000    -51.1594     12.4923     13.9640     17.9688     79.9950
  2386.2500    -52.1096     12.6782     14.1172     18.2533     74.7932
  2386.5000    -52.9359     12.8851     14.2927     18.5673     67.0726
  2386.7500    -53.6463     13.1018     14.5052     18.9577     63.0011
  2387.0000    -54.2924     13.3181     14.7664     19.4530     59.2713
  2387.2500    -54.9475     13.5296     15.0748     20.0421     58.3260
  2387.5000    -55.6603     13.7383     15.4132     20.6739     58.2804
  2387.7500    -56.4257     13.9482     15.7559     21.2611     58.1460
  2388.0000    -57.1873     14.1593     16.0786     21.7017     56.3825
  2388.2500    -57.8540     14.3660     16.3632     21.9316     54.3647
  2388.5000    -58.3209     14.5596     16.5963     21.9770     51.9840
  2388.7500    -58.5062     14.7345     16.7660     21.9553     51.7842
  2389.0000    -58.4039     14.8887     16.8678     22.0128     53.3881
  2389.2500    -58.1008     15.0221     16.9173     22.2285     54.7754
  2389.5000    -57.7251     15.1323     16.9537     22.5506     55.7640
  2389.7500    -57.3602     15.2146     17.0230     22.8297     55.4541
  2390.0000    -56.9960     15.2659     17.1519     22.9370     54.3099
  2390.2500    -56.5430     15.2904     17.3317     22.8639     53.6825
  2390.5000    -55.8843     15.3025     17.5267     22.7135     53.2288
  2390.7500    -54.9362     15.3254     17.6975     22.6151     53.0523
  2391.0000    -53.6992     15.3827     17.8201     22.6525     52.7535
  2391.2500    -52.2807     15.4863     17.8899     22.8438     52.5999
  2391.5000    -50.8602     15.6279     17.9150     23.1498     52.5006
  2391.7500    -49.6090     15.7817     17.9096     23.4867     52.4210
  2392.0000    -48.6254     15.9177     17.8890     23.7449     52.1879
  2392.2500    -47.9254     16.0149     17.8664     23.8227     52.1542
  2392.5000    -47.4609     16.0674     17.8507     23.6743     52.9155
  2392.7500    -47.1309     16.0800     17.8467     23.3476     54.0850
  2393.0000    -46.8030     16.0616     17.8571     22.9694     56.0075
  2393.2500    -46.3664     16.0191     17.8832     22.6714     56.5359
  2393.5000    -45.7911     15.9577     17.9209     22.5157     55.3686
  2393.7500    -45.1451     15.8840     17.9567     22.4779     53.6816
  2394.0000    -44.5558     15.8082     17.9672     22.4770     51.4524
  2394.2500    -44.1467     15.7424     17.9279     22.4062     50.9527
  2394.5000    -43.9880     15.6928     17.8271     22.1616     51.7956
  2394.7500    -44.0851     15.6533     17.6722     21.7036     52.9039
  2395.0000    -44.4018     15.6074     17.4823     21.1283     54.4102
  2395.2500    -44.8855     15.5393     17.2728     20.6455     55.0654
  2395.5000    -45.4763     15.4454     17.0466     20.4211     55.6518
  2395.7500    -46.1143     15.3354     16.7977     20.4192     55.9139
  2396.0000    -46.7535     15.2230     16.5257     20.4230     56.1730
  2396.2500    -47.3622     15.1176     16.2476     20.2202     56.2731
  2396.5000    -47.8947     15.0230     15.9955     19.7640     56.5492
  2396.7500    -48.2782     14.9418     15.8014     19.1788     56.9985
  2397.0000    -48.4453     14.8782     15.6802     18.6504     57.9649
  2397.2500    -48.3856     14.8352     15.6215     18.3137     58.3587
