~Version Information
VERS.                      2.0: CWLS Log ASCII Standard - VERSION 2.0
WRAP.                       NO: One line per depth step
~Well Information Block
STRT.FT                -4.5000: 
STOP.FT              1680.2500: 
STEP.FT                 0.2500: 
NULL.                -999.2500: 
COMP.          Pioneer Natural Resources: COMPANY
WELL.            Salty 42-6 Tr: WELL
FLD.           Purgatorie River: FIELD
LOC.           2409' FNL & 599' FEL--: LOCATION
PROV.                       CO: PROVINCE
CNTY.               Las Animas: COUNTRY
SRVC.                         : SERVICE COMPANY
DATE.          Mon Dec 20 13:36:48 2004: LOG DATE
UWI.           071-08238      : UNIQUE WELL ID
~Curve Information Block
DEPT.FT            0 000 00 00: Depth
HVOLTA.V                      : Head Voltage Apparent
GR.GAPI                       : Gamma Ray
CCL.                          : Casing Collar Locator
TT3.usec                      : CBL 3' Travel Time
AMP3.mV                       : CBL 3' Amplitude
~Parameter Information Block
~A  Depth      HVOLTA        GR         CCL         TT3         AMP3    
# ...
   107.5000     97.1694    106.2532      0.0000    775.6940     12.6867
   107.7500     97.0392    104.3762      0.0000    775.7033     12.6409
   108.0000     97.0214    102.9623      0.0000    775.6533     12.7700
   108.2500     96.9568    103.2740      0.0000    775.5250     13.1212
   108.5000     97.0249    105.4899      0.0000    775.3147     13.7031
   108.7500     97.4449    108.3952      0.0000    775.0624     14.4536
   109.0000     97.5666    110.3379      0.0000    774.8785     15.2702
   109.2500     97.2101    110.3294      0.0000    774.8886     16.0674
   109.5000     97.1384    108.5460      0.0000    775.1132     16.7938
   109.7500     97.1145    105.8327      0.0000    775.0839     17.4143
   110.0000     96.9090    102.5219      0.0000    773.2455     17.9125
   110.2500     97.1587     98.1270      0.0000    766.3812     18.3100
   110.5000     97.1551     92.6346      0.0000    750.6408     18.6480
   110.7500     97.0595     87.6045      0.0000    725.8600     18.9184
   111.0000     96.9329     85.1852      0.0000    700.3069     19.0171
   111.2500     97.1551     85.8320      0.0000    687.8836     18.7942
   111.5000     97.0799     87.6624      0.0000    696.4465     18.1765
   111.7500     97.0560     88.6689      0.0000    719.9863     17.2533
   112.0000     97.1312     88.9157      0.0000    744.8859     16.2349
   112.2500     97.2853     89.7333      0.0000    761.8638     15.3162
   112.5000     97.1109     91.6593      0.0000    770.0579     14.5768
   112.7500     97.1002     94.5648      0.0000    772.8958     13.9953
   113.0000     97.1216     99.0722      0.0000    773.5447     13.5324
   113.2500     96.9675    106.2082      0.0000    773.5801     13.1790
   113.5000     96.9365    115.6710      0.0000    773.5264     12.9305
   113.7500     96.9126    125.4541      0.0000    773.5031     12.7469
   114.0000     96.9747    133.2147      0.0000    773.5792     12.5674
   114.2500     97.1348    137.6153      0.0000    773.8112     12.3616
   114.5000     96.9436    138.5961      0.0000    774.2339     12.1503
   114.7500     97.0321    136.7391      0.0000    774.8113     11.9703
   115.0000     96.9879    132.4597      0.0000    775.4182     11.8328
   115.2500     96.9162    126.2147      0.0000    775.8918     11.7241
   115.5000     97.0941    119.6425      0.0000    776.1357     11.6431
   115.7500     96.9401    115.4790      0.0000    776.1657     11.6257
   116.0000     96.9843    115.5681      0.0000    776.0450     11.7221
   116.2500     97.0738    119.4046      0.0000    775.8013     11.9437
   116.5000     97.2136    124.8163      0.0000    775.4327     12.2306
   116.7500     97.0356    129.5594      0.0000    774.9690     12.4787
   117.0000     96.9879    132.3882      0.0000    774.4871     12.6082
   117.2500     97.0153    133.3617      0.0000    774.0712     12.6087
   117.5000     96.9436    133.2005      0.0000    773.7859     12.5215
   117.7500     97.0321    132.1530      0.0000    773.7181     12.3909
   118.0000     97.0727    129.7395      0.0000    774.0760     12.2439
   118.2500     97.0356    125.6533      0.0000    775.3044     12.1008
   118.5000     97.0631    120.5512      0.0000    778.0633     11.9870
   118.7500     97.0321    115.7086      0.0000    782.8744     11.9312
   119.0000     96.9879    111.8814      0.0000    789.5139     11.9539
   119.2500     97.0453    108.6453      0.0000    796.7380     12.0539
   119.5000     97.0285    105.0534      0.0000    802.8492     12.2084
   119.7500     96.9914    100.9822      0.0000    806.6931     12.3923
   120.0000     97.0667     97.5439      0.0000    808.0979     12.5928
   120.2500     96.9497     95.9411      0.0000    807.5507     12.7981
   120.5000     96.9640     96.1370      0.0000    805.8478     12.9771
   120.7500     97.0321     96.9874      0.0000    804.0994     13.0853
   121.0000     97.1038     97.4244      0.0000    803.5534     13.0901
   121.2500     97.1419     97.2816      0.0000    805.0035     12.9884
   121.5000     96.9950     97.2760      0.0000    808.5222     12.8064
   121.7500     97.0082     98.4554      0.0000    813.9495     12.5907
   122.0000     97.1145    101.2411      0.0000    820.9819     12.3995
   122.2500     97.1241    104.6003      0.0000    827.9799     12.2873
   122.5000     97.0703    106.3552      0.0000    831.2057     12.2836
   122.7500     96.8994    104.8699      0.0000    826.9720     12.3823
   123.0000     97.0834    100.6797      0.0000    815.3600     12.5552
   123.2500     96.9401     96.1784      0.0000    800.8593     12.7736
   123.5000     97.0285     93.4809      0.0000    788.6880     13.0097
   123.7500     97.0321     92.8072      0.0000    781.1224     13.2258
   124.0000     96.9879     92.8821      0.0000    777.3751     13.3748
   124.2500     96.9914     92.2802      0.0000    775.6950     13.4207
   124.5000     97.1348     90.2106      0.0000    774.8657     13.3666
   124.7500     97.0738     86.6648      0.0000    774.3708     13.2731
   125.0000     97.2447     82.4920      0.0000    774.0347     13.2364
   125.2500     97.2065     79.2752      0.0000    773.7794     13.3194
   125.5000     97.2686     78.5858      0.0000    773.5736     13.4936
   125.7500     97.1216     80.9757      0.0000    773.4489     13.6713
   126.0000     97.0870     85.5098      0.0000    773.4659     13.7959
   126.2500     97.1288     90.2673      0.0000    773.6622     13.8831
   126.5000     97.0595     93.7210      0.0000    774.0181     13.9755
   126.7500     96.9269     96.0803      0.0000    774.4581     14.0800
   127.0000     97.3103     99.1105      0.0000    774.8957     14.1584
   127.2500     96.9807    104.3537      0.0000    775.2943     14.1628
   127.5000     97.0153    111.6296      0.0000    775.6805     14.0767
   127.7500     97.1969    119.1647      0.0000    776.0920     13.9332
   128.0000     96.9472    124.6915      0.0000    776.5283     13.7986
   128.2500     97.1180    126.6275      0.0000    776.9496     13.7219
   128.5000     96.9914    125.0743      0.0000    777.2875     13.6958
   128.7500     97.1455    121.8515      0.0000    777.4577     13.6784
   129.0000     96.9472    118.8577      0.0000    777.3995     13.6506
   129.2500     97.0834    116.2330      0.0000    777.1213     13.6316
   129.5000     97.0667    112.6875      0.0000    776.6967     13.6427
   129.7500     96.9604    107.4253      0.0000    776.2258     13.6791
   130.0000     97.0930    100.9492      0.0000    775.8024     13.7173
   130.2500     96.9472     94.0821      0.0000    775.4960     13.7319
   130.5000     97.0763     87.1059      0.0000    775.3338     13.7051
   130.7500     97.0799     80.0726      0.0000    775.2896     13.6382
   131.0000     96.8923     73.3307      0.0000    775.3034     13.5544
   131.2500     97.1419     67.4054      0.0000    775.3179     13.4811
   131.5000     96.9401     62.5893      0.0000    775.3014     13.4281
   131.7500     97.1491     58.7128      0.0000    775.2441     13.3853
   132.0000     97.0738     55.2961      0.0000    775.1487     13.3362
   132.2500     96.9843     52.1924      0.0000    775.0298     13.2708
   132.5000     97.2375     50.1577      0.0000    774.9120     13.1878
   132.7500     97.2101     50.5344      0.0000    774.8209     13.0954
   133.0000     96.9711     54.2580      0.0000    774.7687     13.0080
   133.2500     97.0870     61.3236      0.0000    774.7375     12.9376
   133.5000     97.0977     71.0698      0.0000    774.6717     12.8877
   133.7500     97.1897     82.5447      0.0000    774.5131     12.8541
   134.0000     97.2482     94.4418      0.0000    774.2593     12.8313
   134.2500     96.9914    104.9799      0.0000    773.9798     12.8177
   134.5000     97.2339    112.2568      0.0000    773.7675     12.8186
   134.7500     97.1623    115.0361      0.0000    773.6738     12.8406
   135.0000     97.0810    113.6035      0.0000    773.6841     12.8759
   135.2500     96.9843    110.0129      0.0000    773.7460     12.8971
