~Version Information
VERS.                      2.0: CWLS Log ASCII Standard - VERSION 2.0
WRAP.                       NO: One line per depth step
~Well Information Block
STRT.FT               671.6000: 
STOP.FT              1890.7000: 
STEP.FT                 0.1000: 
NULL.                -999.2500: 
COMP.          Petrogulf Corporation: COMPANY
WELL.             State 16-14R: WELL
FLD.           Purgatorie River: FIELD
LOC.           598' FSL & 682' FWL: LOCATION
CNTY.               Las Animas: COUNTY
SRVC.                         : SERVICE COMPANY
DATE.          Fri Nov 05 07:21:30 2004: LOG DATE
UWI.           05 071 08034 00: UNIQUE WELL ID
STAT.                 Colorado: STATE
~Curve Information Block
DEPT.FT            0 000 00 00: Depth
DCAL.in                       : CDL Caliper
RHOB.g/cc                     : CDL Bulk Density
RHOC.g/cc                     : CDL Density Correction
DPOR.pu                       : CDL Density Porosity
GR.GAPI                       : Gamma Ray
NPOR.pu                       : Neutron Porosity
~Parameter Information Block
~A  Depth       DCAL        RHOB        RHOC        DPOR         GR         NPOR    
# ...
   930.8000      8.1040      2.4363      0.0555     12.9506     88.8022     19.0142
   930.9000      8.1040      2.4387      0.0428     12.8081     89.4308     18.8560
   931.0000      8.0787      2.4367      0.0326     12.9254     89.0677     18.8961
   931.1000      8.0787      2.4369      0.0168     12.9151     86.3031     19.5504
   931.2000      8.0787      2.4428      0.0146     12.5558     84.4975     20.3553
   931.3000      8.1045      2.4552      0.0564     11.8087     86.8827     20.4449
   931.4000      8.1045      2.4714      0.0335     10.8261     91.6312     19.9511
   931.5000      8.1505      2.4842      0.1007     10.0483     94.0322     19.6133
   931.6000      8.1505      2.4889      0.0315      9.7655     90.9931     19.6457
   931.7000      8.1505      2.4984      0.0516      9.1873     84.7496     19.5578
   931.8000      8.1272      2.5185      0.0900      7.9722     79.7775     19.0159
   931.9000      8.1272      2.5302      0.1224      7.2597     78.9093     18.5357
   932.0000      8.1359      2.5149      0.1136      8.1878     81.8580     18.5865
   932.1000      8.1359      2.4791      0.0848     10.3605     83.7349     18.9601
   932.2000      8.1359      2.4541      0.0181     11.8721     82.6872     19.4019
   932.3000      8.1467      2.4509      0.0876     12.0677     81.6220     19.7681
   932.4000      8.1467      2.4497      0.0713     12.1373     81.5722     19.9935
   932.5000      8.1086      2.4549      0.0476     11.8231     82.8527     20.1558
   932.6000      8.1086      2.4827      0.1093     10.1380     86.1229     20.2686
   932.7000      8.1086      2.5170      0.1740      8.0602     89.8903     20.2160
   932.8000      8.0932      2.5327      0.1583      7.1103     92.4339     20.1628
   932.9000      8.0932      2.5313      0.1067      7.1935     95.7331     20.3673
   933.0000      8.1307      2.5276      0.1024      7.4158    100.6499     20.6922
   933.1000      8.1307      2.5268      0.1453      7.4648    102.2411     21.0047
   933.2000      8.1307      2.5238      0.1678      7.6467     98.1947     21.3431
   933.3000      8.1172      2.5072      0.1064      8.6554     92.6752     21.5451
   933.4000      8.1172      2.4736      0.0976     10.6924     90.1041     21.4433
   933.5000      8.0301      2.4409      0.0495     12.6746     90.1292     21.2378
   933.6000      8.0301      2.4300     -0.0019     13.3352     90.8967     21.2465
   933.7000      8.0301      2.4445      0.0226     12.4557     92.8706     21.6165
   933.8000      8.0020      2.4694      0.0639     10.9455     94.9967     22.2697
   933.9000      8.0020      2.4863      0.0561      9.9184     97.9697     23.1002
   934.0000      7.9904      2.4948      0.0426      9.4073    102.0131     24.0081
   934.1000      7.9904      2.5079      0.0337      8.6139    103.6299     24.8477
   934.2000      7.9904      2.5313      0.0517      7.1942    101.6377     25.6204
   934.3000      7.9902      2.5596      0.0631      5.4810    100.9536     26.1487
   934.4000      7.9902      2.5843      0.1021      3.9846    105.5779     26.2902
   934.5000      7.9753      2.5989      0.1057      3.0972    113.9738     26.1840
   934.6000      7.9753      2.6044      0.1011      2.7628    122.7006     25.8454
   934.7000      7.9753      2.6047      0.1543      2.7483    129.5779     25.5449
   934.8000      8.0022      2.5996      0.0725      3.0539    134.5225     25.6329
   934.9000      8.0022      2.5942      0.0717      3.3826    136.8159     25.6109
   935.0000      8.0225      2.5894      0.1001      3.6742    137.1445     24.9382
   935.1000      8.0225      2.5851      0.0199      3.9314    138.7452     23.9166
   935.2000      8.0225      2.5865      0.0478      3.8502    139.8714     22.7432
   935.3000      8.0308      2.5811      0.1124      4.1780    136.9701     21.6721
   935.4000      8.0308      2.5564      0.0432      5.6706    132.9805     21.1917
   935.5000      8.0342      2.5235      0.0207      7.6674    130.5300     21.0092
   935.6000      8.0342      2.4910      0.0459      9.6385    130.3747     20.4017
   935.7000      8.0342      2.4522      0.0328     11.9875    133.7863     19.4174
   935.8000      8.0577      2.3968      0.0294     15.3456    138.1251     18.5786
   935.9000      8.0577      2.3250     -0.0321     19.6991    142.0797     17.7030
   936.0000      8.0473      2.2408     -0.0098     24.8014    146.3189     16.4143
   936.1000      8.0473      2.1288      0.0192     31.5851    148.1067     15.1462
   936.2000      8.0473      1.9839     -0.0527     40.3675    145.0289     14.1468
   936.3000      8.0766      1.8391     -0.0807     49.1463    140.1069     13.2334
   936.4000      8.0766      1.7153     -0.0684     56.6466    139.6918     12.7287
   936.5000      8.1236      1.6004     -0.0154     63.6151    147.7798     13.0035
   936.6000      8.1236      1.5072     -0.0742     69.2615    157.7015     13.7944
   936.7000      8.1236      1.4907     -0.0792     70.2623    160.3135     14.8157
   936.8000      8.1233      1.5775      0.1269     65.0019    158.1290     16.1658
   936.9000      8.1233      1.7353      0.2679     55.4361    154.9916     17.6071
   937.0000      8.1965      1.9172      0.3323     44.4139    146.7238     18.9372
   937.1000      8.1965      2.0925      0.5008     33.7860    134.0343     20.6572
   937.2000      8.1965      2.2618      0.4756     23.5289    126.7249     22.5897
   937.3000      8.3268      2.4340      0.4815     13.0920    128.0116     24.1561
   937.4000      8.3268      2.5714      0.4980      4.7660    132.2155     25.6866
   937.5000      8.4566      2.6282      0.3766      1.3212    133.3544     27.6220
   937.6000      8.4566      2.6291      0.2375      1.2660    130.2746     29.6593
   937.7000      8.4566      2.6277      0.1991      1.3505    128.1055     31.4339
   937.8000      8.1882      2.6283      0.2129      1.3169    130.9229     32.5530
   937.9000      8.1882      2.6128      0.1545      2.2569    135.4452     32.7658
   938.0000      8.1139      2.5931      0.0926      3.4497    135.0907     32.6484
   938.1000      8.1139      2.5844      0.0902      3.9776    130.0703     32.5373
   938.2000      8.1139      2.5783      0.0616      4.3483    128.1139     32.1215
   938.3000      8.1319      2.5686      0.0268      4.9318    131.4126     31.5066
   938.4000      8.1319      2.5547      0.0703      5.7728    136.0065     30.8537
   938.5000      8.1187      2.5359     -0.0059      6.9130    140.0923     29.7322
   938.6000      8.1187      2.5193      0.0082      7.9238    141.5956     28.0619
   938.7000      8.1187      2.5088     -0.0087      8.5582    140.0825     26.7612
   938.8000      8.1010      2.5089      0.0231      8.5544    139.9467     26.4361
   938.9000      8.1010      2.5188      0.0466      7.9513    144.1260     26.5260
   939.0000      8.0798      2.5289      0.0519      7.3409    149.3306     26.4252
   939.1000      8.0798      2.5391      0.0269      6.7213    152.9028     26.0299
   939.2000      8.0798      2.5448      0.1006      6.3773    156.2295     25.1453
   939.3000      8.1077      2.5262      0.0891      7.5007    157.9345     23.8047
   939.4000      8.1077      2.4862      0.0285      9.9244    155.4021     22.3940
   939.5000      8.0976      2.4390      0.0249     12.7894    149.1703     21.2826
   939.6000      8.0976      2.3817      0.0556     16.2635    142.2872     20.6106
   939.7000      8.0976      2.3164     -0.0137     20.2178    138.0282     19.9303
   939.8000      8.0973      2.2532      0.0274     24.0469    137.4489     18.9348
   939.9000      8.0973      2.1869      0.0132     28.0686    138.3159     18.0310
   940.0000      8.1169      2.1109     -0.0232     32.6728    136.9674     17.2594
   940.1000      8.1169      2.0259     -0.0402     37.8232    136.3486     16.3809
   940.2000      8.1169      1.9299     -0.0329     43.6450    139.5908     15.6528
   940.3000      8.0970      1.8357     -0.0428     49.3488    141.4521     15.3341
