~Version Information
VERS.                      2.0: CWLS Log ASCII Standard - VERSION 2.0
WRAP.                       NO: One line per depth step
~Well Information Block
STRT.FT               185.2500: 
STOP.FT              2109.7500: 
STEP.FT                 0.2500: 
NULL.                -999.2500: 
COMP.    Petrogulf Corporation: COMPANY
WELL.             State 16-44V: WELL
FLD.          Purgatorie River: FIELD
LOC.       320' FSL & 320' FEL: LOCATION
PROV.                 Colorado: PROVINCE
CNTY.               Las Animas: COUNTRY
SRVC.                Patterson: SERVICE COMPANY
DATE. Thu Aug 11 12:58:04 2005: LOG DATE
UWI.               071-08263  : UNIQUE WELL ID
~Curve Information Block
DEPT.FT            0 000 00 00: Depth
GR.GAPI                       : Gamma Ray
CCL.                          : Casing Collar Locator
TT3.usec                      : CBL 3' Travel Time
AMP3.mV                       : CBL 3' Amplitude
~Parameter Information Block
~A  Depth        GR         CCL         TT3         AMP3    
# ...
  2061.2500     74.1721      0.0000    615.0641      7.8365
  2061.5000     73.8420      0.0000    621.5681      7.8755
  2061.7500     73.4094      0.0000    624.1977      7.9039
  2062.0000     72.5032      0.0000    621.4897      7.9161
  2062.2500     71.0674      0.0000    616.3251      7.9217
  2062.5000     69.5933      0.0000    612.6099      7.9234
  2062.7500     68.8259      0.0000    610.7677      7.9129
  2063.0000     69.1838      0.0000    608.0010      7.8820
  2063.2500     70.4596      0.0000    600.8574      7.8327
  2063.5000     71.9820      0.0000    590.4417      7.7793
  2063.7500     73.1362      0.0000    585.0607      7.7385
  2064.0000     73.8998      0.0000    590.3737      7.7114
  2064.2500     74.8051      0.0000    600.5187      7.7000
  2064.5000     76.3492      0.0000    606.7186      7.7535
  2064.7500     78.5991      0.0000    606.6764      7.9679
  2065.0000     81.3444      0.0000    602.7924      8.3831
  2065.2500     84.3578      0.0000    599.0555      8.8232
  2065.5000     87.4221      0.0000    599.9135      8.9036
  2065.7500     90.1758      0.0000    608.6960      8.4054
  2066.0000     91.9497      0.0000    625.5269      7.6743
  2066.2500     91.8762      0.0000    647.2255      7.3530
  2066.5000     89.4541      0.0000    669.2944      7.6135
  2066.7500     85.1994      0.0000    684.3345      8.0429
  2067.0000     80.6602      0.0000    683.1537      8.3024
  2067.2500     77.5449      0.0000    668.8035      8.4493
  2067.5000     76.5919     -2.0000    660.5541      8.6201
  2067.7500     77.2685      0.0000    668.3278      8.7551
  2068.0000     78.6216      0.0000    681.1797      8.7284
  2068.2500     80.2852      0.0000    686.7347      8.5183
  2068.5000     82.4830      0.0000    681.5029      8.1743
  2068.7500     85.2090      0.0000    667.5610      7.8861
  2069.0000     87.7023      0.0000    647.4642      7.9422
  2069.2500     88.8632      0.0000    621.1832      8.2658
  2069.5000     88.2645      0.0000    589.2762      8.3886
  2069.7500     86.7563      0.0000    557.2032      8.0957
  2070.0000     85.7668      0.0000    532.8481      7.6348
  2070.2500     85.7830      0.0000    518.3522      7.2857
  2070.5000     85.7888      0.0000    508.2209      7.0933
  2070.7500     84.5036      0.0000    496.6955      6.9829
  2071.0000     81.9713      0.0000    484.2068      6.9009
  2071.2500     79.6784      0.0000    475.8364      6.8260
  2071.5000     79.2464      0.0000    475.3674      6.7488
  2071.7500     81.0953      0.0000    481.7947      6.6706
  2072.0000     84.0692      0.0000    488.8023      6.5873
  2072.2500     86.2080      0.0000    488.8251      6.4823
  2072.5000     86.1601      0.0000    480.5293      6.3684
  2072.7500     84.0777      0.0000    469.0194      6.3070
  2073.0000     81.2252      0.0000    460.2778      6.3207
  2073.2500     78.8882      0.0000    460.4759      6.3162
  2073.5000     77.7038      0.0000    475.1864      6.1736
  2073.7500     77.6424      0.0000    503.0322      5.8903
  2074.0000     78.2232      0.0000    534.7950      5.5664
  2074.2500     78.7747      0.0000    564.7180      5.2840
  2074.5000     78.7424      0.0000    596.6586      5.0582
  2074.7500     77.9137      0.0000    632.9034      4.8598
  2075.0000     76.4699      0.0000    665.3783      4.6525
  2075.2500     74.9196      0.0000    683.9588      4.4345
  2075.5000     73.9416      0.0000    688.4888      4.2447
  2075.7500     74.1173      0.0000    685.9286      4.1093
  2076.0000     75.5909      0.0000    680.2565      4.0074
  2076.2500     77.8351      0.0000    670.4615      3.9116
  2076.5000     79.8410      0.0000    653.9832      3.8333
  2076.7500     80.7459      0.0000    634.9847      3.8154
  2077.0000     80.2571      0.0000    628.0803      3.9063
  2077.2500     78.3916      0.0000    641.1898      4.1480
  2077.5000     75.1752      0.0000    663.3292      4.5413
  2077.7500     71.0551      0.0000    680.1505      5.0266
  2078.0000     67.3936      0.0000    685.9623      5.5222
  2078.2500     65.8576      0.0000    681.9246      5.9528
  2078.5000     66.9924      0.0000    673.9309      6.2615
  2078.7500     69.5445      0.0000    665.1979      6.4281
  2079.0000     71.4165      0.0000    653.0165      6.4625
  2079.2500     71.3738      0.0000    637.9676      6.3866
  2079.5000     69.8984      0.0000    627.2748      6.2141
  2079.7500     68.5228      0.0000    624.3254      5.9491
  2080.0000     68.2947      0.0000    625.5648      5.6110
  2080.2500     68.8504      0.0000    629.4673      5.2314
  2080.5000     69.1330      0.0000    634.6677      4.8193
  2080.7500     68.8970      0.0000    634.7210      4.3715
  2081.0000     69.0641      0.0000    627.2431      3.9087
  2081.2500     70.5513      0.0000    620.2919      3.4635
  2081.5000     73.2391      0.0000    620.8553      3.0720
  2081.7500     76.3772      0.0000    625.6157      2.7705
  2082.0000     79.6632      0.0000    628.9421      2.5628
  2082.2500     83.4630      0.0000    629.6990      2.4151
  2082.5000     87.9339      0.0000    629.4954      2.2944
  2082.7500     92.2926      0.0000    630.3923      2.1914
  2083.0000     95.2838      0.0000    631.8311      2.1102
  2083.2500     96.3400      0.0000    630.6063      2.0625
  2083.5000     96.0344      0.0000    625.6276      2.0623
  2083.7500     95.3208      0.0000    618.7119      2.1051
  2084.0000     94.5527      0.0000    611.3362      2.1618
  2084.2500     93.3601      0.0000    604.9065      2.1991
  2084.5000     91.1989      0.0000    601.5174      2.2015
  2084.7500     87.8588      0.0000    600.5964      2.1814
  2085.0000     83.7468      0.0000    598.1528      2.1693
  2085.2500     79.9544      0.0000    593.8600      2.1928
  2085.5000     77.8840      0.0000    595.1199      2.2582
  2085.7500     78.3944      0.0000    607.2479      2.3465
  2086.0000     80.9815      0.0000    623.8264      2.4208
  2086.2500     83.8884      0.0000    632.2838      2.4423
  2086.5000     85.4852      0.0000    627.6074      2.3977
  2086.7500     85.7195      0.0000    619.1970      2.3166
  2087.0000     85.9357      0.0000    617.7610      2.2428
  2087.2500     87.3809      0.0000    620.3609      2.1895
  2087.5000     90.3935      0.0000    621.2244      2.1431
  2087.7500     94.8220      0.0000    623.0038      2.1027
  2088.0000    100.3302      0.0000    626.4028      2.0941
  2088.2500    106.0482      0.0000    626.3429      2.1469
  2088.5000    110.6777      0.0000    621.6305      2.2638
  2088.7500    113.4550      0.0000    615.8473      2.4223
  2089.0000    114.8480      0.0000    610.9733      2.5937
  2089.2500    116.1346      0.0000    605.6622      2.7417
  2089.5000    118.4264      0.0000    599.1063      2.8429
  2089.7500    122.0502      0.0000    593.9681      2.9311
  2090.0000    126.5086      0.0000    593.4695      3.0864
  2090.2500    130.7383      0.0000    596.7063      3.3743
  2090.5000    133.4823      0.0000    600.5283      3.7924
  2090.7500    133.5674      0.0000    608.5986      4.2457
  2091.0000    130.0323      0.0000    626.4372      4.5856
  2091.2500    122.5708      0.0000    645.5459      4.7049
  2091.5000    112.3315      0.0000    650.7906      4.5986
  2091.7500    101.9372      0.0000    638.0979      4.3581
  2092.0000     94.0595      0.0000    610.5431      4.1725
  2092.2500     89.8108      0.0000    570.0941      4.2833
  2092.5000     88.6191      0.0000    525.8909      4.7457
  2092.7500     89.4149      0.0000    496.0762      5.2426
  2093.0000     91.5760      0.0000    492.8425      5.3332
  2093.2500     94.8014      0.0000    512.8970      4.8822
  2093.5000     98.7022      0.0000    539.9245      4.1037
  2093.7500    102.9637      0.0000    557.2445      3.2856
  2094.0000    107.6522      0.0000    562.8559      2.6242
  2094.2500    112.8397      0.0000    566.3963      2.2190
  2094.5000    117.9389      0.0000    572.8756      2.0827
