~Version Information
VERS.                      2.0: CWLS Log ASCII Standard - VERSION 2.0
WRAP.                       NO: One line per depth step
~Well Information Block
STRT.FT                -8.0000: 
STOP.FT              1357.5000: 
STEP.FT                 0.2500: 
NULL.                -999.2500: 
COMP.          Pioneer Natural Resources: COMPANY
WELL.          Lorencito 6-3-34-66: WELL
FLD.           Purgatorie River: FIELD
LOC.           2545' FNL & 1914' FWL: LOCATION
STAT.                       CO: State
CNTY.               Las Animas: COUNTY
CTRY. USA : Country
SECT. 3 : Section
TOWN. 34S : Township
RANG. 66W : Range
SRVC.          Patterson Wireline: SERVICE COMPANY
DATE.          Tue Sep 27 11:36:13 2005: LOG DATE
API.           05 071 08369 00: UNIQUE WELL ID
~Curve Information Block
DEPT.FT            0 000 00 00: Depth
CCL.                          : Casing Collar Locator
TT3.usec                      : CBL 3' Travel Time
AMP3.mV                       : CBL 3' Amplitude
GR.GAPI                       : Gamma Ray
~Parameter Information Block
~A  Depth       CCL         TT3         AMP3         GR     
# ...
   528.0000      0.0000    764.5190     13.5116     98.8971
   528.2500      0.0000    762.1627     13.5550    104.0702
   528.5000      0.0000    762.3782     13.6302    107.0488
   528.7500      0.0000    763.4163     13.7236    109.8527
   529.0000      0.0000    764.1217     13.8125    114.5160
   529.2500      0.0000    764.6747     13.8800    121.6428
   529.5000      0.0000    765.4571     13.9236    130.3961
   529.7500      0.0000    765.9587     13.9554    139.1034
   530.0000      0.0000    765.1290     13.9985    145.5976
   530.2500      0.0000    762.2291     14.0786    147.7887
   530.5000      0.0000    757.1371     14.2077    144.8370
   530.7500      0.0000    750.4761     14.3717    137.9331
   531.0000      0.0000    743.6206     14.5354    129.6786
   531.2500      0.0000    737.9973     14.6611    122.6361
   531.5000      0.0000    734.0995     14.7222    118.2498
   531.7500      0.0000    731.4274     14.7084    116.6531
   532.0000      0.0000    729.5218     14.6304    116.9440
   532.2500      0.0000    728.8168     14.5199    117.5400
   532.5000      0.0000    730.1449     14.4161    116.7385
   532.7500      0.0000    733.5040     14.3443    113.4316
   533.0000      0.0000    737.7297     14.3067    107.5657
   533.2500      0.0000    741.5396     14.2899    100.2867
   533.5000      0.0000    744.5497     14.2763     93.7898
   533.7500      0.0000    746.7825     14.2512     90.4276
   534.0000      0.0000    747.3539     14.2088     91.3546
   534.2500      0.0000    744.0449     14.1561     95.9977
   534.5000      0.0000    734.7720     14.1133    102.9017
   534.7500      0.0000    720.5656     14.1115    111.0374
   535.0000      0.0000    707.2954     14.1893    120.3988
   535.2500      0.0000    702.0471     14.3908    131.4490
   535.5000      0.0000    704.8892     14.7595    143.8859
   535.7500      0.0000    704.6413     15.3277    155.9841
   536.0000      0.0000    685.5712     16.1017    165.1983
   536.2500      0.0000    640.0626     17.0480    169.5364
   536.5000      0.0000    575.6978     18.0924    168.8371
   536.7500      0.0000    510.6971     19.1390    165.4001
   537.0000      0.0000    461.6823     20.0885    163.1838
   537.2500      0.0000    434.2884     20.8153    165.3168
   537.5000      0.0000    424.7696     21.1296    171.5565
   537.7500      0.0000    429.3414     20.8436    178.0728
   538.0000      0.0000    448.3971     19.9678    180.0808
   538.2500      0.0000    479.7338     18.8357    175.2563
   538.5000      0.0000    511.3391     17.9510    165.1870
   538.7500      0.0000    526.0676     17.6472    153.7689
   539.0000      0.0000    516.1926     17.8635    144.2116
   539.2500      0.0000    491.8831     18.2311    137.3002
   539.5000      0.0000    471.1859     18.3848    131.9336
   539.7500      2.0000    461.0128     18.2239    126.8765
   540.0000      0.0000    452.1468     17.9208    121.9088
   540.2500      0.0000    433.4280     17.7529    117.5037
   540.5000      0.0000    405.0914     17.9333    113.8641
   540.7500      0.0000    375.8656     18.4969    110.7956
   541.0000      0.0000    352.5802     19.2209    108.3627
   541.2500      0.0000    336.6089     19.6946    107.1183
   541.5000      0.0000    327.0146     19.6160    107.6377
   541.7500      0.0000    323.3177     19.0382    110.0839
   542.0000      0.0000    325.7894     18.2621    113.9786
   542.2500      0.0000    335.0450     17.5373    118.0200
   542.5000      0.0000    352.0958     16.9325    120.4877
   542.7500      0.0000    379.3680     16.4146    120.4487
   543.0000      0.0000    421.2446     15.9489    118.5918
   543.2500      0.0000    480.1608     15.5353    116.4856
   543.5000      0.0000    548.3186     15.2085    115.0629
   543.7500      0.0000    604.1729     15.0157    114.0289
   544.0000      0.0000    623.2944     14.9712    112.4893
   544.2500      0.0000    598.1734     15.0254    109.8036
   544.5000      0.0000    548.0727     15.0861    106.0097
   544.7500      0.0000    507.1936     15.0805    101.9645
   545.0000      0.0000    500.1591     14.9919     99.2799
   545.2500      0.0000    525.3353     14.8391     99.8007
   545.5000      0.0000    559.5390     14.6385    104.5253
   545.7500      0.0000    580.5131     14.3957    112.5235
   546.0000      0.0000    587.0276     14.1228    121.0531
   546.2500      0.0000    596.7425     13.8460    127.3837
   546.5000      0.0000    625.2588     13.5973    130.7247
   546.7500      0.0000    670.3580     13.4018    132.1797
   547.0000      0.0000    716.3826     13.2724    132.9886
   547.2500      0.0000    749.4863     13.2092    133.2192
   547.5000      0.0000    766.3513     13.2030    132.2175
   547.7500      0.0000    771.4543     13.2401    129.9737
   548.0000      0.0000    770.4258     13.3051    127.6548
   548.2500      0.0000    767.1057     13.3807    126.8087
   548.5000      0.0000    764.3232     13.4480    128.3322
   548.7500      0.0000    764.0352     13.4840    131.9369
   549.0000      0.0000    766.0077     13.4636    135.7943
   549.2500      0.0000    768.2562     13.3726    136.8560
   549.5000      0.0000    769.5327     13.2240    132.7398
   549.7500      0.0000    770.6134     13.0563    123.8649
   550.0000      0.0000    773.1576     12.9105    113.1826
   550.2500      0.0000    778.0095     12.8061    103.4883
   550.5000      0.0000    784.4531     12.7307     95.3846
   550.7500      0.0000    790.6799     12.6505     88.0885
   551.0000      0.0000    795.0309     12.5450     81.4854
   551.2500      0.0000    796.6273     12.4425     76.6805
   551.5000      0.0000    794.7469     12.4080     75.0439
   551.7500      0.0000    787.9023     12.4872     77.5994
   552.0000      0.0000    774.5189     12.6645     85.0730
   552.2500      0.0000    755.9254     12.8740     97.4464
   552.5000      0.0000    738.9132     13.0414    112.9639
   552.7500      0.0000    732.9070     13.1210    127.9974
   553.0000      0.0000    742.0396     13.1104    138.7536
   553.2500      0.0000    760.8951     13.0320    143.8708
   553.5000      0.0000    779.6665     12.8987    145.5079
   553.7500      0.0000    792.1957     12.7045    147.5264
   554.0000      0.0000    798.1110     12.4548    152.4843
   554.2500      0.0000    799.5322     12.1906    160.2346
   554.5000      0.0000    797.9481     11.9756    168.7489
   554.7500      0.0000    793.7081     11.8603    175.8495
   555.0000      0.0000    787.0977     11.8534    180.3883
   555.2500      0.0000    779.2935     11.9123    182.2239
   555.5000      0.0000    772.1389     11.9681    181.4956
   555.7500      0.0000    766.7660     11.9763    178.4148
   556.0000      0.0000    762.9459     11.9477    173.8060
   556.2500      0.0000    760.4796     11.9268    169.0782
   556.5000      0.0000    760.7695     11.9502    164.9088
   556.7500      0.0000    765.6267     12.0307    159.9999
   557.0000      0.0000    774.4302     12.1632    151.9548
   557.2500      0.0000    783.7787     12.3269    139.9940
   557.5000      0.0000    790.3560     12.4902    126.5849
   557.7500      0.0000    793.4200     12.6246    116.0280
   558.0000      0.0000    794.0759     12.7195    111.5648
   558.2500      0.0000    792.4999     12.7851    113.5959
   558.5000      0.0000    785.9994     12.8420    119.9947
   558.7500      0.0000    770.5122     12.9021    127.7668
   559.0000      0.0000    746.0364     12.9519    134.5875
   559.2500      0.0000    721.4603     12.9631    139.2598
   559.5000      0.0000    710.8323     12.9308    141.3993
   559.7500      0.0000    721.1824     12.8999    141.3714
   560.0000      0.0000    745.2677     12.9348    140.5915
   560.2500      0.0000    768.6036     13.0528    141.0785
   560.5000      0.0000    781.8729     13.1923    143.7696
   560.7500      0.0000    785.4484     13.2551    147.2448
   561.0000      0.0000    785.2147     13.1797    148.7411
   561.2500      0.0000    786.6454     12.9809    146.5160
