~Version Information
VERS.                      2.0: CWLS Log ASCII Standard - VERSION 2.0
WRAP.                       NO: One line per depth step
~Well Information Block
STRT.FT               765.6000: 
STOP.FT              2431.0000: 
STEP.FT                 0.1000: 
NULL.                -999.2500: 
COMP.          Petrogulf Corporation: COMPANY
WELL.             Norton 9-14V: WELL
FLD.           Purgatorie River: FIELD
LOC.           230' FSL & 225' FWL: LOCATION
CNTY.               Las Animas: COUNTY
SRVC.                         : SERVICE COMPANY
DATE.          Thu Oct 28 06:20:25 2004: LOG DATE
UWI.           05 071 07891 00: UNIQUE WELL ID
STAT.                 Colorado: STATE
~Curve Information Block
DEPT.FT            0 000 00 00: Depth
DCAL.in                       : CDL Caliper
RHOB.g/cc                     : CDL Bulk Density
RHOC.g/cc                     : CDL Density Correction
DPOR.pu                       : CDL Density Porosity
GR.GAPI                       : Gamma Ray
NPOR.pu                       : Neutron Porosity
~Parameter Information Block
~A  Depth       DCAL        RHOB        RHOC        DPOR         GR         NPOR    
# ...
  1332.0000      7.9228      2.5544      0.0937      5.7919    127.8125     21.9388
  1332.1000      7.9228      2.5534      0.0397      5.8523    126.2689     21.9178
  1332.2000      7.9228      2.5560      0.0798      5.6992    124.1557     21.9656
  1332.3000      7.9309      2.5553      0.0238      5.7364    121.2854     22.6614
  1332.4000      7.9309      2.5558      0.0774      5.7117    118.0566     23.6031
  1332.5000      7.9201      2.5652      0.0325      5.1390    111.7086     23.9336
  1332.6000      7.9201      2.5792      0.0856      4.2935    103.7082     23.4380
  1332.7000      7.9201      2.5864      0.0668      3.8540     99.0590     22.6228
  1332.8000      7.9113      2.5891      0.0438      3.6910     99.4582     22.0372
  1332.9000      7.9113      2.5981      0.0673      3.1469    101.1842     21.8657
  1333.0000      7.9355      2.6128      0.0533      2.2570    100.0194     22.0670
  1333.1000      7.9355      2.6248      0.0748      1.5263     96.8373     22.2313
  1333.2000      7.9355      2.6285      0.0927      1.3005     94.3060     21.7011
  1333.3000      7.9537      2.6204      0.0886      1.7953     94.8729     20.4386
  1333.4000      7.9537      2.5991      0.0480      3.0857     97.9908     19.4266
  1333.5000      7.9531      2.5727      0.0266      4.6829     98.1464     19.4142
  1333.6000      7.9531      2.5569     -0.0023      5.6431     93.6706     19.9541
  1333.7000      7.9531      2.5569      0.0540      5.6420     91.4626     20.4904
  1333.8000      7.9540      2.5638      0.0213      5.2234     96.3061     20.9035
  1333.9000      7.9540      2.5700      0.0418      4.8507    104.8854     21.2295
  1334.0000      7.9509      2.5716      0.0522      4.7512    111.4578     21.6677
  1334.1000      7.9509      2.5692      0.0194      4.8990    113.6839     22.2466
  1334.2000      7.9509      2.5642      0.0218      5.2025    112.3544     22.6938
  1334.3000      7.9680      2.5586      0.0225      5.5418    109.5774     23.0893
  1334.4000      7.9680      2.5573      0.0038      5.6169    110.2825     23.4996
  1334.5000      8.0241      2.5648      0.0183      5.1652    113.9767     23.7412
  1334.6000      8.0241      2.5764      0.0575      4.4589    115.1741     23.8307
  1334.7000      8.0241      2.5893      0.0425      3.6759    115.1783     23.8333
  1334.8000      8.0384      2.6058      0.0769      2.6786    116.7999     23.6942
  1334.9000      8.0384      2.6088      0.0932      2.4951    119.5861     23.5349
  1335.0000      8.0152      2.5850      0.0066      3.9418    120.7939     23.5629
  1335.1000      8.0152      2.5527      0.0441      5.8966    120.6487     23.7967
  1335.2000      8.0152      2.5392      0.0030      6.7145    122.6667     24.0968
  1335.3000      7.9927      2.5610      0.0183      5.3953    124.5921     24.0897
  1335.4000      7.9927      2.6043      0.1106      2.7701    124.5654     23.5473
  1335.5000      8.0069      2.6315      0.1274      1.1212    122.9293     23.2168
  1335.6000      8.0069      2.6283      0.0685      1.3177    117.5013     23.6569
  1335.7000      8.0069      2.6067      0.0684      2.6231    112.4801     23.7417
  1335.8000      7.9696      2.5726      0.0865      4.6890    114.5621     22.6229
  1335.9000      7.9696      2.5336      0.0186      7.0570    120.8210     21.3665
  1336.0000      7.9574      2.5079      0.0230      8.6103    122.9354     20.8590
  1336.1000      7.9574      2.5010      0.0173      9.0305    118.8116     21.0290
  1336.2000      7.9574      2.5044      0.0454      8.8229    113.7798     21.6276
  1336.3000      7.9589      2.5101      0.0292      8.4806    113.3315     22.0428
  1336.4000      7.9589      2.5199      0.0046      7.8860    118.7628     22.2066
  1336.5000      7.9600      2.5418      0.0284      6.5600    126.4063     22.5994
  1336.6000      7.9600      2.5714      0.0910      4.7647    132.4776     23.1893
  1336.7000      7.9600      2.5957      0.0376      3.2895    136.4468     23.9679
  1336.8000      7.9623      2.6073      0.1117      2.5905    137.4445     24.8441
  1336.9000      7.9623      2.6039      0.0824      2.7937    132.0195     25.1929
  1337.0000      7.9642      2.5944      0.1041      3.3722    122.8493     24.7462
  1337.1000      7.9642      2.5961      0.0699      3.2661    118.3506     24.1046
  1337.2000      7.9642      2.6138      0.1162      2.1964    118.9622     23.6724
  1337.3000      7.9594      2.6253      0.1202      1.4980    117.7517     23.5770
  1337.4000      7.9594      2.6144      0.0404      2.1584    113.1862     24.0269
  1337.5000      7.9597      2.5880      0.0317      3.7606    109.4537     24.7492
  1337.6000      7.9597      2.5527      0.0436      5.8967    109.3539     25.1922
  1337.7000      7.9597      2.5237      0.0167      7.6555    111.2236     25.3247
  1337.8000      7.9606      2.5244     -0.0288      7.6103    112.6384     25.3314
  1337.9000      7.9606      2.5508      0.0245      6.0110    113.6179     25.0647
  1338.0000      7.9671      2.5761      0.0388      4.4797    113.5617     24.4585
  1338.1000      7.9671      2.5891      0.0462      3.6931    107.8756     23.6940
  1338.2000      7.9671      2.5919      0.0619      3.5225     98.5780     23.0223
  1338.3000      7.9754      2.5874     -0.0106      3.7937     94.5245     22.6926
  1338.4000      7.9754      2.5780      0.0653      4.3636     97.1928     22.4966
  1338.5000      7.9927      2.5599      0.0506      5.4591    100.0745     21.9859
  1338.6000      7.9927      2.5413      0.0108      6.5892     99.4358     21.4670
  1338.7000      7.9927      2.5326      0.0090      7.1181     98.4454     21.2102
  1338.8000      8.0235      2.5265     -0.0319      7.4850    100.5242     20.7671
  1338.9000      8.0235      2.5093      0.0242      8.5245    104.8387     20.3176
  1339.0000      8.0239      2.4816     -0.0333     10.2082    112.2906     20.6543
  1339.1000      8.0239      2.4726     -0.0644     10.7536    124.0743     21.6200
  1339.2000      8.0239      2.5014      0.0137      9.0042    136.4827     22.0068
  1339.3000      8.0576      2.5420      0.0203      6.5456    143.1902     21.6522
  1339.4000      8.0576      2.5602      0.0446      5.4435    142.8572     21.8301
  1339.5000      8.0406      2.5527      0.0466      5.8982    141.2885     22.9085
  1339.6000      8.0406      2.5430      0.0107      6.4828    140.9038     23.9067
  1339.7000      8.0406      2.5491      0.0557      6.1153    138.8645     24.3442
  1339.8000      7.9900      2.5603      0.0801      5.4371    134.6351     24.5964
  1339.9000      7.9900      2.5577      0.0699      5.5967    131.6361     24.8282
  1340.0000      7.9862      2.5441      0.0616      6.4161    135.7482     25.0589
  1340.1000      7.9862      2.5356      0.0425      6.9353    146.0475     25.4692
  1340.2000      7.9862      2.5328      0.0887      7.1005    150.0797     25.8159
  1340.3000      7.9858      2.5319      0.0619      7.1568    142.4643     26.0215
  1340.4000      7.9858      2.5454      0.0265      6.3424    133.7791     26.4050
  1340.5000      7.9842      2.5781      0.1083      4.3573    131.9221     26.5783
  1340.6000      7.9842      2.6054      0.1710      2.7008    134.5751     26.0889
  1340.7000      7.9842      2.6032      0.1397      2.8378    134.3269     25.4614
  1340.8000      7.9849      2.5814      0.0902      4.1570    130.9575     25.1029
  1340.9000      7.9849      2.5617      0.1211      5.3490    131.7811     24.8777
  1341.0000      7.9749      2.5511      0.0310      5.9912    136.5095     24.6528
  1341.1000      7.9749      2.5468      0.0816      6.2516    139.8677     24.5227
  1341.2000      7.9749      2.5406      0.0069      6.6300    141.0946     24.7680
  1341.3000      7.9714      2.5360      0.0076      6.9117    141.8933     25.2189
  1341.4000      7.9714      2.5412      0.0011      6.5913    139.8534     25.6062
  1341.5000      7.9733      2.5604      0.0390      5.4317    135.9501     26.0032
