~Version Information
VERS.                      2.0: CWLS Log ASCII Standard - VERSION 2.0
WRAP.                       NO: One line per depth step
~Well Information Block
STRT.FT               -17.7500: 
STOP.FT              1590.5000: 
STEP.FT                 0.2500: 
NULL.                -999.2500: 
COMP.          Petrogulf Corporation: COMPANY
WELL.          Great Plains 22-21V: WELL
FLD.           Purgatorie River: FIELD
LOC.           63' FNL & 1895' FWL--: LOCATION
CNTY.               Las Animas: COUNTY
SRVC.          Superior Well Services: SERVICE COMPANY
DATE.          Fri Dec 08 14:45:19 2006: LOG DATE
UWI.           05 071 08346 00: UNIQUE WELL ID
STAT.                       CO: STATE
~Curve Information Block
DEPT.FT            0 000 00 00: Depth
CCL.                          : Casing Collar Locator
TT3.usec                      : CBL 3' Travel Time
AMP3.mV                       : CBL 3' Amplitude
GR.GAPI                       : Gamma Ray
~Parameter Information Block
~A  Depth       CCL         TT3         AMP3         GR     
# ...
  1556.7500      0.0000    690.5430      3.9965     87.6410
  1557.0000      0.0000    702.4717      4.5252     81.0407
  1557.2500      0.0000    720.4616      5.1500     75.6477
  1557.5000      0.0000    739.3305      5.8772     72.3740
  1557.7500      0.0000    745.7257      6.7158     71.1290
  1558.0000      0.0000    725.0120      7.6844     71.3043
  1558.2500      0.0000    671.7813      8.8065     72.0326
  1558.5000      0.0000    595.5145     10.0609     72.1744
  1558.7500      0.0000    518.2383     11.3087     70.7238
  1559.0000      0.0000    465.6151     12.2950     67.6668
  1559.2500      0.0000    454.8918     12.7767     64.0390
  1559.5000      0.0000    486.1026     12.6783     60.8237
  1559.7500      0.0000    543.1926     12.1306     58.1710
  1560.0000      0.0000    604.8495     11.3747     55.8717
  1560.2500      0.0000    655.9935     10.6339     54.0074
  1560.5000      0.0000    691.2736     10.0402     52.7395
  1560.7500      0.0000    711.7505      9.6293     51.8464
  1561.0000      0.0000    720.8732      9.3771     50.9437
  1561.2500      0.0000    721.5499      9.2418     50.0969
  1561.5000      0.0000    714.1987      9.1931     49.9419
  1561.7500      0.0000    696.7631      9.2216     51.1086
  1562.0000      0.0000    665.7839      9.3352     53.5277
  1562.2500      0.0000    617.8992      9.5481     56.2210
  1562.5000      0.0000    554.1274      9.8610     57.9263
  1562.7500      0.0000    484.8247     10.2413     58.1871
  1563.0000      0.0000    427.2051     10.6261     57.7688
  1563.2500      0.0000    395.3596     10.9628     57.8804
  1563.5000      0.0000    392.2768     11.2563     59.1974
  1563.7500      0.0000    408.9235     11.5824     61.6262
  1564.0000      0.0000    428.1892     12.0544     64.5060
  1564.2500      0.0000    433.0444     12.7664     66.8625
  1564.5000      0.0000    417.0592     13.7374     67.9198
  1564.7500      0.0000    388.0968     14.8745     67.7191
  1565.0000      0.0000    360.0728     15.9883     67.0987
  1565.2500      0.0000    341.6758     16.8837     66.8472
  1565.5000      0.0000    333.0365     17.4749     66.8737
  1565.7500      0.0000    329.9985     17.8182     66.4364
  1566.0000      0.0000    329.1715     18.0245     65.2723
  1566.2500      0.0000    329.6257     18.1426     64.2711
  1566.5000      0.0000    331.9843     18.1230     64.8005
  1566.7500      0.0000    337.8447     17.8627     67.4810
  1567.0000      0.0000    351.0905     17.2633     71.9289
  1567.2500      0.0000    378.9594     16.2784     77.5719
  1567.5000      0.0000    428.7066     14.9558     84.0664
  1567.7500      0.0000    500.0605     13.4504     90.7878
  1568.0000      0.0000    581.1980     11.9640     96.5336
  1568.2500      0.0000    655.2059     10.6422    100.0954
  1568.5000      0.0000    712.0784      9.5194    100.7779
  1568.7500      0.0000    753.3563      8.5599     98.2986
  1569.0000      0.0000    785.0941      7.7371     92.7451
  1569.2500      0.0000    808.6105      7.0694     84.9004
  1569.5000      0.0000    820.3505      6.6001     76.2505
  1569.7500      0.0000    819.9708      6.3643     68.4315
  1570.0000      0.0000    814.2441      6.3689     62.6687
  1570.2500      0.0000    810.7683      6.5893     59.5287
  1570.5000      0.0000    810.0828      6.9875     58.7654
  1570.7500      0.0000    803.9330      7.5574     59.2829
  1571.0000      0.0000    778.2274      8.3650     59.6847
  1571.2500      0.0000    720.1075      9.5272     59.3758
  1571.5000      0.0000    629.3030     11.1238     59.0900
  1571.7500      0.0000    523.7297     13.1134     59.9564
  1572.0000      0.0000    429.3884     15.3334     61.9864
  1572.2500      0.0000    363.1585     17.5898     63.7896
  1572.5000      0.0000    325.8908     19.7658     63.8395
  1572.7500      0.0000    308.6638     21.8670     61.8614
  1573.0000      0.0000    301.7350     23.9898     58.9156
  1573.2500      0.0000    298.5731     26.2553     56.3135
  1573.5000      0.0000    295.6378     28.7486     54.6463
  1573.7500      0.0000    291.2535     31.4667     53.7390
  1574.0000      0.0000    285.1262     34.3052     53.2092
  1574.2500      0.0000    278.1807     37.1219     52.9340
  1574.5000      0.0000    271.9054     39.8421     53.0225
  1574.7500      0.0000    267.3344     42.5018     53.3919
  1575.0000      0.0000    264.5571     45.1977     53.5483
  1575.2500      0.0000    263.0360     48.0215     52.9913
  1575.5000      0.0000    262.1802     51.0361     51.7373
  1575.7500      0.0000    261.6316     54.2558     50.2697
  1576.0000      0.0000    261.2418     57.5961     48.8881
  1576.2500      0.0000    260.9604     60.8510     46.9547
  1576.5000      0.0000    260.7640     63.7743     42.8512
  1576.7500      0.0000    260.6332     66.2157     35.2980
  1577.0000      0.0000    260.5497     68.1591     25.0462
  1577.2500      0.0000    260.4968     69.6218     14.7937
  1577.5000      0.0000    260.4610     70.5544      7.1118
  1577.7500      0.0000    260.4339     70.8600      2.7428
  1578.0000      0.0000    260.4121     70.4939      0.8407
  1578.2500      0.0000    260.3956     69.5378      0.2035
  1578.5000      0.0000    260.3862     68.2011      0.0385
  1578.7500      0.0000    260.3860     66.7558      0.0054
  1579.0000      0.0000    260.3935     65.4300      0.0000
  1579.2500      0.0000    260.3996     64.3055   -999.2500
  1579.5000      0.0000    260.3947     63.2582   -999.2500
  1579.7500      0.0000    260.3993     61.9598   -999.2500
  1580.0000      0.0000    260.4979     59.9965   -999.2500
  1580.2500      0.0000    260.9155     57.1106   -999.2500
  1580.5000      0.0000    262.1339     53.4085   -999.2500
  1580.7500      0.0000    264.8107     49.2812   -999.2500
  1581.0000      0.0000    268.7884     45.0493   -999.2500
  1581.2500      0.0000    270.7278     40.6533   -999.2500
  1581.5000      0.0000    262.4619     35.6841   -999.2500
  1581.7500      0.0000    234.5129     29.7253   -999.2500
  1582.0000      0.0000    184.8544     22.8019   -999.2500
  1582.2500      0.0000    124.0821     15.6603   -999.2500
  1582.5000      0.0000     69.1596      9.5057   -999.2500
  1582.7500      0.0000     31.4638      5.2342   -999.2500
  1583.0000      0.0000     11.5476      2.8942   -999.2500
  1583.2500      2.0000      3.3902      1.8927   -999.2500
  1583.5000      0.0000      0.7904      1.5591   -999.2500
  1583.7500      0.0000      0.1443      1.4730   -999.2500
  1584.0000      0.0000      0.0179      1.4558   -999.2500
  1584.2500      0.0000   -999.2500   -999.2500   -999.2500
  1584.5000      0.0000   -999.2500   -999.2500   -999.2500
  1584.7500      0.0000   -999.2500   -999.2500   -999.2500
  1585.0000      0.0000   -999.2500   -999.2500   -999.2500
  1585.2500      0.0000   -999.2500   -999.2500   -999.2500
  1585.5000      0.0000   -999.2500   -999.2500   -999.2500
  1585.7500      0.0000   -999.2500   -999.2500   -999.2500
  1586.0000      0.0000   -999.2500   -999.2500   -999.2500
  1586.2500      0.0000   -999.2500   -999.2500   -999.2500
  1586.5000      0.0000   -999.2500   -999.2500   -999.2500
  1586.7500      0.0000   -999.2500   -999.2500   -999.2500
  1587.0000      0.0000   -999.2500   -999.2500   -999.2500
  1587.2500      0.0000   -999.2500   -999.2500   -999.2500
  1587.5000      0.0000   -999.2500   -999.2500   -999.2500
  1587.7500      0.0000   -999.2500   -999.2500   -999.2500
  1588.0000      0.0000   -999.2500   -999.2500   -999.2500
  1588.2500      0.0000   -999.2500   -999.2500   -999.2500
  1588.5000      0.0000   -999.2500   -999.2500   -999.2500
  1588.7500      0.0000   -999.2500   -999.2500   -999.2500
  1589.0000      0.0000   -999.2500   -999.2500   -999.2500
  1589.2500      0.0000   -999.2500   -999.2500   -999.2500
  1589.5000      0.0000   -999.2500   -999.2500   -999.2500
  1589.7500      0.0000   -999.2500   -999.2500   -999.2500
  1590.0000   -999.2500   -999.2500   -999.2500   -999.2500
