~Version Information
VERS.                      2.0: CWLS Log ASCII Standard - VERSION 2.0
WRAP.                       NO: One line per depth step
~Well Information Block
STRT.FT              1736.0000: 
STOP.FT              1964.5000: 
STEP.FT                 0.2500: 
NULL.                -999.2500: 
COMP.          Petrogulf Corporation: COMPANY
WELL.              Royal 8-33R: WELL
FLD.           Purgatorie River: FIELD
LOC.           2401' FSL & 2270' FEL: LOCATION
CNTY.               Las Animas: COUNTY
SRVC.                         : SERVICE COMPANY
DATE.          Mon Apr 26 06:49:48 2004: LOG DATE
UWI.           05 071 08041 00: UNIQUE WELL ID
STAT.                 Colorado: STATE
~Curve Information Block
DEPT.FT            0 000 00 00: Depth
SP.mV                         : DIL Spontaneous Potential
RILD.Ohm-m                    : DIL Deep Resistivity
RILM.Ohm-m                    : DIL Medium Resistivity
RLL3.Ohm-m                    : DIL Shallow Resistivity
GR.GAPI                       : Gamma Ray
~Parameter Information Block
~A  Depth        SP         RILD        RILM        RLL3         GR     
# ...
  1932.0000     32.6658     13.3017     14.9689     18.2350     73.1368
  1932.2500     32.1993     13.4239     15.0314     18.2383     75.7706
  1932.5000     31.8616     13.5621     15.1174     18.2530     78.5718
  1932.7500     31.6676     13.7176     15.2312     18.3677     79.0458
  1933.0000     31.6213     13.8921     15.3771     18.6343     78.0384
  1933.2500     31.7067     14.0871     15.5598     19.0057     76.8582
  1933.5000     31.8837     14.3039     15.7876     19.3478     75.1724
  1933.7500     32.0961     14.5436     16.0749     19.5381     74.1965
  1934.0000     32.2866     14.8064     16.4420     19.5796     72.6553
  1934.2500     32.4095     15.0889     16.9116     19.6290     71.5286
  1934.5000     32.4399     15.3811     17.5044     19.9075     70.1590
  1934.7500     32.3794     15.6642     18.2332     20.5828     69.6488
  1935.0000     32.2524     15.9146     19.0956     21.7346     68.8087
  1935.2500     32.0946     16.1144     20.0610     23.4180     67.4213
  1935.5000     31.9380     16.2620     21.0589     25.6957     63.3787
  1935.7500     31.8054     16.3735     21.9792     28.4934     59.6107
  1936.0000     31.7123     16.4691     22.6966     31.3451     53.3511
  1936.2500     31.6700     16.5558     23.1146     33.3727     49.3256
  1936.5000     31.6838     16.6196     23.2032     33.7535     44.2040
  1936.7500     31.7499     16.6360     23.0012     32.3622     41.7770
  1937.0000     31.8567     16.5871     22.5875     29.9065     40.2659
  1937.2500     31.9906     16.4686     22.0450     27.3631     40.8932
  1937.5000     32.1418     16.2833     21.4401     25.3239     44.2448
  1937.7500     32.3050     16.0363     20.8162     23.8820     47.8742
  1938.0000     32.4771     15.7376     20.1950     22.9448     54.6203
  1938.2500     32.6492     15.4070     19.5794     22.4397     59.3861
  1938.5000     32.8015     15.0701     18.9583     22.2361     66.4534
  1938.7500     32.9083     14.7494     18.3173     22.0725     71.1226
  1939.0000     32.9540     14.4585     17.6524     21.7023     77.3115
  1939.2500     32.9468     14.2023     16.9833     21.0802     79.8256
  1939.5000     32.9160     13.9812     16.3537     20.3512     79.8514
  1939.7500     32.8923     13.7945     15.8168     19.6833     77.6815
  1940.0000     32.8876     13.6430     15.4122     19.1634     73.1258
  1940.2500     32.8915     13.5292     15.1496     18.8238     70.3734
  1940.5000     32.8836     13.4578     15.0084     18.6894     67.3288
  1940.7500     32.8470     13.4342     14.9518     18.7599     65.5600
  1941.0000     32.7740     13.4635     14.9477     18.9648     62.2583
  1941.2500     32.6691     13.5507     14.9850     19.1766     59.7213
  1941.5000     32.5529     13.7017     15.0779     19.2871     57.0662
  1941.7500     32.4586     13.9227     15.2599     19.2818     57.0524
  1942.0000     32.4139     14.2198     15.5747     19.2612     59.4724
  1942.2500     32.4189     14.5968     16.0680     19.4115     61.3294
  1942.5000     32.4370     15.0534     16.7828     19.9608     61.7192
  1942.7500     32.4116     15.5840     17.7589     21.1659     59.7669
  1943.0000     32.2996     16.1718     19.0324     23.3937     54.6236
  1943.2500     32.0946     16.7821     20.6352     27.3197     50.7701
  1943.5000     31.8253     17.3597     22.5911     34.0753     45.4302
  1943.7500     31.5384     17.8434     24.9119     44.9909     42.4634
  1944.0000     31.2864     18.1968     27.5967     60.7374     39.5255
  1944.2500     31.1254     18.4307     30.6335     80.2816     38.8221
  1944.5000     31.1065     18.5934     33.9847    100.5442     39.2174
  1944.7500     31.2567     18.7310     37.5305    117.1968     39.8357
  1945.0000     31.5669     18.8509     40.9721    126.1130     40.6959
  1945.2500     32.0057     18.9148     43.7700    124.7826     41.5054
  1945.5000     32.5457     18.8623     45.2527    113.3619     44.3262
  1945.7500     33.1739     18.6464     44.9360     94.9112     48.0519
  1946.0000     33.8783     18.2565     42.8246     74.2651     57.4181
  1946.2500     34.6339     17.7186     39.3963     55.9271     66.6382
  1946.5000     35.4020     17.0806     35.3121     42.3625     85.4762
  1946.7500     36.1366     16.3756     31.1473     33.6859    101.1269
  1947.0000     36.7827     15.6793     27.2895     28.5689    126.6747
  1947.2500     37.2765     15.0502     23.9486     25.4797    142.2315
  1947.5000     37.5633     14.4921     21.1964     23.4310    157.7164
  1947.7500     37.6285     14.0119     19.0100     22.0026    160.5086
  1948.0000     37.5116     13.6013     17.3130     20.9932    153.2561
  1948.2500     37.2877     13.2448     16.0137     20.1816    143.0523
  1948.5000     37.0346     12.9280     15.0318     19.3503    125.7294
  1948.7500     36.8107     12.6421     14.3119     18.4285    116.1596
  1949.0000     36.6470     12.3865     13.8209     17.5765    108.2091
  1949.2500     36.5441     12.1753     13.5371     17.1503    107.4464
  1949.5000     36.4502     12.0510     13.4344     17.5821    110.9812
  1949.7500     36.1865     12.1020     13.4704     19.1889    114.4007
  1950.0000     35.3103     12.4803     13.5813     21.8838    117.3138
  1950.2500     33.0663     13.4253     13.6891     24.9333    115.9686
  1950.5000     28.7196     15.3398     13.7238     27.1295    108.5728
  1950.7500     22.2741     18.8288     13.6496     27.4993    101.9495
  1951.0000     14.8987     25.0427     13.4766     25.9972     94.2095
  1951.2500      8.3574     35.9286     13.2484     23.4730     92.1097
  1951.5000      3.8507     54.2807     13.0164     20.9694     93.0164
  1951.7500      1.4357     81.9553     12.8177     19.0885     94.8638
  1952.0000      0.4285    114.8638     12.6672     17.9096     96.4965
  1952.2500      0.1015    142.0297     12.5601     17.2601     94.9719
  1952.5000      0.0188    157.2162     12.4812     16.9433     85.6917
  1952.7500      0.0025    164.5228     12.4172     16.8064     73.9989
  1953.0000   -999.2500    170.8452     12.3723     16.7538     50.5469
  1953.2500   -999.2500    181.4755     12.3868     16.7605     34.4380
  1953.5000   -999.2500    281.6983     12.5559     16.8522     15.4771
  1953.7500   -999.2500    349.4025     13.0490     17.0360      7.7208
  1954.0000   -999.2500    475.2636     14.1378     17.2391      2.0983
  1954.2500   -999.2500    714.8661     16.2690     17.3266      0.7350
  1954.5000   -999.2500   1187.4617     20.2454     17.1955      0.1136
  1954.7500   -999.2500   2135.0615     27.6470     16.8600      0.0262
  1955.0000   -999.2500   3925.9619     41.8513     16.4471      0.0000
  1955.2500   -999.2500   6637.3989     70.3406     16.1179   -999.2500
  1955.5000   -999.2500   9304.2129    129.3965     16.0004   -999.2500
  1955.7500   -999.2500  10845.2705    248.1488     16.1783   -999.2500
  1956.0000   -999.2500  11415.1084    445.8192     16.6830   -999.2500
  1956.2500   -999.2500  11571.2627    658.6511     17.4340   -999.2500
  1956.5000   -999.2500 100000.0000    782.2109     18.1847   -999.2500
  1956.7500   -999.2500 100000.0000    819.4691     18.5955   -999.2500
  1957.0000   -999.2500 100000.0000    822.2010     18.4326   -999.2500
  1957.2500   -999.2500 100000.0000    629.3502     17.7354   -999.2500
  1957.5000   -999.2500 100000.0000    626.0587     16.8039   -999.2500
  1957.7500   -999.2500 100000.0000    623.4559     16.0406   -999.2500
  1958.0000   -999.2500 100000.0000    621.7985     15.7905   -999.2500
  1958.2500   -999.2500 100000.0000    623.1380     16.2613   -999.2500
  1958.5000   -999.2500 100000.0000    632.3056     17.4692   -999.2500
  1958.7500   -999.2500 100000.0000    657.9232     19.1261   -999.2500
  1959.0000   -999.2500 100000.0000    713.9847     20.5227   -999.2500
  1959.2500   -999.2500 100000.0000    823.7916     20.6474   -999.2500
  1959.5000   -999.2500 100000.0000   1030.1166     18.7084   -999.2500
  1959.7500   -999.2500 100000.0000   1420.6748     14.7756   -999.2500
