~Version Information
VERS.                      2.0: CWLS Log ASCII Standard - VERSION 2.0
WRAP.                       NO: One line per depth step
~Well Information Block
STRT.FT               846.6000: 
STOP.FT              2609.1000: 
STEP.FT                 0.1000: 
NULL.                -999.2500: 
COMP.          Petrogulf Corporation: COMPANY
WELL.            Lavedure 7-44: WELL
FLD.           Purgatoire River: FIELD
LOC.           969' FSL & 501' FEL: LOCATION
PROV.                 Colorado: PROVINCE
CNTY.               Las Animas: COUNTRY
SRVC.                Patterson: SERVICE COMPANY
DATE.          Sun Dec 07 14:55:17 2003: LOG DATE
UWI.                          : UNIQUE WELL ID
~Curve Information Block
DEPT.FT            0 000 00 00: Depth
DCAL.in                       : CDL Caliper
RHOB.g/cc                     : CDL Bulk Density
RHOC.g/cc                     : CDL Density Correction
DPOR.pu                       : CDL Density Porosity
GR.GAPI                       : Gamma Ray
NPOR.pu                       : Neutron Porosity
~Parameter Information Block
~A  Depth       DCAL        RHOB        RHOC        DPOR         GR         NPOR    
# ...
  2603.4000      7.9201      2.5992      0.0858      3.0780   -999.2500   -999.2500
  2603.5000      7.8915      2.6015      0.0815      2.9365   -999.2500   -999.2500
  2603.6000      7.8915      2.6049      0.0774      2.7324   -999.2500   -999.2500
  2603.7000      7.8915      2.6098      0.0740      2.4359   -999.2500   -999.2500
  2603.8000      7.8788      2.6168      0.0715      2.0128   -999.2500   -999.2500
  2603.9000      7.8788      2.6265      0.0703      1.4253   -999.2500   -999.2500
  2604.0000      7.8906      2.6396      0.0707      0.6327   -999.2500   -999.2500
  2604.1000      7.8906      2.6567      0.0729     -0.4078   -999.2500   -999.2500
  2604.2000      7.8906      2.6787      0.0769     -1.7393   -999.2500   -999.2500
  2604.3000      7.9150      2.7062      0.0828     -3.4042   -999.2500   -999.2500
  2604.4000      7.9150      2.7398      0.0902     -5.4429   -999.2500   -999.2500
  2604.5000      7.9226      2.7802      0.0987     -7.8923   -999.2500   -999.2500
  2604.6000      7.9226      2.8278      0.1074    -10.7759   -999.2500   -999.2500
  2604.7000      7.9226      2.8829      0.1155    -14.1182   -999.2500   -999.2500
  2604.8000      7.8633      2.9458      0.1217    -17.9281   -999.2500   -999.2500
  2604.9000      7.8633      3.0163      0.1247    -22.1983   -999.2500   -999.2500
  2605.0000      7.5388      3.0938      0.1229    -26.8986   -999.2500   -999.2500
  2605.1000      7.5388      3.1775      0.1148    -31.9673   -999.2500   -999.2500
  2605.2000      7.5388      3.2654      0.0988    -37.2996   -999.2500   -999.2500
  2605.3000      6.3937      3.3551      0.0735    -42.7341   -999.2500   -999.2500
  2605.4000      6.3937      3.4426      0.0374    -48.0387   -999.2500   -999.2500
  2605.5000      4.6006      3.5228     -0.0108    -52.8990   -999.2500   -999.2500
  2605.6000      4.6006      3.5891     -0.0722    -56.9142   -999.2500   -999.2500
  2605.7000      4.6006      3.6335     -0.1478    -59.6060   -999.2500   -999.2500
  2605.8000      3.5268      3.6474     -0.2386    -60.4456   -999.2500   -999.2500
  2605.9000      3.5268      3.6218     -0.3455    -58.8998   -999.2500   -999.2500
  2606.0000      3.2881      3.5492     -0.4689    -54.4966   -999.2500   -999.2500
  2606.1000      3.2881      3.4239     -0.6096    -46.9009   -999.2500   -999.2500
  2606.2000      3.2881      3.2438     -0.7680    -35.9869   -999.2500   -999.2500
  2606.3000      3.2685      3.0112     -0.9441    -21.8927   -999.2500   -999.2500
  2606.4000      3.2685      2.7332     -0.0300     -5.0398   -999.2500   -999.2500
  2606.5000   -999.2500      2.4208     -0.0300     13.8899   -999.2500   -999.2500
  2606.6000   -999.2500      2.0886     -0.0300     34.0213   -999.2500   -999.2500
  2606.7000   -999.2500      1.7526     -0.0300     54.3875   -999.2500   -999.2500
  2606.8000   -999.2500      1.4283     -0.0300     74.0450   -999.2500   -999.2500
  2606.9000   -999.2500      1.1290     -0.0300     92.1820   -999.2500   -999.2500
  2607.0000   -999.2500      0.8647   -999.2500    108.1995   -999.2500   -999.2500
  2607.1000   -999.2500      0.6411   -999.2500    121.7518   -999.2500   -999.2500
  2607.2000   -999.2500      0.4597   -999.2500    132.7446   -999.2500   -999.2500
  2607.3000   -999.2500      0.3186   -999.2500    141.2970   -999.2500   -999.2500
  2607.4000   -999.2500      0.2133   -999.2500    147.6810   -999.2500   -999.2500
  2607.5000   -999.2500      0.1378   -999.2500    152.2546   -999.2500   -999.2500
  2607.6000   -999.2500      0.0859   -999.2500    155.4000   -999.2500   -999.2500
  2607.7000   -999.2500      0.0516   -999.2500    157.4768   -999.2500   -999.2500
  2607.8000   -999.2500      0.0299   -999.2500    158.7935   -999.2500   -999.2500
  2607.9000   -999.2500      0.0167   -999.2500    159.5952   -999.2500   -999.2500
  2608.0000   -999.2500      0.0089   -999.2500    160.0641   -999.2500   -999.2500
  2608.1000   -999.2500      0.0046   -999.2500    160.3274   -999.2500   -999.2500
  2608.2000   -999.2500      0.0023   -999.2500    160.4696   -999.2500   -999.2500
  2608.3000   -999.2500      0.0010   -999.2500    160.5433   -999.2500   -999.2500
  2608.4000   -999.2500      0.0004   -999.2500    160.5801   -999.2500   -999.2500
  2608.5000   -999.2500      0.0001   -999.2500    160.5978   -999.2500   -999.2500
  2608.6000   -999.2500      0.0000   -999.2500    160.6061   -999.2500   -999.2500
  2608.7000   -999.2500      0.0000   -999.2500    160.6061   -999.2500   -999.2500
  2608.8000   -999.2500      0.0000   -999.2500    160.6061   -999.2500   -999.2500
  2608.9000   -999.2500      0.0000   -999.2500    160.6061   -999.2500   -999.2500
  2609.0000   -999.2500      0.0000   -999.2500    160.6061   -999.2500   -999.2500
  2609.1000   -999.2500      0.0000   -999.2500    160.6061   -999.2500   -999.2500
