~Version Information
VERS.                      2.0: CWLS Log ASCII Standard - VERSION 2.0
WRAP.                       NO: One line per depth step
~Well Information Block
STRT.FT               520.0000: 
STOP.FT              1105.5000: 
STEP.FT                 0.1000: 
NULL.                -999.2500: 
COMP.          Pioneer Natural Resources: COMPANY
WELL.            Redland 23-24: WELL
FLD.           Purgatoire River: FIELD
LOC.           2356' FSL & 1880' FWL: LOCATION
PROV.                 Colorado: PROVINCE
CNTY.               Las Animas: COUNTRY
SRVC.                Patterson: SERVICE COMPANY
DATE.          Mon Mar 21 07:08:20 2005: LOG DATE
UWI.           05 071 08221 00: UNIQUE WELL ID
~Curve Information Block
DEPT.FT            0 000 00 00: Depth
DCAL.in                       : CDL Caliper
RHOB.g/cc                     : CDL Bulk Density
RHOC.g/cc                     : CDL Density Correction
DPOR.pu                       : CDL Density Porosity
GR.GAPI                       : Gamma Ray
NPOR.pu                       : Neutron Porosity
~Parameter Information Block
~A  Depth       DCAL        RHOB        RHOC        DPOR         GR         NPOR    
# ...
  1048.0000      7.7791      2.6041      0.1265      2.7803    100.9103     22.0035
  1048.1000      7.7791      2.5950      0.1440      3.3323    100.0559     21.5540
  1048.2000      7.7791      2.5687      0.1028      4.9248    101.3278     22.3508
  1048.3000      7.8103      2.5369      0.0290      6.8536    102.7772     23.9600
  1048.4000      7.8103      2.5236      0.0662      7.6612    100.9171     25.2071
  1048.5000      7.7813      2.5321      0.0564      7.1474     96.2561     25.2040
  1048.6000      7.7813      2.5509      0.0716      6.0062     91.8268     24.2405
  1048.7000      7.7813      2.5679      0.0978      4.9744     89.2661     23.1510
  1048.8000      7.7789      2.5766      0.0580      4.4510     90.2367     22.4758
  1048.9000      7.7789      2.5847      0.0779      3.9584     93.3749     22.4938
  1049.0000      7.7971      2.6039      0.1010      2.7920     93.9568     22.7434
  1049.1000      7.7971      2.6288      0.0846      1.2865     91.2060     22.0658
  1049.2000      7.7971      2.6390      0.1406      0.6639     86.0666     20.5703
  1049.3000      7.8109      2.6210      0.1303      1.7603     81.1132     19.8397
  1049.4000      7.8109      2.5806      0.0604      4.2046     81.2599     20.4121
  1049.5000      7.8030      2.5372      0.0394      6.8372     87.6346     21.4905
  1049.6000      7.8030      2.5056      0.0268      8.7528     96.5828     22.1479
  1049.7000      7.8030      2.4871     -0.0171      9.8699    104.7113     21.6576
  1049.8000      7.8133      2.4810     -0.0218     10.2453    108.4951     20.4046
  1049.9000      7.8133      2.4890     -0.0226      9.7569    106.3491     19.4769
  1050.0000      7.8197      2.5033      0.0155      8.8917    100.2956     19.1794
  1050.1000      7.8197      2.5140      0.0125      8.2434     93.6630     19.1475
  1050.2000      7.8197      2.5233      0.0344      7.6769     89.3664     19.1213
  1050.3000      7.8488      2.5364      0.0670      6.8863     88.9730     19.1152
  1050.4000      7.8488      2.5527      0.0319      5.8959     90.7210     19.5107
  1050.5000      7.8288      2.5654      0.0668      5.1284     90.3459     20.5295
  1050.6000      7.8288      2.5665      0.0557      5.0630     88.0340     21.5062
  1050.7000      7.8288      2.5615      0.0437      5.3640     86.8760     21.4926
  1050.8000      7.8270      2.5575      0.0334      5.6060     88.4103     20.4468
  1050.9000      7.8270      2.5479      0.0378      6.1874     92.3002     19.3623
  1051.0000      7.8181      2.5333      0.0114      7.0750     95.3899     19.0280
  1051.1000      7.8181      2.5227      0.0358      7.7175     94.5392     19.6923
  1051.2000      7.8181      2.5111      0.0261      8.4207     90.2023     20.8403
  1051.3000      7.8424      2.4932      0.0410      9.5023     87.0631     21.5067
  1051.4000      7.8424      2.4851     -0.0198      9.9955     87.3126     21.2938
  1051.5000      7.8537      2.5004      0.0212      9.0677     87.1010     20.3483
  1051.6000      7.8537      2.5188      0.0331      7.9543     85.5694     19.4970
  1051.7000      7.8537      2.5249      0.0079      7.5804     84.4385     19.6048
  1051.8000      7.8517      2.5305      0.0498      7.2439     81.4169     20.3940
  1051.9000      7.8517      2.5448      0.0171      6.3778     76.3532     20.7190
  1052.0000      7.8544      2.5682      0.0453      4.9577     74.5614     20.1747
  1052.1000      7.8544      2.5864      0.1025      3.8530     78.6500     19.5952
  1052.2000      7.8544      2.5775      0.1033      4.3938     83.1445     19.1936
  1052.3000      7.8456      2.5430      0.0304      6.4848     82.1647     18.6229
  1052.4000      7.8456      2.5043      0.0545      8.8304     77.8521     18.4555
  1052.5000      7.8290      2.4773     -0.0103     10.4673     73.9522     19.4149
  1052.6000      7.8290      2.4680     -0.0021     11.0299     72.0986     20.6501
  1052.7000      7.8290      2.4744      0.0368     10.6453     71.9719     20.8137
  1052.8000      7.8110      2.5014     -0.0008      9.0054     71.8845     20.1418
  1052.9000      7.8110      2.5442      0.0862      6.4127     73.2429     19.0156
  1053.0000      7.8055      2.5683      0.1014      4.9499     76.4286     17.5831
  1053.1000      7.8055      2.5588      0.1113      5.5253     79.0415     16.8819
  1053.2000      7.8055      2.5427      0.1074      6.5007     79.3547     17.4419
  1053.3000      7.8403      2.5516      0.0450      5.9609     76.4310     18.7651
  1053.4000      7.8403      2.5912      0.1139      3.5645     72.0256     19.8831
  1053.5000      7.8302      2.6343      0.2106      0.9495     67.8605     20.0029
  1053.6000      7.8302      2.6517      0.1451     -0.1019     63.8961     19.2138
  1053.7000      7.8302      2.6467      0.1442      0.1998     61.0634     18.2836
  1053.8000      7.7716      2.6389      0.1521      0.6745     59.6236     17.7916
  1053.9000      7.7716      2.6404      0.1309      0.5819     58.0632     17.3878
  1054.0000      7.7399      2.6589      0.0974     -0.5413     57.4008     16.6188
  1054.1000      7.7399      2.6905      0.1004     -2.4534     58.8658     15.5616
  1054.2000      7.7399      2.7105      0.1905     -3.6642     59.7378     14.4922
  1054.3000      7.7949      2.6988      0.1071     -2.9568     56.8341     13.5943
  1054.4000      7.7949      2.6726      0.0158     -1.3707     51.5670     12.8413
  1054.5000      7.7697      2.6649     -0.0012     -0.9060     47.0015     12.2784
  1054.6000      7.7697      2.6740      0.0713     -1.4523     45.4333     11.7305
  1054.7000      7.7697      2.6740      0.0552     -1.4566     48.9220     10.9000
  1054.8000      7.8263      2.6630      0.0130     -0.7900     56.3078      9.8445
  1054.9000      7.8263      2.6495      0.0505      0.0318     63.3965      8.9514
  1055.0000      7.8183      2.6336     -0.0174      0.9928     67.5572      8.5294
  1055.1000      7.8183      2.6270     -0.0872      1.3941     68.7423      8.3329
  1055.2000      7.8183      2.6361      0.0393      0.8429     68.9280      8.1001
  1055.3000      7.8250      2.6401      0.0166      0.6025     68.8155      7.9156
  1055.4000      7.8250      2.6243      0.0445      1.5562     67.8285      7.9588
  1055.5000      7.8352      2.5978     -0.0176      3.1649     66.5529      8.5171
  1055.6000      7.8352      2.5762      0.0055      4.4738     66.9023      9.5075
  1055.7000      7.8352      2.5613      0.0504      5.3740     70.1096     10.3796
  1055.8000      7.8426      2.5437      0.0261      6.4418     74.9351     11.2211
  1055.9000      7.8426      2.5193      0.0164      7.9196     80.5492     12.6323
  1056.0000      7.8217      2.4941     -0.0087      9.4501     86.9929     14.4146
  1056.1000      7.8217      2.4846     -0.0135     10.0229     91.7180     15.4252
  1056.2000      7.8217      2.5063      0.0091      8.7088     92.9579     15.5787
  1056.3000      7.8062      2.5498      0.0868      6.0723     93.0760     16.0984
  1056.4000      7.8062      2.5869      0.0877      3.8243     94.0759     17.2000
  1056.5000      7.8335      2.6028      0.1084      2.8593     94.3194     18.4467
  1056.6000      7.8335      2.5978      0.1089      3.1664     93.4782     19.6662
  1056.7000      7.8335      2.5802      0.1067      4.2290     94.4216     20.8658
  1056.8000      7.7803      2.5715      0.0714      4.7574     99.3365     22.0405
  1056.9000      7.7803      2.5867      0.1203      3.8384    105.6063     22.4535
  1057.0000      7.7689      2.6077      0.1282      2.5637    107.8352     21.9109
  1057.1000      7.7689      2.6044      0.1425      2.7629    106.3842     21.6569
  1057.2000      7.7689      2.5728      0.0884      4.6799    106.3881     21.9472
  1057.3000      7.7745      2.5419      0.0616      6.5497    109.6789     21.6374
  1057.4000      7.7745      2.5437      0.0337      6.4402    113.6530     20.6824
  1057.5000      7.7675      2.5731      0.0384      4.6596    112.8631     20.1344
