~Version Information
VERS.                      2.0: CWLS Log ASCII Standard - VERSION 2.0
WRAP.                       NO: One line per depth step
~Well Information Block
STRT.FT               390.0000: 
STOP.FT              2768.7000: 
STEP.FT                 0.1000: 
NULL.                -999.2500: 
COMP.          Pioneer Natural Resources: COMPANY
WELL.              Lynch 43-30: WELL
FLD.           Purgatoire River: FIELD
LOC.           1438' FSL & 429' FEL: LOCATION
PROV.                 Colorado: PROVINCE
CNTY.               Las Animas: COUNTRY
SRVC.                Patterson: SERVICE COMPANY
DATE.          Wed Oct 27 08:22:00 2004: LOG DATE
UWI.           05 071 08170 00: UNIQUE WELL ID
~Curve Information Block
DEPT.FT            0 000 00 00: Depth
DCAL.in                       : CDL Caliper
DPOR.pu                       : CDL Density Porosity
NPOR.pu                       : Neutron Porosity
RHOB.g/cc                     : CDL Bulk Density
RHOC.g/cc                     : CDL Density Correction
GR.GAPI                       : Gamma Ray
~Parameter Information Block
~A  Depth       DCAL        DPOR        NPOR        RHOB        RHOC         GR     
# ...
  2434.8000      8.0105      7.8286     22.3907      2.5208      0.0173     67.2538
  2434.9000      8.0105      8.4831     22.2325      2.5100      0.0023     81.6400
  2435.0000      8.0096      8.6594     22.6957      2.5071     -0.0050     96.8599
  2435.1000      8.0096      8.2696     23.3087      2.5136      0.0294    100.0516
  2435.2000      8.0096      7.6158     23.8154      2.5243      0.0137     95.4353
  2435.3000      8.0103      7.2014     23.9277      2.5312      0.0278     91.5382
  2435.4000      8.0103      7.4353     23.7186      2.5273     -0.0049     91.8240
  2435.5000      8.0130      8.2004     23.5074      2.5147      0.0454     93.6758
  2435.6000      8.0130      8.9718     23.4507      2.5020      0.0416     92.9033
  2435.7000      8.0130      9.3309     23.5923      2.4960      0.0297     92.1503
  2435.8000      8.0141      9.0560     23.4477      2.5006      0.0066     93.2249
  2435.9000      8.0141      8.1228     22.8016      2.5160      0.0185     94.7986
  2436.0000      8.0126      7.3117     22.6978      2.5294      0.0248     96.0581
  2436.1000      8.0126      7.6471     23.5548      2.5238      0.0410     95.6811
  2436.2000      8.0126      8.8891     24.5706      2.5033      0.0055     94.1762
  2436.3000      8.0118      9.8502     25.3470      2.4875      0.0095     91.8470
  2436.4000      8.0118      9.9973     25.7637      2.4850     -0.0100     89.1327
  2436.5000      8.0159      9.6375     25.7925      2.4910      0.0284     90.3762
  2436.6000      8.0159      9.2307     25.6630      2.4977      0.0194     97.6593
  2436.7000      8.0159      9.3490     25.5873      2.4957      0.0716    108.7865
  2436.8000      8.0218     10.2893     25.8723      2.4802      0.0475    121.1551
  2436.9000      8.0218     11.0769     26.6238      2.4672      0.0395    131.8333
  2437.0000      8.0278     10.9906     27.6329      2.4687      0.0707    137.4208
  2437.1000      8.0278     10.5933     28.4241      2.4752      0.0795    136.1671
  2437.2000      8.0278     10.5805     28.7475      2.4754      0.0878    133.2816
  2437.3000      8.0410     11.0081     28.8701      2.4684      0.0048    131.1301
  2437.4000      8.0410     11.3509     28.9601      2.4627      0.0336    126.3860
  2437.5000      8.0525     11.4586     28.9384      2.4609      0.0396    123.3223
  2437.6000      8.0525     11.3869     28.8270      2.4621      0.0029    126.4718
  2437.7000      8.0525     10.8833     28.8181      2.4704      0.0335    128.1956
  2437.8000      8.0423      9.9951     28.8871      2.4851      0.0586    119.9598
  2437.9000      8.0423      9.3890     28.7172      2.4951      0.0680    109.8122
  2438.0000      8.0264      9.3925     28.3859      2.4950      0.0330    105.4193
  2438.1000      8.0264      9.6094     28.0993      2.4914      0.0698    103.1119
  2438.2000      8.0264     10.1477     27.8199      2.4826      0.1271    102.3706
  2438.3000      8.0186     11.2063     27.5255      2.4651      0.0261    101.6569
  2438.4000      8.0186     11.7988     27.2549      2.4553      0.0272    104.2943
  2438.5000      8.0175     11.2161     27.4212      2.4649      0.0590    114.1792
  2438.6000      8.0175     10.0949     28.2832      2.4834      0.0523    121.3007
  2438.7000      8.0175      9.6036     29.1310      2.4915      0.0503    121.2930
  2438.8000      8.0188     10.2630     29.3305      2.4807      0.0734    125.1259
  2438.9000      8.0188     11.3042     29.2843      2.4635      0.0585    138.6702
  2439.0000      8.0202     11.7068     29.0962      2.4568      0.0728    148.1154
  2439.1000      8.0202     11.3877     28.6881      2.4621      0.0620    140.0792
  2439.2000      8.0202     10.8707     28.8598      2.4706      0.0941    127.7340
  2439.3000      8.0175     10.6038     29.8183      2.4750      0.0857    128.3684
  2439.4000      8.0175     10.3322     30.5777      2.4795      0.0800    133.5392
  2439.5000      8.0090      9.6708     30.4295      2.4904      0.0977    129.1393
  2439.6000      8.0090      9.3337     29.5064      2.4960      0.1310    125.2634
  2439.7000      8.0090      9.9161     28.4884      2.4864      0.0938    130.4849
  2439.8000      8.0077     10.5795     27.9151      2.4754      0.0614    131.8553
  2439.9000      8.0077     10.6492     27.8982      2.4743      0.0736    120.8773
  2440.0000      8.0319     10.3485     28.4213      2.4792      0.0518    103.8415
  2440.1000      8.0319      9.8308     29.3187      2.4878      0.0626     92.0887
  2440.2000      8.0319      9.4293     29.8378      2.4944      0.0517     94.3751
  2440.3000      8.0743      9.9660     29.4362      2.4856      0.0823    102.4432
  2440.4000      8.0743     11.6144     28.7209      2.4584      0.0329    101.1897
  2440.5000      8.0995     13.4460     28.6943      2.4281      0.0367     97.0277
  2440.6000      8.0995     14.8212     29.3942      2.4055      0.0173    110.8480
  2440.7000      8.0995     15.5342     30.1489      2.3937     -0.0065    139.2501
  2440.8000      8.1107     15.4478     30.6747      2.3951      0.0639    158.2479
  2440.9000      8.1107     15.0924     30.9300      2.4010      0.0522    162.2053
  2441.0000      8.1280     14.9808     30.9464      2.4028      0.0553    159.6201
  2441.1000      8.1280     15.3467     31.0742      2.3968      0.0364    149.5781
  2441.2000      8.1280     17.1238     31.3310      2.3675      0.0742    133.8539
  2441.3000      8.1445     21.3642     31.4707      2.2975      0.0586    119.1006
  2441.4000      8.1445     27.1314     31.8584      2.2023     -0.0303    108.9366
  2441.5000      8.1540     32.5145     32.8489      2.1135     -0.0365    103.3016
  2441.6000      8.1540     37.7962     34.0667      2.0264     -0.0014    103.2409
  2441.7000      8.1540     44.2847     35.0161      1.9193     -0.0507    113.0684
  2441.8000      8.1538     51.5021     35.5510      1.8002     -0.0667    121.1644
  2441.9000      8.1538     58.0701     35.8160      1.6918     -0.0993    112.4082
  2442.0000      8.1486     63.3238     35.7990      1.6052     -0.1177     92.9412
  2442.1000      8.1486     67.3241     35.4705      1.5392     -0.1131     75.8183
  2442.2000      8.1486     70.1483     35.2605      1.4926     -0.0414     69.1473
  2442.3000      8.1538     71.6547     35.2305      1.4677      0.0509     73.7652
  2442.4000      8.1538     71.7302     34.9075      1.4665      0.0646     79.4849
  2442.5000      8.1923     70.3878     34.3088      1.4886      0.0786     74.5050
  2442.6000      8.1923     67.7807     33.9254      1.5316      0.0916     61.9112
  2442.7000      8.1923     64.1686     33.7521      1.5912      0.1209     52.1825
  2442.8000      8.2421     59.9303     33.7215      1.6611      0.1343     50.6606
  2442.9000      8.2421     55.9150     34.1492      1.7274      0.1622     58.0593
  2443.0000      8.2238     53.2902     34.8779      1.7707      0.1301     68.9107
  2443.1000      8.2238     52.5495     35.5470      1.7829      0.1113     76.2127
  2443.2000      8.2238     53.4979     35.8201      1.7673      0.0734     77.0101
  2443.3000      8.1572     55.8726     35.4731      1.7281      0.0235     74.3939
  2443.4000      8.1572     59.1536     35.0146      1.6740     -0.0505     76.9962
  2443.5000      8.1322     62.5057     34.9817      1.6187     -0.0759     82.4735
  2443.6000      8.1322     65.5480     35.2353      1.5685     -0.0975     80.0790
  2443.7000      8.1322     68.5810     35.4917      1.5184     -0.0979     72.4804
  2443.8000      8.1707     71.5934     35.9367      1.4687     -0.0969     68.6115
  2443.9000      8.1707     73.8480     36.7573      1.4315     -0.0299     69.0946
  2444.0000      8.2775     74.9077     37.1590      1.4140      0.0584     65.7622
  2444.1000      8.2775     75.1587     36.4418      1.4099      0.1174     56.3053
  2444.2000      8.2775     75.1131     35.3517      1.4106      0.1057     52.2266
  2444.3000      8.4136     74.9445     34.8472      1.4134      0.1293     59.3771
