~Version Information
VERS.                      2.0: CWLS Log ASCII Standard - VERSION 2.0
WRAP.                       NO: One line per depth step
~Well Information Block
STRT.FT               840.0000: 
STOP.FT              2266.0000: 
STEP.FT                 0.1000: 
NULL.                -999.2500: 
COMP.          Pioneer Natural Resources: COMPANY
WELL.              Tonto 42-23: WELL
FLD.           Purgatoire River: FIELD
LOC.           2217' FNL & 423' FEL: LOCATION
PROV.                 Colorado: PROVINCE
CNTY.               Las Animas: COUNTRY
SRVC.                Patterson: SERVICE COMPANY
DATE.          Mon Apr 18 07:15:48 2005: LOG DATE
UWI.           05 071 08335 00: UNIQUE WELL ID
~Curve Information Block
DEPT.FT            0 000 00 00: Depth
DCAL.in                       : CDL Caliper
RHOB.g/cc                     : CDL Bulk Density
RHOC.g/cc                     : CDL Density Correction
DPOR.pu                       : CDL Density Porosity
GR.GAPI                       : Gamma Ray
NPOR.pu                       : Neutron Porosity
~Parameter Information Block
~A  Depth       DCAL        RHOB        RHOC        DPOR         GR         NPOR    
# ...
  1588.8000      7.9480      2.6548      0.0853     -0.2890    111.5391     27.0881
  1588.9000      7.9480      2.6907      0.1117     -2.4643    104.8520     26.7375
  1589.0000      7.9938      2.6976      0.1268     -2.8842    100.1941     25.3769
  1589.1000      7.9938      2.6797      0.0470     -1.7983    101.1066     23.7724
  1589.2000      7.9938      2.6498      0.0518      0.0119    102.4039     22.7948
  1589.3000      7.9855      2.6179     -0.0014      1.9434     99.6009     22.1852
  1589.4000      7.9855      2.5863     -0.0100      3.8596     94.4596     21.7544
  1589.5000      7.8977      2.5522      0.0198      5.9255     90.7897     21.9413
  1589.6000      7.8977      2.5310     -0.0707      7.2099     87.9298     22.7378
  1589.7000      7.8977      2.5455     -0.0292      6.3342     82.1228     23.1800
  1589.8000      7.8758      2.5789      0.0135      4.3084     74.1166     22.6900
  1589.9000      7.8758      2.5937      0.0934      3.4092     66.6576     21.9685
  1590.0000      7.8815      2.5790      0.0566      4.3001     62.5330     21.6930
  1590.1000      7.8815      2.5599      0.0134      5.4610     65.0622     22.0580
  1590.2000      7.8815      2.5632      0.0117      5.2632     73.0014     22.6849
  1590.3000      7.8849      2.5736      0.0962      4.6315     79.7871     22.8066
  1590.4000      7.8849      2.5638      0.0601      5.2265     82.0366     22.7300
  1590.5000      7.8893      2.5444      0.0337      6.4006     81.3897     23.1176
  1590.6000      7.8893      2.5337      0.0704      7.0469     77.7720     23.7671
  1590.7000      7.8893      2.5298      0.0687      7.2867     72.1686     25.0984
  1590.8000      7.8934      2.5269      0.0585      7.4578     70.5315     27.2544
  1590.9000      7.8934      2.5156      0.0324      8.1425     76.1300     28.8395
  1591.0000      7.8973      2.4877      0.0060      9.8372     85.4084     28.9358
  1591.1000      7.8973      2.4573      0.0158     11.6765     94.5448     28.2920
  1591.2000      7.8973      2.4498      0.0244     12.1316    103.0992     27.9264
  1591.3000      7.9041      2.4693      0.0893     10.9488    110.6282     27.9748
  1591.4000      7.9041      2.4982      0.1287      9.1985    112.9957     28.5342
  1591.5000      7.8675      2.5246      0.1348      7.5971    109.1022     29.6119
  1591.6000      7.8675      2.5467      0.1521      6.2611    107.9468     30.5177
  1591.7000      7.8675      2.5687      0.1663      4.9268    115.1901     30.3378
  1591.8000      7.8618      2.6076      0.1454      2.5720    126.3002     29.0274
  1591.9000      7.8618      2.6645      0.2023     -0.8807    137.0083     27.6056
  1592.0000      7.8723      2.7066      0.1988     -3.4303    145.3308     26.7385
  1592.1000      7.8723      2.7149      0.2194     -3.9317    149.8129     26.4264
  1592.2000      7.8723      2.7159      0.0963     -3.9923    151.9270     26.9561
  1592.3000      7.9123      2.7255      0.1675     -4.5748    152.4618     28.1344
  1592.4000      7.9123      2.7123      0.1706     -3.7746    150.3783     28.4320
  1592.5000      7.9529      2.6642      0.1059     -0.8622    150.3253     27.2787
  1592.6000      7.9529      2.6135      0.0182      2.2111    155.7847     26.1425
  1592.7000      7.9529      2.5829      0.0336      4.0640    160.9380     26.2203
  1592.8000      7.9568      2.5707     -0.0210      4.8058    160.2063     27.5012
  1592.9000      7.9568      2.5732      0.0316      4.6521    153.2507     29.3540
  1593.0000      7.9555      2.5884      0.0359      3.7310    142.6903     30.6272
  1593.1000      7.9555      2.6054      0.0811      2.7034    134.7090     30.5147
  1593.2000      7.9555      2.6091      0.0432      2.4805    134.4478     29.5249
  1593.3000      7.9511      2.5926      0.0702      3.4817    139.0932     29.0385
  1593.4000      7.9511      2.5593      0.0354      5.4954    142.9526     29.3980
  1593.5000      7.9335      2.5247      0.0459      7.5940    145.2362     29.7850
  1593.6000      7.9335      2.5090      0.0271      8.5483    147.4312     29.9933
  1593.7000      7.9335      2.5196      0.0615      7.9018    146.5653     30.2287
  1593.8000      7.9350      2.5485      0.0429      6.1522    141.0321     30.3265
  1593.9000      7.9350      2.5809      0.0889      4.1890    138.2891     29.9887
  1594.0000      7.9330      2.5966      0.1367      3.2343    143.5877     28.9976
  1594.1000      7.9330      2.5946      0.0725      3.3578    150.7934     27.9307
  1594.2000      7.9330      2.6021      0.0614      2.9030    154.8195     28.1062
  1594.3000      7.9340      2.6304      0.1018      1.1884    155.4519     29.7334
  1594.4000      7.9340      2.6536      0.1412     -0.2164    153.5710     30.9432
  1594.5000      7.9300      2.6527      0.1364     -0.1637    151.1485     30.3326
  1594.6000      7.9300      2.6404      0.1067      0.5822    148.2717     28.9491
  1594.7000      7.9300      2.6256      0.0563      1.4773    141.5930     28.2642
  1594.8000      7.9266      2.5960      0.0365      3.2714    131.4994     28.7055
  1594.9000      7.9266      2.5420      0.0307      6.5478    123.5628     29.7906
  1595.0000      7.9296      2.4846     -0.0239     10.0225    120.8296     30.5158
  1595.1000      7.9296      2.4640     -0.0293     11.2715    123.4510     30.3725
  1595.2000      7.9296      2.4821      0.0407     10.1732    127.8108     29.7711
  1595.3000      7.9293      2.4947      0.0639      9.4144    128.2484     28.9649
  1595.4000      7.9293      2.4822      0.0179     10.1702    126.0366     27.9529
  1595.5000      7.8899      2.4732      0.0653     10.7149    126.0963     27.3988
  1595.6000      7.8899      2.4822      0.1124     10.1674    132.0772     27.9013
  1595.7000      7.8899      2.4981      0.0975      9.2034    145.7516     28.6638
  1595.8000      7.8795      2.5151      0.1589      8.1745    159.1982     28.8726
  1595.9000      7.8795      2.5272      0.1447      7.4449    162.5281     28.8179
  1596.0000      7.8853      2.5289      0.1209      7.3399    160.9633     28.6487
  1596.1000      7.8853      2.5159      0.1127      8.1302    161.9723     28.7537
  1596.2000      7.8853      2.4852      0.1049      9.9859    164.1812     29.4422
  1596.3000      7.9614      2.4529      0.1069     11.9426    163.8596     30.2186
  1596.4000      7.9614      2.4318      0.0451     13.2219    161.1011     30.6991
  1596.5000      8.0000      2.4221     -0.0175     13.8145    159.4702     30.5013
  1596.6000      8.0000      2.4222      0.0300     13.8063    161.2457     29.5394
  1596.7000      8.0000      2.4334      0.0048     13.1292    161.4648     28.6324
  1596.8000      7.9923      2.4648      0.0033     11.2253    154.5620     28.2556
  1596.9000      7.9923      2.5135      0.0388      8.2748    144.4956     28.1313
  1597.0000      8.0328      2.5621      0.0953      5.3253    137.2091     27.5557
  1597.1000      8.0328      2.5972      0.1162      3.2011    132.1905     26.2210
  1597.2000      8.0328      2.6059      0.1210      2.6709    126.7013     24.8982
  1597.3000      7.9283      2.5826      0.0591      4.0839    121.5923     24.6613
  1597.4000      7.9283      2.5460      0.0184      6.3021    120.2669     25.7086
  1597.5000      7.8792      2.5249     -0.0159      7.5834    120.6384     26.7994
  1597.6000      7.8792      2.5301     -0.0117      7.2658    116.7555     26.5702
  1597.7000      7.8792      2.5577      0.0088      5.5970    109.2314     25.7244
  1597.8000      7.8888      2.6010     -0.0074      2.9697    104.5243     25.5896
  1597.9000      7.8888      2.6483      0.0535      0.1033    104.2622     26.0463
  1598.0000      7.9119      2.6719      0.1253     -1.3301    104.4336     26.2911
  1598.1000      7.9119      2.6550      0.0823     -0.3044    104.2734     25.9020
  1598.2000      7.9119      2.6203      0.0422      1.7979    106.1364     24.9429
  1598.3000      7.9243      2.6041      0.0316      2.7788    109.3026     23.9903
