~Version Information
VERS.                      2.0: CWLS Log ASCII Standard - VERSION 2.0
WRAP.                       NO: One line per depth step
~Well Information Block
STRT.FT                -7.2500: 
STOP.FT               868.2500: 
STEP.FT                 0.2500: 
NULL.                -999.2500: 
COMP.          Pioneer Natural Resources: COMPANY
WELL.              Venom 32-22: WELL
FLD.           Purgatorie River: FIELD
LOC.           2307' FNL & 2024' FWL--: LOCATION
PROV.                       CO: PROVINCE
CNTY.               Las Animas: COUNTRY
SRVC.          Patterson Wireline: SERVICE COMPANY
DATE.          Mon May 16 15:26:38 2005: LOG DATE
UWI.           05 071 08361 00: UNIQUE WELL ID
~Curve Information Block
DEPT.FT            0 000 00 00: Depth
CCL.                          : Casing Collar Locator
TT3.usec                      : CBL 3' Travel Time
AMP3.mV                       : CBL 3' Amplitude
GR.GAPI                       : Gamma Ray
~Parameter Information Block
~A  Depth       CCL         TT3         AMP3         GR     
# ...
    59.7500      0.0000   1137.0441      3.3665     37.6116
    60.0000      2.0000   1131.1440      3.4283     34.4881
    60.2500      2.0000   1108.8535      3.4722     34.7392
    60.5000      0.0000   1075.0580      3.4670     37.6676
    60.7500      0.0000   1036.7543      3.4337     41.9859
    61.0000      0.0000    999.1099      3.4343     46.3032
    61.2500      0.0000    963.7556      3.5201     49.6367
    61.5000      0.0000    932.3923      3.6835     51.8241
    61.7500      0.0000    910.6647      3.8727     53.5951
    62.0000      0.0000    906.3373      4.0546     56.1365
    62.2500      0.0000    922.0495      4.2387     60.2993
    62.5000      0.0000    948.4992      4.4374     65.8233
    62.7500      0.0000    966.3333      4.6295     71.2022
    63.0000      0.0000    959.2861      4.7762     74.6565
    63.2500      0.0000    927.4033      4.8587     75.6199
    63.5000      0.0000    885.7776      4.8877     75.1465
    63.7500      0.0000    850.6691      4.8810     74.6485
    64.0000      0.0000    829.0978      4.8534     74.4359
    64.2500      0.0000    819.5588      4.8294     73.8504
    64.5000      0.0000    817.5309      4.8467     72.7127
    64.7500      0.0000    818.9097      4.9282     72.0861
    65.0000      0.0000    821.0535      5.0534     73.2524
    65.2500      0.0000    823.0095      5.1658     76.1762
    65.5000      0.0000    825.0318      5.2146     79.3431
    65.7500      0.0000    827.4529      5.1898     81.1826
    66.0000      0.0000    829.7548      5.1243     81.4522
    66.2500      0.0000    830.7925      5.0635     81.0320
    66.5000      0.0000    830.0749      5.0298     80.4783
    66.7500      0.0000    828.6176      5.0084     79.2914
    67.0000      0.0000    828.2687      4.9648     76.9542
    67.2500      0.0000    830.2717      4.8774     74.3486
    67.5000      0.0000    834.5660      4.7575     73.4626
    67.7500      0.0000    840.1989      4.6425     75.4955
    68.0000      0.0000    846.0149      4.5713     79.5505
    68.2500      0.0000    850.7626      4.5625     83.4112
    68.5000      0.0000    852.9131      4.6058     85.4857
    68.7500      0.0000    851.1656      4.6663     85.8907
    69.0000      0.0000    845.5607      4.7033     85.7895
    69.2500      0.0000    837.9012      4.6909     85.9900
    69.5000      0.0000    830.7186      4.6307     86.4311
    69.7500      0.0000    825.6973      4.5517     86.8681
    70.0000      0.0000    823.0283      4.5019     87.4459
    70.2500      0.0000    821.9731      4.5235     88.3472
    70.5000      0.0000    821.7108      4.6258     89.2567
    70.7500      0.0000    821.7359      4.7815     89.4028
    71.0000      0.0000    821.8350      4.9456     88.0299
    71.2500      0.0000    821.9634      5.0702     84.9926
    71.5000      0.0000    822.1602      5.1096     81.1698
    71.7500      0.0000    822.5157      5.0365     78.0463
    72.0000      0.0000    823.2174      4.8667     76.5612
    72.2500      0.0000    824.5236      4.6606     76.5433
    72.5000      0.0000    826.4411      4.4920     77.2663
    72.7500      0.0000    828.3074      4.4057     78.0319
    73.0000      0.0000    829.0162      4.3966     78.2563
    73.2500      0.0000    828.0476      4.4244     77.7837
    73.5000      0.0000    826.1990      4.4548     77.3177
    73.7500      0.0000    825.1085      4.4888     77.8605
    74.0000      0.0000    826.1587      4.5514     79.5906
    74.2500      0.0000    829.6376      4.6557     81.9110
    74.5000      0.0000    834.3146      4.7839     84.5627
    74.7500      0.0000    837.7734      4.9023     87.8800
    75.0000      0.0000    837.9448      4.9842     91.8638
    75.2500      0.0000    834.7800      5.0136     95.7343
    75.5000      0.0000    830.1646      4.9832     98.5831
    75.7500      0.0000    826.1639      4.9028     99.9284
    76.0000      0.0000    823.7083      4.8077     99.6521
    76.2500      0.0000    822.7885      4.7460     98.0541
    76.5000      0.0000    823.3099      4.7541     96.2023
    76.7500      0.0000    825.4840      4.8516     95.5367
    77.0000      0.0000    829.5622      5.0453     96.5923
    77.2500      0.0000    835.3823      5.3170     98.4413
    77.5000      0.0000    842.2800      5.6105     99.7257
    77.7500      0.0000    849.3825      5.8475     99.9023
    78.0000      0.0000    855.6776      5.9644     99.3125
    78.2500      0.0000    859.7631      5.9381     98.4378
    78.5000      0.0000    859.7997      5.8002     97.3990
    78.7500      0.0000    854.1161      5.6323     96.0308
    79.0000      0.0000    842.6330      5.5232     94.0654
    79.2500      0.0000    828.3870      5.5068     91.1686
    79.5000      0.0000    816.9244      5.5460     87.3356
    79.7500      0.0000    812.7750      5.5800     83.5150
    80.0000      0.0000    816.4419      5.5743     81.2747
    80.2500      0.0000    825.2220      5.5233     81.5684
    80.5000      0.0000    836.0134      5.4243     84.1888
    80.7500      0.0000    846.5905      5.2727     88.1942
    81.0000      0.0000    855.3815      5.0774     92.2713
    81.2500      0.0000    861.4619      4.8705     94.9875
    81.5000      0.0000    864.7495      4.7011     95.4526
    81.7500      0.0000    865.6066      4.6181     93.7728
    82.0000      0.0000    864.0608      4.6449     90.5036
    82.2500      0.0000    859.7493      4.7571     85.8125
    82.5000      0.0000    853.0948      4.8856     79.5214
    82.7500      0.0000    846.5636      4.9542     71.8283
    83.0000      0.0000    843.7447      4.9222     63.6999
    83.2500      0.0000    846.1492      4.8042     56.6669
    83.5000      0.0000    851.1385      4.6593     52.2376
    83.7500      0.0000    853.3589      4.5521     51.1089
    84.0000      0.0000    847.8818      4.5078     52.7906
    84.2500      0.0000    832.8566      4.4949     56.1607
    84.5000      0.0000    811.6670      4.4580     60.2111
    84.7500      0.0000    793.1816      4.3743     64.0525
    85.0000      0.0000    787.2321      4.2795     66.6032
    85.2500      0.0000    797.3369      4.2420     66.9146
    85.5000      0.0000    817.9568      4.3131     64.9220
    85.7500      0.0000    839.5167      4.4920     61.5186
    86.0000      0.0000    855.6174      4.7239     57.7511
    86.2500      0.0000    865.5109      4.9255     54.1923
    86.5000      0.0000    871.3853      5.0304     51.0773
    86.7500      0.0000    874.9127      5.0300     48.5990
    87.0000      0.0000    876.3181      4.9797     46.8224
    87.2500      0.0000    875.5714      4.9586     45.5515
    87.5000      0.0000    873.4694      5.0092     44.5609
    87.7500      0.0000    871.3842      5.1144     44.0553
    88.0000      0.0000    870.4763      5.2326     44.8004
    88.2500      0.0000    871.5024      5.3436     47.7358
    88.5000      0.0000    874.9815      5.4525     53.3539
    88.7500      0.0000    880.7833      5.5642     61.0788
    89.0000      0.0000    887.4760      5.6688     68.9847
    89.2500      0.0000    892.9064      5.7445     74.5569
    89.5000      0.0000    895.9029      5.7750     76.2568
    89.7500      0.0000    896.7448      5.7704     74.3098
    90.0000      0.0000    895.7402      5.7704     70.0754
    90.2500      0.0000    892.5081      5.8135     65.2121
    90.5000      0.0000    887.2195      5.8990     61.4180
    90.7500      0.0000    881.4554      5.9801     60.0506
    91.0000      0.0000    877.2043      5.9961     61.4495
    91.2500      0.0000    875.6169      5.9156     64.8692
    91.5000      0.0000    877.1006      5.7594     69.2153
    91.7500      0.0000    881.7352      5.5883     73.6471
    92.0000      0.0000    888.3889      5.4620     77.5853
    92.2500      0.0000    893.3596      5.3966     80.7600
    92.5000      0.0000    891.6449      5.3555     83.3472
    92.7500      0.0000    881.5175      5.2802     85.4917
    93.0000      0.0000    867.5530      5.1321     86.6019
