~Version Information
VERS.                      2.0: CWLS Log ASCII Standard - VERSION 2.0
WRAP.                       NO: One line per depth step
~Well Information Block
STRT.FT               510.5000: 
STOP.FT              2075.5000: 
STEP.FT                 0.1000: 
NULL.                -999.2500: 
COMP.          Petrogulf Corporation: COMPANY
WELL.          Robinson 15-11V: WELL
FLD.           Purgatorie River: FIELD
LOC.           226' FNL & 592' FWL: LOCATION
CNTY.               Las Animas: COUNTY
SRVC.                         : SERVICE COMPANY
DATE.          Wed Aug 04 06:17:53 2004: LOG DATE
UWI.           05 071 08027 00: UNIQUE WELL ID
STAT.                 Colorado: STATE
~Curve Information Block
DEPT.FT            0 000 00 00: Depth
DCAL.in                       : CDL Caliper
RHOB.g/cc                     : CDL Bulk Density
RHOC.g/cc                     : CDL Density Correction
DPOR.pu                       : CDL Density Porosity
GR.GAPI                       : Gamma Ray
NPOR.pu                       : Neutron Porosity
~Parameter Information Block
~A  Depth       DCAL        RHOB        RHOC        DPOR         GR         NPOR    
# ...
   520.1000   -999.2500   -999.2500   -999.2500   -999.2500     50.0006     36.0937
   520.2000   -999.2500   -999.2500   -999.2500   -999.2500     50.2275     36.1684
   520.3000   -999.2500   -999.2500   -999.2500   -999.2500     49.5863     36.2455
   520.4000   -999.2500   -999.2500   -999.2500   -999.2500     48.4948     36.3781
   520.5000   -999.2500   -999.2500   -999.2500   -999.2500     46.4604     36.4558
   520.6000   -999.2500   -999.2500   -999.2500   -999.2500     43.7450     36.2872
   520.7000   -999.2500   -999.2500   -999.2500   -999.2500     42.6453     36.0353
   520.8000   -999.2500   -999.2500   -999.2500   -999.2500     42.4976     35.8278
   520.9000   -999.2500   -999.2500   -999.2500   -999.2500     42.4275     35.6511
   521.0000   -999.2500   -999.2500   -999.2500   -999.2500     44.2719     35.6722
   521.1000   -999.2500   -999.2500   -999.2500   -999.2500     47.2215     35.8434
   521.2000   -999.2500   -999.2500   -999.2500   -999.2500     49.2585     36.0126
   521.3000   -999.2500   -999.2500   -999.2500   -999.2500     49.8173     36.2199
   521.4000   -999.2500   -999.2500   -999.2500   -999.2500     48.5869     36.3321
   521.5000   -999.2500   -999.2500   -999.2500   -999.2500     47.1181     36.1788
   521.6000   -999.2500   -999.2500   -999.2500   -999.2500     47.1508     35.9795
   521.7000   -999.2500   -999.2500   -999.2500   -999.2500     47.2794     35.9261
   521.8000   -999.2500   -999.2500   -999.2500   -999.2500     46.9719     35.9029
   521.9000   -999.2500   -999.2500   -999.2500   -999.2500     48.0461     35.7808
   522.0000   -999.2500   -999.2500   -999.2500   -999.2500     50.4172     35.6721
   522.1000   -999.2500   -999.2500   -999.2500   -999.2500     51.7543     35.7849
   522.2000   -999.2500   -999.2500   -999.2500   -999.2500     51.8656     36.0863
   522.3000   -999.2500   -999.2500   -999.2500   -999.2500     51.2053     36.2370
   522.4000   -999.2500   -999.2500   -999.2500   -999.2500     49.6740     36.0904
   522.5000   -999.2500   -999.2500   -999.2500   -999.2500     49.7494     35.9511
   522.6000   -999.2500   -999.2500   -999.2500   -999.2500     52.1107     36.0378
   522.7000   -999.2500   -999.2500   -999.2500   -999.2500     52.8912     36.2823
   522.8000   -999.2500   -999.2500   -999.2500   -999.2500     51.4696     36.6000
   522.9000   -999.2500   -999.2500   -999.2500   -999.2500     50.3601     36.9773
   523.0000   -999.2500   -999.2500   -999.2500   -999.2500     49.7502     37.4632
   523.1000   -999.2500   -999.2500   -999.2500   -999.2500     49.7329     38.0118
   523.2000   -999.2500   -999.2500   -999.2500   -999.2500     50.2669     38.4310
   523.3000   -999.2500   -999.2500   -999.2500   -999.2500     50.2405     38.6326
   523.4000   -999.2500   -999.2500   -999.2500   -999.2500     49.2203     38.7276
   523.5000      2.0103   -999.2500   -999.2500   -999.2500     50.0088     38.7970
   523.6000      2.0103   -999.2500     -0.4893   -999.2500     53.9272     38.8244
   523.7000      2.0103   -999.2500     -0.5365   -999.2500     57.4701     38.8540
   523.8000      2.0112   -999.2500     -0.4596   -999.2500     58.2128     38.9166
   523.9000      2.0112   -999.2500     -0.4907   -999.2500     56.0349     38.9523
   524.0000      2.0118   -999.2500     -0.4819   -999.2500     51.9857     38.9164
   524.1000      2.0118      2.2036     -0.4774     27.0527     49.4368     38.8639
   524.2000      2.0118      2.2219     -0.5149     25.9466     50.4305     38.8599
   524.3000      2.0123      2.2448     -0.4719     24.5549     52.1303     38.7991
   524.4000      2.0123      2.2645     -0.4604     23.3638     51.9993     38.6192
   524.5000      2.0102      2.2777     -0.4856     22.5616     52.9752     38.3713
   524.6000      2.0102      2.2865     -0.4637     22.0295     57.5646     38.0706
   524.7000      2.0102      2.2972     -0.4982     21.3842     61.5719     37.7620
   524.8000      2.0103      2.3220     -0.4782     19.8758     61.9926     37.4170
   524.9000      2.0103      2.3500     -0.4299     18.1788     61.1655     37.0738
   525.0000      2.0104      2.3510     -0.4220     18.1220     60.0601     36.9801
   525.1000      2.0104      2.3208     -0.4753     19.9510     57.9320     37.2801
   525.2000      2.0104      2.2865     -0.4887     22.0279     54.9017     37.9035
   525.3000      2.0110      2.2727     -0.4854     22.8661     51.8034     38.5488
   525.4000      2.0110      2.2927     -0.5131     21.6536     49.5158     39.0062
   525.5000      2.0101      2.3529     -0.4690     18.0082     48.4598     39.4052
   525.6000      2.0101      2.4283     -0.4147     13.4353     49.6814     39.8038
   525.7000      2.0101      2.4626     -0.3211     11.3552     51.9511     40.2259
   525.8000      2.0109      2.4252     -0.4240     13.6216     52.9868     40.8602
   525.9000      2.0109      2.3440     -0.4800     18.5431     53.6901     41.7345
   526.0000      2.0094      2.2766     -0.4971     22.6316     55.2056     42.6171
   526.1000      2.0094      2.2858     -0.6017     22.0708     56.5275     43.3122
   526.2000      2.0094      2.3944     -0.5357     15.4922     56.8155     43.9054
   526.3000      2.0112      2.5472     -0.4743      6.2295     56.4773     44.4017
   526.4000      2.0112      2.6853     -0.4988     -2.1403     55.9863     44.5049
   526.5000      2.0091      2.7929     -0.4572     -8.6595     55.1581     44.1489
   526.6000      2.0091      2.8367     -0.3574    -11.3128     52.8559     43.6297
   526.7000      2.0091      2.7650     -0.3136     -6.9699     47.7391     43.1598
   526.8000      2.0053      2.5917     -0.4557      3.5340     42.0042     42.6282
   526.9000      2.0053      2.3936     -0.6080     15.5365     39.3938     41.8666
   527.0000      2.0063      2.2218     -0.9757     25.9502     40.5424     40.9906
   527.1000      2.0063      2.0959     -1.3769     33.5843     42.0231     40.2134
   527.2000      2.0063      2.0458     -1.5160     36.6169     40.4201     39.5351
   527.3000      2.0042      2.0744     -1.3174     34.8853     38.3792     39.0303
   527.4000      2.0042      2.1196     -1.2105     32.1462     40.6507     38.8681
   527.5000      2.0068      2.1416     -1.2469     30.8128     45.0443     38.8842
   527.6000      2.0068      2.1830     -1.0376     28.3058     44.8508     38.7882
   527.7000      2.0068      2.2637     -0.7116     23.4127     40.1746     38.4749
   527.8000      2.0094      2.3358     -0.6027     19.0400     38.0017     37.9103
   527.9000      2.0094      2.3767     -0.5726     16.5656     39.8202     37.2296
   528.0000      2.0121      2.4088     -0.4642     14.6207     40.2458     36.7506
   528.1000      2.0121      2.4416     -0.3966     12.6286     38.6412     36.6061
   528.2000      2.0121      2.4670     -0.3960     11.0907     39.4483     36.5655
   528.3000      2.0105      2.4829     -0.3775     10.1258     43.1350     36.4638
   528.4000      2.0105      2.4866     -0.3509      9.9043     47.7618     36.4682
   528.5000      2.0099      2.4779     -0.3968     10.4278     52.2628     36.7381
   528.6000      2.0099      2.4682     -0.3963     11.0186     53.9137     37.0820
   528.7000      2.0099      2.4574     -0.4175     11.6728     50.6683     37.2736
   528.8000      2.0103      2.4352     -0.4383     13.0181     46.2342     37.3524
   528.9000      2.0103      2.4025     -0.4405     15.0024     44.9027     37.4036
   529.0000      2.0105      2.3762     -0.4861     16.5912     46.1536     37.3957
   529.1000      2.0105      2.3689     -0.4417     17.0354     49.9447     37.3510
   529.2000      2.0105      2.3728     -0.4456     16.7996     55.6142     37.2995
   529.3000      2.0093      2.3846     -0.4831     16.0834     58.7595     37.2607
   529.4000      2.0093      2.4121     -0.4020     14.4168     58.3406     37.3840
   529.5000      2.0108      2.4464     -0.3996     12.3405     56.1695     37.7716
   529.6000      2.0108      2.4678     -0.3853     11.0433     52.8935     38.0105
