~Version Information
VERS.                      2.0: CWLS Log ASCII Standard - VERSION 2.0
WRAP.                       NO: One line per depth step
~Well Information Block
STRT.FT                 5.0000: 
STOP.FT              1874.2500: 
STEP.FT                 0.2500: 
NULL.                -999.2500: 
COMP.          Pioneer Natural Resources: COMPANY
WELL.           Stampede 42-18: WELL
FLD.           Purgatoire River: FIELD
LOC.           2479' FNL & 160' FEL--: LOCATION
CNTY.               Las Animas: COUNTY
SRVC.          Superior Well Services: SERVICE COMPANY
DATE.          Mon Jun 25 12:19:16 2007: LOG DATE
UWI.                          : UNIQUE WELL ID
STAT.                 Colorado: STATE
~Curve Information Block
DEPT.FT            0 000 00 00: Depth
GR.GAPI                       : Gamma Ray
CCL.                          : Casing Collar Locator
TT3.usec                      : CBL 3' Travel Time
AMP3.mV                       : CBL 3' Amplitude
AMP5.mV                       : CBL 5' Amplitude
~Parameter Information Block
~A  Depth        GR         CCL         TT3         AMP3        AMP5    
# ...
   873.0000     92.4739      0.0000    669.8609      4.2586      2.4010
   873.2500     83.9021      0.0000    674.8969      4.1919      2.3781
   873.5000     76.8672      0.0000    682.0610      4.1566      2.3579
   873.7500     72.4494      0.0000    689.6497      4.1482      2.3433
   874.0000     70.6402      0.0000    696.6342      4.1592      2.3375
   874.2500     70.6200      0.0000    703.0154      4.1804      2.3420
   874.5000     72.0175      0.0000    708.7949      4.2058      2.3549
   874.7500     75.4956      0.0000    713.2249      4.2375      2.3715
   875.0000     81.7363      0.0000    715.2402      4.2837      2.3860
   875.2500     90.1330      0.0000    713.9340      4.3519      2.3941
   875.5000     98.7859      0.0000    708.1229      4.4429      2.3962
   875.7500    105.6725      0.0000    696.0808      4.5501      2.3985
   876.0000    109.7295      0.0000    676.5580      4.6636      2.4083
   876.2500    111.0778      0.0000    650.2393      4.7716      2.4283
   876.5000    110.5209      0.0000    620.4991      4.8607      2.4537
   876.7500    108.9397      0.0000    593.6242      4.9190      2.4764
   877.0000    107.1320      0.0000    577.4375      4.9440      2.4918
   877.2500    105.8784      0.0000    576.7888      4.9455      2.5008
   877.5000    105.5716      0.0000    589.4224      4.9416      2.5059
   877.7500    105.7092      0.0000    607.9713      4.9479      2.5078
   878.0000    105.3096      0.0000    626.1807      4.9710      2.5066
   878.2500    104.2580      0.0000    641.7311      5.0099      2.5058
   878.5000    103.8753      0.0000    654.2027      5.0579      2.5130
   878.7500    105.5303      0.0000    662.9995      5.0986      2.5357
   879.0000    108.7936      0.0000    667.5099      5.1056      2.5759
   879.2500    111.6436      0.0000    668.0494      5.0545      2.6249
   879.5000    112.5351      0.0000    666.6337      4.9401      2.6662
   879.7500    111.5355      0.0000    666.8089      4.7821      2.6856
   880.0000    109.4069      0.0000    671.5887      4.6185      2.6810
   880.2500    106.6255      0.0000    680.8324      4.4917      2.6628
   880.5000    103.7782      0.0000    690.9792      4.4280      2.6445
   880.7500    102.1588      0.0000    697.6139      4.4213      2.6350
   881.0000    103.2120      0.5188    698.5022      4.4398      2.6374
   881.2500    107.2456      2.9556    694.5198      4.4551      2.6508
   881.5000    112.7385      1.1444    687.8091      4.4624      2.6723
   881.7500    117.2234      0.0000    679.6157      4.4776      2.6968
   882.0000    119.2170      0.0000    670.6658      4.5246      2.7183
   882.2500    119.2064      0.0000    662.8843      4.6187      2.7305
   882.5000    118.6243      0.0000    658.9501      4.7464      2.7298
   882.7500    118.2141      0.0000    659.7952      4.8663      2.7182
   883.0000    117.6248      0.0000    663.7067      4.9407      2.7041
   883.2500    116.1922      0.0000    668.1086      4.9683      2.6984
   883.5000    113.6891      0.0000    671.2043      4.9775      2.7036
   883.7500    110.5391      0.0000    671.3892      4.9936      2.7095
   884.0000    107.8598      0.0000    666.1487      5.0203      2.7022
   884.2500    107.1949      0.0000    653.4048      5.0464      2.6767
   884.5000    109.5673      0.0000    635.2881      5.0612      2.6416
   884.7500    114.6254      0.0000    619.7704      5.0631      2.6108
   885.0000    121.0238      0.0000    616.0839      5.0584      2.5930
   885.2500    127.4662      0.0000    627.0267      5.0527      2.5875
   885.5000    132.9610      0.0000    646.2582      5.0460      2.5871
   885.7500    136.4664      0.0000    663.4916      5.0335      2.5861
   886.0000    136.9578      0.0000    671.6752      5.0127      2.5841
   886.2500    133.8148      0.0000    669.7999      4.9867      2.5832
   886.5000    127.1971      0.0000    661.1959      4.9644      2.5847
   886.7500    118.6451      0.0000    650.3589      4.9557      2.5867
   887.0000    111.2084      0.0000    640.3737      4.9656      2.5865
   887.2500    107.9804      0.0000    632.3228      4.9903      2.5818
   887.5000    109.9179      0.0000    626.7891      5.0177      2.5711
   887.7500    115.2188      0.0000    625.1496      5.0336      2.5550
   888.0000    120.9867      0.0000    628.9886      5.0299      2.5385
   888.2500    125.3922      0.0000    638.5684      5.0073      2.5280
   888.5000    128.3464      0.0000    651.6736      4.9692      2.5242
   888.7500    130.6298      0.0000    663.8918      4.9199      2.5195
   889.0000    132.9584      0.0000    670.9847      4.8658      2.5055
   889.2500    135.7876      0.0000    671.7292      4.8176      2.4820
   889.5000    139.1376      0.0000    668.4647      4.7842      2.4573
   889.7500    142.2013      0.0000    665.0189      4.7678      2.4407
   890.0000    143.7099      0.0000    664.1168      4.7652      2.4369
   890.2500    142.9335      0.0000    666.2685      4.7707      2.4450
   890.5000    139.9093      0.0000    670.3968      4.7795      2.4596
   890.7500    134.8931      0.0000    675.0784      4.7913      2.4744
   891.0000    128.3469      0.0000    679.2715      4.8110      2.4857
   891.2500    121.4508      0.0000    682.4628      4.8428      2.4946
   891.5000    115.8567      0.0000    684.7343      4.8849      2.5038
   891.7500    112.5450      0.0000    686.5924      4.9299      2.5142
   892.0000    111.1881      0.0000    688.3546      4.9703      2.5251
   892.2500    110.9341      0.0000    689.6494      4.9996      2.5350
   892.5000    111.5773      0.0000    689.5951      5.0117      2.5422
   892.7500    113.4819      0.0000    687.5261      5.0025      2.5429
   893.0000    116.6337      0.0000    683.5906      4.9750      2.5338
   893.2500    120.4989      0.0000    678.6776      4.9393      2.5169
   893.5000    124.8824      0.0000    673.9178      4.9071      2.4997
   893.7500    130.3638      0.0000    670.2305      4.8852      2.4888
   894.0000    137.5092      0.0000    667.8799      4.8732      2.4842
   894.2500    145.6107      0.0000    666.3707      4.8678      2.4795
   894.5000    152.4848      0.0000    665.1667      4.8684      2.4700
   894.7500    156.0060      0.0000    664.2114      4.8790      2.4585
   895.0000    155.9607      0.0000    663.1953      4.9030      2.4543
   895.2500    153.9720      0.0000    660.9750      4.9353      2.4645
   895.5000    151.4520      0.0000    656.7341      4.9605      2.4875
   895.7500    148.1615      0.0000    651.3553      4.9637      2.5146
   896.0000    143.2261      0.0000    646.4937      4.9449      2.5367
   896.2500    137.0493      0.0000    642.3004      4.9194      2.5494
   896.5000    131.2391      0.0000    637.3743      4.9031      2.5535
   896.7500    126.6546      0.0000    631.2863      4.9005      2.5528
   897.0000    122.4867      0.0000    625.6879      4.9070      2.5519
   897.2500    117.5077      0.0000    622.3926      4.9201      2.5535
   897.5000    111.5289      0.0000    622.1152      4.9442      2.5567
   897.7500    105.3926      0.0000    625.2554      4.9842      2.5580
   898.0000    100.1587      0.0000    631.3075      5.0360      2.5554
   898.2500     96.6180      0.0000    637.4138      5.0850      2.5513
   898.5000     95.0826      0.0000    640.3832      5.1135      2.5495
   898.7500     95.2422      0.0000    640.4532      5.1123      2.5514
   899.0000     96.4779      0.0000    641.1801      5.0858      2.5570
   899.2500     98.6144      0.0000    645.6566      5.0461      2.5664
   899.5000    102.1620      0.0000    653.7367      5.0032      2.5767
   899.7500    107.4057      0.0000    662.5455      4.9612      2.5789
   900.0000    113.3239      0.0000    668.9905      4.9220      2.5645
   900.2500    118.1673      0.0000    671.7872      4.8877      2.5353
   900.5000    121.4713      0.0000    671.5397      4.8574      2.5021
   900.7500    124.5824      0.0000    669.6843      4.8248      2.4749
