~Version Information
 VERS.                      2.0: CWLS Log ASCII Standard - VERSION 2.0
 WRAP.                       NO: One line per depth step
 ~Well Information Block
 STRT.FT               130.0000: 
 STOP.FT              1766.9000: 
 STEP.FT                 0.1000: 
 NULL.                -999.2500: 
 COMP.          Petrogulf Corporation: COMPANY
 WELL.           Parsons 23-15V: WELL
 FLD.           Purgatorie River: FIELD
 LOC.           2095' FSL & 1817' FWL--API 05 071 07556 00----: LOCATION
 CNTY.               Las Animas: COUNTY
 SRVC.                         : SERVICE COMPANY
 DATE.          Fri Apr 19 17:40:55 2002: LOG DATE
 UWI.                          : UNIQUE WELL ID
 STAT.                       CO: STATE
 PROV.                         :Province
 ~Curve Information Block
 DEPT.FT            0 000 00 00: Depth
 DCAL.in                       : CDL Caliper
 RHOB.g/cc                     : CDL Bulk Density
 RHOC.g/cc                     : CDL Density Correction
 DPOR.pu                       : CDL Density Porosity
 GR.GAPI                       : Gamma Ray
 NPOR.pu                       : Neutron Porosity
 ~Parameter Information Block
 ~A  Depth       DCAL        RHOB        RHOC        DPOR         GR         NPOR    
# ...
  1330.0000      7.7959      2.4040      0.0504     14.9081     35.1397     14.8334
  1330.1000      7.7959      2.4031      0.0489     14.9611     35.7586     14.9004
  1330.2000      7.7959      2.4028      0.0478     14.9848     36.4079     14.9646
  1330.3000      7.7966      2.4029      0.0471     14.9735     37.0599     15.0318
  1330.4000      7.7966      2.4038      0.0469     14.9232     37.6827     15.1093
  1330.5000      7.7984      2.4053      0.0473     14.8310     38.2450     15.2050
  1330.6000      7.7984      2.4075      0.0480     14.6959     38.7151     15.3258
  1330.7000      7.7984      2.4104      0.0493     14.5187     39.0659     15.4765
  1330.8000      7.8005      2.4140      0.0509     14.3022     39.2769     15.6593
  1330.9000      7.8005      2.4182      0.0528     14.0512     39.3403     15.8719
  1331.0000      7.8040      2.4228      0.0549     13.7721     39.2635     16.1083
  1331.1000      7.8040      2.4277      0.0572     13.4733     39.0742     16.3592
  1331.2000      7.8040      2.4328      0.0596     13.1642     38.8191     16.6136
  1331.3000      7.8105      2.4379      0.0618     12.8552     38.5633     16.8610
  1331.4000      7.8105      2.4428      0.0638     12.5569     38.3853     17.0940
  1331.5000      7.8105      2.4474      0.0654     12.2801     38.3744     17.3099
  1331.6000      7.8105      2.4514      0.0666     12.0344     38.6216     17.5122
  1331.7000      7.8105      2.4548      0.0671     11.8284     39.2116     17.7099
  1331.8000      7.8024      2.4575      0.0670     11.6687     40.2221     17.9160
  1331.9000      7.8024      2.4593      0.0662     11.5598     41.7178     18.1451
  1332.0000      7.7953      2.4602      0.0648     11.5034     43.7437     18.4098
  1332.1000      7.7953      2.4603      0.0628     11.4985     46.3256     18.7178
  1332.2000      7.7953      2.4596      0.0603     11.5410     49.4614     19.0701
  1332.3000      7.7921      2.4582      0.0575     11.6240     53.1182     19.4596
  1332.4000      7.7921      2.4563      0.0545     11.7381     57.2281     19.8720
  1332.5000      7.7922      2.4541      0.0515     11.8714     61.6824     20.2873
  1332.6000      7.7922      2.4518      0.0486     12.0110     66.3397     20.6814
  1332.7000      7.7922      2.4496      0.0461     12.1431     71.0278     21.0302
  1332.8000      7.7942      2.4478      0.0441     12.2537     75.5603     21.3109
  1332.9000      7.7942      2.4466      0.0427     12.3301     79.7515     21.5048
  1333.0000      7.7955      2.4460      0.0419     12.3613     83.4356     21.5984
  1333.1000      7.7955      2.4464      0.0417     12.3389     86.4842     21.5837
  1333.2000      7.7955      2.4478      0.0421     12.2572     88.8197     21.4603
  1333.3000      7.7941      2.4501      0.0429     12.1142     90.4170     21.2336
  1333.4000      7.7941      2.4535      0.0439     11.9108     91.3079     20.9151
  1333.5000      7.7951      2.4578      0.0450     11.6512     91.5710     20.5226
  1333.6000      7.7951      2.4629      0.0461     11.3423     91.3203     20.0774
  1333.7000      7.7951      2.4686      0.0471     10.9928     90.6921     19.6017
  1333.8000      7.8006      2.4749      0.0479     10.6129     89.8298     19.1175
  1333.9000      7.8006      2.4815      0.0487     10.2133     88.8730     18.6435
  1334.0000      7.8010      2.4882      0.0495      9.8045     87.9477     18.1936
  1334.1000      7.8010      2.4950      0.0504      9.3962     87.1583     17.7762
  1334.2000      7.8010      2.5016      0.0516      8.9970     86.5837     17.3946
  1334.3000      7.8011      2.5079      0.0531      8.6137     86.2741     17.0465
  1334.4000      7.8011      2.5138      0.0550      8.2517     86.2506     16.7265
  1334.5000      7.8028      2.5194      0.0572      7.9150     86.5050     16.4269
  1334.6000      7.8028      2.5245      0.0596      7.6061     86.9995     16.1392
  1334.7000      7.8028      2.5291      0.0620      7.3265     87.6712     15.8557
  1334.8000      7.7974      2.5332      0.0642      7.0774     88.4382     15.5704
  1334.9000      7.7974      2.5368      0.0661      6.8595     89.2040     15.2793
  1335.0000      7.7850      2.5399      0.0674      6.6734     89.8694     14.9804
  1335.1000      7.7850      2.5424      0.0681      6.5201     90.3417     14.6749
  1335.2000      7.7850      2.5444      0.0681      6.4000     90.5463     14.3661
  1335.3000      7.7791      2.5458      0.0674      6.3140     90.4380     14.0586
  1335.4000      7.7791      2.5467      0.0660      6.2624     90.0055     13.7581
  1335.5000      7.7890      2.5470      0.0641      6.2448     89.2768     13.4704
  1335.6000      7.7890      2.5467      0.0617      6.2603     88.3195     13.2013
  1335.7000      7.7890      2.5459      0.0589      6.3068     87.2318     12.9573
  1335.8000      7.7969      2.5447      0.0560      6.3809     86.1346     12.7447
  1335.9000      7.7969      2.5431      0.0531      6.4783     85.1548     12.5706
  1336.0000      7.7922      2.5412      0.0503      6.5939     84.4105     12.4431
  1336.1000      7.7922      2.5391      0.0477      6.7216     83.9977     12.3713
  1336.2000      7.7922      2.5369      0.0454      6.8551     83.9766     12.3644
  1336.3000      7.7860      2.5347      0.0436      6.9881     84.3678     12.4317
  1336.4000      7.7860      2.5326      0.0424      7.1149     85.1520     12.5811
  1336.5000      7.7818      2.5307      0.0417      7.2300     86.2776     12.8181
  1336.6000      7.7818      2.5291      0.0416      7.3294     87.6730     13.1448
  1336.7000      7.7818      2.5277      0.0420      7.4095     89.2576     13.5597
  1336.8000      7.7795      2.5268      0.0428      7.4682     90.9640     14.0570
  1336.9000      7.7795      2.5262      0.0440      7.5042     92.7407     14.6267
  1337.0000      7.7778      2.5260      0.0455      7.5173     94.5673     15.2554
  1337.1000      7.7778      2.5261      0.0471      7.5079     96.4501     15.9279
  1337.2000      7.7778      2.5266      0.0488      7.4773     98.4193     16.6299
  1337.3000      7.7710      2.5275      0.0507      7.4269    100.5215     17.3481
  1337.4000      7.7710      2.5286      0.0526      7.3589    102.8090     18.0728
  1337.5000      7.7704      2.5300      0.0548      7.2754    105.3245     18.7973
  1337.6000      7.7704      2.5315      0.0570      7.1790    108.0946     19.5169
  1337.7000      7.7704      2.5333      0.0595      7.0722    111.1260     20.2280
  1337.8000      7.7818      2.5352      0.0621      6.9572    114.4048     20.9269
  1337.9000      7.7818      2.5372      0.0647      6.8363    117.8987     21.6083
  1338.0000      7.7890      2.5393      0.0672      6.7113    121.5631     22.2649
  1338.1000      7.7890      2.5414      0.0693      6.5834    125.3482     22.8882
  1338.2000      7.7890      2.5435      0.0710      6.4535    129.2046     23.4698
  1338.3000      7.7691      2.5457      0.0720      6.3214    133.0862     24.0017
  1338.4000      7.7691      2.5479      0.0722      6.1866    136.9510     24.4787
  1338.5000      7.7200      2.5502      0.0716      6.0483    140.7611     24.8986
  1338.6000      7.7200      2.5526      0.0704      5.9047    144.4805     25.2622
  1338.7000      7.7200      2.5550      0.0688      5.7549    148.0736     25.5718
  1338.8000      7.6762      2.5576      0.0671      5.5974    151.5015     25.8315
  1338.9000      7.6762      2.5604      0.0655      5.4317    154.7187     26.0450
  1339.0000      7.6810      2.5632      0.0643      5.2578    157.6753     26.2145
  1339.1000      7.6810      2.5662      0.0637      5.0771    160.3156     26.3415
  1339.2000      7.6810      2.5693      0.0638      4.8916    162.5837     26.4263
  1339.3000      7.7261      2.5724      0.0645      4.7043    164.4275     26.4688
  1339.4000      7.7261      2.5754      0.0656      4.5192    165.8074     26.4692
  1339.5000      7.7669      2.5784      0.0669      4.3406    166.7049     26.4276
