~Version Information
VERS.                      2.0: CWLS Log ASCII Standard - VERSION 2.0
WRAP.                       NO: One line per depth step
~Well Information Block
STRT.FT                -8.2500: 
STOP.FT              1175.7500: 
STEP.FT                 0.2500: 
NULL.                -999.2500: 
COMP.          Evergreen Operating Corporation: COMPANY
WELL.             Justin 32-10: WELL
FLD.           Purgatorie River: FIELD
LOC.           2994' FNL & 1449' FEL: LOCATION
PROV.                 Colorado: PROVINCE
CNTY.               Las Animas: COUNTRY
SRVC.                         : SERVICE COMPANY
DATE.          Wed Sep 29 10:00:10 2004: LOG DATE
UWI.           05 071 08053 00: UNIQUE WELL ID
~Curve Information Block
DEPT.FT            0 000 00 00: Depth
GR.GAPI                       : Gamma Ray
CCL.                          : Casing Collar Locator
TT3.usec                      : CBL 3' Travel Time
AMP3.mV                       : CBL 3' Amplitude
~Parameter Information Block
~A  Depth        GR         CCL         TT3         AMP3    
    -8.2500   -999.2500   -999.2500   -999.2500   -999.2500
    -8.0000   -999.2500   -999.2500   -999.2500   -999.2500
    -7.7500   -999.2500   -999.2500   -999.2500   -999.2500
    -7.5000   -999.2500   -999.2500   -999.2500   -999.2500
    -7.2500   -999.2500   -999.2500   -999.2500   -999.2500
    -7.0000   -999.2500   -999.2500   -999.2500   -999.2500
    -6.7500   -999.2500   -999.2500   -999.2500   -999.2500
    -6.5000   -999.2500   -999.2500   -999.2500   -999.2500
    -6.2500   -999.2500   -999.2500   -999.2500   -999.2500
    -6.0000   -999.2500   -999.2500   -999.2500   -999.2500
    -5.7500   -999.2500   -999.2500   -999.2500   -999.2500
    -5.5000   -999.2500   -999.2500   -999.2500   -999.2500
    -5.2500   -999.2500   -999.2500   -999.2500   -999.2500
    -5.0000   -999.2500   -999.2500   1500.0000      0.4490
    -4.7500   -999.2500   -999.2500   1500.0000      0.4476
    -4.5000   -999.2500   -999.2500   1500.0000      0.4587
    -4.2500   -999.2500   -999.2500   1500.0000      0.4711
    -4.0000   -999.2500   -999.2500   1500.0000      0.4787
    -3.7500   -999.2500   -999.2500   1500.0000      0.4837
    -3.5000   -999.2500   -999.2500   1500.0000      0.4917
    -3.2500   -999.2500   -999.2500   1500.0000      0.5038
    -3.0000   -999.2500   -999.2500   1500.0000      0.5150
    -2.7500   -999.2500   -999.2500   1500.0000      0.5192
    -2.5000   -999.2500   -999.2500   1500.0000      0.5144
    -2.2500   -999.2500   -999.2500   1500.0000      0.5055
    -2.0000   -999.2500   -999.2500   1500.0000      0.4987
    -1.7500   -999.2500   -999.2500   1500.0000      0.4959
    -1.5000   -999.2500   -999.2500   1500.0000      0.4949
    -1.2500   -999.2500   -999.2500   1500.0000      0.4949
    -1.0000   -999.2500   -999.2500   1500.0000      0.4968
    -0.7500   -999.2500   -999.2500   1500.0000      0.4995
    -0.5000   -999.2500   -999.2500   1500.0000      0.5003
    -0.2500   -999.2500   -999.2500   1500.0000      0.4974
     0.0000   -999.2500   -999.2500   1500.0000      0.4908
     0.2500   -999.2500      0.0000   1500.0000      0.4693
     0.5000   -999.2500      0.0000   1500.0000      0.4643
     0.7500   -999.2500     -1.9107   1500.0000      0.4737
     1.0000   -999.2500     10.0000   1500.0000      0.4983
     1.2500   -999.2500     10.0000   1500.0000      0.5274
     1.5000   -999.2500    -10.0000   1500.0000      0.5456
     1.7500   -999.2500    -10.0000   1500.0000      0.5428
     2.0000   -999.2500     -1.4749   1500.0000      0.5209
     2.2500   -999.2500      1.0556   1500.0000      0.4910
     2.5000   -999.2500     -2.5150   1500.0000      0.4657
     2.7500   -999.2500     -2.3190   1500.0000      0.4524
     3.0000   -999.2500     -1.3669   1500.0000      0.4511
     3.2500   -999.2500      0.0000   1500.0000      0.4573
     3.5000   -999.2500      0.0000   1500.0000      0.4657
     3.7500   -999.2500      0.0000   1500.0000      0.4735
     4.0000   -999.2500      0.0000   1500.0000      0.4817
     4.2500   -999.2500      0.0000   1500.0000      0.4931
     4.5000   -999.2500      0.0000   1500.0000      0.5078
     4.7500   -999.2500      0.0000   1500.0000      0.5225
     5.0000   -999.2500      0.0000   1500.0000      0.5317
     5.2500   -999.2500      0.0000   1500.0000      0.5310
     5.5000   -999.2500      0.0000   1500.0000      0.5217
     5.7500     76.0131      0.0000   1500.0000      0.5094
     6.0000     76.8182      0.0000   1500.0000      0.5000
     6.2500     76.8961      0.0000   1500.0000      0.4955
     6.5000     76.0534      0.0000   1500.0000      0.4941
     6.7500     74.9828      0.0000   1500.0000      0.4922
     7.0000     74.6946      0.0000   1500.0000      0.4875
     7.2500     75.6170      0.0000   1500.0000      0.4819
     7.5000     77.3762      0.0000   1499.9182      0.4825
     7.7500     79.2963      0.0000   1499.3850      0.5050
     8.0000     80.7175      0.0000   1496.6771      0.6072
     8.2500     80.9206      0.0000   1485.9666      0.9830
     8.5000     79.3026      0.0000   1452.9744      2.1063
     8.7500     75.8688      0.0000   1373.8253      4.7642
     9.0000     71.3245      0.0000   1225.9432      9.6963
     9.2500     66.5428      0.0000   1010.7535     16.8629
     9.5000     62.1396      0.0000    766.8780     25.0280
     9.7500     58.6946      0.0000    551.6199     32.3517
    10.0000     56.9822      0.0000    403.6406     37.5684
    10.2500     57.4124      0.0000    324.4073     40.5760
    10.5000     59.2558      0.0000    291.3579     42.0406
    10.7500     60.8211      0.0000    280.6039     42.7006
    11.0000     60.7030      0.0000    277.8454     43.0205
    11.2500     58.9266      0.0000    277.2448     43.2066
    11.5000     56.8682      0.0000    277.0885     43.3288
    11.7500     56.1142      0.0000    277.0384     43.4134
    12.0000     57.3524      0.0000    277.0523     43.4997
    12.2500     60.1244      0.0000    277.1416     43.6454
    12.5000     63.4191      0.0000    277.2544     43.8833
    12.7500     66.4105      0.0000    277.2950     44.1809
    13.0000     68.7646      0.0000    277.2058     44.4619
    13.2500     70.6313      0.0000    277.0184     44.6559
    13.5000     72.3728      0.0000    276.8182     44.7042
    13.7500     73.8919      1.1453    276.6859     44.5198
    14.0000     74.3538      0.0000    276.7077     43.9342
    14.2500     73.0562      0.0000    277.0224     42.7085
    14.5000     70.4680      0.8350    277.7878     40.6938
    14.7500     67.9866      0.0000    279.0242     38.0566
    15.0000     66.7574      0.0000    280.4857     35.2545
    15.2500     66.9579      0.0000    281.7679     32.7053
    15.5000     68.0187      0.0000    282.5934     30.5816
    15.7500     69.1730      0.0000    282.9716     28.9442
    16.0000     69.9929      0.0000    283.0910     27.8591
    16.2500     70.8610      0.0000    283.1245     27.3078
    16.5000     72.7983      3.2510    283.1546     27.1487
    16.7500     76.3003      2.9773    283.2032     27.2505
    17.0000     80.3879      0.0000    283.2505     27.6403
    17.2500     83.2680      0.0000    283.1928     28.5204
    17.5000     83.9909      0.0000    282.8244     30.1134
    17.7500     83.2824      0.0000    281.9470     32.4093
    18.0000     82.7671      0.0000    280.5609     35.0438
    18.2500     83.3162      0.0000    278.9203     37.4679
    18.5000     83.9592      0.0000    277.3687     39.1968
    18.7500     82.5763      0.0000    276.1856     39.9023
    19.0000     78.0938      0.0000    275.6517     39.4313
    19.2500     71.9548      0.0000    276.2426     37.8608
    19.5000     67.1136      0.0000    278.6795     35.4710
    19.7500     65.5363      0.0000    283.5851     32.5888
    20.0000     66.6817      0.0000    290.8019     29.4662
    20.2500     68.2665      0.0000    299.0286     26.2931
    20.5000     68.5481      0.0000    306.4677     23.2467
    20.7500     67.9693      0.0000    312.0992     20.4721
    21.0000     68.4979      0.0000    316.3951     18.0446
    21.2500     71.4373      0.0000    320.9073     15.9781
    21.5000     76.1646      0.0000    327.1420     14.2606
    21.7500     80.8845      0.0000    335.4255     12.8683
    22.0000     84.1440      0.0000    344.5206     11.7689
    22.2500     85.4728      0.0000    352.5189     10.9350
    22.5000     84.9208      0.0000    358.3436     10.3513
    22.7500     82.5836      0.0000    362.4265      9.9991
    23.0000     78.8619      0.0000    365.8154      9.8410
    23.2500     74.7424      0.0000    368.4201      9.8257
    23.5000     71.3632      0.0000    368.1423      9.9025
    23.7500     69.4656      0.0000    362.4475     10.0284
    24.0000     69.4142      0.0000    351.3766     10.1659
    24.2500     71.2481      0.0000    338.4041     10.2798
    24.5000     74.2456      0.0000    327.7307     10.3436
    24.7500     76.7961      0.0000    321.2284     10.3554
    25.0000     77.3827      0.0000    318.1884     10.3420
