~Version Information
VERS.                      2.0: CWLS Log ASCII Standard - VERSION 2.0
WRAP.                       NO: One line per depth step
~Well Information Block
STRT.FT                -4.0000: 
STOP.FT              2464.0000: 
STEP.FT                 0.2500: 
NULL.                -999.2500: 
COMP.          Pioneer Natural Resources: COMPANY
WELL.            Rancher 12-35: WELL
FLD.           Purgatorie River: FIELD
LOC.           2131' FNL & 297' FWL--: LOCATION
PROV.                       CO: PROVINCE
CNTY.               Las Animas: COUNTRY
SRVC.                         : SERVICE COMPANY
DATE.          Wed Oct 20 13:17:53 2004: LOG DATE
UWI.                          : UNIQUE WELL ID
~Curve Information Block
DEPT.FT            0 000 00 00: Depth
GR.GAPI                       : Gamma Ray
CCL.                          : Casing Collar Locator
TT3.usec                      : CBL 3' Travel Time
AMP3.mV                       : CBL 3' Amplitude
~Parameter Information Block
~A  Depth        GR         CCL         TT3         AMP3    
# ...
  1135.0000     54.6941      0.0000    836.8342      4.6453
  1135.2500     54.6166      0.0000    845.7724      4.5728
  1135.5000     54.7308      0.0000    850.5998      4.5200
  1135.7500     54.2640      0.0000    852.7391      4.4968
  1136.0000     53.3707      0.0000    853.5977      4.5039
  1136.2500     53.1242      0.0000    854.0555      4.5337
  1136.5000     54.6081      0.0000    854.5024      4.5741
  1136.7500     58.2199      0.0000    855.0420      4.6145
  1137.0000     63.8066      0.0000    855.5894      4.6528
  1137.2500     71.0644      0.0000    855.8109      4.6991
  1137.5000     79.4875      0.0000    854.9359      4.7677
  1137.7500     87.9038      0.0000    851.5935      4.8615
  1138.0000     94.4540      0.0000    844.2090      4.9644
  1138.2500     97.7326      0.0000    832.7269      5.0528
  1138.5000     98.1935      0.0000    820.7804      5.1096
  1138.7500     97.9862      0.0000    814.9001      5.1277
  1139.0000     99.1625      0.0000    819.0233      5.1064
  1139.2500    102.1564      0.0000    829.3082      5.0551
  1139.5000    105.9638      0.0000    836.2893      4.9941
  1139.7500    109.5460      0.0000    833.1025      4.9442
  1140.0000    112.9368      0.0000    820.7571      4.9119
  1140.2500    117.0704      0.0000    805.4168      4.8878
  1140.5000    122.5743      0.0000    791.9764      4.8585
  1140.7500    128.6604      0.0000    781.0109      4.8202
  1141.0000    133.3896      0.0000    770.9787      4.7797
  1141.2500    135.4623      0.0000    761.8683      4.7440
  1141.5000    135.7485      0.0000    755.9138      4.7118
  1141.7500    136.6371      0.0000    755.0086      4.6762
  1142.0000    139.6628      0.0000    758.3818      4.6313
  1142.2500    143.8978      0.0000    762.9545      4.5729
  1142.5000    146.9895      0.0000    765.2562      4.5016
  1142.7500    147.7855      0.0000    763.3273      4.4311
  1143.0000    147.5533      0.0000    757.7991      4.3881
  1143.2500    148.4850      0.0000    750.9426      4.3952
  1143.5000    151.4921      0.0000    744.1998      4.4550
  1143.7500    155.7058      0.0000    737.3487      4.5508
  1144.0000    159.6399      0.0000    730.0144      4.6568
  1144.2500    162.2791      0.0000    722.4816      4.7463
  1144.5000    163.1655      0.0000    715.2650      4.8010
  1144.7500    162.1165      0.0000    709.5233      4.8247
  1145.0000    159.4264      0.0000    707.3278      4.8414
  1145.2500    156.1808      0.0000    709.9374      4.8696
  1145.5000    153.7243      0.0000    716.3332      4.9008
  1145.7500    152.5384      0.0000    724.1671      4.9071
  1146.0000    151.9642      0.0000    731.4959      4.8700
  1146.2500    151.3036      0.0000    737.6917      4.8009
  1146.5000    150.8344      0.0000    743.5203      4.7359
  1146.7500    151.3373      0.0000    749.9415      4.7120
  1147.0000    152.8219      0.0000    756.3277      4.7434
  1147.2500    154.0211      0.0000    760.8763      4.8162
  1147.5000    153.1279      0.0000    763.0145      4.9013
  1147.7500    149.0848      0.0000    763.5731      4.9708
  1148.0000    142.5162      0.0000    762.5159      5.0037
  1148.2500    135.6264      0.0000    758.8076      4.9876
  1148.5000    131.0765      0.0000    753.3790      4.9251
  1148.7500    130.5009      0.0000    750.4980      4.8349
  1149.0000    133.4431      0.0000    754.7437      4.7432
  1149.2500    137.5782      0.0000    766.4197      4.6730
  1149.5000    140.5630      0.0000    780.8256      4.6404
  1149.7500    142.0063      0.0000    793.1676      4.6509
  1150.0000    143.3277      0.0000    803.7304      4.6942
  1150.2500    145.7367      0.0000    816.3971      4.7437
  1150.5000    148.8463      0.0000    831.4995      4.7665
  1150.7500    151.2243      0.0000    841.6150      4.7404
  1151.0000    151.6858      0.0000    836.3630      4.6671
  1151.2500    150.0519      0.0000    812.3217      4.5731
  1151.5000    147.2667      0.0000    777.4236      4.4950
  1151.7500    144.9562      0.0000    744.6223      4.4583
  1152.0000    144.3124      0.0000    722.1989      4.4687
  1152.2500    144.9802      0.0000    710.7537      4.5202
  1152.5000    145.1907      0.0000    707.1381      4.6003
  1152.7500    143.1975      0.0000    708.8884      4.6850
  1153.0000    138.7663      0.0000    715.8184      4.7377
  1153.2500    133.4572      0.0000    728.3577      4.7293
  1153.5000    129.3605      0.0000    744.2799      4.6608
  1153.7500    127.2398      0.0000    758.6835      4.5657
  1154.0000    125.7931      0.0000    768.9739      4.4877
  1154.2500    122.8876      0.0000    778.4143      4.4562
  1154.5000    117.5915      0.0000    792.1677      4.4790
  1154.7500    110.8053      0.0000    810.4193      4.5500
  1155.0000    103.8316      0.0000    827.4924      4.6560
  1155.2500     96.8122      0.0000    837.3508      4.7711
  1155.5000     89.0838      0.0000    838.4575      4.8532
  1155.7500     80.8276      0.0000    833.7533      4.8644
  1156.0000     73.7393      0.0000    827.0397      4.8003
  1156.2500     69.9595      0.0000    819.3158      4.6946
  1156.5000     70.6032      0.0000    808.2735      4.5906
  1156.7500     75.2500      0.0000    791.0956      4.5104
  1157.0000     82.3267      0.0000    767.3800      4.4467
  1157.2500     89.7535      0.0000    739.9303      4.3794
  1157.5000     95.8067      0.0000    713.8734      4.2966
  1157.7500     99.9566      0.0000    694.6000      4.2069
  1158.0000    102.9397      0.0000    685.3766      4.1359
  1158.2500    106.0114      0.0000    686.8536      4.1098
  1158.5000    109.9768      0.0000    698.2892      4.1392
  1158.7500    114.4815      0.0000    717.7177      4.2098
  1159.0000    118.1402      0.0000    741.1164      4.2884
  1159.2500    119.6335      0.0000    763.7299      4.3419
  1159.5000    118.7096      0.0000    782.4541      4.3608
  1159.7500    116.2132      0.0000    795.4977      4.3627
  1160.0000    113.5846      0.0000    801.0170      4.3677
  1160.2500    112.4949      0.0000    798.5360      4.3766
  1160.5000    114.5044      0.0000    790.1282      4.3808
  1160.7500    120.5600      0.0000    777.6043      4.3848
  1161.0000    130.4124      0.0000    760.0884      4.4039
  1161.2500    142.1584      0.0000    736.7878      4.4427
  1161.5000    152.5097      0.0000    710.8070      4.4856
  1161.7500    158.3969      0.0000    687.9917      4.5108
  1162.0000    158.9666      0.0000    672.4318      4.5090
  1162.2500    155.9936      0.0000    664.2303      4.4936
  1162.5000    152.2938      0.0000    660.9653      4.4943
  1162.7500    149.7766      0.0000    660.1285      4.5337
  1163.0000    148.6209      0.0000    660.2178      4.6101
  1163.2500    147.7608      0.0000    660.7023      4.7091
  1163.5000    146.1195      0.0000    661.7854      4.8249
  1163.7500    143.5880      0.0000    664.4595      4.9632
  1164.0000    140.9281      0.0000    670.3479      5.1306
  1164.2500    138.9659      0.0000    680.9081      5.3302
  1164.5000    138.0704      0.0000    696.3691      5.5589
  1164.7500    138.0166      0.0000    715.5082      5.8079
  1165.0000    137.8971      0.0000    736.0281      6.0753
  1165.2500    136.4110      0.0000    754.2543      6.3755
  1165.5000    132.7862      0.0000    765.6666      6.7227
  1165.7500    127.6446      0.0000    768.7423      7.1035
  1166.0000    122.8028      0.0000    768.6216      7.4783
  1166.2500    120.0572      0.0000    773.5066      7.8175
  1166.5000    120.0233      0.0000    785.7413      8.1326
  1166.7500    121.8658      0.0000    798.4133      8.4647
  1167.0000    124.0445      0.0000    802.0327      8.8362
  1167.2500    125.6622      0.0000    793.7090      9.2083
  1167.5000    127.4896      0.0000    779.5280      9.4860
  1167.7500    131.6293      0.0000    768.7327      9.5771
  1168.0000    139.6632      0.0000    765.9049      9.4538
  1168.2500    150.5285      0.0000    768.5539      9.1468
