~Version Information
VERS.                      2.0: CWLS Log ASCII Standard - VERSION 2.0
WRAP.                       NO: One line per depth step
~Well Information Block
STRT.FT                -3.0000: 
STOP.FT              2043.2500: 
STEP.FT                 0.2500: 
NULL.                -999.2500: 
COMP.          Pioneer Natural Resources: COMPANY
WELL.           Galloway 32-13: WELL
FLD.           Purgatorie River: FIELD
LOC.           1809' FNL & 2004' FEL--: LOCATION
PROV.                       CO: PROVINCE
CNTY.               Las Animas: COUNTRY
SRVC.          Patterson Wireline: SERVICE COMPANY
DATE.          Thu Jul 14 13:02:15 2005: LOG DATE
UWI.           05 071 08423 00: UNIQUE WELL ID
~Curve Information Block
DEPT.FT            0 000 00 00: Depth
CCL.                          : Casing Collar Locator
TT3.usec                      : CBL 3' Travel Time
AMP3.mV                       : CBL 3' Amplitude
GR.GAPI                       : Gamma Ray
~Parameter Information Block
~A  Depth       CCL         TT3         AMP3         GR     
# ...
  1605.0000      0.0000    402.1816      4.8916    141.2258
  1605.2500      0.0000    397.2505      4.5541    134.6008
  1605.5000      0.0000    398.9154      4.0988    126.6114
  1605.7500      0.0000    410.3592      3.6160    120.0284
  1606.0000      0.0000    436.4408      3.2484    115.8183
  1606.2500      0.0000    479.7923      3.1103    112.9190
  1606.5000      0.0000    535.8094      3.2138    110.3971
  1606.7500      0.0000    592.0683      3.4758    109.0007
  1607.0000      0.0000    634.3888      3.7912    110.0797
  1607.2500      0.0000    654.5775      4.0920    113.4123
  1607.5000      0.0000    653.4767      4.3497    116.7824
  1607.7500      0.0000    638.8983      4.5512    117.6789
  1608.0000      0.0000    621.4067      4.6955    115.0449
  1608.2500      0.0000    609.1431      4.8068    109.4841
  1608.5000      0.0000    603.7779      4.9219    102.3103
  1608.7500      0.0000    601.8343      5.0443     94.6589
  1609.0000      0.0000    600.1438      5.1231     87.3958
  1609.2500      0.0000    598.4234      5.0934     81.3938
  1609.5000      0.0000    596.9493      4.9301     77.3276
  1609.7500      0.0000    593.3157      4.6561     74.9992
  1610.0000      0.0000    582.1379      4.3183     73.1346
  1610.2500      0.0000    560.9332      3.9680     70.2127
  1610.5000      0.0000    538.4065      3.6552     65.7831
  1610.7500      0.0000    532.3694      3.4273     61.0040
  1611.0000      0.0000    554.5360      3.3300     57.7040
  1611.2500      0.0000    598.8043      3.3981     56.8910
  1611.5000      0.0000    646.6114      3.6251     58.1318
  1611.7500      0.0000    681.2138      3.9443     60.0355
  1612.0000      0.0000    694.5060      4.2652     61.1981
  1612.2500      0.0000    683.8549      4.5361     61.1715
  1612.5000      0.0000    649.0028      4.7506     61.0062
  1612.7500      0.0000    594.6661      4.8989     62.7586
  1613.0000      0.0000    533.1074      4.9551     68.1395
  1613.2500      0.0000    479.5522      4.9283     77.3233
  1613.5000      0.0000    443.3598      4.8924     88.7204
  1613.7500      0.0000    424.0978      4.9345     99.8286
  1614.0000      0.0000    415.3258      5.0804    108.6739
  1614.2500      0.0000    410.6167      5.2732    114.6704
  1614.5000      0.0000    406.5260      5.4141    118.1993
  1614.7500      0.0000    402.2539      5.4349    119.8723
  1615.0000      0.0000    398.2962      5.3561    120.5473
  1615.2500      0.0000    395.6442      5.2789    121.1995
  1615.5000      0.0000    395.3780      5.3007    121.9246
  1615.7500      0.0000    398.0712      5.4313    121.6886
  1616.0000      0.0000    403.3198      5.5895    119.8739
  1616.2500      0.0000    410.0271      5.6736    117.5834
  1616.5000      0.0000    417.1442      5.6331    116.7126
  1616.7500      0.0000    424.2948      5.4889    118.0657
  1617.0000      0.0000    432.3962      5.2976    120.7839
  1617.2500      0.0000    443.8941      5.1041    123.3754
  1617.5000      0.0000    461.8565      4.9223    125.0846
  1617.7500      0.0000    488.2391      4.7521    126.5039
  1618.0000      0.0000    522.6958      4.5983    129.0145
  1618.2500      0.0000    562.2584      4.4676    133.4828
  1618.5000      0.0000    601.4963      4.3569    139.3433
  1618.7500      0.0000    634.2542      4.2653    144.9208
  1619.0000      0.0000    657.1767      4.2147    148.5704
  1619.2500      0.0000    671.7812      4.2310    149.5526
  1619.5000      0.0000    682.3296      4.3046    148.2658
  1619.7500      0.0000    691.7405      4.3922    145.9935
  1620.0000      2.0000    699.9894      4.4506    144.0985
  1620.2500      2.0000    706.7126      4.4523    143.0732
  1620.5000      0.0000    714.4669      4.3915    142.2421
  1620.7500      0.0000    726.9376      4.3024    140.3462
  1621.0000      0.0000    742.9218      4.2452    136.6259
  1621.2500      0.0000    754.2334      4.2376    131.5346
  1621.5000      0.0000    751.3967      4.2292    126.3481
  1621.7500      0.0000    730.5175      4.1906    122.3492
  1622.0000      0.0000    694.4470      4.1927    120.5345
  1622.2500      0.0000    650.0448      4.3307    121.3412
  1622.5000      0.0000    606.1439      4.5887    123.9928
  1622.7500      0.0000    571.5836      4.8458    126.6176
  1623.0000      0.0000    551.4583      5.0090    127.7466
  1623.2500      0.0000    544.5401      5.0927    127.6399
  1623.5000      0.0000    545.0908      5.1630    127.7794
  1623.7500      0.0000    547.1572      5.2414    129.0108
  1624.0000      0.0000    547.4263      5.2931    130.3827
  1624.2500      0.0000    546.0868      5.2947    129.9912
  1624.5000      0.0000    547.3323      5.2716    126.8532
  1624.7500      0.0000    558.7903      5.2512    121.7446
  1625.0000      0.0000    587.3917      5.2192    116.4330
  1625.2500      0.0000    633.0493      5.1561    112.5492
  1625.5000      0.0000    686.7053      5.0951    111.1511
  1625.7500      0.0000    736.3129      5.1064    112.8114
  1626.0000      0.0000    774.7913      5.2286    117.6396
  1626.2500      0.0000    801.8357      5.4479    124.8463
  1626.5000      0.0000    819.9635      5.7406    132.1135
  1626.7500      0.0000    831.0389      6.0954    136.1429
  1627.0000      0.0000    836.1082      6.4789    135.1675
  1627.2500      0.0000    836.5664      6.8106    131.1614
  1627.5000      0.0000    834.4570      7.0023    128.6114
  1627.7500      0.0000    831.6282      7.0236    130.4673
  1628.0000      0.0000    828.7954      6.9279    135.4609
  1628.2500      0.0000    825.7785      6.8139    139.4810
  1628.5000      0.0000    822.7458      6.7531    139.3581
  1628.7500      0.0000    820.4873      6.7484    135.0248
  1629.0000      0.0000    819.1176      6.7629    128.1042
  1629.2500      0.0000    817.1744      6.7729    119.2207
  1629.5000      0.0000    812.7814      6.7737    107.6155
  1629.7500      0.0000    805.7842      6.7465     93.1600
  1630.0000      0.0000    798.4855      6.6578     77.7003
  1630.2500      0.0000    793.8104      6.4936     64.0620
  1630.5000      0.0000    792.1412      6.2702     54.1664
  1630.7500      0.0000    790.0002      6.0063     48.1362
  1631.0000      0.0000    782.5385      5.7137     44.7219
  1631.2500      0.0000    767.6443      5.4227     42.3748
  1631.5000      0.0000    747.5977      5.1900     40.1366
  1631.7500      0.0000    727.0358      5.0513     37.9208
  1632.0000      0.0000    709.8837      4.9784     36.3401
  1632.2500      0.0000    698.1074      4.9124     36.3359
  1632.5000      0.0000    692.1281      4.8341     38.5653
  1632.7500      0.0000    691.2726      4.7703     42.6034
  1633.0000      0.0000    694.0356      4.7357     46.6873
  1633.2500      0.0000    698.7004      4.7103     48.6211
  1633.5000      0.0000    704.0648      4.6797     47.3057
  1633.7500      0.0000    709.8218      4.6534     43.4560
  1634.0000      0.0000    716.6130      4.6291     38.8213
  1634.2500      0.0000    725.4957      4.5774     34.7464
  1634.5000      0.0000    736.6489      4.4872     31.5057
  1634.7500      0.0000    748.4423      4.3964     28.8557
  1635.0000      0.0000    758.1969      4.3494     26.8484
  1635.2500      0.0000    763.9700      4.3409     25.8759
  1635.5000      0.0000    765.4583      4.3311     26.1544
  1635.7500      0.0000    763.4948      4.3053     27.4631
  1636.0000      0.0000    759.2331      4.2850     29.3986
  1636.2500      0.0000    753.7137      4.2792     31.8717
  1636.5000      0.0000    747.7174      4.2617     35.2647
  1636.7500      0.0000    741.8010      4.2108     39.8932
  1637.0000      0.0000    736.3276      4.1394     45.1749
  1637.2500      0.0000    731.0037      4.0731     49.5086
  1637.5000      0.0000    724.0822      4.0305     51.3371
  1637.7500      0.0000    712.2452      4.0250     50.5489
  1638.0000      0.0000    692.1058      4.0518     48.9083
  1638.2500      0.0000    663.4576      4.0790     49.1924
