~Version Information
VERS.                      2.0: CWLS Log ASCII Standard - VERSION 2.0
WRAP.                       NO: One line per depth step
~Well Information Block
STRT.FT               806.0000: 
STOP.FT              1814.0000: 
STEP.FT                 0.2500: 
NULL.                -999.2500: 
COMP.          Pioneer Natural Resources: COMPANY
WELL.            Hill 33-22 Tr: WELL
FLD.           Purgatoire River: FIELD
LOC.           1573' FSL & 1585' FEL: LOCATION
PROV.                 Colorado: PROVINCE
CNTY.               Las Animas: COUNTRY
SRVC.                Patterson: SERVICE COMPANY
DATE.          Thu Apr 14 09:13:17 2005: LOG DATE
UWI.           05 071 08316 00: UNIQUE WELL ID
~Curve Information Block
DEPT.FT            0 000 00 00: Depth
SN.Ohm-m                      : IEL Short Normal
SP.mV                         : IEL Spontaneous Potential
DIR.Ohm-m                     : IEL Induction Resistivity
GR.GAPI                       : Gamma Ray
~Parameter Information Block
~A  Depth        SN          SP         DIR          GR     
# ...
  1208.0000     19.4906     47.8522     21.6259    128.2449
  1208.2500     19.7641     48.5200     21.4359    130.3186
  1208.5000     20.0022     49.1118     21.0927    132.5843
  1208.7500     20.1347     49.5918     20.6276    133.2081
  1209.0000     20.1297     49.9214     20.1167    133.1529
  1209.2500     20.0005     50.0538     19.6410    133.0270
  1209.5000     19.7042     49.9439     19.2493    133.5971
  1209.7500     19.1301     49.5647     18.9512    134.6862
  1210.0000     18.2780     48.9187     18.7342    137.2721
  1210.2500     17.3507     48.0431     18.5857    139.4257
  1210.5000     16.5658     47.0077     18.4995    142.7394
  1210.7500     15.9499     45.8995     18.4714    144.5406
  1211.0000     15.4299     44.8016     18.5008    145.7892
  1211.2500     15.0244     43.7767     18.5969    145.3395
  1211.5000     14.8869     42.8571     18.7785    142.7311
  1211.7500     15.2310     42.0316     19.0595    139.8746
  1212.0000     16.1268     41.2428     19.4311    134.0275
  1212.2500     17.3519     40.4146     19.8570    129.0000
  1212.5000     18.5778     39.5039     20.2857    119.8059
  1212.7500     19.7113     38.5493     20.6684    112.9398
  1213.0000     20.9237     37.7033     20.9676    102.6865
  1213.2500     22.4620     37.2376     21.1528     96.6658
  1213.5000     24.8363     37.4700     21.1934     90.0880
  1213.7500     28.9912     38.5812     21.0666     87.8582
  1214.0000     34.9822     40.4224     20.7759     87.9938
  1214.2500     40.0467     42.5208     20.3619     90.0728
  1214.5000     40.0640     44.3604     19.8917     95.1459
  1214.7500     34.0961     45.7238     19.4311     99.3955
  1215.0000     25.7554     46.7700     19.0195    107.0116
  1215.2500     19.4933     47.7832     18.6632    113.0305
  1215.5000     16.8792     48.8645     18.3485    123.0641
  1215.7500     16.6044     49.8657     18.0648    129.6339
  1216.0000     16.6963     50.5674     17.8178    137.6013
  1216.2500     16.1500     50.8701     17.6201    141.0526
  1216.5000     15.0804     50.8296     17.4684    143.5937
  1216.7500     13.9595     50.5764     17.3307    143.9024
  1217.0000     13.0598     50.2353     17.1601    142.2425
  1217.2500     12.5103     49.8925     16.9257    139.2686
  1217.5000     12.4164     49.5923     16.6357    131.6548
  1217.7500     12.8742     49.3468     16.3296    125.0387
  1218.0000     14.0036     49.1553     16.0510    114.9350
  1218.2500     15.7640     49.0234     15.8239    109.5277
  1218.5000     17.6950     48.9638     15.6507    105.3158
  1218.7500     19.1118     48.9721     15.5238    105.5756
  1219.0000     19.6085     49.0014     15.4356    110.2321
  1219.2500     19.1790     48.9724     15.3797    115.4872
  1219.5000     17.9874     48.8242     15.3456    124.9902
  1219.7500     16.3703     48.5608     15.3168    131.5174
  1220.0000     14.8649     48.2444     15.2739    140.4925
  1220.2500     13.8940     47.9491     15.1994    145.3812
  1220.5000     13.5015     47.7202     15.0820    149.9790
  1220.7500     13.4764     47.5717     14.9201    150.7870
  1221.0000     13.5779     47.5044     14.7224    148.9543
  1221.2500     13.5909     47.5202     14.5059    146.4026
  1221.5000     13.3739     47.6190     14.2912    141.7731
  1221.7500     12.9671     47.7886     14.1005    138.6445
  1222.0000     12.5182     47.9974     13.9552    134.4320
  1222.2500     12.1638     48.1959     13.8723    132.1009
  1222.5000     12.0949     48.3309     13.8595    129.4998
  1222.7500     12.5040     48.3661     13.9143    128.5870
  1223.0000     13.3585     48.2922     14.0270    128.8505
  1223.2500     14.3546     48.1206     14.1851    129.9543
  1223.5000     15.1674     47.8706     14.3746    131.5478
  1223.7500     15.6970     47.5637     14.5776    131.2782
  1224.0000     15.9559     47.2248     14.7722    127.3086
  1224.2500     15.9525     46.8840     14.9389    122.5843
  1224.5000     15.8222     46.5770     15.0753    115.2304
  1224.7500     15.7723     46.3455     15.2058    112.3205
  1225.0000     15.8459     46.2318     15.3773    113.2099
  1225.2500     15.9201     46.2645     15.6404    117.1052
  1225.5000     15.9062     46.4339     16.0275    125.5845
  1225.7500     15.8535     46.6739     16.5386    131.3504
  1226.0000     15.8313     46.8784     17.1376    137.9617
  1226.2500     15.8167     46.9578     17.7578    140.1945
  1226.5000     15.7737     46.9003     18.3117    139.4590
  1226.7500     15.7781     46.7857     18.7108    135.9638
  1227.0000     16.0145     46.7367     18.8927    126.1583
  1227.2500     16.6518     46.8460     18.8410    117.1115
  1227.5000     17.6704     47.1350     18.5805    102.0568
  1227.7500     18.8426     47.5593     18.1542     92.8467
  1228.0000     19.9789     48.0413     17.6050     82.8871
  1228.2500     20.9689     48.4957     16.9734     79.5300
  1228.5000     21.5580     48.8436     16.2982     79.2722
  1228.7500     21.4169     49.0266     15.6084     81.8079
  1229.0000     20.4205     49.0272     14.9125     88.8980
  1229.2500     18.7734     48.8816     14.1963     95.4799
  1229.5000     16.8923     48.6814     13.4403    107.2602
  1229.7500     15.1867     48.5582     12.6460    115.4071
  1230.0000     13.8975     48.6457     11.8539    125.9047
  1230.2500     13.0408     49.0281     11.1338    130.8562
  1230.5000     12.4878     49.7007     10.5573    135.1814
  1230.7500     12.0813     50.5642     10.1760    136.7515
  1231.0000     11.7416     51.4567     10.0176    138.8905
  1231.2500     11.5057     52.2161     10.0954    140.9955
  1231.5000     11.4100     52.7456     10.4211    145.4963
  1231.7500     11.3898     53.0445     11.0146    148.7716
  1232.0000     11.3899     53.1826     11.9023    152.2417
  1232.2500     11.4825     53.2435     13.0944    152.7744
  1232.5000     11.7612     53.2783     14.5334    150.9763
  1232.7500     12.1809     53.2961     16.0419    148.8825
  1233.0000     12.5926     53.2865     17.3562    146.1342
  1233.2500     12.8616     53.2526     18.3117    145.2047
  1233.5000     12.8841     53.2269     19.0238    145.4050
  1233.7500     12.6492     53.2639     19.8456    146.3701
  1234.0000     12.2732     53.4126     21.1860    148.1258
  1234.2500     11.8181     53.6865     23.3999    148.7057
  1234.5000     11.2111     54.0451     26.7987    147.5738
  1234.7500     10.4406     54.4015     31.8310    145.4883
  1235.0000      9.6999     54.6647     40.0197    141.7056
  1235.2500      9.2755     54.7903     59.3785    139.7909
  1235.5000      9.4390     54.8018    229.6518    138.7549
  1235.7500     10.3698     54.7675 100000.0000    139.0981
  1236.0000     11.8754     54.7557 100000.0000    140.2961
  1236.2500     13.3283     54.7960 100000.0000    141.2102
  1236.5000     14.2350     54.8646 100000.0000    142.7104
  1236.7500     14.7033     54.8926 100000.0000    143.8545
  1237.0000     15.0742     54.7911 100000.0000    145.4206
  1237.2500     15.3838     54.4769 100000.0000    145.8512
  1237.5000     15.5415     53.8847 100000.0000    144.9807
  1237.7500     15.6775     52.9682 100000.0000    143.6494
  1238.0000     15.9801     51.6868 100000.0000    141.7759
  1238.2500     16.4505     49.9694 100000.0000    141.2575
  1238.5000     16.7983     47.6488 100000.0000    141.8926
  1238.7500     16.4365     44.3866     10.4539    142.9945
  1239.0000     14.9402     39.6302      5.4327    144.7036
  1239.2500     12.6597     32.6166      4.6846    145.2114
  1239.5000     10.4843     22.3967      6.0615    144.3123
  1239.7500      8.9859      7.8580     18.9873    142.6803
  1240.0000      8.0899    -12.1860 100000.0000    139.1048
  1240.2500      7.3884    -38.6571 100000.0000    135.7425
  1240.5000      6.5581    -71.4445 100000.0000    127.8296
  1240.7500      5.6024   -108.3065 100000.0000    120.0370
  1241.0000      4.7738   -144.0912 100000.0000    105.5280
  1241.2500      4.2800   -171.3326 100000.0000     95.6209
