~Version Information
VERS.                      2.0: CWLS Log ASCII Standard - VERSION 2.0
WRAP.                       NO: One line per depth step
~Well Information Block
STRT.FT                -9.5000: 
STOP.FT              1862.5000: 
STEP.FT                 0.2500: 
NULL.                -999.2500: 
COMP.          Petrogulf Corporation: COMPANY
WELL.             State 16-34R: WELL
FLD.           Purgatoire River: FIELD
LOC.           1095' FSL & 1498' FEL--: LOCATION
CNTY.               Las Animas: COUNTY
SRVC.                         : SERVICE COMPANY
DATE.          Mon May 10 14:56:57 2004: LOG DATE
UWI.                          : UNIQUE WELL ID
STAT.                       CO: STATE
~Curve Information Block
DEPT.FT            0 000 00 00: Depth
GR.GAPI                       : Gamma Ray
CCL.                          : Casing Collar Locator
TT3.usec                      : CBL 3' Travel Time
AMP3.mV                       : CBL 3' Amplitude
~Parameter Information Block
~A  Depth        GR         CCL         TT3         AMP3    
# ...
   861.5000    108.1070      0.0000    795.5724      4.0305
   861.7500    102.4505      0.0000    795.9124      4.1868
   862.0000     99.0251      0.0000    789.8590      4.3599
   862.2500     97.7969      0.0000    786.1881      4.5062
   862.5000     97.7872      0.0000    801.5656      4.5207
   862.7500     98.0595      0.0000    849.2369      4.4318
   863.0000     98.3359      0.0000    916.9872      4.4592
   863.2500     98.6323      0.0000    970.5069      4.7492
   863.5000     98.4749      0.0000    997.3093      4.9806
   863.7500     96.8316      0.0000   1017.4238      4.6820
   864.0000     93.0893      0.0000   1039.5143      4.0393
   864.2500     88.0609     -5.0000   1049.6396      3.6865
   864.5000     83.8922     -5.0000   1039.1080      3.8123
   864.7500     82.6352      0.0000   1014.3964      4.1243
   865.0000     84.4924      0.0000    989.0973      4.4542
   865.2500     87.4487      0.0000    978.1348      4.9546
   865.5000     89.1182      0.0000    987.4781      5.6795
   865.7500     89.0785      0.0000   1001.8560      6.2332
   866.0000     89.0278      0.0000    999.5526      6.2082
   866.2500     90.5767      0.0000    979.3551      5.7051
   866.5000     93.4576      0.0000    952.5242      5.0742
   866.7500     96.1586      0.0000    924.4695      4.5627
   867.0000     97.7670      0.0000    902.3094      4.2918
   867.2500     98.5624      0.0000    893.9691      4.2755
   867.5000     99.0322      0.0000    895.9825      4.4223
   867.7500     99.0990      0.0000    899.5438      4.5617
   868.0000     98.6158      0.0000    900.8940      4.5210
   868.2500     98.0939      0.0000    900.5142      4.2593
   868.5000     98.3305      0.0000    899.5403      3.9243
   868.7500     99.3273      0.0000    898.7643      3.6998
   869.0000    100.0753      0.0000    898.5478      3.6714
   869.2500     99.5273      0.0000    898.6790      3.8190
   869.5000     97.4124      0.0000    898.2836      3.9828
   869.7500     94.0916      0.0000    895.4439      3.9535
   870.0000     90.1966      0.0000    887.1841      3.6900
   870.2500     86.6053      0.0000    872.5963      3.3183
   870.5000     84.2782      0.0000    855.4213      2.9781
   870.7500     83.7653      0.0000    839.1068      2.7119
   871.0000     84.9681      0.0000    825.4791      2.4745
   871.2500     87.3718      0.0000    820.9490      2.2555
   871.5000     90.0857      0.0000    830.0037      2.0953
   871.7500     91.5745      0.0000    843.4071      2.0289
   872.0000     90.0618      0.0000    848.8868      2.1010
   872.2500     84.8475      0.0000    849.6276      2.3064
   872.5000     77.1714      0.0000    854.1937      2.5566
   872.7500     69.6268      0.0000    860.5338      2.8378
   873.0000     64.6362      0.0000    867.0007      3.1861
   873.2500     63.1130      0.0000    877.4358      3.4549
   873.5000     64.1933      0.0000    889.6035      3.4536
   873.7500     66.2818      0.0000    897.5571      3.2807
   874.0000     68.3922      0.0000    900.3484      3.1496
   874.2500     70.4013      0.0000    900.5555      3.0478
   874.5000     72.2771      0.0000    900.2191      2.8985
   874.7500     73.5400      0.0000    899.4775      2.7824
   875.0000     73.5469      0.0000    895.9183      2.7592
   875.2500     72.2222      0.0000    885.7981      2.7384
   875.5000     70.4233      0.0000    870.4910      2.6341
   875.7500     69.4387      0.0000    859.2654      2.4730
   876.0000     70.1336      0.0000    854.6221      2.3472
   876.2500     72.7083      0.0000    841.5073      2.3704
   876.5000     76.9418      0.0000    803.6545      2.5994
   876.7500     82.0282      0.0000    740.7684      2.9102
   877.0000     86.2888      0.0000    671.3163      3.0886
   877.2500     87.8321      0.0000    621.7968      3.0858
   877.5000     85.9198      0.0000    598.4924      3.0627
   877.7500     81.5369      0.0000    581.1616      3.1559
   878.0000     76.5439      0.0000    548.8137      3.3559
   878.2500     72.3871      0.0000    499.2978      3.5921
   878.5000     69.5763      0.0000    451.3472      3.7359
   878.7500     67.9969      0.0000    422.6339      3.6734
   879.0000     67.3578      0.0000    411.8182      3.4926
   879.2500     67.5095      0.0000    409.0819      3.4303
   879.5000     68.5905      0.0000    408.5312      3.5847
   879.7500     70.7844      0.0000    408.3148      3.7646
   880.0000     73.7975      0.0000    407.9874      3.7810
   880.2500     76.7655      0.0000    407.4034      3.7640
   880.5000     78.8668      0.0000    405.9293      3.9420
   880.7500     80.0687      0.0000    401.9338      4.3551
   881.0000     81.1952      0.0000    394.1849      4.9462
   881.2500     83.0611      0.0000    384.3514      5.5842
   881.5000     85.4403      0.0000    376.1541      5.9554
   881.7500     86.9987      0.0000    371.4381      5.8107
   882.0000     86.3108      0.0000    369.3477      5.3380
   882.2500     82.9582      0.0000    368.6174      4.9562
   882.5000     77.8144      0.0000    368.5942      4.8227
   882.7500     72.4029      0.0000    368.9139      4.8424
   883.0000     67.8966      0.0000    369.3515      4.9433
   883.2500     64.6595      0.0000    369.7886      5.1365
   883.5000     62.6381      0.0000    370.3113      5.4318
   883.7500     61.7813      0.0000    371.7901      5.7384
   884.0000     61.6758      0.0000    376.3246      5.8906
   884.2500     61.2120      0.0000    386.3121      5.8259
   884.5000     59.3474      0.0000    404.2379      5.6398
   884.7500     56.1256      0.0000    437.3771      5.4958
   885.0000     52.4914      0.0000    498.7039      5.5083
   885.2500     49.3116      0.0000    589.5814      5.5597
   885.5000     46.8586      0.0000    684.0617      5.4254
   885.7500     44.8702      0.0000    749.0469      5.1849
   886.0000     42.8452      0.0000    777.3857      5.1021
   886.2500     40.6603      0.0000    786.6940      5.1755
   886.5000     39.0531      0.0000    793.2530      5.1936
   886.7500     39.1028      0.0000    795.9910      5.1167
   887.0000     41.0281      0.0000    779.5396      5.1744
   887.2500     43.7707      0.0000    732.5261      5.5131
   887.5000     46.0121      0.0000    668.6857      5.9025
   887.7500     47.4853      0.0000    614.3285      5.9882
   888.0000     49.0630      0.0000    568.7474      5.7201
   888.2500     51.6852      0.0000    514.9625      5.3779
   888.5000     55.3981      0.0000    464.0541      5.2090
   888.7500     59.2604      0.0000    444.9780      5.2466
   889.0000     62.0012      0.0000    475.4715      5.4953
   889.2500     62.9188      0.0000    555.9966      5.9500
   889.5000     62.1825      0.0000    660.3943      6.3093
   889.7500     60.1932      0.0000    747.9135      6.1374
   890.0000     57.0820      0.0000    803.0025      5.5061
   890.2500     53.3640      0.0000    839.3151      4.9634
   890.5000     50.6887      0.0000    870.0731      4.8321
   890.7500     51.0094      0.0000    899.1725      4.9802
   891.0000     54.8351      0.0000    925.7036      5.1745
   891.2500     60.7035      0.0000    942.8984      5.2960
   891.5000     66.2824      0.0000    942.8525      5.3004
   891.7500     69.8004      0.0000    916.8204      5.2030
   892.0000     70.9793      0.0000    855.6904      5.0693
   892.2500     71.2583      0.0000    774.2652      4.9532
   892.5000     72.8452      0.0000    720.4927      4.8553
   892.7500     76.8148      0.0000    723.9907      4.7737
   893.0000     82.0352      0.0000    758.8296      4.7837
   893.2500     86.3016      0.0000    786.5726      4.9402
   893.5000     88.4759      0.0000    797.8680      5.1548
   893.7500     89.2162      0.0000    800.4976      5.2505
   894.0000     89.8165      0.0000    799.9206      5.0582
   894.2500     90.8159      0.0000    795.7679      4.5942
   894.5000     91.7732      0.0000    785.1038      4.1783
   894.7500     92.0232      0.0000    769.9092      4.1263
