~Version Information
VERS.                      2.0: CWLS Log ASCII Standard - VERSION 2.0
WRAP.                       NO: One line per depth step
~Well Information Block
STRT.FT               275.0000: 
STOP.FT               811.2000: 
STEP.FT                 0.1000: 
NULL.                -999.2500: 
COMP.          Pioneer Natural Resources: COMPANY
WELL.          Barrelman 41-27: WELL
FLD.           Purgatoire River: FIELD
LOC.           371' FNL & 493' FEL--: LOCATION
PROV.                 Colorado: PROVINCE
CNTY.               Las Animas: COUNTRY
SRVC.                Patterson: SERVICE COMPANY
DATE.          Fri May 20 11:50:01 2005: LOG DATE
UWI.           05 071 08334 00: UNIQUE WELL ID
~Curve Information Block
DEPT.FT            0 000 00 00: Depth
DCAL.in                       : CDL Caliper
RHOB.g/cc                     : CDL Bulk Density
RHOC.g/cc                     : CDL Density Correction
DPOR.pu                       : CDL Density Porosity
NPOR.pu                       : Neutron Porosity
GR.GAPI                       : Gamma Ray
~Parameter Information Block
~A  Depth       DCAL        RHOB        RHOC        DPOR        NPOR         GR     
   275.0000      2.6621      2.0348      0.2802     37.2843     47.4619     85.8696
   275.1000      2.6621      2.0482      0.3097     36.4722     47.3440     85.8661
   275.2000      2.6621      2.0765      0.3239     34.7573     47.6292     90.8592
   275.3000      2.6629      2.1111      0.3305     32.6585     47.9253     96.3221
   275.4000      2.6629      2.1477      0.3218     30.4428     47.8594     97.5221
   275.5000      2.6677      2.1864      0.3338     28.0977     47.8110     95.8182
   275.6000      2.6677      2.2315      0.3366     25.3611     48.0616     93.3939
   275.7000      2.6677      2.2808      0.3664     22.3763     48.3507     91.5009
   275.8000      2.6732      2.3241      0.3682     19.7501     48.4997     88.5906
   275.9000      2.6732      2.3610      0.3629     17.5126     48.5230     83.3899
   276.0000      2.6773      2.3922      0.3578     15.6265     48.4231     81.9657
   276.1000      2.6773      2.3984      0.3559     15.2500     48.2208     87.5404
   276.2000      2.6773      2.3582      0.2903     17.6866     48.0595     92.3619
   276.3000      2.6795      2.2728      0.2198     22.8583     48.1125     91.2157
   276.4000      2.6795      2.1592      0.1380     29.7444     48.3318     88.3360
   276.5000      2.6771      2.0366      0.0483     37.1736     48.3994     87.6717
   276.6000      2.6771      1.9164      0.0026     44.4619     48.2776     90.6331
   276.7000      2.6771      1.7997     -0.0549     51.5304     48.1785     96.0617
   276.8000      2.6682      1.6948     -0.1265     57.8907     48.3548     97.7033
   276.9000      2.6682      1.6211     -0.1134     62.3588     48.8576     95.4589
   277.0000      2.6574      1.5949     -0.1183     63.9456     49.2099     96.4839
   277.1000      2.6574      1.6186     -0.0201     62.5108     49.2538    101.7562
   277.2000      2.6574      1.6828      0.0280     58.6161     49.2394    103.2390
   277.3000      2.6507      1.7821      0.0925     52.5998     49.1339     96.9290
   277.4000      2.6507      1.9176      0.1946     44.3862     48.8256     90.4029
   277.5000      2.6500      2.0869      0.3064     34.1293     48.5034     92.7952
   277.6000      2.6500      2.2732      0.4365     22.8370     48.4097    102.6642
   277.7000      2.6500      2.4404      0.5464     12.7010     48.4555    109.2916
   277.8000      2.6542      2.5412      0.6111      6.5962     48.3444    108.2409
   277.9000      2.6542      2.5506      0.5581      6.0254     47.9113    109.1112
   278.0000      2.6823      2.4931      0.4566      9.5115     47.1014    121.2379
   278.1000      2.6823      2.4068      0.3615     14.7423     45.8452    144.7887
   278.2000      2.6823      2.2939      0.3070     21.5817     44.0465    174.5680
   278.3000      2.9744      2.1127      0.1813     32.5650     41.5887    201.6152
   278.4000      2.9744      1.8313      0.0848     49.6167     38.4318    213.0928
   278.5000      4.2743      1.5589     -0.2453     66.1273     34.5807    206.3272
   278.6000      4.2743      1.5033     -0.2100     69.4992     29.9277    194.7052
   278.7000      4.2743      1.6757      0.0577     59.0472     24.6379    190.1963
   278.8000      6.4301      1.8839      0.1805     46.4283     19.6688    189.0712
   278.9000      6.4301      2.0124      0.2742     38.6427     15.8973    184.4169
   279.0000      7.8244      2.0832      0.3392     34.3489     13.3870    177.5379
   279.1000      7.8244      2.1257      0.6657     31.7748     11.8871    170.1398
   279.2000      7.8244      2.1410      0.6563     30.8472     11.1497    162.7672
   279.3000      8.3759      2.1681      0.5338     29.2040     11.1798    156.9337
   279.4000      8.3759      2.2564      0.5980     23.8561     12.2211    152.7088
   279.5000      8.7587      2.3867      0.7155     15.9603     14.1675    149.2558
   279.6000      8.7587      2.4964      0.7693      9.3106     16.3051    143.3146
   279.7000      8.7587      2.5499      0.7387      6.0680     17.9403    134.3101
   279.8000      9.0608      2.5550      0.6652      5.7575     19.2871    126.0302
   279.9000      9.0608      2.5367      0.5294      6.8637     21.0246    121.4368
   280.0000      9.2833      2.5131      0.4479      8.2983     23.0093    120.7670
   280.1000      9.2833      2.4885      0.4017      9.7876     24.6901    122.5022
   280.2000      9.2833      2.4647      0.3528     11.2314     25.6982    123.1099
   280.3000      9.4694      2.4480      0.3244     12.2399     25.9624    120.6690
   280.4000      9.4694      2.4398      0.3146     12.7408     25.9259    116.8307
   280.5000      9.6237      2.4290      0.2698     13.3910     26.1993    113.7615
   280.6000      9.6237      2.4100      0.2200     14.5468     26.8990    112.7538
   280.7000      9.6237      2.3976      0.2138     15.2989     27.6534    113.8616
   280.8000      9.7585      2.4118      0.2304     14.4369     28.2544    118.7850
   280.9000      9.7585      2.4593      0.2389     11.5590     28.6145    128.0555
   281.0000      9.9357      2.5329      0.2516      7.0988     28.5585    136.7972
   281.1000      9.9357      2.6096      0.2735      2.4480     28.1251    140.8374
   281.2000      9.9357      2.6664      0.2671     -0.9921     27.7827    141.0347
   281.3000     10.2035      2.6978      0.3439     -2.8941     27.6654    140.6749
   281.4000     10.2035      2.7017      0.3391     -3.1338     27.3559    144.1181
   281.5000     10.4860      2.6772      0.2878     -1.6464     26.7551    151.3926
   281.6000     10.4860      2.6351      0.2334      0.9026     26.2225    155.1983
   281.7000     10.4860      2.5975      0.1610      3.1800     26.1630    151.0907
   281.8000     10.6515      2.5858      0.1503      3.8910     26.7027    143.5894
   281.9000     10.6515      2.5907      0.2053      3.5917     27.7346    139.4978
   282.0000     10.7075      2.5756      0.1876      4.5113     28.8774    140.6623
   282.1000     10.7075      2.5250      0.0933      7.5749     29.5181    143.7278
   282.2000     10.7075      2.4647      0.0031     11.2332     29.4820    145.1416
   282.3000     10.7201      2.4250      0.0206     13.6356     29.1308    145.1535
   282.4000     10.7201      2.4092      0.0240     14.5945     28.6957    146.9140
   282.5000     10.7214      2.4092      0.0264     14.5919     28.1996    150.7011
   282.6000     10.7214      2.4213      0.0693     13.8578     27.6306    154.4721
   282.7000     10.7214      2.4302      0.1375     13.3193     27.1121    157.5013
   282.8000     10.7276      2.4154      0.0931     14.2184     26.9125    160.7469
   282.9000     10.7276      2.3827      0.0322     16.2021     26.9048    163.2533
   283.0000     10.7487      2.3613      0.0176     17.4972     26.7159    164.4480
   283.1000     10.7487      2.3686      0.0816     17.0563     26.5221    165.6921
   283.2000     10.7487      2.3926      0.1206     15.5998     26.5748    165.0316
   283.3000     10.7911      2.4119      0.1180     14.4327     26.4928    160.8596
   283.4000     10.7911      2.4229      0.0891     13.7624     25.9641    155.7757
   283.5000     10.8401      2.4425      0.0743     12.5780     25.3444    153.1460
   283.6000     10.8401      2.4769      0.1374     10.4890     25.1992    153.8986
   283.7000     10.8401      2.5116      0.1204      8.3900     25.4705    155.1054
   283.8000     10.8657      2.5337      0.1653      7.0502     25.4744    154.0028
   283.9000     10.8657      2.5417      0.1117      6.5607     25.1556    153.5540
   284.0000     10.8702      2.5464      0.0886      6.2809     25.1267    154.0564
   284.1000     10.8702      2.5537      0.1194      5.8344     25.1231    150.7728
   284.2000     10.8702      2.5508      0.1240      6.0095     24.6885    146.1812
   284.3000     10.8703      2.5253      0.1138      7.5587     24.3534    146.2643
   284.4000     10.8703      2.4907      0.0453      9.6530     24.4745    150.3965
   284.5000     10.8662      2.4736      0.0309     10.6911     24.7162    153.9720
