~Version Information
VERS.                      2.0: CWLS Log ASCII Standard - VERSION 2.0
WRAP.                       NO: One line per depth step
~Well Information Block
STRT.FT                 3.5000: 
STOP.FT              1971.5000: 
STEP.FT                 0.2500: 
NULL.                -999.2500: 
COMP.          Evergreen Operating Corporation: COMPANY
WELL.          McCullough 34-32 Tr: WELL
FLD.           Purgatorie River: FIELD
LOC.           394' FSL & 2077' FEL: LOCATION
PROV.                 Colorado: PROVINCE
CNTY.               Las Animas: COUNTRY
SRVC.                         : SERVICE COMPANY
DATE.          Fri Sep 24 11:00:22 2004: LOG DATE
UWI.           05 071 08157 00: UNIQUE WELL ID
~Curve Information Block
DEPT.FT            0 000 00 00: Depth
GR.GAPI                       : Gamma Ray
CCL.                          : Casing Collar Locator
TT3.usec                      : CBL 3' Travel Time
AMP3.mV                       : CBL 3' Amplitude
~Parameter Information Block
~A  Depth        GR         CCL         TT3         AMP3    
# ...
  1042.0000    132.3818      0.0000    704.6382      7.6442
  1042.2500    130.8344      0.0000    669.9695      8.2040
  1042.5000    131.7370      0.0000    630.1443      8.5337
  1042.7500    135.5106      0.0000    596.3243      8.4788
  1043.0000    140.1648      0.0000    573.7922      8.1426
  1043.2500    142.7621      0.0000    560.6046      7.7617
  1043.5000    141.6128      0.0000    551.7232      7.4852
  1043.7500    137.4574      0.0000    543.2586      7.3039
  1044.0000    133.0043      0.0000    534.5169      7.1480
  1044.2500    131.0854      0.0000    528.5442      7.0065
  1044.5000    132.3114      0.0000    531.0654      6.9523
  1044.7500    134.2273      0.0000    547.1697      7.0645
  1045.0000    133.5000      0.0000    577.0197      7.3474
  1045.2500    129.2558      0.0000    614.3491      7.7315
  1045.5000    123.5523      0.0000    649.9833      8.1331
  1045.7500    118.5613      0.0000    677.3368      8.4841
  1046.0000    114.4476      0.0000    694.5436      8.7118
  1046.2500    110.4410      0.0000    702.9719      8.7310
  1046.5000    107.0237      0.0000    705.4479      8.5022
  1046.7500    106.2154      0.0000    704.8055      8.0959
  1047.0000    109.8292      0.0000    701.5018      7.6643
  1047.2500    117.6709      0.0000    692.1929      7.3407
  1047.5000    127.3022      0.0000    672.3815      7.1731
  1047.7500    135.4930      0.0000    641.9059      7.1346
  1048.0000    140.2184      0.0000    607.7239      7.1644
  1048.2500    141.7959      0.0000    580.0911      7.1979
  1048.5000    142.3963      0.0000    565.3219      7.1924
  1048.7500    144.1767      0.0000    562.5486      7.1493
  1049.0000    147.3785      0.0000    566.6760      7.1065
  1049.2500    150.2118      0.0000    572.6418      7.0994
  1049.5000    150.8337      0.0000    576.8700      7.1307
  1049.7500    149.1566      0.0000    576.9404      7.1758
  1050.0000    146.3241      0.0000    571.8318      7.2102
  1050.2500    143.0444      0.0000    563.0152      7.2294
  1050.5000    139.2842      0.0000    554.5880      7.2505
  1050.7500    135.0851      0.0000    551.0446      7.2960
  1051.0000    130.7505      0.0000    554.0081      7.3748
  1051.2500    126.5513      0.0000    561.2536      7.4774
  1051.5000    122.9223      0.0000    569.0444      7.5895
  1051.7500    120.6683      0.0000    575.0346      7.7020
  1052.0000    120.4909      0.0000    579.2318      7.8096
  1052.2500    122.2078      0.0000    583.2250      7.9088
  1052.5000    124.5462      0.0000    588.5578      7.9987
  1052.7500    126.0931      0.0000    594.6851      8.0728
  1053.0000    126.8013      0.0000    598.3990      8.1105
  1053.2500    128.3442      0.0000    596.3916      8.0965
  1053.5000    132.4260      0.0000    588.7870      8.0571
  1053.7500    138.7255      0.0000    579.4799      8.0595
  1054.0000    145.0198      0.0000    572.8615      8.1576
  1054.2500    149.4776      0.0000    570.7449      8.3449
  1054.5000    152.2392      0.0000    572.1831      8.5683
  1054.7500    154.2769      0.0000    575.0673      8.7763
  1055.0000    155.3272      0.0000    577.4606      8.9457
  1055.2500    154.0359      0.0000    578.3146      9.0694
  1055.5000    150.0828      0.0000    577.8744      9.1316
  1055.7500    145.0826      0.0000    577.5459      9.1002
  1056.0000    141.0890      0.0000    579.2205      8.9577
  1056.2500    138.8288      0.0000    584.6299      8.7537
  1056.5000    137.5131      0.0000    595.2328      8.6095
  1056.7500    135.9581      0.0000    611.8851      8.6369
  1057.0000    133.8186      0.0000    633.8217      8.8511
  1057.2500    131.9520      0.0000    658.3358      9.1769
  1057.5000    131.5064      0.0000    682.4862      9.5224
  1057.7500    132.5527      0.0000    704.8916      9.8210
  1058.0000    133.6984      0.0000    724.8519     10.0177
  1058.2500    133.1109      0.0000    740.1931     10.0493
  1058.5000    129.8332      0.0000    747.5264      9.8555
  1058.7500    124.2883      0.0000    744.9087      9.4038
  1059.0000    117.9672      0.0000    733.9173      8.7059
  1059.2500    112.6199      0.0000    719.3892      7.8280
  1059.5000    109.1920      0.0000    706.9095      6.8809
  1059.7500    107.1997      0.0000    699.5964      5.9682
  1060.0000    105.3076      0.0000    696.6415      5.1359
  1060.2500    102.6089      0.0000    694.7966      4.3860
  1060.5000     99.2053      0.0000    691.2567      3.7289
  1060.7500     95.7165      0.0000    685.3889      3.1985
  1061.0000     92.6870      0.0000    678.3368      2.8180
  1061.2500     90.3422      0.0000    671.4007      2.5714
  1061.5000     88.3074      0.0000    664.9440      2.4157
  1061.7500     85.5954      0.0000    658.7305      2.3118
  1062.0000     81.5473      0.0000    653.0292      2.2422
  1062.2500     76.9558      0.0000    649.0168      2.2117
  1062.5000     73.6953      0.0000    647.8899      2.2422
  1062.7500     72.9355      0.0000    649.8181      2.3563
  1063.0000     74.0312      0.0000    654.1035      2.5563
  1063.2500     75.3295      0.0000    659.9733      2.8205
  1063.5000     75.7885      0.0000    666.2725      3.1176
  1063.7500     75.7059      0.0000    670.5983      3.4142
  1064.0000     76.2233      0.0000    670.2541      3.6682
  1064.2500     78.3242      0.0000    664.7023      3.8330
  1064.5000     82.1065      0.0000    656.1349      3.8878
  1064.7500     86.8020      0.0000    647.1519      3.8694
  1065.0000     91.4770      0.0000    637.8253      3.8627
  1065.2500     95.5985      0.0000    624.2925      3.9504
  1065.5000     98.9023      0.0000    600.3654      4.1689
  1065.7500    101.0582      0.0000    562.7989      4.4988
  1066.0000    101.8704      0.0000    516.3270      4.8811
  1066.2500    101.6619      0.0000    472.3007      5.2472
  1066.5000    101.1419      0.0000    442.0681      5.5513
  1066.7500    100.9340      0.0000    432.5448      5.7866
  1067.0000    101.4906      0.0000    445.9592      5.9739
  1067.2500    103.3857      0.0000    479.3093      6.1369
  1067.5000    107.1700      0.0000    522.9233      6.2886
  1067.7500    112.6247      0.0000    563.0023      6.4351
  1068.0000    118.6080      0.0000    589.2078      6.5890
  1068.2500    124.1284      0.0000    600.8957      6.7658
  1068.5000    129.2081      0.0000    605.6625      6.9532
  1068.7500    134.2313      0.0000    611.5367      7.0855
  1069.0000    138.8204      0.0000    620.4772      7.0755
  1069.2500    141.7127      0.0000    628.9098      6.8948
  1069.5000    141.3840      0.0000    632.7874      6.6144
  1069.7500    136.7785      0.0000    630.9291      6.3562
  1070.0000    128.2843      0.0000    625.1302      6.2061
  1070.2500    118.3949      0.0000    619.4073      6.1709
  1070.5000    110.7328      0.0000    618.5709      6.1924
  1070.7500    107.6634      0.0000    625.0362      6.1920
  1071.0000    108.6211      0.0000    636.1677      6.1186
  1071.2500    110.6068      0.0000    645.4374      5.9790
  1071.5000    110.2949      0.0000    645.7102      5.8379
  1071.7500    106.0919      0.0000    630.9417      5.7952
  1072.0000     98.8481      0.0000    597.2947      5.9519
  1072.2500     91.1603      0.0000    546.5262      6.3579
  1072.5000     86.0671      0.0000    488.7194      6.9526
  1072.7500     85.7127      0.0000    438.7995      7.5557
  1073.0000     90.1958      0.0000    408.7119      7.9491
  1073.2500     97.2194      0.0000    403.2811      7.9981
  1073.5000    103.3628      0.0000    421.8416      7.7095
  1073.7500    106.4726      0.0000    459.9591      7.1964
  1074.0000    107.1664      0.0000    508.2230      6.6042
  1074.2500    108.0422      0.0000    552.5453      6.0565
  1074.5000    111.2566      0.0000    580.0366      5.6340
  1074.7500    116.7591      0.0000    586.3549      5.3695
  1075.0000    122.9226      0.0000    576.9670      5.2536
  1075.2500    128.5865      0.0000    561.4193      5.2490
