~Version Information
VERS.                      2.0: CWLS Log ASCII Standard - VERSION 2.0
WRAP.                       NO: One line per depth step
~Well Information Block
STRT.FT               964.0000: 
STOP.FT              2440.0000: 
STEP.FT                 0.2500: 
NULL.                -999.2500: 
COMP.          Petrogulf Corporation: COMPANY
WELL.              Hand 8-44 V: WELL
FLD.           Purgatorie River: FIELD
LOC.           1076' FEL & 820' FSL: LOCATION
CNTY.               Las Animas: COUNTY
SRVC.                         : SERVICE COMPANY
DATE.          Fri Nov 21 11:54:17 2003: LOG DATE
UWI.                          : UNIQUE WELL ID
STAT.                 Colorado: STATE
~Curve Information Block
DEPT.FT            0 000 00 00: Depth
SP.mV                         : IEL Spontaneous Potential
DIR.Ohm-m                     : IEL Induction Resistivity
GR.GAPI                       : Gamma Ray
~Parameter Information Block
~A  Depth        SP         DIR          GR     
# ...
  1799.0000     -4.0746     30.1741     68.5048
  1799.2500     -4.0857     30.7829     70.2887
  1799.5000     -4.0977     30.8541     72.9003
  1799.7500     -4.1082     30.3332     74.5571
  1800.0000     -4.1159     29.2816     76.2136
  1800.2500     -4.1210     27.8600     76.3070
  1800.5000     -4.1248     26.2647     74.7683
  1800.7500     -4.1297     24.6651     72.9595
  1801.0000     -4.1372     23.1732     70.0441
  1801.2500     -4.1478     21.8446     68.6484
  1801.5000     -4.1610     20.6950     68.7225
  1801.7500     -4.1749     19.7192     70.9473
  1802.0000     -4.1879     18.9062     78.0608
  1802.2500     -4.1982     18.2458     84.8741
  1802.5000     -4.2050     17.7276     96.1537
  1802.7500     -4.2079     17.3375    102.9527
  1803.0000     -4.2071     17.0570    110.6247
  1803.2500     -4.2028     16.8655    113.9650
  1803.5000     -4.1950     16.7449    116.4147
  1803.7500     -4.1842     16.6834    116.2859
  1804.0000     -4.1709     16.6771    113.9960
  1804.2500     -4.1554     16.7313    111.8169
  1804.5000     -4.1378     16.8615    108.0646
  1804.7500     -4.1186     17.0930    104.6385
  1805.0000     -4.0990     17.4574     96.9536
  1805.2500     -4.0808     17.9854     90.2716
  1805.5000     -4.0657     18.6985     79.3850
  1805.7500     -4.0538     19.6013     72.4366
  1806.0000     -4.0440     20.6754     63.2597
  1806.2500     -4.0347     21.8747     58.0840
  1806.5000     -4.0247     23.1264     51.8262
  1806.7500     -4.0138     24.3397     48.7925
  1807.0000     -4.0027     25.4252     46.1546
  1807.2500     -3.9924     26.3163     45.5906
  1807.5000     -3.9835     26.9833     45.9083
  1807.7500     -3.9760     27.4327     46.3945
  1808.0000     -3.9693     27.6943     46.9112
  1808.2500     -3.9632     27.8076     47.0106
  1808.5000     -3.9577     27.8081     46.9569
  1808.7500     -3.9535     27.7132     46.9666
  1809.0000     -3.9518     27.5117     47.3104
  1809.2500     -3.9541     27.1671     47.8081
  1809.5000     -3.9614     26.6375     48.8629
  1809.7500     -3.9736     25.8981     49.6745
  1810.0000     -3.9896     24.9497     50.9621
  1810.2500     -4.0076     23.8124     51.9352
  1810.5000     -4.0266     22.5208     53.9264
  1810.7500     -4.0465     21.1245     55.8536
  1811.0000     -4.0674     19.6866     59.7671
  1811.2500     -4.0897     18.2732     62.7649
  1811.5000     -4.1131     16.9385     66.7309
  1811.7500     -4.1371     15.7149     68.3925
  1812.0000     -4.1608     14.6114     69.4044
  1812.2500     -4.1831     13.6197     69.8984
  1812.5000     -4.2026     12.7226     72.3307
  1812.7500     -4.2185     11.9019     75.9855
  1813.0000     -4.2310     11.1437     85.0944
  1813.2500     -4.2425     10.4410     93.1750
  1813.5000     -4.2563      9.7930    106.1860
  1813.7500     -4.2766      9.2024    113.8171
  1814.0000     -4.3064      8.6725    121.9030
  1814.2500     -4.3467      8.2060    125.1453
  1814.5000     -4.3966      7.8041    128.2574
  1814.7500     -4.4532      7.4656    130.0352
  1815.0000     -4.5139      7.1857    132.9037
  1815.2500     -4.5775      6.9562    134.7671
  1815.5000     -4.6433      6.7668    136.5343
  1815.7500     -4.7089      6.6083    136.5133
  1816.0000     -4.7676      6.4748    134.7954
  1816.2500     -4.8091      6.3657    133.2510
  1816.5000     -4.8248      6.2831    131.7737
  1816.7500     -4.8121      6.2290    131.7350
  1817.0000     -4.7757      6.2026    132.7353
  1817.2500     -4.7234      6.2008    133.5277
  1817.5000     -4.6623      6.2202    134.0185
  1817.7500     -4.5973      6.2577    133.9227
  1818.0000     -4.5316      6.3100    134.4022
  1818.2500     -4.4690      6.3713    135.8790
  1818.5000     -4.4130      6.4347    139.4943
  1818.7500     -4.3664      6.4942    141.7117
  1819.0000     -4.3308      6.5491    142.8396
  1819.2500     -4.3062      6.6038    141.8179
  1819.5000     -4.2917      6.6645    138.6738
  1819.7500     -4.2852      6.7345    136.6820
  1820.0000     -4.2841      6.8125    135.9385
  1820.2500     -4.2864      6.8948    137.6273
  1820.5000     -4.2907      6.9793    142.8368
  1820.7500     -4.2961      7.0655    146.7173
  1821.0000     -4.3018      7.1525    150.4062
  1821.2500     -4.3064      7.2373    150.6118
  1821.5000     -4.3087      7.3174    148.3707
  1821.7500     -4.3069      7.3947    146.5571
  1822.0000     -4.3002      7.4783    145.2691
  1822.2500     -4.2884      7.5817    145.4010
  1822.5000     -4.2725      7.7177    145.8604
  1822.7500     -4.2547      7.8938    145.9126
  1823.0000     -4.2372      8.1108    146.2555
  1823.2500     -4.2224      8.3659    147.2407
  1823.5000     -4.2118      8.6558    149.6190
  1823.7500     -4.2052      8.9791    150.8995
  1824.0000     -4.2013      9.3357    150.9697
  1824.2500     -4.1981      9.7226    149.7739
  1824.5000     -4.1940     10.1299    147.2820
  1824.7500     -4.1885     10.5385    145.8750
  1825.0000     -4.1823     10.9228    144.6393
  1825.2500     -4.1766     11.2582    144.2818
  1825.5000     -4.1727     11.5295    143.9128
  1825.7500     -4.1716     11.7341    143.4479
  1826.0000     -4.1735     11.8757    142.1548
  1826.2500     -4.1786     11.9590    141.1297
  1826.5000     -4.1866     11.9908    140.3381
  1826.7500     -4.1968     11.9855    140.7696
  1827.0000     -4.2081     11.9659    142.4862
  1827.2500     -4.2192     11.9538    143.5105
  1827.5000     -4.2287     11.9602    143.5950
  1827.7500     -4.2362     11.9815    142.5739
  1828.0000     -4.2414     12.0047    140.0929
  1828.2500     -4.2444     12.0144    138.1514
  1828.5000     -4.2450     12.0006    134.7758
  1828.7500     -4.2439     11.9617    132.0687
  1829.0000     -4.2428     11.9055    127.6441
  1829.2500     -4.2439     11.8462    125.0147
  1829.5000     -4.2486     11.8000    122.2327
  1829.7500     -4.2566     11.7791    120.9304
  1830.0000     -4.2665     11.7889    118.8146
  1830.2500     -4.2765     11.8275    117.0421
  1830.5000     -4.2856     11.8860    114.3777
  1830.7500     -4.2934     11.9492    112.9624
  1831.0000     -4.2997     11.9966    111.1435
  1831.2500     -4.3049     12.0044    109.6463
  1831.5000     -4.3092     11.9505    106.5359
  1831.7500     -4.3130     11.8221    104.0650
  1832.0000     -4.3160     11.6211    100.3503
  1832.2500     -4.3182     11.3648     98.1656
  1832.5000     -4.3200     11.0780     95.8601
  1832.7500     -4.3230     10.7841     95.3127
  1833.0000     -4.3287     10.4980     96.2362
  1833.2500     -4.3379     10.2262     97.8772
  1833.5000     -4.3502      9.9694    101.7442
  1833.7500     -4.3641      9.7254    105.6061
  1834.0000     -4.3775      9.4907    114.0605
  1834.2500     -4.3877      9.2630    121.1366
  1834.5000     -4.3927      9.0429    131.6041
  1834.7500     -4.3921      8.8359    136.9774
  1835.0000     -4.3872      8.6510    141.4116
  1835.2500     -4.3805      8.4972    142.0489
  1835.5000     -4.3744      8.3812    140.3981
  1835.7500     -4.3694      8.3062    138.5118
  1836.0000     -4.3643      8.2729    137.0472
  1836.2500     -4.3569      8.2798    138.4312
  1836.5000     -4.3461      8.3223    144.7843
  1836.7500     -4.3323      8.3924    150.9765
  1837.0000     -4.3176      8.4809    160.4990
  1837.2500     -4.3047      8.5802    165.5684
  1837.5000     -4.2953      8.6873    169.8852
  1837.7500     -4.2895      8.8022    170.5676
  1838.0000     -4.2856      8.9240    169.5425
  1838.2500     -4.2808      9.0477    168.4883
  1838.5000     -4.2730      9.1637    167.1900
  1838.7500     -4.2625      9.2602    166.2097
  1839.0000     -4.2515      9.3270    163.6503
  1839.2500     -4.2428      9.3589    161.1846
  1839.5000     -4.2374      9.3574    157.2893
  1839.7500     -4.2345      9.3279    155.0905
  1840.0000     -4.2323      9.2768    152.3065
  1840.2500     -4.2294      9.2092    150.2633
  1840.5000     -4.2256      9.1297    146.2338
