~Version Information
 VERS.                                  2.0 : CWLS LAS VERSION
 WRAP.                                   NO : WRAPING MODE
 SWARE .                 MController 2.5.0E : SOFTWARE VERSION
~Well Information
 WELL.                         STATE 16-24V : WELL
 COMP.                      Petrogulf Corp. : COMPANY
 FLD.                      Purgatorie River : FIELD
 LOC.                NW/SE Sec 16 T33S R67W : LOCATION
 DATE.                      5/02/04-5/03/04 : DATE(S) LOGGED
 SRVC.       Blanco Geological Services LLC : SERVICE COMPANY
 STAT.                                   CO : STATE
 CNTY.                           Las Animas : COUNTY
 CTRY.                                  USA : COUNTRY
 API.                       05-071-08014-00 : API NUMBER
 STRT.FT                              40.00 : START DEPTH
 STOP.FT                            2380.00 : STOP DEPTH
 STEP.FT                               1.00 : DEPTH INCREMENT
 NULL.                                -9999 : NULL VALUE
~Curve information
 DEPTH.FT                                   :
 ROP.MIN/FT                                 :
 GAS.UNITS                                  :
~ASCII Log data
# ...
     1240.00        0.117         25.2 
     1241.00        0.100         23.9 
     1242.00        0.233         23.8 
     1243.00        0.300         22.5 
     1244.00        0.267         21.9 
     1245.00        0.267         22.0 
     1246.00        0.267         20.8 
     1247.00        0.233         20.6 
     1248.00        0.200         21.2 
     1249.00        0.200         20.1 
     1250.00        0.267         20.9 
     1251.00        0.200         21.1 
     1252.00        0.233         19.8 
     1253.00        0.233         19.5 
     1254.00        0.167         20.2 
     1255.00        0.150         20.2 
     1256.00        2.267         42.3 
     1257.00        0.133         42.3 
     1258.00        0.300         42.2 
     1259.00        0.200         42.4 
     1260.00        0.133         42.0 
     1261.00        0.133         42.0 
     1262.00        0.217         40.8 
     1263.00        0.233         39.1 
     1264.00        0.300         36.6 
     1265.00        0.433         32.0 
     1266.00        0.267         28.1 
     1267.00        0.200         25.2 
     1268.00        0.267         25.6 
     1269.00        0.367         23.2 
     1270.00        0.200         21.4 
     1271.00        0.200         21.4 
     1272.00        0.233         20.9 
     1273.00        0.233         20.7 
     1274.00        0.233         21.2 
     1275.00        0.250         21.2 
     1276.00        0.267         20.4 
     1277.00        0.200         21.1 
     1278.00        0.233         19.9 
     1279.00        0.267         21.1 
     1280.00        0.233         20.6 
     1281.00        0.267         20.1 
     1282.00        0.267         20.9 
     1283.00        0.300         20.3 
     1284.00        0.267         20.3 
     1285.00        0.233         19.4 
     1286.00        2.583         42.1 
     1287.00        0.567         37.6 
     1288.00        0.333         35.8 
     1289.00        0.233         33.1 
     1290.00        0.267         30.2 
     1291.00        0.250         28.8 
     1292.00        0.200         26.1 
     1293.00        0.200         25.9 
     1294.00        0.167         23.5 
     1295.00        0.200         23.8 
     1296.00        0.200         23.3 
     1297.00        0.200         21.6 
     1298.00        0.200         21.5 
     1299.00        0.167         21.4 
     1300.00        0.133         21.4 
     1301.00        0.133         23.1 
     1302.00        0.133         23.1 
     1303.00        0.167         23.0 
     1304.00        0.167         23.6 
     1305.00        0.200         23.5 
     1306.00        0.267         24.1 
     1307.00        0.267         22.9 
     1308.00        0.283         22.7 
     1309.00        0.167         22.7 
     1310.00        0.167         20.9 
     1311.00        0.133         20.9 
     1312.00        0.167         20.8 
     1313.00        0.167         20.7 
     1314.00        0.200         20.7 
     1315.00        0.167         20.2 
     1316.00        2.083         42.9 
     1317.00        0.333         42.8 
     1318.00        0.467         42.2 
     1319.00        0.467         36.6 
     1320.00        0.400         32.9 
     1321.00        0.167         28.2 
     1322.00        0.133         27.6 
     1323.00        0.167         26.0 
     1324.00        0.167         26.7 
     1325.00        0.133         25.3 
     1326.00        0.200         24.1 
     1327.00        0.167         24.8 
     1328.00        0.167         22.7 
     1329.00        0.167         22.3 
     1330.00        0.133         23.0 
     1331.00        0.217         23.0 
     1332.00        0.200         22.5 
     1333.00        0.200         21.3 
     1334.00        0.400         21.4 
     1335.00        0.167         20.5 
     1336.00        0.300         20.8 
     1337.00        0.300         21.5 
     1338.00        0.267         20.2 
     1339.00        0.167         20.1 
     1340.00        0.167         20.4 
     1341.00        0.133         20.4 
     1342.00        0.167         20.3 
     1343.00        0.133         20.3 
     1344.00        0.167         21.3 
     1345.00        2.617         42.0 
     1346.00        0.200         40.4 
     1347.00        0.433         41.0 
     1348.00        0.300         37.1 
     1349.00        0.350         33.3 
     1350.00        0.233         29.5 
     1351.00        0.300         29.6 
     1352.00        0.267         26.2 
     1353.00        0.200         24.8 
     1354.00        0.167         24.8 
     1355.00        0.167         23.4 
     1356.00        0.200         23.2 
     1357.00        0.200         22.5 
     1358.00        0.200         22.6 
     1359.00        0.200         22.7 
     1360.00        0.200         22.9 
     1361.00        0.200         23.2 
     1362.00        0.200         22.6 
     1363.00        0.167         22.8 
     1364.00        0.133         24.8 
     1365.00        0.183         25.5 
     1366.00        0.167         25.9 
     1367.00        0.167         25.8 
     1368.00        0.133         25.8 
     1369.00        0.167         24.8 
     1370.00        0.167         24.8 
     1371.00        0.167         24.2 
     1372.00        0.167         23.5 
     1373.00        0.167         23.5 
     1374.00        0.200         23.3 
     1375.00        0.167         21.3 
     1376.00        2.450         42.8 
     1377.00        0.433         38.4 
     1378.00        0.367         35.3 
     1379.00        0.233         33.6 
     1380.00        0.200         32.4 
     1381.00        0.200         30.2 
     1382.00        0.200         27.9 
     1383.00        0.167         27.0 
     1384.00        0.167         27.2 
     1385.00        0.233         26.2 
     1386.00        0.267         25.7 
     1387.00        0.250         23.6 
     1388.00        0.133         23.0 
     1389.00        0.233         23.7 
     1390.00        0.233         22.1 
     1391.00        0.300         21.8 
     1392.00        0.233         21.1 
     1393.00        0.167         21.3 
     1394.00        0.167         21.6 
     1395.00        0.133         23.4 
     1396.00        0.133         23.4 
     1397.00        0.167         24.0 
     1398.00        0.167         23.7 
     1399.00        0.200         23.7 
     1400.00        0.200         23.0 
     1401.00        0.267         22.1 
     1402.00        0.267         22.7 
     1403.00        0.167         22.2 
     1404.00        0.217         21.0 
     1405.00        0.233         20.5 
     1406.00        2.167         47.1 
     1407.00        0.233         44.8 
     1408.00        0.400         43.4 
     1409.00        0.317         42.4 
     1410.00        0.367         37.8 
     1411.00        0.267         32.0 
     1412.00        0.233         28.8 
     1413.00        0.233         27.6 
     1414.00        0.200         26.5 
     1415.00        0.200         25.1 
     1416.00        0.233         25.2 
     1417.00        0.233         25.4 
     1418.00        0.267         23.9 
     1419.00        0.300         24.9 
     1420.00        0.333         23.1 
     1421.00        0.417         22.5 
     1422.00        0.333         21.7 
     1423.00        0.300         21.4 
     1424.00        0.233         21.3 
     1425.00        0.300         21.1 
     1426.00        0.300         21.3 
     1427.00        0.300         20.6 
     1428.00        0.300         21.9 
     1429.00        0.200         22.1 
     1430.00        0.200         22.1 
     1431.00        0.267         21.3 
     1432.00        0.233         21.7 
     1433.00        0.133         21.9 
     1434.00        0.350         20.6 
     1435.00        0.200         20.0 
     1436.00        2.867         50.6 
     1437.00        0.283         45.0 
     1438.00        0.433         42.1 
     1439.00        0.267         32.8 
