~Version Information
VERS.                      2.0: CWLS Log ASCII Standard - VERSION 2.0
WRAP.                       NO: One line per depth step
~Well Information Block
STRT.FT                15.0000: 
STOP.FT              1891.7500: 
STEP.FT                 0.2500: 
NULL.                -999.2500: 
COMP.          Pioneer Natural Resources: COMPANY
WELL.          Oink Oink 14-36 Tr: WELL
FLD.           Purgatoire River: FIELD
LOC.           236' FSL & 164' FWL: LOCATION
PROV.                 Colorado: PROVINCE
CNTY.               Las Animas: COUNTRY
SRVC.                Patterson: SERVICE COMPANY
DATE.          Wed Jun 22 11:40:13 2005: LOG DATE
UWI.           05 071 08393 00: UNIQUE WELL ID
~Curve Information Block
DEPT.FT            0 000 00 00: Depth
GR.GAPI                       : Gamma Ray
CCL.                          : Casing Collar Locator
TT3.usec                      : CBL 3' Travel Time
AMP3.mV                       : CBL 3' Amplitude
~Parameter Information Block
~A  Depth        GR         CCL         TT3         AMP3    
# ...
  1723.5000    121.9728      0.0000    734.5016      4.3031
  1723.7500    121.6413      0.0000    717.8886      4.1766
  1724.0000    119.3608      0.0000    702.2629      4.1326
  1724.2500    115.1737      0.0000    692.2125      4.1543
  1724.5000    109.8598      0.0000    689.4130      4.2075
  1724.7500    104.7968      0.0000    692.4756      4.2657
  1725.0000    101.4381      0.0000    698.8651      4.3236
  1725.2500    100.8370      0.0000    706.4177      4.3905
  1725.5000    103.2801      0.0000    713.6976      4.4768
  1725.7500    108.0513      0.0000    719.9431      4.5878
  1726.0000    113.7381      0.0000    724.8398      4.7249
  1726.2500    119.0490      0.0000    728.1104      4.8827
  1726.5000    123.2231      0.0000    729.7001      5.0438
  1726.7500    125.6986      0.0000    730.5423      5.1780
  1727.0000    126.0511      0.0000    732.2675      5.2547
  1727.2500    124.5595      0.0000    735.3147      5.2613
  1727.5000    122.2076      0.0000    737.2933      5.2119
  1727.7500    119.7867      0.0000    733.2400      5.1401
  1728.0000    117.4075      0.0000    717.8348      5.0794
  1728.2500    115.0252      0.0000    689.1595      5.0480
  1728.5000    113.1608      0.0000    652.0411      5.0449
  1728.7500    113.0070      0.0000    616.6813      5.0567
  1729.0000    115.7397      0.0000    591.2110      5.0694
  1729.2500    121.3631      0.0000    574.8347      5.0765
  1729.5000    128.0164      0.0000    560.2692      5.0827
  1729.7500    132.6063      0.0000    543.7362      5.1014
  1730.0000    132.6953      0.0000    530.3385      5.1515
  1730.2500    128.2302      0.0000    528.0751      5.2492
  1730.5000    121.4350      0.0000    538.0660      5.3954
  1730.7500    115.0156      0.0000    552.3987      5.5664
  1731.0000    110.6155      0.0000    561.5389      5.7205
  1731.2500    108.6841      0.0000    563.2083      5.8189
  1731.5000    109.0135      0.0000    563.7985      5.8467
  1731.7500    110.8768      0.0000    571.6025      5.8187
  1732.0000    112.9230      0.0000    588.8486      5.7686
  1732.2500    113.5848      0.0000    609.6211      5.7286
  1732.5000    112.0501      0.0000    625.1961      5.7121
  1732.7500    108.9455      0.0000    631.7803      5.7129
  1733.0000    105.9350      0.0000    633.1316      5.7209
  1733.2500    104.3937      0.0000    635.5978      5.7344
  1733.5000    104.2677      0.0000    641.5477      5.7548
  1733.7500    104.1924      0.0000    648.2534      5.7752
  1734.0000    102.8511      0.0000    651.8485      5.7801
  1734.2500    100.3839      0.0000    651.0850      5.7592
  1734.5000     98.6267      0.0000    648.3255      5.7177
  1734.7500     99.9212      0.0000    648.1960      5.6705
  1735.0000    105.4766      0.0000    654.0448      5.6290
  1735.2500    114.7986      0.0000    664.0544      5.5952
  1735.5000    126.4454      0.0000    671.4481      5.5659
  1735.7500    138.7577      0.0000    670.4714      5.5402
  1736.0000    149.8111      0.0000    662.6545      5.5220
  1736.2500    157.4747      0.0000    656.1007      5.5220
  1736.5000    160.3191      0.0000    658.0407      5.5614
  1736.7500    158.6907      0.0000    668.3833      5.6662
  1737.0000    154.7410      0.0000    680.1869      5.8418
  1737.2500    151.0517      0.0000    685.5608      6.0562
  1737.5000    148.9694      0.0000    681.4117      6.2667
  1737.7500    148.2426      0.0000    670.7873      6.4544
  1738.0000    148.2514      0.0000    659.6511      6.6142
  1738.2500    149.2787      0.0000    652.4925      6.7237
  1738.5000    152.1581     -3.0000    650.3188      6.7476
  1738.7500    156.6260     -3.0000    651.8723      6.6722
  1739.0000    160.5022      0.0000    655.9292      6.5393
  1739.2500    160.8418      0.0000    662.1114      6.4477
  1739.5000    155.8079      0.0000    669.9985      6.4940
  1739.7500    145.4717      0.0000    678.1741      6.6842
  1740.0000    131.4317      0.0000    684.3828      6.9227
  1740.2500    116.2659      0.0000    686.9481      7.1135
  1740.5000    102.8864      0.0000    686.1592      7.2463
  1740.7500     93.3714      0.0000    683.9150      7.3622
  1741.0000     88.1233      0.0000    681.9913      7.4700
  1741.2500     86.3099      0.0000    680.8906      7.5331
  1741.5000     86.7401      0.0000    680.0797      7.5259
  1741.7500     88.0930      0.0000    678.6545      7.4752
  1742.0000     89.1032      0.0000    675.6185      7.4412
  1742.2500     89.2977      0.0000    670.1133      7.4691
  1742.5000     89.2888      0.0000    662.0879      7.5588
  1742.7500     89.9424      0.0000    653.0295      7.6745
  1743.0000     91.4925      0.0000    645.6407      7.7733
  1743.2500     93.5479      0.0000    642.0382      7.8225
  1743.5000     95.6082      0.0000    641.5627      7.8036
  1743.7500     97.4969      0.0000    640.2657      7.7163
  1744.0000     99.5758      0.0000    633.5378      7.5810
  1744.2500    102.5752      0.0000    620.5002      7.4300
  1744.5000    107.0118      0.0000    605.4504      7.2932
  1744.7500    112.6886      0.0000    593.3922      7.1877
  1745.0000    118.7231      0.0000    584.2462      7.1140
  1745.2500    123.9506      0.0000    573.1548      7.0568
  1745.5000    127.4555      0.0000    556.3615      6.9958
  1745.7500    129.1773      0.0000    535.4166      6.9224
  1746.0000    130.1125      0.0000    516.4642      6.8457
  1746.2500    131.5592      0.0000    507.1268      6.7802
  1746.5000    134.0679      0.0000    512.8953      6.7335
  1746.7500    137.3169      0.0000    533.9819      6.7071
  1747.0000    140.7190      0.0000    564.7762      6.6989
  1747.2500    143.6661      0.0000    596.6772      6.7016
  1747.5000    145.3095      0.0000    621.6879      6.7048
  1747.7500    144.6125      0.0000    633.9573      6.6993
  1748.0000    140.9236      0.0000    629.7316      6.6778
  1748.2500    134.6307      0.0000    608.6555      6.6320
  1748.5000    127.2762      0.0000    577.0438      6.5563
  1748.7500    120.7897      0.0000    548.2784      6.4536
  1749.0000    116.2477      0.0000    536.2268      6.3341
  1749.2500    113.3036      0.0000    546.0513      6.2085
  1749.5000    110.9618      0.0000    571.2091      6.0856
  1749.7500    108.7594      0.0000    599.4415      5.9797
  1750.0000    106.9781      0.0000    621.8146      5.9121
  1750.2500    105.9470      0.0000    637.0780      5.8959
  1750.5000    105.5437      0.0000    649.2358      5.9204
  1750.7500    105.3909      0.0000    662.2398      5.9549
  1751.0000    105.2350      0.0000    676.1587      5.9726
  1751.2500    104.9785      0.0000    686.6300      5.9695
  1751.5000    104.5589      0.0000    686.7895      5.9633
  1751.7500    103.9394      0.0000    670.3283      5.9748
  1752.0000    103.0698      0.0000    635.3630      6.0101
  1752.2500    101.9591      0.0000    588.7320      6.0599
  1752.5000    101.1976      0.0000    546.8327      6.1118
  1752.7500    102.2512      0.0000    527.9153      6.1618
  1753.0000    106.4854      0.0000    539.0893      6.2133
  1753.2500    113.5612      0.0000    570.5006      6.2719
  1753.5000    121.2975      0.0000    603.7241      6.3396
  1753.7500    127.5260      0.0000    625.5974      6.4149
  1754.0000    131.8379      0.0000    633.9557      6.4931
  1754.2500    135.3625      0.0000    633.4861      6.5652
  1754.5000    139.2385      0.0000    630.0718      6.6160
  1754.7500    143.5066      0.0000    628.7523      6.6306
  1755.0000    147.1087      0.0000    632.9228      6.6066
  1755.2500    148.6947      0.0000    642.0687      6.5619
  1755.5000    147.6108      0.0000    649.7781      6.5261
  1755.7500    144.3595      0.0000    645.7907      6.5221
  1756.0000    140.2585      0.0000    622.4304      6.5528
  1756.2500    136.7969      0.0000    580.9152      6.6050
  1756.5000    135.0018      0.0000    531.7520      6.6654
  1756.7500    134.7280      0.0000    488.1419      6.7297
