~Version Information
VERS.                      2.0: CWLS Log ASCII Standard - VERSION 2.0
WRAP.                       NO: One line per depth step
~Well Information Block
STRT.FT               420.0000: 
STOP.FT              1527.5000: 
STEP.FT                 0.1000: 
NULL.                -999.2500: 
COMP.          Evergreen Operating Corporation: COMPANY
WELL.              Chase 21-10: WELL
FLD.           Purgatoire River: FIELD
LOC.           1122' FNL & 1544' FWL: LOCATION
PROV.                       CO: PROVINCE
CNTY.               Las Animas: COUNTRY
SRVC.                         : SERVICE COMPANY
DATE.          Tue May 25 08:18:37 2004: LOG DATE
UWI.           05 071 08006 00: UNIQUE WELL ID
~Curve Information Block
DEPT.FT            0 000 00 00: Depth
DCAL.in                       : CDL Caliper
RHOB.g/cc                     : CDL Bulk Density
RHOC.g/cc                     : CDL Density Correction
DPOR.pu                       : CDL Density Porosity
GR.GAPI                       : Gamma Ray
NPOR.pu                       : Neutron Porosity
~Parameter Information Block
~A  Depth       DCAL        RHOB        RHOC        DPOR         GR         NPOR    
# ...
  1370.4000      7.9701      2.5461      0.0506      6.2966     72.0083     43.2300
  1370.5000      7.9570      2.5286      0.0873      7.3560     68.4779     42.8647
  1370.6000      7.9570      2.4973      0.0111      9.2549     67.4856     42.7408
  1370.7000      7.9570      2.4789      0.0087     10.3674     66.7911     42.7484
  1370.8000      7.9624      2.4865      0.0306      9.9088     61.3073     42.7703
  1370.9000      7.9624      2.4962      0.1206      9.3213     54.5039     42.7625
  1371.0000      7.9693      2.4789      0.0417     10.3709     51.9397     42.7899
  1371.1000      7.9693      2.4458     -0.0203     12.3778     52.8269     42.8681
  1371.2000      7.9693      2.4224      0.0512     13.7943     55.0574     42.8058
  1371.3000      7.9531      2.4119     -0.0016     14.4295     57.8532     42.5458
  1371.4000      7.9531      2.4100      0.0511     14.5436     59.4886     42.4038
  1371.5000      7.8970      2.4126      0.0387     14.3873     59.3366     42.6620
  1371.6000      7.8970      2.4159      0.0468     14.1894     60.0676     43.0969
  1371.7000      7.8970      2.4146      0.0155     14.2679     64.5717     43.3288
  1371.8000      7.9163      2.4127      0.0236     14.3790     69.2283     43.5099
  1371.9000      7.9163      2.4303      0.0224     13.3159     66.4682     43.7863
  1372.0000      7.9123      2.4662      0.0602     11.1397     60.1026     43.8711
  1372.1000      7.9123      2.4972      0.1020      9.2579     61.0575     43.7610
  1372.2000      7.9123      2.5092      0.0986      8.5344     69.4772     43.5913
  1372.3000      7.8913      2.4873      0.0856      9.8623     74.6369     43.3777
  1372.4000      7.8913      2.4337      0.0133     13.1098     71.6890     43.2398
  1372.5000      7.9257      2.3848     -0.0812     16.0726     65.4822     43.2560
  1372.6000      7.9257      2.3724     -0.0286     16.8222     58.5945     43.2271
  1372.7000      7.9257      2.4002     -0.0559     15.1389     53.0297     43.0445
  1372.8000      7.9281      2.4452      0.0755     12.4092     54.5061     43.0716
  1372.9000      7.9281      2.4681      0.1277     11.0249     60.9624     43.5246
  1373.0000      7.8585      2.4632      0.0286     11.3240     65.8158     44.0310
  1373.1000      7.8585      2.4634      0.0487     11.3096     68.5022     44.0821
  1373.2000      7.8585      2.4836      0.0664     10.0871     69.0697     43.7677
  1373.3000      7.7859      2.4982      0.1529      9.1985     68.7907     43.5247
  1373.4000      7.7859      2.4798      0.0948     10.3178     71.0895     43.3039
  1373.5000      7.9418      2.4480      0.0166     12.2454     72.3851     42.9776
  1373.6000      7.9418      2.4380     -0.0032     12.8475     66.9767     42.7277
  1373.7000      7.9418      2.4531     -0.0073     11.9344     59.9573     42.5656
  1373.8000      7.9608      2.4740      0.0969     10.6668     56.4716     42.4100
  1373.9000      7.9608      2.4831      0.0870     10.1159     54.9977     42.3849
  1374.0000      7.9447      2.4904      0.0072      9.6751     56.0587     42.5562
  1374.1000      7.9447      2.5167      0.1078      8.0764     58.4853     42.7704
  1374.2000      7.9447      2.5466      0.0547      6.2684     59.1591     42.8265
  1374.3000      7.9228      2.5547      0.1061      5.7750     60.0520     42.7921
  1374.4000      7.9228      2.5512      0.0133      5.9877     62.9229     42.8870
  1374.5000      7.9454      2.5547      0.0757      5.7777     65.5766     43.0666
  1374.6000      7.9454      2.5525      0.1027      5.9097     70.2379     43.1828
  1374.7000      7.9454      2.5391      0.0346      6.7220     80.0619     43.2122
  1374.8000      7.9608      2.5364      0.0326      6.8827     86.8064     43.0832
  1374.9000      7.9608      2.5452      0.1141      6.3505     82.7335     42.8208
  1375.0000      7.9507      2.5502      0.1120      6.0482     75.0400     42.5700
  1375.1000      7.9507      2.5525      0.0276      5.9089     72.1766     42.5740
  1375.2000      7.9507      2.5483      0.0878      6.1631     73.7120     42.9749
  1375.3000      7.9399      2.5251      0.0472      7.5681     72.6122     43.3778
  1375.4000      7.9399      2.4957      0.0231      9.3525     65.8700     43.5311
  1375.5000      7.9319      2.4872      0.0411      9.8661     60.6110     43.6150
  1375.6000      7.9319      2.4987      0.0149      9.1684     62.1034     43.6064
  1375.7000      7.9319      2.5027      0.0251      8.9244     66.0062     43.4254
  1375.8000      7.8865      2.4896      0.0312      9.7226     67.8529     43.0851
  1375.9000      7.8865      2.4831      0.0280     10.1155     69.4207     42.7461
  1376.0000      7.8835      2.5021      0.0255      8.9638     73.9765     42.6927
  1376.1000      7.8835      2.5397      0.0791      6.6824     79.2329     42.8865
  1376.2000      7.8835      2.5777      0.0872      4.3825     80.8323     42.9927
  1376.3000      7.8838      2.6032      0.0566      2.8343     77.7310     42.8349
  1376.4000      7.8838      2.6014      0.0904      2.9428     72.7412     42.4890
  1376.5000      7.9176      2.5710      0.0272      4.7888     70.3537     42.2284
  1376.6000      7.9176      2.5466      0.0072      6.2654     73.4662     42.1871
  1376.7000      7.9176      2.5580     -0.0106      5.5769     80.8878     42.2967
  1376.8000      7.9001      2.5951      0.0244      3.3273     85.1720     42.4169
  1376.9000      7.9001      2.6290      0.1204      1.2712     82.5102     42.2295
  1377.0000      7.9202      2.6400      0.1486      0.6068     81.0047     41.4452
  1377.1000      7.9202      2.6256      0.1041      1.4779     83.8243     40.2472
  1377.2000      7.9202      2.6002      0.0338      3.0152     84.8939     39.2136
  1377.3000      7.9255      2.5853      0.0595      3.9224     84.8242     38.5673
  1377.4000      7.9255      2.5859      0.0766      3.8852     87.0989     37.9847
  1377.5000      7.9300      2.6011      0.0320      2.9622     88.5244     37.4381
  1377.6000      7.9300      2.6273      0.0676      1.3759     87.2406     37.2150
  1377.7000      7.9300      2.6501      0.1067     -0.0060     85.0060     37.0827
  1377.8000      7.9151      2.6682      0.0799     -1.1021     82.3468     36.6206
  1377.9000      7.9151      2.6850      0.1016     -2.1232     81.2903     36.1796
  1378.0000      7.8193      2.6943      0.1982     -2.6833     82.3424     36.0130
  1378.1000      7.8193      2.7107      0.1442     -3.6759     82.7894     35.9005
  1378.2000      7.8193      2.7498      0.2223     -6.0483     80.2898     35.9498
  1378.3000      7.7446      2.7794      0.2597     -7.8439     76.2862     36.3760
  1378.4000      7.7446      2.7730      0.1841     -7.4538     74.7087     36.9833
  1378.5000      7.7495      2.7534      0.1558     -6.2671     76.0879     37.2329
  1378.6000      7.7495      2.7450      0.1626     -5.7584     81.0134     36.9351
  1378.7000      7.7495      2.7247      0.2748     -4.5271     88.8347     36.6392
  1378.8000      7.7513      2.6655      0.1419     -0.9371     94.1179     36.6946
  1378.9000      7.7513      2.6014      0.0128      2.9448     93.6754     36.6575
  1379.0000      7.7815      2.5726      0.0340      4.6890     89.5640     36.2114
  1379.1000      7.7815      2.5709      0.0119      4.7963     85.7790     35.8009
  1379.2000      7.7815      2.5709      0.0587      4.7924     82.8028     35.8112
  1379.3000      7.8305      2.5587      0.0143      5.5343     77.9195     36.3461
  1379.4000      7.8305      2.5419      0.0242      6.5504     76.0246     37.3186
  1379.5000      7.8571      2.5415      0.0204      6.5759     83.9972     38.2980
  1379.6000      7.8571      2.5625      0.0854      5.3002     91.7601     39.0281
  1379.7000      7.8571      2.5822      0.0913      4.1075     88.5006     39.4983
  1379.8000      7.8125      2.5910      0.0147      3.5787     80.3230     39.8022
  1379.9000      7.8125      2.6058      0.1213      2.6758     74.5851     40.0107
