~Version Information
VERS.                      2.0: CWLS Log ASCII Standard - VERSION 2.0
WRAP.                       NO: One line per depth step
~Well Information Block
STRT.FT                -5.2500: 
STOP.FT               769.5000: 
STEP.FT                 0.2500: 
NULL.                -999.2500: 
COMP.          Pioneer Natural Resources: COMPANY
WELL.          HG Duran 34-27 Tr: WELL
FLD.           Purgatorie River: FIELD
LOC.           1076' FSL & 1465' FEL: LOCATION
PROV.                 Colorado: PROVINCE
CNTY.               Las Animas: COUNTRY
SRVC.          Patterson Wireline: SERVICE COMPANY
DATE.          Mon Apr 18 09:19:17 2005: LOG DATE
UWI.           05-071-08218-00: UNIQUE WELL ID
~Curve Information Block
DEPT.FT            0 000 00 00: Depth
CCL.                          : Casing Collar Locator
TT3.usec                      : CBL 3' Travel Time
AMP3.mV                       : CBL 3' Amplitude
GR.GAPI                       : Gamma Ray
~Parameter Information Block
~A  Depth       CCL         TT3         AMP3         GR     
# ...
   229.2500      0.0000    847.9011      9.5241     69.1974
   229.5000      0.0000    852.0953      9.2279     70.3034
   229.7500      0.0000    853.7003      8.9824     71.6809
   230.0000      0.0000    856.8615      8.8424     73.6293
   230.2500      0.0000    868.7994      8.8688     75.8456
   230.5000      0.0000    897.4724      9.1021     77.4921
   230.7500      0.0000    946.9582      9.5672     77.8472
   231.0000      0.0000   1012.8939     10.2556     76.7943
   231.2500      0.0000   1081.7672     11.0276     74.8948
   231.5000      0.0000   1135.6611     11.5688     73.2336
   231.7500      0.0000   1160.9550     11.5688     72.9833
   232.0000      0.0000   1156.4335     10.9662     74.5650
   232.2500      0.0000   1133.3344      9.9551     76.9854
   232.5000      0.0000   1105.8033      8.7922     78.3289
   232.7500     -5.0000   1081.9569      7.6767     77.3187
   233.0000      0.0000   1063.9481      6.7763     74.3694
   233.2500      0.0000   1052.1014      6.2788     71.1006
   233.5000      0.0000   1045.5745      6.3958     69.2575
   233.7500      0.0000   1041.6058      7.2691     70.0891
   234.0000      0.0000   1037.4810      8.7767     73.7802
   234.2500      0.0000   1032.3403     10.4272     78.8170
   234.5000      0.0000   1025.9611     11.5914     82.4034
   234.7500      0.0000   1017.6542     11.9284     82.2601
   235.0000      0.0000   1007.5634     11.5713     78.2880
   235.2500      0.0000    997.8748     10.9247     72.5098
   235.5000      0.0000    991.6901     10.3489     67.4146
   235.7500      0.0000    990.8402     10.0016     64.3243
   236.0000      0.0000    994.5253      9.8710     63.0931
   236.2500      0.0000    999.1765      9.8787     62.8839
   236.5000      0.0000   1000.0659      9.9489     62.8707
   236.7500      0.0000    994.5853     10.0234     62.5499
   237.0000      0.0000    984.6250     10.0667     62.1265
   237.2500      0.0000    975.2586     10.0783     62.6504
   237.5000      0.0000    970.3900     10.0866     64.9915
   237.7500      0.0000    969.8980     10.1197     68.3543
   238.0000      0.0000    971.9257     10.1793     70.5125
   238.2500      0.0000    977.4107     10.2415     69.9668
   238.5000      0.0000    989.6123     10.2798     67.3434
   238.7500      0.0000   1008.6848     10.2786     64.4261
   239.0000      0.0000   1029.8502     10.2320     62.4417
   239.2500      0.0000   1047.9473     10.1442     61.4707
   239.5000      0.0000   1061.3817     10.0416     60.8503
   239.7500      0.0000   1071.0936      9.9733     59.8533
   240.0000      0.0000   1078.0073      9.9810     58.3780
   240.2500      0.0000   1082.4774     10.0612     57.2036
   240.5000      0.0000   1084.9349     10.1619     57.5367
   240.7500      0.0000   1086.0653     10.2202     60.2886
   241.0000      0.0000   1086.5043     10.2010     65.3588
   241.2500      0.0000   1086.6410     10.1062     71.1826
   241.5000      0.0000   1086.6592      9.9529     75.3515
   241.7500      0.0000   1086.6476      9.7500     76.2322
   242.0000      0.0000   1086.6279      9.4911     74.0492
   242.2500      0.0000   1086.5396      9.1702     70.5936
   242.5000      0.0000   1086.1531      8.8001     68.3349
   242.7500      0.0000   1084.8210      8.4137     69.3827
   243.0000      0.0000   1081.0377      8.0500     74.0762
   243.2500      0.0000   1072.2202      7.7393     80.1540
   243.5000      0.0000   1055.5396      7.4856     84.1323
   243.7500      0.0000   1029.8058      7.2603     84.1587
   244.0000      0.0000    996.7397      7.0245     81.3277
   244.2500      0.0000    960.2086      6.7649     78.1032
   244.5000      0.0000    924.6454      6.5064     75.9653
   244.7500      0.0000    894.2703      6.2900     74.8789
   245.0000      0.0000    872.2166      6.1452     74.4932
   245.2500      0.0000    858.8856      6.0807     75.0309
   245.5000      0.0000    851.6515      6.0982     76.7441
   245.7500      0.0000    847.0882      6.2052     78.9870
   246.0000      0.0000    843.2526      6.4017     80.3741
   246.2500      0.0000    839.6748      6.6516     79.9247
   246.5000      0.0000    836.0771      6.8821     77.9342
   246.7500      0.0000    832.0649      7.0337     75.6032
   247.0000      0.0000    827.9876      7.1278     73.7107
   247.2500      0.0000    825.3013      7.2798     71.9033
   247.5000      0.0000    825.3603      7.6199     69.6776
   247.7500      0.0000    827.7541      8.1927     67.7592
   248.0000      0.0000    830.3154      8.9385     67.7432
   248.2500      0.0000    831.0101      9.7497     70.2922
   248.5000      0.0000    829.7650     10.4950     74.2335
   248.7500      0.0000    828.5372     10.9993     77.5430
   249.0000      0.0000    829.7603     11.0849     78.7865
   249.2500      0.0000    834.2717     10.7163     77.5735
   249.5000      0.0000    840.0117     10.1171     74.2390
   249.7500      0.0000    842.8501      9.6914     69.6241
   250.0000      0.0000    839.7265      9.7637     64.9780
   250.2500      0.0000    831.3265     10.3490     61.4152
   250.5000      0.0000    821.1238     11.1531     59.2338
   250.7500      0.0000    811.9592     11.7782     58.1354
   251.0000      0.0000    804.3226     11.9442     58.1504
   251.2500      0.0000    797.5244     11.5913     59.6985
   251.5000      0.0000    791.2870     10.8668     62.5624
   251.7500      0.0000    786.2123     10.0385     65.5031
   252.0000      0.0000    783.5894      9.3700     67.1996
   252.2500      0.0000    784.6014      9.0114     67.1250
   252.5000      0.0000    789.1695      8.9632     65.4612
   252.7500      0.0000    795.7477      9.1153     62.7420
   253.0000      0.0000    802.3725      9.3263     59.7522
   253.2500      0.0000    807.5937      9.4976     57.2776
   253.5000      0.0000    810.7601      9.6022     55.5997
   253.7500      0.0000    812.1396      9.6570     54.4575
   254.0000      0.0000    812.6184      9.6729     53.8507
   254.2500      0.0000    812.6439      9.6329     54.6138
   254.5000      0.0000    811.6043      9.5117     57.7082
   254.7500      0.0000    808.5527      9.3050     62.9701
   255.0000      0.0000    803.1993      9.0390     68.9079
   255.2500      0.0000    796.0566      8.7610     73.6323
   255.5000      0.0000    788.3336      8.5157     75.7423
   255.7500      0.0000    782.0560      8.3225     74.7068
   256.0000      0.0000    779.5022      8.1699     70.9473
   256.2500      0.0000    781.6500      8.0323     65.4477
   256.5000      0.0000    787.2150      7.8940     59.0435
   256.7500      0.0000    793.5699      7.7637     52.1528
   257.0000      0.0000    798.6003      7.6776     45.0733
   257.2500      0.0000    801.6271      7.6846     38.2303
   257.5000      0.0000    802.9841      7.8111     32.1935
   257.7500      0.0000    803.2393      8.0316     27.5923
   258.0000      0.0000    802.8125      8.2811     24.9007
   258.2500      0.0000    801.8756      8.4995     24.2419
   258.5000      0.0000    800.2207      8.6636     25.5005
   258.7500      0.0000    797.1902      8.7850     28.6255
   259.0000      0.0000    792.0573      8.8891     33.7455
   259.2500      0.0000    784.8498      8.9946     40.9208
   259.5000      0.0000    776.8752      9.1021     49.6453
   259.7500      0.0000    770.2087      9.2041     58.5384
   260.0000      0.0000    766.5978      9.3116     65.7549
   260.2500      0.0000    766.8879      9.4563     70.0017
   260.5000      0.0000    771.0881      9.6553     71.2323
   260.7500      0.0000    778.3345      9.8819     70.4806
   261.0000      0.0000    786.7911     10.0844     69.2767
   261.2500      0.0000    794.2614     10.2309     69.0860
   261.5000      0.0000    799.3555     10.3299     70.7476
   261.7500      0.0000    802.0423     10.4128     73.9845
   262.0000      0.0000    803.1387     10.5047     77.3778
   262.2500      0.0000    803.4939     10.6070     79.2149
   262.5000      0.0000    803.6050     10.7050     78.9656
