~Version Information
VERS.                      2.0: CWLS Log ASCII Standard - VERSION 2.0
WRAP.                       NO: One line per depth step
~Well Information Block
STRT.FT               -12.5000: 
STOP.FT              2200.2500: 
STEP.FT                 0.2500: 
NULL.                -999.2500: 
COMP.          Pioneer Natural Resources: COMPANY
WELL.           Ogallela 44-12: WELL
FLD.           Purgatorie River: FIELD
LOC.           610' FSL & 671' FEL------: LOCATION
PROV.                       CO: PROVINCE
CNTY.               Las Animas: COUNTRY
SRVC.          Patterson Wireline: SERVICE COMPANY
DATE.          Tue Mar 22 17:18:22 2005: LOG DATE
UWI.           05 071 08283 00: UNIQUE WELL ID
~Curve Information Block
DEPT.FT            0 000 00 00: Depth
CCL.                          : Casing Collar Locator
TT3.usec                      : CBL 3' Travel Time
AMP3.mV                       : CBL 3' Amplitude
GR.GAPI                       : Gamma Ray
~Parameter Information Block
~A  Depth       CCL         TT3         AMP3         GR     
# ...
  1160.0000      0.0000    268.9503     68.7110    120.3870
  1160.2500      0.0000    268.9064     68.9061    127.6044
  1160.5000      0.0000    268.8816     68.9886    137.1554
  1160.7500      0.0000    268.8612     68.8650    145.6031
  1161.0000      0.0000    268.8527     68.5256    150.0745
  1161.2500      0.0000    268.8621     68.0729    149.3755
  1161.5000      0.0000    268.8845     67.6724    144.2627
  1161.7500      0.0000    268.9081     67.4705    137.1349
  1162.0000      0.0000    268.9229     67.5177    130.8732
  1162.2500      0.0000    268.9246     67.7377    126.9667
  1162.5000      0.0000    268.9142     67.9808    124.5512
  1162.7500      0.0000    268.8944     68.1192    121.4869
  1163.0000      0.0000    268.8687     68.0873    116.2301
  1163.2500      0.0000    268.8448     67.8446    108.6806
  1163.5000      0.0000    268.8345     67.3549     99.9929
  1163.7500      0.0000    268.8481     66.6298     92.2814
  1164.0000      0.0000    268.8864     65.7798     88.2368
  1164.2500      0.0000    268.9416     65.0002     89.9634
  1164.5000      0.0000    269.0055     64.4780     97.3993
  1164.7500      0.0000    269.0755     64.2784    107.8677
  1165.0000      0.0000    269.1505     64.3074    117.6820
  1165.2500      0.0000    269.2187     64.4061    124.5129
  1165.5000      0.0000    269.2559     64.4977    128.1089
  1165.7500      0.0000    269.2397     64.6308    128.8832
  1166.0000      0.0000    269.1700     64.8749    126.6259
  1166.2500      0.0000    269.0749     65.1936    121.1229
  1166.5000      0.0000    268.9961     65.4474    113.5377
  1166.7500      0.0000    268.9617     65.5281    106.5924
  1167.0000      0.0000    268.9723     65.4759    103.3759
  1167.2500      0.0000    269.0077     65.4358    105.7459
  1167.5000      0.0000    269.0464     65.4917    113.1440
  1167.7500      0.0000    269.0769     65.5706    122.5890
  1168.0000      0.0000    269.0965     65.5296    130.1978
  1168.2500      0.0000    269.1030     65.3232    133.3177
  1168.5000      0.0000    269.0929     65.0650    131.7263
  1168.7500      0.0000    269.0648     64.9406    127.2138
  1169.0000      0.0000    269.0246     65.0941    122.1438
  1169.2500      0.0000    268.9823     65.5774    117.9937
  1169.5000      0.0000    268.9447     66.3401    114.7210
  1169.7500      0.0000    268.9101     67.2240    111.3792
  1170.0000      0.0000    268.8745     67.9943    107.3825
  1170.2500      0.0000    268.8406     68.4392    103.2535
  1170.5000      0.0000    268.8189     68.4876    100.5387
  1170.7500      0.0000    268.8185     68.2493    101.3160
  1171.0000      0.0000    268.8383     67.9344    107.1857
  1171.2500      0.0000    268.8678     67.7083    117.6968
  1171.5000      0.0000    268.8948     67.6004    129.8499
  1171.7500      0.0000    268.9104     67.5412    139.9962
  1172.0000      0.0000    268.9098     67.4704    146.2644
  1172.2500      0.0000    268.8939     67.4059    148.9219
  1172.5000      0.0000    268.8707     67.4213    149.1294
  1172.7500      0.0000    268.8517     67.5754    148.0989
  1173.0000      0.0000    268.8435     67.8579    146.9413
  1173.2500      0.0000    268.8423     68.1824    146.3932
  1173.5000      0.0000    268.8393     68.4305    146.5426
  1173.7500      0.0000    268.8296     68.5228    147.0577
  1174.0000      0.0000    268.8171     68.4623    147.3622
  1174.2500      0.0000    268.8108     68.3175    146.1594
  1174.5000      0.0000    268.8180     68.1736    141.3698
  1174.7500      0.0000    268.8375     68.0994    131.8279
  1175.0000      0.0000    268.8591     68.1341    119.3859
  1175.2500      0.0000    268.8714     68.2823    108.3631
  1175.5000      0.0000    268.8723     68.5203    102.2460
  1175.7500      0.0000    268.8720     68.8141    101.2744
  1176.0000      0.0000    268.8818     69.1254    103.4201
  1176.2500      0.0000    268.9007     69.4026    106.7365
  1176.5000      0.0000    268.9157     69.5843    109.9805
  1176.7500      0.0000    268.9146     69.6324    111.8939
  1177.0000      0.0000    268.8964     69.5618    111.3156
  1177.2500      0.0000    268.8703     69.4289    107.8742
  1177.5000      0.0000    268.8487     69.2835    101.7197
  1177.7500      0.0000    268.8412     69.1386     92.8721
  1178.0000      0.0000    268.8500     68.9934     81.7025
  1178.2500      0.0000    268.8681     68.8724     69.9346
  1178.5000      0.0000    268.8833     68.8210     60.4736
  1178.7500      0.0000    268.8880     68.8576     56.0452
  1179.0000      0.0000    268.8852     68.9473     57.7931
  1179.2500      0.0000    268.8845     69.0298     64.7044
  1179.5000      0.0000    268.8934     69.0659     74.2049
  1179.7500      0.0000    268.9114     69.0544     83.5629
  1180.0000      0.0000    268.9311     69.0147     91.1385
  1180.2500      0.0000    268.9433     68.9545     96.5522
  1180.5000      0.0000    268.9459     68.8459     99.6825
  1180.7500      0.0000    268.9451     68.6392     99.5893
  1181.0000      0.0000    268.9477     68.3160     94.8492
  1181.2500      0.0000    268.9523     67.9393     85.1620
  1181.5000      0.0000    268.9532     67.6365     72.3570
  1181.7500      0.0000    268.9493     67.5111     59.5735
  1182.0000      0.0000    268.9448     67.5645     49.5352
  1182.2500      0.0000    268.9413     67.7172     43.5902
  1182.5000      0.0000    268.9364     67.9025     41.9596
  1182.7500      0.0000    268.9287     68.1188     44.3250
  1183.0000      0.0000    268.9230     68.3865     50.0879
  1183.2500      0.0000    268.9253     68.6804     58.4795
  1183.5000      0.0000    268.9364     68.9198     68.6253
  1183.7500      0.0000    268.9500     69.0263     79.4464
  1184.0000      0.0000    268.9582     68.9945     89.6306
  1184.2500      0.0000    268.9580     68.9099     97.9858
  1184.5000      0.0000    268.9526     68.8816    103.8981
  1184.7500      0.0000    268.9450     68.9388    107.5768
  1185.0000      0.0000    268.9336     68.9929    110.1744
  1185.2500      0.0000    268.9139     68.9086    113.4456
  1185.5000      0.0000    268.8866     68.6184    118.6124
  1185.7500      0.0000    268.8610     68.1882    125.3411
  1186.0000      0.0000    268.8492     67.7784    132.0807
  1186.2500      0.0000    268.8572     67.5175    137.2696
  1186.5000      0.0000    268.8827     67.3854    139.8354
  1186.7500      0.0000    268.9188     67.2329    138.9121
  1187.0000      0.0000    268.9590     66.9319    134.1840
  1187.2500      0.0000    268.9981     66.5016    126.9463
  1187.5000      0.0000    269.0322     66.0795    120.1928
  1187.7500      0.0000    269.0576     65.7859    116.8342
  1188.0000      0.0000    269.0687     65.6296    117.4961
  1188.2500      0.0000    269.0591     65.5357    120.1392
  1188.5000      0.0000    269.0282     65.4596    121.8886
  1188.7500      0.0000    268.9867     65.4772    121.0801
  1189.0000      0.0000    268.9515     65.7358    117.5838
  1189.2500      0.0000    268.9355     66.2717    112.0049
  1189.5000      0.0000    268.9403     66.8838    105.5566
  1189.7500      0.0000    268.9578     67.2462    100.2678
  1190.0000      0.0000    268.9774     67.1630     98.0331
  1190.2500      0.0000    268.9912     66.7046     99.1401
  1190.5000      0.0000    268.9941     66.1179    102.2454
  1190.7500      0.0000    268.9828     65.6466    105.6783
  1191.0000      0.0000    268.9575     65.4214    108.3339
  1191.2500      0.0000    268.9253     65.4583    109.7927
  1191.5000      0.0000    268.8989     65.7111    110.4315
  1191.7500      0.0000    268.8890     66.1268    111.2218
  1192.0000      0.0000    268.8971     66.6625    112.6724
  1192.2500      0.0000    268.9145     67.2542    114.0331
  1192.5000      0.0000    268.9302     67.7997    114.1233
  1192.7500      0.0000    268.9406     68.2079    112.8907
  1193.0000      0.0000    268.9511     68.4595    111.6397
  1193.2500      0.0000    268.9675     68.5944    111.6351
