~Version Information
 VERS.                                  2.0 : CWLS LAS VERSION
 WRAP.                                   NO : WRAPING MODE
 SWARE .                 MController 2.5.0J : SOFTWARE VERSION
~Well Information
 WELL.                      Barrelman 41-27 : WELL
 COMP.    Pioneer Natural Resources USA Inc : COMPANY
 FLD.                      Purgatoire River : FIELD
 LOC.                NE/NE Sec 27 T33S R65W : LOCATION
 DATE.                              5/20/05 : DATE(S) LOGGED
 SRVC.      Blanco Geological Services LLCD : SERVICE COMPANY
 STAT.                                   CO : STATE
 CNTY.                           Las Animas : COUNTY
 CTRY.                                  USA : COUNTRY
 API.                       05-071-08334-00 : API NUMBER
 STRT.FT                             253.00 : START DEPTH
 STOP.FT                             800.00 : STOP DEPTH
 STEP.FT                               1.00 : DEPTH INCREMENT
 NULL.                                -9999 : NULL VALUE
~Curve information
 DEPTH.FT                                   :
 ROP.MIN/FT                                 :
 GAS.UNITS                                  :
~ASCII Log data
# ...
       653.0         0.17         17.9 
       654.0         0.20         14.7 
       655.0         0.23          9.9 
       656.0         0.80         13.1 
       657.0         0.30         39.9 
       658.0         0.25         60.1 
       659.0         0.37         66.1 
       660.0         0.30         63.2 
       661.0         0.27         46.4 
       662.0         0.30         31.0 
       663.0         0.27         18.3 
       664.0         0.23         10.9 
       665.0         0.20          7.7 
       666.0         0.17          5.7 
       667.0         0.20          4.2 
       668.0         0.17          3.8 
       669.0         0.20          3.3 
       670.0         0.20          2.9 
       671.0         0.17          3.2 
       672.0         0.22          3.1 
       673.0         0.20          3.1 
       674.0         0.17          3.1 
       675.0         0.20          3.2 
       676.0         0.20          3.5 
       677.0         0.17          3.5 
       678.0         0.20          3.5 
       679.0         0.17          3.8 
       680.0         0.20          3.5 
       681.0         0.13          3.9 
       682.0         0.17          3.7 
       683.0         0.17          3.8 
       684.0         0.20          3.7 
       685.0         0.13          3.8 
       686.0         1.68         16.5 
       687.0         0.27         23.6 
       688.0         0.27         24.8 
       689.0         0.23         21.6 
       690.0         0.27         16.5 
       691.0         0.23         11.2 
       692.0         0.23          7.2 
       693.0         0.23          4.7 
       694.0         0.17          3.5 
       695.0         0.20          3.5 
       696.0         0.13          3.0 
       697.0         0.17          3.3 
       698.0         0.17          3.1 
       699.0         0.15          3.4 
       700.0         0.13          3.0 
       701.0         0.20          3.2 
       702.0         0.17          3.3 
       703.0         0.17          3.4 
       704.0         0.17          3.4 
       705.0         0.17          3.4 
       706.0         0.17          3.8 
       707.0         0.17          3.7 
       708.0         0.20          3.7 
       709.0         0.17          3.9 
       710.0         0.13          4.0 
       711.0         0.17          4.0 
       712.0         0.17          4.1 
       713.0         0.13          4.0 
       714.0         0.13          4.1 
       715.0         0.13          4.0 
       716.0         1.18         23.3 
       717.0         0.40         18.9 
       718.0         0.20         13.0 
       719.0         0.37         22.1 
       720.0         0.30         22.1 
       721.0         0.20         18.7 
       722.0         0.20         14.4 
       723.0         0.20         10.6 
       724.0         0.20          7.7 
       725.0         0.17          6.0 
       726.0         0.17          4.8 
       727.0         0.17          3.8 
       728.0         0.10          3.1 
       729.0         0.13          3.7 
       730.0         0.18          3.5 
       731.0         0.13          3.6 
       732.0         0.13          3.6 
       733.0         0.13          4.0 
       734.0         0.13          3.8 
       735.0         0.27          3.7 
       736.0         0.17          3.7 
       737.0         0.23          3.9 
       738.0         0.17          3.6 
       739.0         0.17          3.9 
       740.0         0.13          3.9 
       741.0         0.10          3.8 
       742.0         0.13          3.8 
       743.0         0.13          3.7 
       744.0         0.13          3.4 
       745.0         0.10          3.4 
       746.0         1.52         18.8 
       747.0         0.20         26.0 
       748.0         0.30         37.8 
       749.0         0.23         37.5 
       750.0         0.20         32.5 
       751.0         0.20         26.5 
       752.0         0.30         21.1 
       753.0         0.30         13.3 
       754.0         0.20          7.5 
       755.0         0.13          8.2 
       756.0         0.13          8.3 
       757.0         0.17          8.5 
       758.0         0.13          8.1 
       759.0         0.13          7.7 
       760.0         0.18          6.8 
       761.0         0.17          5.3 
       762.0         0.27          4.5 
       763.0         0.17          3.4 
       764.0         0.20          3.1 
       765.0         0.20          3.1 
       766.0         0.17          3.4 
       767.0         0.20          3.1 
       768.0         0.17          3.0 
       769.0         0.17          3.1 
       770.0         0.20          3.2 
       771.0         0.20          3.3 
       772.0         0.13          3.5 
       773.0         0.17          3.5 
       774.0         0.20          3.4 
       775.0         0.23          3.7 
       776.0         0.92         19.5 
       777.0         0.10         15.2 
       778.0         0.30         29.4 
       779.0         0.30         40.9 
       780.0         0.37         39.3 
       781.0         0.27         29.4 
       782.0         0.20         21.2 
       783.0         0.20         14.8 
       784.0         0.17          9.9 
       785.0         0.17          7.6 
       786.0         0.17          5.9 
       787.0         0.13          4.5 
       788.0         0.17          4.0 
       789.0         0.17          3.8 
       790.0         0.13          3.2 
       791.0         0.18          3.1 
       792.0         0.13          3.0 
       793.0         0.20          3.0 
       794.0         0.20          3.5 
       795.0         0.20          3.7 
       796.0         0.20          3.5 
       797.0         0.13          3.7 
       798.0         0.17          3.5 
       799.0         0.17          3.3 
       800.0         0.13          3.2 
