~Version Information
VERS.                      2.0: CWLS Log ASCII Standard - VERSION 2.0
WRAP.                       NO: One line per depth step
~Well Information Block
STRT.FT                -7.7500: 
STOP.FT              1383.2500: 
STEP.FT                 0.2500: 
NULL.                -999.2500: 
COMP.          Petrogulf Corporation: COMPANY
WELL.          Great Plains 22-22R: WELL
FLD.           Purgatoire River: FIELD
LOC.           2042' FNL & 1657' FWL SENW 22 33S 67W ----: LOCATION
PROV.                 Colorado: PROVINCE
CNTY.               Las Animas: COUNTRY
SRVC.                         : SERVICE COMPANY
DATE.          Thu Sep 22 14:55:58 2005: LOG DATE
UWI.             07108028     : UNIQUE WELL ID
~Curve Information Block
DEPT.FT            0 000 00 00: Depth
CCL.                          : Casing Collar Locator
TT3.usec                      : CBL 3' Travel Time
AMP3.mV                       : CBL 3' Amplitude
GR.GAPI                       : Gamma Ray
~Parameter Information Block
~A  Depth       CCL         TT3         AMP3         GR     
# ...
    92.7500      0.0000    335.6876     13.0955    104.9695
    93.0000      0.0000    335.9099     13.3208    109.6332
    93.2500      0.0000    336.1022     13.5101    113.4584
    93.5000      0.0000    336.2377     13.6369    114.5770
    93.7500      0.0000    336.2757     13.6707    112.6477
    94.0000      0.0000    336.1850     13.5973    109.0802
    94.2500      0.0000    335.9969     13.4475    106.1892
    94.5000      0.0000    335.8080     13.2966    105.7939
    94.7500      0.0000    335.7174     13.2276    108.2344
    95.0000      0.0000    335.7721     13.2883    112.1767
    95.2500      0.0000    335.9664     13.4648    115.1197
    95.5000      0.0000    336.2654     13.6808    114.7390
    95.7500      0.0000    336.6168     13.8285    110.6293
    96.0000      0.0000    336.9636     13.8254    104.8450
    96.2500      0.0000    337.2593     13.6654    100.4746
    96.5000      0.0000    337.4691     13.4184     99.5320
    96.7500      0.0000    337.5631     13.1791    101.9183
    97.0000      0.0000    337.5344     13.0103    105.9364
    97.2500      0.0000    337.4329     12.9226    109.4765
    97.5000      0.0000    337.3662     12.8819    110.7819
    97.7500      0.0000    337.4484     12.8277    108.6644
    98.0000      0.0000    337.7316     12.7009    102.9150
    98.2500      0.0000    338.1576     12.4793     94.8397
    98.5000      0.0000    338.5543     12.1900     86.7662
    98.7500      0.0000    338.7109     11.8915     80.6935
    99.0000      0.0000    338.5169     11.6450     77.6299
    99.2500      0.0000    338.0449     11.4975     77.9147
    99.5000      0.0000    337.4860     11.4704     81.3811
    99.7500      0.0000    337.0013     11.5457     87.0963
   100.0000      0.0000    336.6314     11.6650     93.5700
   100.2500      0.0000    336.3258     11.7590     99.5361
   100.5000      0.0000    336.0282     11.7901    104.2913
   100.7500      0.0000    335.7303     11.7724    107.3080
   101.0000      0.0000    335.4620     11.7475    108.0909
   101.2500      0.0000    335.2525     11.7445    106.6536
   101.5000      0.0000    335.1006     11.7582    103.7022
   101.7500      0.0000    334.9759     11.7551    100.1218
   102.0000      0.0000    334.8476     11.6991     96.7270
   102.2500      0.0000    334.7203     11.5751     94.5433
   102.5000      0.0000    334.6361     11.4022     94.6386
   102.7500      0.0000    334.6367     11.2274     97.2522
   103.0000      0.0000    334.7193     11.0988    101.3411
   103.2500      0.0000    334.8324     11.0251    105.3430
   103.5000      0.0000    334.9150     10.9585    108.3622
   103.7500      0.0000    334.9451     10.8196    110.4882
   104.0000      0.0000    334.9516     10.5480    112.1468
   104.2500      0.0000    334.9861     10.1434    113.4453
   104.5000      0.0000    335.0824      9.6722    114.3035
   104.7500      0.0000    335.2434      9.2265    115.1030
   105.0000      0.0000    335.4945      8.8587    116.7929
   105.2500      0.0000    336.0093      8.5578    119.8405
   105.5000      0.0000    337.2703      8.3001    123.1056
   105.7500      0.0000    340.0823      8.1087    124.4371
   106.0000      0.0000    345.1661      8.0399    122.6259
   106.2500      0.0000    352.3952      8.1088    118.3860
   106.5000      0.0000    360.4117      8.2445    113.5089
   106.7500      0.0000    367.3047      8.3274    109.4941
   107.0000      0.0000    371.8644      8.2747    106.8125
   107.2500      0.0000    374.1678      8.1017    105.0627
   107.5000      0.0000    375.0783      7.9141    103.7235
   107.7500      0.0000    375.3762      7.8335    102.6646
   108.0000      0.0000    375.2685      7.9146    101.9522
   108.2500      0.0000    374.3641      8.1254    101.6243
   108.5000      0.0000    371.9318      8.4017    101.8414
   108.7500      0.0000    367.4356      8.7039    102.8587
   109.0000      0.0000    361.2771      9.0119    104.6729
   109.2500      0.0000    355.0397      9.2898    106.8490
   109.5000      0.0000    350.4987      9.4934    108.5442
   109.7500      0.0000    348.0798      9.6201    108.6287
   110.0000      0.0000    346.5946      9.7261    106.2611
   110.2500      0.0000    344.6840      9.8863    101.7323
   110.5000      0.0000    342.1502     10.1434     96.3684
   110.7500      0.0000    339.7099     10.4763     91.1399
   111.0000      0.0000    337.9497     10.7922     85.7310
   111.2500      0.0000    336.9229     10.9661     79.4981
   111.5000      0.0000    336.5130     10.9236     73.0234
   111.7500      0.0000    336.8333     10.6965     68.0290
   112.0000      0.0000    338.1714     10.3966     65.6680
   112.2500      0.0000    340.5152     10.1448     65.3907
   112.5000      0.0000    343.1858     10.0102     65.6659
   112.7500      0.0000    345.3326      9.9721     65.3706
   113.0000      0.0000    347.1295      9.9239     64.0776
   113.2500      0.0000    350.3463      9.7461     61.4337
   113.5000      0.0000    357.4743      9.3965     57.0765
   113.7500      0.0000    370.6525      8.9154     51.3494
   114.0000      0.0000    391.0541      8.3412     45.6573
   114.2500      0.0000    417.0760      7.6526     41.8551
   114.5000      0.0000    441.6755      6.8107     41.1509
   114.7500      0.0000    454.1792      5.8362     43.2677
   115.0000      0.0000    448.5449      4.8287     46.5725
   115.2500      0.0000    429.5060      3.9219     49.2328
   115.5000      0.0000    408.5334      3.2189     50.4983
   115.7500      0.0000    394.8836      2.7485     51.0930
   116.0000      2.0000    391.6346      2.4720     52.5071
   116.2500     -2.0000    397.2697      2.3320     55.7995
   116.5000      2.0000    407.5500      2.2986     60.9160
   116.7500      0.0000    416.7230      2.3818     67.0223
   117.0000      0.0000    420.2643      2.6272     73.2278
   117.2500      0.0000    417.5757      3.1179     78.8574
   117.5000      0.0000    410.8693      3.9549     83.3788
   117.7500      0.0000    401.8419      5.1795     86.4429
   118.0000      0.0000    391.1500      6.6854     87.9892
   118.2500      0.0000    380.6440      8.2410     88.2500
   118.5000      0.0000    373.5101      9.6386     87.7019
   118.7500      0.0000    371.3851     10.8218     86.9104
   119.0000      0.0000    372.5657     11.8630     86.2644
   119.2500      0.0000    373.4931     12.8543     85.8060
   119.5000      0.0000    371.3901     13.8476     85.3650
   119.7500      0.0000    365.7126     14.8554     84.9386
   120.0000      0.0000    358.0074     15.8517     84.8629
   120.2500      0.0000    350.6443     16.7683     85.3480
   120.5000      0.0000    345.2704     17.5291     85.8686
   120.7500      0.0000    342.0742     18.1060     85.4603
   121.0000      0.0000    340.1786     18.5381     83.8045
   121.2500      0.0000    338.5159     18.8925     81.6890
   121.5000      0.0000    336.5717     19.2058     80.1829
   121.7500      0.0000    334.7201     19.4524     79.5635
   122.0000      0.0000    333.8513     19.5635     79.2179
   122.2500      0.0000    334.4345     19.4763     78.3006
   122.5000      0.0000    336.0275     19.1696     76.3474
   122.7500      0.0000    337.8750     18.6636     73.7257
   123.0000      0.0000    339.8316     18.0051     71.7103
   123.2500      0.0000    342.5094     17.2600     71.5801
   123.5000      0.0000    346.4556     16.5099     73.3520
   123.7500      0.0000    351.0589     15.8361     75.7964
   124.0000      0.0000    354.3615     15.2904     77.8025
   124.2500      0.0000    354.4357     14.8666     79.4701
   124.5000      0.0000    351.1480     14.5013     81.8784
   124.7500      0.0000    346.2907     14.1166     85.8502
   125.0000      0.0000    341.9774     13.6758     90.8565
   125.2500      0.0000    339.2276     13.1981     95.2203
   125.5000      0.0000    337.9118     12.7274     97.5675
   125.7500      0.0000    337.4380     12.2960     97.9991
   126.0000      0.0000    337.2698     11.9216     97.7682
