~Version Information
VERS.                      2.0: CWLS Log ASCII Standard - VERSION 2.0
WRAP.                       NO: One line per depth step
~Well Information Block
STRT.FT                -4.2500: 
STOP.FT              2500.7500: 
STEP.FT                 0.2500: 
NULL.                -999.2500: 
COMP.          Pioneer Natural Resources: COMPANY
WELL.          Cock-a-doodle-doo 44-27: WELL
FLD.           Purgatoire River: FIELD
LOC.           163' FSL & 54' FEL--: LOCATION
PROV.                 Colorado: PROVINCE
CNTY.               Las Animas: COUNTRY
SRVC.                Patterson: SERVICE COMPANY
DATE.          Wed Jul 06 10:56:34 2005: LOG DATE
UWI.                071 08429 : UNIQUE WELL ID
~Curve Information Block
DEPT.FT            0 000 00 00: Depth
CCL.                          : Casing Collar Locator
TT3.usec                      : CBL 3' Travel Time
AMP3.mV                       : CBL 3' Amplitude
GR.GAPI                       : Gamma Ray
~Parameter Information Block
~A  Depth       CCL         TT3         AMP3         GR     
# ...
   833.2500      0.0000    697.6880     12.8732    109.6488
   833.5000      0.0000    703.9833     13.2952    107.0964
   833.7500      0.0000    702.0559     13.8083    106.2007
   834.0000      0.0000    694.3187     14.3611    106.0219
   834.2500      0.0000    686.0934     14.9173    105.3978
   834.5000      0.0000    681.0181     15.4444    104.0195
   834.7500      0.0000    679.1653     15.8769    102.7887
   835.0000      0.0000    678.5936     16.1090    102.9644
   835.2500      0.0000    677.8366     16.0490    104.8714
   835.5000      0.0000    676.9578     15.6949    107.7448
   835.7500      0.0000    676.6950     15.1577    110.9139
   836.0000      0.0000    677.0984     14.6027    114.5819
   836.2500      0.0000    677.3109     14.1588    119.0573
   836.5000      0.0000    676.6271     13.8657    123.7923
   836.7500      0.0000    675.4610     13.6836    127.7656
   837.0000      0.0000    675.2612     13.5437    130.3812
   837.2500      0.0000    677.8276     13.3940    131.4221
   837.5000      0.0000    684.4756     13.2131    130.4299
   837.7500      0.0000    694.8201     13.0004    126.9030
   838.0000      0.0000    705.8857     12.7692    121.2239
   838.2500      0.0000    713.3550     12.5540    114.8772
   838.5000      0.0000    714.8291     12.4131    109.6193
   838.7500      0.0000    711.7435     12.4055    106.7129
   839.0000      0.0000    707.8406     12.5512    106.8219
   839.2500      0.0000    706.2430     12.8135    110.0203
   839.5000      0.0000    707.8002     13.1230    115.6662
   839.7500      0.0000    711.0367     13.4184    122.6953
   840.0000      0.0000    713.5300     13.6582    130.2043
   840.2500      0.0000    714.2623     13.8065    137.3518
   840.5000      0.0000    714.5114     13.8351    142.6572
   840.7500      0.0000    716.0695     13.7543    144.1741
   841.0000      0.0000    719.8586     13.6302    141.0569
   841.2500      0.0000    726.9287     13.5517    134.7831
   841.5000      0.0000    738.5183     13.5653    128.4899
   841.7500      0.0000    753.4468     13.6351    125.2097
   842.0000      0.0000    766.8622     13.6677    126.4632
   842.2500      0.0000    772.9833     13.5837    131.5895
   842.5000      0.0000    768.8400     13.3748    137.9647
   842.7500      0.0000    755.7465     13.0991    142.4838
   843.0000      0.0000    738.3565     12.8344    143.4550
   843.2500      0.0000    722.1248     12.6388    141.1390
   843.5000      0.0000    710.5297     12.5385    136.6942
   843.7500      0.0000    704.0004     12.5270    131.0594
   844.0000      0.0000    701.0367     12.5687    124.6379
   844.2500      0.0000    699.8828     12.6181    117.5612
   844.5000      0.0000    699.3501     12.6463    110.3087
   844.7500      0.0000    698.8434     12.6589    104.2315
   845.0000      0.0000    698.1489     12.6900    101.0418
   845.2500      0.0000    697.0126     12.7757    101.3292
   845.5000      0.0000    694.5084     12.9273    103.6753
   845.7500      0.0000    688.5056     13.1225    105.5274
   846.0000      0.0000    676.2986     13.3191    105.1325
   846.2500      0.0000    657.1409     13.4649    102.7709
   846.5000      0.0000    634.3868     13.4952    100.3678
   846.7500      0.0000    613.7666     13.3468     99.8919
   847.0000      0.0000    599.6118     12.9914    101.7001
   847.2500      0.0000    595.1279     12.4452    104.0623
   847.5000      0.0000    604.9911     11.7625    104.4496
   847.7500      0.0000    631.9116     11.0592    101.5682
   848.0000      0.0000    669.4878     10.5085     96.2162
   848.2500      0.0000    703.4152     10.2346     90.3938
   848.5000      0.0000    722.8245     10.2183     85.9282
   848.7500     -2.0000    728.5246     10.3526     83.7905
   849.0000      2.0000    728.0934     10.5630     84.1055
   849.2500      0.0000    724.4269     10.8441     86.3627
   849.5000      0.0000    712.8975     11.2194     89.5919
   849.7500      0.0000    690.9429     11.6995     92.5745
   850.0000      0.0000    666.5743     12.2684     94.1372
   850.2500      0.0000    652.7744     12.9022     93.6233
   850.5000      0.0000    653.9321     13.6106     91.4451
   850.7500      0.0000    662.0419     14.4133     89.1256
   851.0000      0.0000    667.3499     15.2335     88.3696
   851.2500      0.0000    669.5873     15.8716     89.6623
   851.5000      0.0000    676.2448     16.1426     91.7321
   851.7500      0.0000    691.6258     16.0197     92.7335
   852.0000      0.0000    710.8984     15.6240     92.1584
   852.2500      0.0000    724.9804     15.1116     91.3076
   852.5000      0.0000    728.8678     14.5878     91.8179
   852.7500      0.0000    724.4331     14.0991     94.1805
   853.0000      0.0000    716.9308     13.6591     97.6856
   853.2500      0.0000    710.3375     13.2696    100.9955
   853.5000      0.0000    705.8079     12.9331    102.6422
   853.7500      0.0000    702.9445     12.6668    101.9244
   854.0000      0.0000    701.1696     12.5061     99.8784
   854.2500      0.0000    700.0936     12.4828     98.8563
   854.5000      0.0000    699.4177     12.5877    100.7169
   854.7500      0.0000    698.9506     12.7534    105.4573
   855.0000      0.0000    698.6013     12.8829    111.4810
   855.2500      0.0000    698.3422     12.9166    116.9765
   855.5000      0.0000    698.1925     12.8762    121.0468
   855.7500      0.0000    698.1968     12.8331    123.7487
   856.0000      0.0000    698.3590     12.8300    125.3748
   856.2500      0.0000    698.5810     12.8492    125.9599
   856.5000      0.0000    698.6973     12.8591    125.4031
   856.7500      0.0000    698.6047     12.8669    123.9102
   857.0000      0.0000    698.3529     12.9149    122.3278
   857.2500      0.0000    698.0876     13.0392    121.9417
   857.5000      0.0000    697.9119     13.2332    123.8036
   857.7500      0.0000    697.8167     13.4431    128.2371
   858.0000      0.0000    697.7298     13.6057    134.7410
   858.2500      0.0000    697.6060     13.7035    141.8376
   858.5000      0.0000    697.4667     13.7695    147.1136
   858.7500      0.0000    697.3645     13.8325    148.2839
   859.0000      0.0000    697.3022     13.8873    144.9823
   859.2500      0.0000    697.1693     13.9310    139.3444
   859.5000      0.0000    696.6064     13.9952    134.2626
   859.7500      0.0000    694.5256     14.1114    130.9827
   860.0000      0.0000    688.3883     14.2619    128.4968
   860.2500      0.0000    674.4244     14.3829    125.0930
   860.5000      0.0000    650.8460     14.4139    120.2105
   860.7500      0.0000    623.1785     14.3382    114.8794
   861.0000      0.0000    604.7543     14.1872    110.5550
   861.2500      0.0000    606.6859     14.0083    107.6015
   861.5000      0.0000    624.7155     13.8294    104.9925
   861.7500      0.0000    638.4818     13.6544    101.5795
   862.0000      0.0000    626.4006     13.4924     97.5729
   862.2500      0.0000    582.2695     13.3751     94.5616
   862.5000      0.0000    519.2220     13.3314     93.9666
   862.7500      0.0000    459.2687     13.3529     95.6296
   863.0000      0.0000    418.5400     13.4005     98.1378
   863.2500      0.0000    400.3201     13.4422    100.4173
   863.5000      0.0000    398.4680     13.4720    102.6238
   863.7500      0.0000    404.3689     13.4969    105.3361
   864.0000      0.0000    411.2993     13.5198    108.3347
   864.2500      0.0000    415.4799     13.5376    110.5888
   864.5000      0.0000    415.4470     13.5435    111.2528
   864.7500      0.0000    411.1287     13.5261    110.2728
   865.0000      0.0000    403.5131     13.4702    108.0067
   865.2500      0.0000    394.8766     13.3656    104.6175
   865.5000      0.0000    388.7740     13.2234    100.0620
   865.7500      0.0000    389.9640     13.0859     94.5948
   866.0000      0.0000    404.4587     13.0123     89.1716
   866.2500      0.0000    438.2785     13.0479     85.2915
   866.5000      0.0000    493.5882     13.1988     84.1620
