~Version Information
VERS.                      2.0: CWLS Log ASCII Standard - VERSION 2.0
WRAP.                       NO: One line per depth step
~Well Information Block
STRT.FT                -7.0000: 
STOP.FT              2730.2500: 
STEP.FT                 0.2500: 
NULL.                -999.2500: 
COMP.          Pioneer Natural Resources: COMPANY
WELL.             Squeal 11-26: WELL
FLD.           Purgatorie River: FIELD
LOC.           1186' FNL & 152' FWL--: LOCATION
PROV.                       CO: PROVINCE
CNTY.               Las Animas: COUNTRY
SRVC.          Patterson Wireline: SERVICE COMPANY
DATE.          Tue Jul 26 11:59:46 2005: LOG DATE
UWI.           05 071 08404 00: UNIQUE WELL ID
~Curve Information Block
DEPT.FT            0 000 00 00: Depth
CCL.                          : Casing Collar Locator
TT3.usec                      : CBL 3' Travel Time
AMP3.mV                       : CBL 3' Amplitude
GR.GAPI                       : Gamma Ray
~Parameter Information Block
~A  Depth       CCL         TT3         AMP3         GR     
# ...
  2338.0000      0.0000    786.1189      6.6560     93.3178
  2338.2500      0.0000    796.0617      6.8184     86.8194
  2338.5000      0.0000    798.0894      7.1158     80.6429
  2338.7500      0.0000    797.8973      7.5360     75.5976
  2339.0000     -2.0000    800.1722      7.9703     72.1831
  2339.2500      0.0000    802.7694      8.3177     70.8274
  2339.5000      0.0000    799.5924      8.5708     71.5449
  2339.7500      0.0000    787.8258      8.8055     73.4546
  2340.0000      0.0000    770.5427      9.0637     75.1419
  2340.2500      0.0000    753.6949      9.2387     75.6784
  2340.5000      0.0000    741.7348      9.1414     75.2190
  2340.7500      0.0000    734.8886      8.7192     74.7422
  2341.0000      0.0000    729.7279      8.1457     75.4087
  2341.2500      0.0000    722.7730      7.6530     77.8771
  2341.5000      0.0000    713.6684      7.3329     81.7479
  2341.7500      0.0000    704.8105      7.1281     85.6260
  2342.0000      0.0000    698.5196      6.9522     88.1786
  2342.2500      0.0000    695.2291      6.7686     89.4934
  2342.5000      0.0000    693.7956      6.5858     91.2710
  2342.7500      0.0000    692.6561      6.4242     95.3209
  2343.0000      0.0000    690.5891      6.2967    101.6597
  2343.2500      0.0000    687.1591      6.2038    108.0261
  2343.5000      0.0000    683.1428      6.1371    111.3215
  2343.7500      0.0000    680.4054      6.0861    109.8623
  2344.0000      0.0000    680.6990      6.0447    104.6659
  2344.2500      0.0000    684.2736      6.0092     98.7277
  2344.5000      0.0000    689.8083      5.9724     94.8881
  2344.7500      0.0000    695.5494      5.9210     93.9928
  2345.0000      0.0000    700.2341      5.8451     94.6655
  2345.2500      0.0000    703.4293      5.7511     94.6881
  2345.5000      0.0000    705.7976      5.6633     92.8731
  2345.7500      0.0000    708.7733      5.6085     90.0143
  2346.0000      0.0000    712.9889      5.5982     88.2133
  2346.2500      0.0000    716.6531      5.6229     89.1978
  2346.5000      0.0000    715.8143      5.6620     93.1066
  2346.7500      0.0000    706.6057      5.6985     98.6453
  2347.0000      0.0000    687.6792      5.7252    104.1626
  2347.2500      0.0000    661.0081      5.7420    108.5829
  2347.5000      0.0000    630.9634      5.7494    111.5534
  2347.7500      0.0000    603.1916      5.7463    112.9979
  2348.0000      0.0000    583.5213      5.7325    112.8760
  2348.2500      0.0000    575.4912      5.7110    111.6201
  2348.5000      0.0000    577.8708      5.6870    110.4067
  2348.7500      0.0000    586.0303      5.6628    110.4068
  2349.0000      0.0000    596.0769      5.6364    111.8495
  2349.2500      0.0000    606.2423      5.6051    114.1544
  2349.5000      0.0000    614.7636      5.5704    116.6200
  2349.7500      0.0000    618.5681      5.5411    118.6367
  2350.0000      0.0000    614.6225      5.5303    119.5490
  2350.2500      0.0000    602.6200      5.5493    118.6421
  2350.5000      0.0000    587.3787      5.6000    115.3491
  2350.7500      0.0000    578.0856      5.6747    109.7692
  2351.0000      0.0000    582.3428      5.7621    103.1549
  2351.2500      0.0000    599.6099      5.8539     97.3654
  2351.5000      0.0000    621.7638      5.9451     93.2667
  2351.7500      0.0000    640.2275      6.0306     89.9262
  2352.0000      0.0000    651.2238      6.0999     85.8691
  2352.2500      0.0000    654.9938      6.1401     80.9400
  2352.5000      0.0000    652.9259      6.1458     76.5338
  2352.7500      0.0000    646.6246      6.1271     74.1576
  2353.0000      0.0000    638.4323      6.1058     74.0530
  2353.2500      0.0000    631.6357      6.0998     75.1498
  2353.5000      0.0000    629.7993      6.1144     76.0992
  2353.7500      0.0000    634.8762      6.1451     76.2107
  2354.0000      0.0000    645.0717      6.1869     75.4035
  2354.2500      0.0000    655.5190      6.2367     73.6319
  2354.5000      0.0000    662.2754      6.2906     70.8049
  2354.7500      0.0000    665.2701      6.3431     67.1706
  2355.0000      0.0000    667.0679      6.3937     63.3823
  2355.2500      0.0000    669.8140      6.4533     60.0810
  2355.5000      0.0000    673.9454      6.5407     57.4805
  2355.7500      0.0000    678.8729      6.6731     55.4035
  2356.0000      0.0000    683.8344      6.8590     53.7200
  2356.2500      0.0000    688.1347      7.0970     52.6618
  2356.5000      0.0000    691.2510      7.3747     52.6362
  2356.7500      0.0000    692.9593      7.6684     53.8179
  2357.0000      0.0000    693.2485      7.9479     55.9123
  2357.2500      0.0000    692.1737      8.1874     58.2199
  2357.5000      0.0000    690.0771      8.3754     60.0238
  2357.7500      0.0000    687.9505      8.5161     61.0898
  2358.0000      0.0000    687.1381      8.6213     61.8460
  2358.2500      0.0000    688.3810      8.6990     63.0518
  2358.5000      0.0000    691.3850      8.7482     65.2620
  2358.7500      0.0000    695.5721      8.7621     68.5888
  2359.0000      0.0000    700.8456      8.7342     72.8591
  2359.2500      0.0000    706.9949      8.6608     77.7132
  2359.5000      0.0000    712.4846      8.5425     82.3568
  2359.7500      0.0000    714.8058      8.3873     85.6168
  2360.0000      0.0000    712.6907      8.2137     86.8015
  2360.2500      0.0000    707.5042      8.0461     86.3804
  2360.5000      0.0000    701.8542      7.9038     85.4428
  2360.7500      0.0000    697.0311      7.7917     84.7077
  2361.0000      0.0000    691.8382      7.7004     84.2851
  2361.2500      0.0000    683.1462      7.6163     84.1625
  2361.5000      0.0000    667.3223      7.5313     84.6842
  2361.7500      0.0000    642.2836      7.4428     86.5374
  2362.0000      0.0000    609.6691      7.3491     90.2326
  2362.2500      0.0000    575.2311      7.2477     95.4720
  2362.5000      0.0000    545.9569      7.1378    100.8879
  2362.7500      0.0000    525.8663      7.0209    104.4354
  2363.0000      0.0000    514.3182      6.8993    104.5401
  2363.2500      0.0000    507.9210      6.7768    101.3611
  2363.5000      0.0000    503.5774      6.6603     96.7312
  2363.7500      0.0000    500.1281      6.5587     92.5676
  2364.0000      0.0000    497.9893      6.4779     89.6131
  2364.2500      0.0000    497.8537      6.4168     87.7723
  2364.5000      0.0000    500.2028      6.3693     86.9352
  2364.7500      0.0000    506.3758      6.3303     87.0096
  2365.0000      0.0000    519.5955      6.3015     87.5735
  2365.2500      0.0000    543.4790      6.2916     88.0503
  2365.5000      0.0000    578.1710      6.3059     88.2930
  2365.7500      0.0000    618.0317      6.3350     88.7510
  2366.0000      0.0000    654.2921      6.3581     89.8660
  2366.2500      0.0000    680.0927      6.3586     91.2938
  2366.5000      0.0000    692.1913      6.3366     91.8437
  2366.7500      0.0000    689.1028      6.3047     90.3070
  2367.0000      0.0000    671.1971      6.2756     86.4427
  2367.2500      0.0000    644.2748      6.2579     81.2631
  2367.5000      0.0000    620.2469      6.2632     76.4339
  2367.7500      0.0000    610.4188      6.3132     73.3775
  2368.0000      0.0000    617.6146      6.4341     72.7972
  2368.2500      0.0000    636.2014      6.6371     74.7232
  2368.5000      0.0000    658.5617      6.9007     78.6305
  2368.7500      0.0000    679.5686      7.1724     83.3792
  2369.0000      0.0000    696.2963      7.3939     87.3435
  2369.2500      0.0000    706.8097      7.5303     89.1406
  2369.5000      0.0000    710.5863      7.5852     88.6325
  2369.7500      0.0000    709.3137      7.5963     87.2286
  2370.0000      0.0000    706.2236      7.6118     86.9052
  2370.2500      0.0000    704.1776      7.6596     88.4947
  2370.5000      0.0000    704.1424      7.7257     90.8677
  2370.7500      0.0000    705.1273      7.7583     92.0857
  2371.0000      0.0000    705.4407      7.7021     91.4640
  2371.2500      0.0000    704.2316      7.5395     90.2118
