~Version Information
VERS.                      2.0: CWLS Log ASCII Standard - VERSION 2.0
WRAP.                       NO: One line per depth step
~Well Information Block
STRT.FT               450.0000: 
STOP.FT              1739.2000: 
STEP.FT                 0.1000: 
NULL.                -999.2500: 
COMP.          Pioneer Natural Resources: COMPANY
WELL.            Harlee L 34-9: WELL
FLD.           Purgatoire River: FIELD
LOC.           600' FSL & 2125' FEL: LOCATION
PROV.                 Colorado: PROVINCE
CNTY.               Las Animas: COUNTRY
SRVC.                Patterson: SERVICE COMPANY
DATE.          Wed Jan 26 13:57:24 2005: LOG DATE
UWI.           05 071 08009 00: UNIQUE WELL ID
~Curve Information Block
DEPT.FT            0 000 00 00: Depth
DCAL.in                       : CDL Caliper
RHOB.g/cc                     : CDL Bulk Density
RHOC.g/cc                     : CDL Density Correction
DPOR.pu                       : CDL Density Porosity
NPOR.pu                       : Neutron Porosity
GR.GAPI                       : Gamma Ray
~Parameter Information Block
~A  Depth       DCAL        RHOB        RHOC        DPOR        NPOR         GR     
# ...
  1208.4000      8.9158      2.5138      0.0733      8.2555     30.2673    150.1137
  1208.5000      8.9231      2.4896      0.0952      9.7225     29.8787    149.2000
  1208.6000      8.9231      2.4701      0.0551     10.9018     29.5665    152.2838
  1208.7000      8.9231      2.4606      0.0346     11.4766     29.1709    155.5813
  1208.8000      8.9158      2.4709      0.0510     10.8565     28.8229    152.7820
  1208.9000      8.9158      2.5010      0.0502      9.0326     29.0398    144.4629
  1209.0000      8.9097      2.5427      0.0847      6.5052     29.6729    138.5715
  1209.1000      8.9097      2.5794      0.1477      4.2815     29.9132    140.1365
  1209.2000      8.9097      2.5961      0.1559      3.2676     29.2463    147.6475
  1209.3000      8.9078      2.5910      0.1451      3.5764     28.1455    153.5238
  1209.4000      8.9078      2.5725      0.1477      4.6944     27.4768    152.2727
  1209.5000      8.9032      2.5610      0.0811      5.3969     27.2426    147.3858
  1209.6000      8.9032      2.5684      0.1569      4.9455     26.7500    143.3243
  1209.7000      8.9032      2.5757      0.1350      4.5052     26.0256    143.1889
  1209.8000      8.9001      2.5726      0.0735      4.6915     25.6773    148.2656
  1209.9000      8.9001      2.5733      0.0833      4.6467     26.0111    151.6013
  1210.0000      8.9014      2.5801      0.0897      4.2356     26.6965    147.7800
  1210.1000      8.9014      2.5885      0.0682      3.7287     27.0902    143.2129
  1210.2000      8.9014      2.5987      0.0863      3.1063     27.3924    142.2250
  1210.3000      8.9049      2.5979      0.1433      3.1602     27.9939    143.9364
  1210.4000      8.9049      2.5792      0.0647      4.2919     27.9142    147.3530
  1210.5000      8.9074      2.5606      0.0657      5.4168     26.7618    148.7635
  1210.6000      8.9074      2.5517      0.0877      5.9556     26.0020    146.4856
  1210.7000      8.9074      2.5512      0.0157      5.9899     26.2330    141.4626
  1210.8000      8.9073      2.5568      0.0475      5.6487     26.7736    137.8742
  1210.9000      8.9073      2.5556      0.0825      5.7198     26.6353    139.6623
  1211.0000      8.9052      2.5422      0.0211      6.5333     25.2651    145.0216
  1211.1000      8.9052      2.5309      0.0325      7.2152     23.6280    146.5008
  1211.2000      8.9052      2.5338      0.0618      7.0396     23.0725    141.4297
  1211.3000      8.9060      2.5511      0.0817      5.9925     24.0375    137.3363
  1211.4000      8.9060      2.5739      0.0902      4.6112     25.5140    138.0299
  1211.5000      8.9086      2.5878      0.1072      3.7669     25.8376    139.1764
  1211.6000      8.9086      2.5847      0.1106      3.9555     24.7848    138.3170
  1211.7000      8.9086      2.5702      0.0510      4.8342     23.1553    136.5997
  1211.8000      8.9098      2.5557      0.0764      5.7171     22.0782    135.9718
  1211.9000      8.9098      2.5496      0.0384      6.0849     22.6147    138.0173
  1212.0000      8.9101      2.5604      0.0346      5.4308     23.9598    141.1001
  1212.1000      8.9101      2.5828      0.0950      4.0715     24.4571    139.5084
  1212.2000      8.9101      2.6010      0.0600      2.9673     24.3054    132.9906
  1212.3000      8.9082      2.6020      0.1014      2.9067     24.7139    131.0714
  1212.4000      8.9082      2.5779      0.0716      4.3689     25.5949    139.0077
  1212.5000      8.9063      2.5432      0.0356      6.4705     26.1820    149.6436
  1212.6000      8.9063      2.5229      0.0485      7.7025     26.3781    153.0235
  1212.7000      8.9063      2.5233      0.0151      7.6795     26.1007    150.3515
  1212.8000      8.9080      2.5322      0.0514      7.1403     25.6250    150.5263
  1212.9000      8.9080      2.5374      0.0763      6.8251     25.7793    154.7763
  1213.0000      8.9109      2.5401      0.0745      6.6616     26.7390    156.9695
  1213.1000      8.9109      2.5476      0.0510      6.2058     28.0467    152.9192
  1213.2000      8.9109      2.5580      0.0643      5.5758     29.3181    144.5315
  1213.3000      8.9124      2.5566      0.0784      5.6599     30.0714    136.9487
  1213.4000      8.9124      2.5387      0.0657      6.7431     30.0131    136.8459
  1213.5000      8.9119      2.5235      0.0662      7.6689     29.4482    144.2556
  1213.6000      8.9119      2.5291      0.0401      7.3291     29.1896    150.5869
  1213.7000      8.9119      2.5442      0.1206      6.4107     29.6145    151.5272
  1213.8000      8.9112      2.5408      0.1039      6.6184     29.8912    149.4131
  1213.9000      8.9112      2.5164      0.0528      8.0964     29.1795    150.0480
  1214.0000      8.9112      2.4957      0.0074      9.3491     27.9590    153.9562
  1214.1000      8.9112      2.4931      0.0301      9.5114     27.6187    152.2562
  1214.2000      8.9112      2.4987      0.0247      9.1706     28.5967    146.4204
  1214.3000      8.9117      2.5063      0.0047      8.7084     29.5809    146.0131
  1214.4000      8.9117      2.5220      0.0648      7.7553     29.8218    145.7477
  1214.5000      8.9118      2.5422      0.0712      6.5357     29.9187    141.5681
  1214.6000      8.9118      2.5541      0.1022      5.8141     29.5541    140.9595
  1214.7000      8.9118      2.5500      0.0923      6.0612     28.6953    143.2465
  1214.8000      8.9115      2.5348      0.0457      6.9847     28.2903    142.1173
  1214.9000      8.9115      2.5223      0.0431      7.7387     28.3909    138.1761
  1215.0000      8.9113      2.5143      0.0855      8.2256     28.6842    136.7846
  1215.1000      8.9113      2.5013      0.0573      9.0098     29.1796    141.4413
  1215.2000      8.9113      2.4854      0.0538      9.9766     29.4400    150.2977
  1215.3000      8.9110      2.4795     -0.0057     10.3318     28.9279    159.6744
  1215.4000      8.9110      2.4932      0.0321      9.5010     28.3330    163.7373
  1215.5000      8.9057      2.5127      0.0667      8.3183     28.5241    159.5524
  1215.6000      8.9057      2.5161      0.0594      8.1148     29.2924    153.6228
  1215.7000      8.9057      2.5046      0.0229      8.8116     30.4699    154.1277
  1215.8000      8.8993      2.4938      0.0094      9.4638     32.0360    160.5980
  1215.9000      8.8993      2.4830      0.0930     10.1196     33.3370    167.4169
  1216.0000      8.9038      2.4604      0.0539     11.4917     33.6126    167.7006
  1216.1000      8.9038      2.4341      0.0472     13.0822     32.9606    158.6873
  1216.2000      8.9038      2.4211      0.0234     13.8743     32.5416    147.7841
  1216.3000      8.9131      2.4228      0.0279     13.7704     32.9404    140.6016
  1216.4000      8.9131      2.4234      0.0629     13.7347     33.4069    134.7898
  1216.5000      8.9246      2.4078      0.0628     14.6816     33.5933    129.8248
  1216.6000      8.9246      2.3829      0.0564     16.1903     33.9469    130.9993
  1216.7000      8.9246      2.3679      0.0554     17.0998     34.0712    138.3905
  1216.8000      8.9324      2.3684      0.0647     17.0644     33.4297    142.8218
  1216.9000      8.9324      2.3806      0.0456     16.3260     32.6692    139.7140
  1217.0000      8.9250      2.4048      0.0606     14.8600     32.2232    136.2784
  1217.1000      8.9250      2.4356      0.1182     12.9963     31.8370    138.4939
  1217.2000      8.9250      2.4618      0.1161     11.4032     31.3131    143.2208
  1217.3000      8.9184      2.4727      0.1509     10.7435     30.6229    145.1624
  1217.4000      8.9184      2.4553      0.1465     11.8026     30.0214    142.5673
  1217.5000      8.9202      2.4095      0.1095     14.5762     29.8563    138.6137
  1217.6000      8.9202      2.3542      0.0882     17.9259     30.5155    137.8757
  1217.7000      8.9202      2.3029      0.0989     21.0355     31.9192    139.3754
  1217.8000      8.9188      2.2444      0.1347     24.5839     33.1550    140.3846
  1217.9000      8.9188      2.1598      0.0619     29.7120     33.5991    140.9930
