~Version Information
VERS.                      2.0: CWLS Log ASCII Standard - VERSION 2.0
WRAP.                       NO: One line per depth step
~Well Information Block
STRT.FT                -7.2500: 
STOP.FT               868.2500: 
STEP.FT                 0.2500: 
NULL.                -999.2500: 
COMP.          Pioneer Natural Resources: COMPANY
WELL.              Venom 32-22: WELL
FLD.           Purgatorie River: FIELD
LOC.           2307' FNL & 2024' FWL--: LOCATION
PROV.                       CO: PROVINCE
CNTY.               Las Animas: COUNTRY
SRVC.          Patterson Wireline: SERVICE COMPANY
DATE.          Mon May 16 15:26:38 2005: LOG DATE
UWI.           05 071 08361 00: UNIQUE WELL ID
~Curve Information Block
DEPT.FT            0 000 00 00: Depth
CCL.                          : Casing Collar Locator
TT3.usec                      : CBL 3' Travel Time
AMP3.mV                       : CBL 3' Amplitude
GR.GAPI                       : Gamma Ray
~Parameter Information Block
~A  Depth       CCL         TT3         AMP3         GR     
# ...
   562.2500      0.0000    830.1733      4.2177     90.4575
   562.5000      0.0000    832.9141      3.9782     89.2565
   562.7500      0.0000    843.0119      3.6237     88.4948
   563.0000      0.0000    857.4074      3.3002     87.8645
   563.2500      0.0000    870.1144      3.1523     86.4025
   563.5000      0.0000    877.6364      3.2019     83.4732
   563.7500      2.0000    880.9739      3.3529     79.5606
   564.0000      2.0000    883.2321      3.4937     75.9762
   564.2500      0.0000    887.1086      3.5773     73.7191
   564.5000      0.0000    893.4429      3.6306     72.6466
   564.7500      0.0000    899.5007      3.7218     71.9708
   565.0000      0.0000    898.5579      3.9046     71.5170
   565.2500      0.0000    883.0652      4.1627     72.0746
   565.5000      0.0000    849.2223      4.4208     74.4325
   565.7500      0.0000    799.2564      4.6268     78.4290
   566.0000      0.0000    741.3316      4.8037     82.9140
   566.2500      0.0000    688.3843      4.9941     86.2975
   566.5000      0.0000    655.0962      5.1772     87.5326
   566.7500      0.0000    651.3840      5.2737     87.1953
   567.0000      0.0000    675.3290      5.2307     87.1915
   567.2500      0.0000    713.3114      5.0799     88.6530
   567.5000      0.0000    750.1843      4.9118     90.4300
   567.7500      0.0000    779.2081      4.8051     90.4674
   568.0000      0.0000    801.0372      4.7823     88.5536
   568.2500      0.0000    816.9483      4.8175     86.8613
   568.5000      0.0000    827.4547      4.8663     87.4633
   568.7500      0.0000    834.8568      4.8932     89.8604
   569.0000      0.0000    842.1638      4.8852     91.4285
   569.2500      0.0000    849.8507      4.8524     90.3747
   569.5000      0.0000    856.0783      4.8121     88.0487
   569.7500      0.0000    859.5789      4.7751     87.9572
   570.0000      0.0000    860.8658      4.7455     92.2319
   570.2500      0.0000    861.0045      4.7285     99.2080
   570.5000      0.0000    860.1026      4.7353    104.6640
   570.7500      0.0000    856.8870      4.7844    105.2473
   571.0000      0.0000    849.6198      4.8937    100.5979
   571.2500      0.0000    837.8476      5.0591     92.9709
   571.5000      0.0000    823.4638      5.2426     85.6877
   571.7500      0.0000    809.1472      5.3894     81.5335
   572.0000      0.0000    795.6074      5.4625     81.3299
   572.2500      0.0000    781.7347      5.4602     83.4930
   572.5000      0.0000    767.3906      5.4080     85.4733
   572.7500      0.0000    753.7247      5.3400     85.9698
   573.0000      0.0000    740.9748      5.2771     85.5902
   573.2500      0.0000    729.0520      5.2128     85.5952
   573.5000      0.0000    720.7040      5.1235     86.4915
   573.7500      0.0000    721.6151      4.9982     87.7090
   574.0000      0.0000    736.2329      4.8581     88.0151
   574.2500      0.0000    763.4609      4.7454     86.1324
   574.5000      0.0000    796.1125      4.6973     81.3951
   574.7500      0.0000    824.9413      4.7290     74.2697
   575.0000      0.0000    844.2075      4.8361     66.4497
   575.2500      0.0000    853.9434      5.0011     60.2568
   575.5000      0.0000    857.7047      5.1899     57.4264
   575.7500      0.0000    859.0629      5.3492     58.1183
   576.0000      0.0000    859.8781      5.4258     61.1335
   576.2500      0.0000    860.4839      5.3980     64.9943
   576.5000      0.0000    860.5046      5.2893     68.5727
   576.7500      0.0000    859.1738      5.1497     71.0080
   577.0000      0.0000    854.9458      5.0302     71.9047
   577.2500      0.0000    845.4747      4.9664     71.8875
   577.5000      0.0000    829.5912      4.9765     72.4254
   577.7500      0.0000    810.4188      5.0627     74.6875
   578.0000      0.0000    795.1736      5.2043     78.5110
   578.2500      0.0000    788.9581      5.3486     82.4473
   578.5000      0.0000    788.3255      5.4257     84.7724
   578.7500      0.0000    783.5394      5.3982     84.7375
   579.0000      0.0000    768.2504      5.3004     83.2163
   579.2500      0.0000    745.3417      5.2157     82.1805
   579.5000      0.0000    723.0399      5.2107     83.2280
   579.7500      0.0000    707.5130      5.2996     86.2528
   580.0000      0.0000    700.1544      5.4632     89.4032
   580.2500      0.0000    700.1746      5.6739     90.5392
   580.5000      0.0000    707.5980      5.8925     89.1559
   580.7500      0.0000    723.0793      6.0609     86.8818
   581.0000      0.0000    744.8933      6.1260     85.7825
   581.2500      0.0000    767.1503      6.0749     86.3749
   581.5000      0.0000    783.2515      5.9475     87.6579
   581.7500      0.0000    792.2925      5.8122     88.6126
   582.0000      0.0000    800.0591      5.7211     88.9762
   582.2500      0.0000    811.8018      5.6803     88.9083
   582.5000      0.0000    825.4899      5.6622     88.6920
   582.7500      0.0000    833.9885      5.6476     88.7955
   583.0000      0.0000    832.6883      5.6464     89.6780
   583.2500      0.0000    823.9020      5.6767     91.3712
   583.5000      0.0000    814.8857      5.7342     93.4420
   583.7500      0.0000    812.4564      5.7903     95.3373
   584.0000      0.0000    818.7836      5.8174     96.6699
   584.2500      0.0000    830.9600      5.8086     97.2701
   584.5000      0.0000    843.7140      5.7740     97.0815
   584.7500      0.0000    852.8758      5.7273     95.9904
   585.0000      0.0000    857.1594      5.6810     93.7973
   585.2500      0.0000    857.4015      5.6476     90.3765
   585.5000      0.0000    854.3818      5.6322     85.8523
   585.7500      0.0000    847.1683      5.6263     80.7133
   586.0000      0.0000    833.1675      5.6258     75.7767
   586.2500      0.0000    810.1600      5.6547     71.8907
   586.5000      0.0000    778.9963      5.7470     69.6980
   586.7500      0.0000    744.4797      5.8997     69.7540
   587.0000      0.0000    713.2752      6.0619     72.4799
   587.2500      0.0000    690.8486      6.1807     77.5247
   587.5000      0.0000    679.6868      6.2427     83.1815
   587.7500      0.0000    679.1135      6.2658     86.9079
   588.0000      0.0000    686.7481      6.2703     86.9123
   588.2500      0.0000    701.1365      6.2679     83.3291
   588.5000      0.0000    722.7434      6.2604     77.6836
   588.7500      0.0000    751.2861      6.2337     71.3137
   589.0000      0.0000    782.5062      6.1675     64.6900
   589.2500      0.0000    809.2773      6.0650     58.1193
   589.5000      0.0000    826.6440      5.9594     52.4011
   589.7500      0.0000    835.1707      5.8774     48.5610
   590.0000      0.0000    839.1299      5.8115     47.3928
   590.2500      0.0000    842.1364      5.7410     49.4120
   590.5000      0.0000    844.9851      5.6601     54.7301
   590.7500      0.0000    847.1274      5.5723     62.5403
   591.0000      0.0000    848.9338      5.4727     71.1503
   591.2500      0.0000    851.5647      5.3524     79.1454
   591.5000      0.0000    854.9935      5.2156     86.2819
   591.7500      0.0000    857.0533      5.0826     92.7489
   592.0000      0.0000    854.7939      4.9797     98.1225
   592.2500      0.0000    846.7631      4.9304    101.7331
   592.5000      0.0000    834.4617      4.9471    103.5746
   592.7500      0.0000    821.9549      5.0210    104.0644
   593.0000      0.0000    813.7789      5.1203    103.1252
   593.2500      0.0000    812.5921      5.2043    100.1489
   593.5000      0.0000    817.9822      5.2438     94.9672
   593.7500      0.0000    826.8707      5.2289     88.5582
   594.0000      0.0000    835.4161      5.1662     82.6577
   594.2500      0.0000    841.3564      5.0762     78.6208
   594.5000      0.0000    844.8411      4.9832     76.5145
   594.7500      0.0000    847.1641      4.8964     75.2199
   595.0000      0.0000    849.1270      4.8073     73.4652
   595.2500      0.0000    850.7049      4.7161     70.8564
   595.5000      0.0000    851.7090      4.6505     68.1032
