~Version Information
VERS.                      2.0: CWLS Log ASCII Standard - VERSION 2.0
WRAP.                       NO: One line per depth step
~Well Information Block
STRT.FT               451.7500: 
STOP.FT              1387.0000: 
STEP.FT                 0.2500: 
NULL.                -999.2500: 
COMP.          Petrogulf Corporation: COMPANY
WELL.          Great Plains 22-22R: WELL
FLD.           Purgatoire River: FIELD
LOC.           2042' FNL & 1657' FWL--: LOCATION
PROV.                 Colorado: PROVINCE
CNTY.               Las Animas: COUNTRY
SRVC.                Patterson: SERVICE COMPANY
DATE.          Fri Sep 09 10:42:01 2005: LOG DATE
UWI.           05 071 08028 00: UNIQUE WELL ID
~Curve Information Block
DEPT.FT            0 000 00 00: Depth
SP.mV                         : DIL Spontaneous Potential
RILD.Ohm-m                    : DIL Deep Resistivity
RILM.Ohm-m                    : DIL Medium Resistivity
RLL3.Ohm-m                    : DIL Shallow Resistivity
GR.GAPI                       : Gamma Ray
~Parameter Information Block
~A  Depth        SP         RILD        RILM        RLL3         GR     
# ...
   983.7500     81.0998      7.7330      7.9278      8.6773    126.4584
   984.0000     80.7436      7.7184      7.9809      9.1276    126.1442
   984.2500     80.3859      7.7315      8.0369      9.5166    126.3062
   984.5000     80.0430      7.7709      8.0926      9.7883    126.9121
   984.7500     79.7308      7.8348      8.1498      9.9191    127.2586
   985.0000     79.4595      7.9224      8.2138      9.9237    127.1155
   985.2500     79.2332      8.0330      8.2910      9.8483    126.4335
   985.5000     79.0520      8.1642      8.3866      9.7545    124.9569
   985.7500     78.9155      8.3115      8.5026      9.7030    124.2438
   986.0000     78.8221      8.4696      8.6386      9.7379    124.2705
   986.2500     78.7675      8.6338      8.7932      9.8727    124.7602
   986.5000     78.7437      8.8024      8.9672     10.0829    124.7902
   986.7500     78.7413      8.9748      9.1661     10.3161    123.6115
   987.0000     78.7518      9.1502      9.4005     10.5281    119.9829
   987.2500     78.7671      9.3263      9.6844     10.7420    116.9231
   987.5000     78.7775      9.5000     10.0298     11.0974    112.4240
   987.7500     78.7708      9.6706     10.4378     11.8162    109.6421
   988.0000     78.7355      9.8404     10.8904     13.0452    105.5590
   988.2500     78.6654     10.0147     11.3476     14.6661    102.9909
   988.5000     78.5608     10.1994     11.7572     16.2584    100.2477
   988.7500     78.4246     10.4005     12.0762     17.3031     99.7201
   989.0000     78.2573     10.6238     12.2922     17.4863    101.1099
   989.2500     78.0550     10.8756     12.4290     16.8701    103.0538
   989.5000     77.8106     11.1609     12.5333     15.8348    106.1529
   989.7500     77.5180     11.4813     12.6555     14.8788    107.6322
   990.0000     77.1780     11.8317     12.8346     14.4071    108.5660
   990.2500     76.8023     12.2009     13.0932     14.5700    108.5530
   990.5000     76.4100     12.5755     13.4381     15.2083    107.9736
   990.7500     76.0200     12.9467     13.8651     15.9861    107.1272
   991.0000     75.6446     13.3147     14.3650     16.6864    104.7771
   991.2500     75.2890     13.6893     14.9298     17.4329    102.4359
   991.5000     74.9533     14.0869     15.5564     18.5934     97.8954
   991.7500     74.6354     14.5265     16.2464     20.4137     94.2183
   992.0000     74.3335     15.0259     17.0029     22.7180     88.1832
   992.2500     74.0483     15.5983     17.8298     24.9751     84.6536
   992.5000     73.7845     16.2518     18.7354     26.7034     81.7623
   992.7500     73.5505     16.9912     19.7397     27.8861     81.5656
   993.0000     73.3553     17.8225     20.8769     29.0453     82.1967
   993.2500     73.2049     18.7560     22.1878     30.9031     82.0502
   993.5000     73.1031     19.8005     23.7034     33.8872     80.2416
   993.7500     73.0531     20.9490     25.4259     37.8431     78.2460
   994.0000     73.0594     22.1641     27.3166     42.1129     74.7082
   994.2500     73.1247     23.3781     29.3021     45.8762     72.2437
   994.5000     73.2476     24.5135     31.2988     48.5512     68.9049
   994.7500     73.4229     25.5120     33.2434     50.0671     67.2986
   995.0000     73.6452     26.3452     35.1058     50.8852     66.2299
   995.2500     73.9137     26.9954     36.8713     51.7924     66.3105
   995.5000     74.2341     27.4286     38.5026     53.6233     66.8323
   995.7500     74.6169     27.5952     39.9009     57.0468     66.7871
   996.0000     75.0704     27.4664     40.8819     62.4003     65.2082
   996.2500     75.5942     27.0743     41.1983     69.4100     63.1759
   996.5000     76.1777     26.5108     40.6372     76.7402     60.1685
   996.7500     76.8044     25.8817     39.1653     81.8257     59.6160
   997.0000     77.4571     25.2560     36.9990     81.7347     62.8301
   997.2500     78.1186     24.6454     34.5115     74.9951     67.6789
   997.5000     78.7675     24.0217     32.0557     62.9861     77.0133
   997.7500     79.3747     23.3546     29.8493     49.4330     82.9203
   998.0000     79.9081     22.6431     27.9638     38.2105     89.3900
   998.2500     80.3446     21.9218     26.3717     31.2566     92.1985
   998.5000     80.6803     21.2433     25.0018     28.1324     95.7516
   998.7500     80.9302     20.6532     23.7829     27.0992     98.4378
   999.0000     81.1201     20.1756     22.6745     26.4869    102.6825
   999.2500     81.2759     19.8137     21.6792     25.4226    104.8739
   999.5000     81.4166     19.5595     20.8368     23.8408    106.2904
   999.7500     81.5538     19.4033     20.2053     22.1438    106.2035
  1000.0000     81.6926     19.3374     19.8396     20.8438    105.7530
  1000.2500     81.8351     19.3546     19.7774     20.3504    105.7750
  1000.5000     81.9839     19.4451     20.0315     20.9283    106.0987
  1000.7500     82.1442     19.5982     20.5840     22.7390    105.9495
  1001.0000     82.3243     19.8080     21.3816     25.8487    104.3681
  1001.2500     82.5327     20.0791     22.3373     30.1311    102.2269
  1001.5000     82.7750     20.4263     23.3492     35.0850     97.4294
  1001.7500     83.0519     20.8644     24.3441     39.7265     93.3731
  1002.0000     83.3584     21.3965     25.3237     42.8632     86.5577
  1002.2500     83.6841     22.0027     26.3800     43.9586     81.7719
  1002.5000     84.0150     22.6343     27.6628     44.1870     74.3456
  1002.7500     84.3399     23.2130     29.3140     46.6185     69.3312
  1003.0000     84.6579     23.6373     31.3869     54.8315     62.2261
  1003.2500     84.9847     23.7989     33.7509     70.6748     58.1127
  1003.5000     85.3500     23.6083     35.9954     92.6827     53.2559
  1003.7500     85.7886     23.0253     37.4298    115.9409     51.0970
  1004.0000     86.3275     22.0806     37.3427    133.3798     50.0771
  1004.2500     86.9740     20.8697     35.4703    138.3933     51.2908
  1004.5000     87.7107     19.5187     32.2285    128.1225     56.2556
  1004.7500     88.4998     18.1424     28.4043    105.4115     61.4617
  1005.0000     89.2936     16.8200     24.6735     77.5395     71.3841
  1005.2500     90.0462     15.5938     21.3883     52.2947     78.9100
  1005.5000     90.7210     14.4808     18.6359     34.2645     90.4783
  1005.7500     91.2940     13.4838     16.3717     23.7745     97.6530
  1006.0000     91.7528     12.5988     14.5163     18.4506    106.8131
  1006.2500     92.0934     11.8174     12.9999     15.5653    111.8668
  1006.5000     92.3178     11.1299     11.7716     13.4723    118.3603
  1006.7500     92.4328     10.5267     10.7931     11.7090    122.1694
  1007.0000     92.4484      9.9996     10.0307     10.3755    126.9322
  1007.2500     92.3787      9.5420      9.4501      9.5724    129.1496
  1007.5000     92.2439      9.1479      9.0164      9.2268    130.6896
  1007.7500     92.0694      8.8124      8.6951      9.1783    130.6840
  1008.0000     91.8823      8.5311      8.4563      9.2868    129.8860
  1008.2500     91.7049      8.3003      8.2771      9.4614    129.2768
  1008.5000     91.5504      8.1162      8.1421      9.6380    128.5791
  1008.7500     91.4229      7.9737      8.0423      9.7626    128.1305
  1009.0000     91.3186      7.8664      7.9728      9.8073    127.1571
  1009.2500     91.2264      7.7871      7.9304      9.7952    126.4108
  1009.5000     91.1284      7.7296      7.9115      9.7931    125.8397
  1009.7500     91.0030      7.6888      7.9113      9.8602    126.0819
  1010.0000     90.8306      7.6619      7.9238      9.9937    126.7932
  1010.2500     90.6001      7.6477      7.9423     10.1273    126.7570
  1010.5000     90.3108      7.6457      7.9601     10.1849    125.3263
  1010.7500     89.9711      7.6553      7.9721     10.1338    123.9414
  1011.0000     89.5935      7.6746      7.9763      9.9901    122.8493
  1011.2500     89.1919      7.7010      7.9745      9.7936    123.4695
  1011.5000     88.7773      7.7310      7.9725      9.5966    126.5315
