~Version Information
 VERS.                                  2.0 : CWLS LAS VERSION
 WRAP.                                   NO : WRAPING MODE
 SWARE .                 MController 2.5.0N : SOFTWARE VERSION
~Well Information
 WELL.                    Corkscrew 33-12Tr : WELL
 COMP.    Pioneer Natural Resources USA Inc : COMPANY
 FLD.                      Purgatoire River : FIELD
 LOC.                   NW/SE Sec T33S R67W : LOCATION
 DATE.                      3/23-25,28/2005 : DATE(S) LOGGED
 SRVC.       Blanco Geological Services LLC : SERVICE COMPANY
 STAT.                                   CO : STATE
 CNTY.                           Las Animas : COUNTY
 CTRY.                                  USA : COUNTRY
 API.                       05-071-08295-00 : API NUMBER
 STRT.FT                             609.00 : START DEPTH
 STOP.FT                            1871.00 : STOP DEPTH
 STEP.FT                               1.00 : DEPTH INCREMENT
 NULL.                                -9999 : NULL VALUE
~Curve information
 DEPTH.FT                                   :
 ROP.MIN/FT                                 :
 GAS.UNITS                                  :
~ASCII Log data
# ...
      1209.0         0.58          4.7 
      1210.0         0.25          6.3 
      1211.0         0.25          6.3 
      1212.0         0.58          5.8 
      1213.0         0.25          5.1 
      1214.0         0.25          6.0 
      1215.0         0.58          7.5 
      1216.0         0.25          6.5 
      1217.0         0.25          6.5 
      1218.0         0.58          5.4 
      1219.0         0.58          4.6 
      1220.0         0.25          4.4 
      1221.0         0.25          3.9 
      1222.0         0.25          5.0 
      1223.0         0.33          6.1 
      1224.0         0.50          6.3 
      1225.0         0.67          4.8 
      1226.0         0.50          4.5 
      1227.0         0.50          4.8 
      1228.0         0.58          4.6 
      1229.0         0.50          4.2 
      1230.0         0.25          4.9 
      1231.0         0.58          5.3 
      1232.0         0.50          5.4 
      1233.0         0.25          5.1 
      1234.0         0.58          5.4 
      1235.0         0.25          5.1 
      1236.0         0.50          6.1 
      1237.0         0.83          6.9 
      1238.0         0.50          5.4 
      1239.0         0.83          6.2 
      1240.0         0.25          5.3 
      1241.0         0.25          5.5 
      1242.0         0.83          5.1 
      1243.0         0.58          4.5 
      1244.0         0.50          4.8 
      1245.0         0.50          5.0 
      1246.0         0.58          4.9 
      1247.0         0.25          5.0 
      1248.0         0.25          4.2 
      1249.0         0.58          5.3 
      1250.0         0.25          4.4 
      1251.0         0.50          4.9 
      1252.0         0.33          3.9 
      1253.0         0.25          3.7 
      1254.0         0.50          4.4 
      1255.0         0.58          8.0 
      1256.0         0.25          6.2 
      1257.0         0.67          5.1 
      1258.0         0.25          4.4 
      1259.0         0.75          4.5 
      1260.0         0.50          5.5 
      1261.0         0.25          3.9 
      1262.0         0.58          5.0 
      1263.0         0.25          4.9 
      1264.0         0.50          5.3 
      1265.0         0.33          4.6 
      1266.0         0.50          4.9 
      1267.0         0.25          4.9 
      1268.0         0.58          4.8 
      1269.0         0.50          5.1 
      1270.0         0.25          4.8 
      1271.0         0.58          5.1 
      1272.0         0.25          4.8 
      1273.0         0.50          4.8 
      1274.0         0.33          4.8 
      1275.0         0.25          4.4 
      1276.0         0.50          4.8 
      1277.0         0.25          5.5 
      1278.0         0.33          4.4 
      1279.0         0.25          3.2 
      1280.0         0.25          3.7 
      1281.0         0.25          4.0 
      1282.0         0.33          3.8 
      1283.0         0.25          3.5 
      1284.0         0.25          6.1 
      1285.0         0.25          6.4 
      1286.0         0.25          4.2 
      1287.0         0.58          4.8 
      1288.0         0.25          4.3 
      1289.0         0.50          4.4 
      1290.0         0.50          5.4 
      1291.0         0.25          4.6 
      1292.0         0.33          5.1 
      1293.0         0.50          5.2 
      1294.0         0.25          5.1 
      1295.0         0.25          5.2 
      1296.0         0.58          5.4 
      1297.0         0.50          4.6 
      1298.0         0.92          5.0 
      1299.0         0.25          4.7 
      1300.0         0.50          4.4 
      1301.0         0.25          4.1 
      1302.0         0.33          5.2 
      1303.0         0.25          5.5 
      1304.0         0.50          5.4 
      1305.0         0.25          4.2 
      1306.0         0.33          4.8 
      1307.0         0.25          6.3 
      1308.0         0.50          6.6 
      1309.0         0.33          6.6 
      1310.0         0.25          6.1 
      1311.0         0.50          5.7 
      1312.0         0.25          4.8 
      1313.0         0.33          4.6 
      1314.0         0.25          4.5 
      1315.0         0.25          5.1 
      1316.0         0.25          4.6 
      1317.0         0.33          3.8 
      1318.0         0.25          4.0 
      1319.0         0.25          5.2 
      1320.0         0.25          4.6 
      1321.0         0.25          5.5 
      1322.0         0.33          5.7 
      1323.0         0.25          5.0 
      1324.0         0.25          4.4 
      1325.0         0.25          4.7 
      1326.0         0.25          4.1 
      1327.0         0.33          3.9 
      1328.0         0.25          4.7 
      1329.0         0.25          4.6 
      1330.0         0.58          5.1 
      1331.0         0.25          4.1 
      1332.0         0.25          6.1 
      1333.0         0.83          5.9 
      1334.0         0.33          4.2 
      1335.0         0.58          5.3 
      1336.0         0.83          4.7 
      1337.0         0.25          4.5 
      1338.0         0.58          4.2 
      1339.0         0.50          4.2 
      1340.0         0.83          5.9 
      1341.0         0.50          5.8 
      1342.0         0.83         89.3 
      1343.0         0.75          4.6 
      1344.0         0.25          4.1 
      1345.0         0.75          4.9 
      1346.0         0.83          4.6 
      1347.0         1.08          7.0 
      1348.0         0.83          7.2 
      1349.0         0.83          5.4 
      1350.0         1.42          5.1 
      1351.0         0.75          4.4 
      1352.0         0.83          4.7 
      1353.0         0.42          6.5 
      1354.0         0.83          6.4 
      1355.0         0.58          4.2 
      1356.0         0.83          4.1 
      1357.0         0.50          4.4 
      1358.0         0.58          5.6 
      1359.0         0.50          5.7 
      1360.0         0.58          4.9 
      1361.0         0.50          4.7 
      1362.0         0.58          4.1 
      1363.0         0.83          4.2 
      1364.0         0.83          4.7 
      1365.0         0.92          6.0 
      1366.0         0.50          6.5 
      1367.0         0.58          5.1 
      1368.0         1.25          6.8 
      1369.0         0.92          6.0 
      1370.0         0.58          7.2 
      1371.0         0.75          7.7 
      1372.0         0.83          7.5 
      1373.0         0.92          7.1 
      1374.0         0.50          7.1 
      1375.0         1.08        109.6 
      1376.0         0.92         55.2 
      1377.0         0.58          5.2 
      1378.0         1.00          5.0 
      1379.0         0.67          6.1 
      1380.0         1.17          8.7 
      1381.0         0.75          7.6 
      1382.0         0.92          4.8 
      1383.0         0.75          5.1 
      1384.0         1.00          6.8 
      1385.0         0.42         12.8 
      1386.0         1.17         11.5 
      1387.0         1.00          5.4 
      1388.0         0.58          5.5 
      1389.0         0.92          6.5 
      1390.0         0.67          6.7 
      1391.0         0.83          7.9 
      1392.0         1.25         10.1 
      1393.0         0.75         10.5 
      1394.0         1.17          7.5 
      1395.0         0.67          6.8 
      1396.0         0.83          6.3 
      1397.0         0.75          6.8 
      1398.0         0.50          7.6 
      1399.0         0.75          7.1 
      1400.0         0.58          5.2 
      1401.0         0.92          7.0 
      1402.0         0.50          7.1 
      1403.0         0.92          7.4 
      1404.0         0.50          6.8 
      1405.0         0.92          6.8 
      1406.0         0.67          7.0 
      1407.0         0.75          6.8 
      1408.0         0.75          8.0 
