~Version Information
VERS.                      2.0: CWLS Log ASCII Standard - VERSION 2.0
WRAP.                       NO: One line per depth step
~Well Information Block
STRT.FT               860.0000: 
STOP.FT              2733.7500: 
STEP.FT                 0.2500: 
NULL.                -999.2500: 
COMP.          Pioneer Natural Resources: COMPANY
WELL.          Beacon 11-18 Tr: WELL
FLD.           Purgatoire River: FIELD
LOC.           409' FNL & 203' FWL: LOCATION
PROV.                 Colorado: PROVINCE
CNTY.               Las Animas: COUNTRY
SRVC.                Patterson: SERVICE COMPANY
DATE.          Sun Jan 16 19:36:19 2005: LOG DATE
UWI.           05 071 08251 00: UNIQUE WELL ID
~Curve Information Block
DEPT.FT            0 000 00 00: Depth
SN.Ohm-m                      : IEL Short Normal
SP.mV                         : IEL Spontaneous Potential
DIR.Ohm-m                     : IEL Induction Resistivity
GR.GAPI                       : Gamma Ray
~Parameter Information Block
~A  Depth        SN          SP         DIR          GR     
# ...
  2568.5000      7.1752      8.3504      7.8276    143.1173
  2568.7500      7.0495      8.3477      7.7158    144.4350
  2569.0000      6.9225      8.3184      7.6063    147.6355
  2569.2500      6.8187      8.2545      7.5133    149.4130
  2569.5000      6.7542      8.1537      7.4458    149.5448
  2569.7500      6.7293      8.0205      7.4083    147.5388
  2570.0000      6.7393      7.8645      7.4023    142.1272
  2570.2500      6.7921      7.6973      7.4279    137.5950
  2570.5000      6.9081      7.5297      7.4851    130.1049
  2570.7500      7.1022      7.3700      7.5736    124.8811
  2571.0000      7.3621      7.2249      7.6908    117.5146
  2571.2500      7.6435      7.1016      7.8291    113.7021
  2571.5000      7.8884      7.0103      7.9739    110.8030
  2571.7500      8.0549      6.9668      8.1032    111.0148
  2572.0000      8.1326      6.9899      8.1910    114.3614
  2572.2500      8.1331      7.0948      8.2149    118.2071
  2572.5000      8.0718      7.2848      8.1638    125.1851
  2572.7500      7.9581      7.5452      8.0426    129.8133
  2573.0000      7.7981      7.8440      7.8685    135.6786
  2573.2500      7.6018      8.1407      7.6630    138.5991
  2573.5000      7.3870      8.3989      7.4450    141.5417
  2573.7500      7.1745      8.5975      7.2287    142.8511
  2574.0000      6.9796      8.7348      7.0244    144.5855
  2574.2500      6.8067      8.8252      6.8375    145.8647
  2574.5000      6.6529      8.8891      6.6690    147.8418
  2574.7500      6.5146      8.9431      6.5153    148.9240
  2575.0000      6.3901      8.9942      6.3713    150.0805
  2575.2500      6.2789      9.0402      6.2334    150.8796
  2575.5000      6.1806      9.0747      6.1017    152.8218
  2575.7500      6.0955      9.0931      5.9811    154.5867
  2576.0000      6.0236      9.0958      5.8789    156.9598
  2576.2500      5.9614      9.0881      5.8011    157.7177
  2576.5000      5.9038      9.0787      5.7479    157.6133
  2576.7500      5.8487      9.0775      5.7129    157.5264
  2577.0000      5.7992      9.0946      5.6845    158.9872
  2577.2500      5.7585      9.1388      5.6508    161.2359
  2577.5000      5.7221      9.2154      5.6038    165.3255
  2577.7500      5.6794      9.3249      5.5416    167.5196
  2578.0000      5.6247      9.4612      5.4679    168.9585
  2578.2500      5.5687      9.6130      5.3894    168.6897
  2578.5000      5.5338      9.7661      5.3132    167.2173
  2578.7500      5.5354      9.9077      5.2443    166.0218
  2579.0000      5.5675     10.0306      5.1858    164.0872
  2579.2500      5.6100     10.1352      5.1385    162.3567
  2579.5000      5.6452     10.2274      5.1034    158.6893
  2579.7500      5.6669     10.3151      5.0829    155.9711
  2580.0000      5.6783     10.4033      5.0811    152.9917
  2580.2500      5.6865     10.4919      5.1022    152.1941
  2580.5000      5.6968     10.5772      5.1486    152.0755
  2580.7500      5.7109     10.6558      5.2206    151.9122
  2581.0000      5.7304     10.7277      5.3170    150.5853
  2581.2500      5.7636     10.7977      5.4368    148.7684
  2581.5000      5.8271     10.8725      5.5787    144.7602
  2581.7500      5.9391     10.9575      5.7389    141.7264
  2582.0000      6.1069     11.0537      5.9119    138.2365
  2582.2500      6.3207     11.1557      6.0906    137.4094
  2582.5000      6.5575     11.2526      6.2688    138.1102
  2582.7500      6.7942     11.3300      6.4406    138.7100
  2583.0000      7.0171     11.3726      6.6008    137.9296
  2583.2500      7.2214     11.3666      6.7464    136.2332
  2583.5000      7.4042     11.3026      6.8786    133.5736
  2583.7500      7.5635     11.1771      7.0021    132.7988
  2584.0000      7.7020     10.9949      7.1231    133.6443
  2584.2500      7.8295     10.7704      7.2475    135.0070
  2584.5000      7.9567     10.5266      7.3796    137.0419
  2584.7500      8.0855     10.2923      7.5224    138.0994
  2585.0000      8.2034     10.0951      7.6770    139.1756
  2585.2500      8.2830      9.9550      7.8414    139.2205
  2585.5000      8.2877      9.8803      8.0093    137.2272
  2585.7500      8.1859      9.8670      8.1680    134.3414
  2586.0000      7.9710      9.9034      8.3006    128.8277
  2586.2500      7.6755      9.9761      8.3909    125.4962
  2586.5000      7.3666     10.0751      8.4315    122.7940
  2586.7500      7.1249     10.1960      8.4272    123.2812
  2587.0000      7.0145     10.3386      8.3908    127.8804
  2587.2500      7.0591     10.5026      8.3341    132.9212
  2587.5000      7.2352     10.6818      8.2610    140.9240
  2587.7500      7.4873     10.8609      8.1682    144.8375
  2588.0000      7.7593     11.0159      8.0520    146.8022
  2588.2500      8.0222     11.1209      7.9155    145.6414
  2588.5000      8.2809     11.1576      7.7727    141.9078
  2588.7500      8.5569     11.1225      7.6456    139.1869
  2589.0000      8.8633     11.0288      7.5583    135.9067
  2589.2500      9.1897     10.9009      7.5315    134.6727
  2589.5000      9.5051     10.7662      7.5786    134.9995
  2589.7500      9.7778     10.6474      7.7042    136.7513
  2590.0000      9.9968     10.5585      7.9052    140.0375
  2590.2500     10.1776     10.5039      8.1722    140.9004
  2590.5000     10.3488     10.4784      8.4933    138.2023
  2590.7500     10.5344     10.4678      8.8561    134.1798
  2591.0000     10.7493     10.4514      9.2500    127.3257
  2591.2500     11.0078     10.4060      9.6671    123.3909
  2591.5000     11.3319     10.3130     10.1039    119.0164
  2591.7500     11.7462     10.1645     10.5627    117.0184
  2592.0000     12.2597      9.9675     11.0511    115.1271
  2592.2500     12.8497      9.7419     11.5777    114.3485
  2592.5000     13.4624      9.5141     12.1430    113.2585
  2592.7500     14.0321      9.3082     12.7297    112.2200
  2593.0000     14.5069      9.1400     13.2988    109.6821
  2593.2500     14.8699      9.0154     13.7964    107.0634
  2593.5000     15.1430      8.9352     14.1724    101.6388
  2593.7500     15.3686      8.9014     14.4021     97.4977
  2594.0000     15.5784      8.9205     14.4957     92.2597
  2594.2500     15.7719      9.0016     14.4903     90.4698
  2594.5000     15.9204      9.1496     14.4303     91.0278
  2594.7500     15.9873      9.3601     14.3497     93.2012
  2595.0000     15.9458      9.6177     14.2642     98.1811
  2595.2500     15.7851      9.9012     14.1742    102.3113
  2595.5000     15.5113     10.1895     14.0727    109.2165
  2595.7500     15.1470     10.4675     13.9547    113.5722
  2596.0000     14.7283     10.7272     13.8223    117.9315
  2596.2500     14.2954     10.9670     13.6836    118.6885
  2596.5000     13.8846     11.1896     13.5468    116.9607
  2596.7500     13.5276     11.4004     13.4142    114.8571
  2597.0000     13.2503     11.6058     13.2796    111.9927
  2597.2500     13.0605     11.8109     13.1297    110.7200
  2597.5000     12.9329     12.0157     12.9471    109.4101
  2597.7500     12.8128     12.2126     12.7148    108.6399
  2598.0000     12.6436     12.3856     12.4210    108.1912
  2598.2500     12.3971     12.5145     12.0634    109.2561
  2598.5000     12.0848     12.5821     11.6506    113.8206
  2598.7500     11.7445     12.5823     11.2005    118.3179
  2599.0000     11.4137     12.5246     10.7354    125.1532
  2599.2500     11.1079     12.4315     10.2759    128.8735
  2599.5000     10.8174     12.3309      9.8356    133.0968
  2599.7500     10.5213     12.2444      9.4201    135.3604
  2600.0000     10.2051     12.1784      9.0298    138.1382
  2600.2500      9.8682     12.1217      8.6651    139.4672
  2600.5000      9.5221     12.0518      8.3300    140.9230
  2600.7500      9.1859     11.9445      8.0318    142.1311
  2601.0000      8.8801     11.7838      7.7783    145.1944
  2601.2500      8.6191     11.5667      7.5746    147.9034
  2601.5000      8.4054     11.3011      7.4213    151.5798
  2601.7500      8.2337     11.0004      7.3143    152.9137
