~Version Information
 VERS.                                  2.0 : CWLS LAS VERSION
 WRAP.                                   NO : WRAPING MODE
 SWARE .                 MController 2.5.0I : SOFTWARE VERSION
~Well Information
 WELL.                       Montoya 12-41v : WELL
 COMP.                       Petrogulf Corp : COMPANY
 FLD.                      Purgatoire River : FIELD
 LOC.                NE/NE Sec 12 T33S R68W : LOCATION
 DATE.                              8/10/04 : DATE(S) LOGGED
 SRVC.       Blanco Geological Services LLc : SERVICE COMPANY
 STAT.                                   CO : STATE
 CNTY.                           Las Animas : COUNTY
 CTRY.                                  USA : COUNTRY
 API.                       05-071-08139-00 : API NUMBER
 STRT.FT                            698.00 : START DEPTH
 STOP.FT                            2660.00 : STOP DEPTH
 STEP.FT                               1.00 : DEPTH INCREMENT
 NULL.                                 9999 : NULL VALUE
~Curve information
 DEPTH.FT                                   :
 ROP.MIN/FT                                 :
 GAS.UNITS                                  :
~ASCII Log data
# ...
      1090.0          0.3          3.5 
      1091.0          0.2          3.5 
      1092.0          0.3          3.3 
      1093.0          0.3          3.5 
      1094.0          0.2          3.5 
      1095.0          0.3          3.4 
      1096.0          3.8          3.8 
      1097.0          0.1          3.5 
      1098.0          0.3          3.5 
      1099.0          0.3          3.5 
      1100.0          0.2          3.3 
      1101.0          0.2          3.3 
      1102.0          0.3          3.0 
      1103.0          0.3          3.2 
      1104.0          0.3          3.3 
      1105.0          0.3          3.2 
      1106.0          0.3          3.3 
      1107.0          0.2          3.5 
      1108.0          0.2          3.5 
      1109.0          0.3          3.3 
      1110.0          0.2          3.1 
      1112.0          0.2          2.9 
      1112.0          0.2          3.0 
      1113.0          0.2          3.1 
      1114.0          0.3          3.2 
      1115.0          0.3          3.4 
      1116.0          0.3          3.1 
      1117.0          0.4          3.3 
      1118.0          0.4          3.2 
      1119.0          0.3          3.0 
      1120.0          0.3          3.0 
      1121.0          0.3          3.2 
      1122.0          0.3          3.2 
      1123.0          0.3          3.0   
      1124.0          9.0         25.8 
      1125.0          6.7         33.9 
      1126.0         29.8         67.5 
      1127.0          0.3          1.7 
      1128.0          0.2          2.1 
      1129.0          0.3          2.1 
      1130.0          2.5          2.4 
      1131.0          0.1          2.5 
      1132.0          0.2          2.3 
      1133.0          0.2          2.2 
      1134.0          0.3          2.8 
      1135.0          0.4          2.5 
      1136.0          0.4          2.4 
      1137.0          0.2          2.3 
      1138.0          0.2          2.4 
      1139.0          0.3          2.6 
      1140.0          0.3          2.4 
      1141.0          0.3          2.3 
      1142.0          0.3          2.4 
      1143.0          0.2          2.4 
      1144.0          0.2          2.2 
      1145.0          0.3          2.3 
      1146.0          0.2          2.3
      1147.0          0.3          2.3 
      1148.0          0.2          2.4 
      1149.0          0.2          2.6 
      1150.0          0.3          2.6 
      1151.0          0.2          2.5 
      1152.0          0.2          2.6 
      1153.0          0.2          2.7 
      1154.0          0.2          2.7 
      1155.0          0.2          2.8 
      1156.0          0.2          2.8 
      1157.0          0.2          2.9 
      1158.0          0.3          2.8 
      1159.0          0.3          3.0 
      1160.0          0.2          3.2 
      1161.0          0.2          3.2 
      1162.0          0.3          3.1 
      1163.0          0.3          3.3 
      1164.0          0.1          3.5 
      1165.0          0.1          3.2 
      1166.0          3.0          3.8 
      1167.0          0.7          3.8 
      1168.0          0.3          3.7 
      1169.0          0.3          3.8 
      1170.0          0.4          3.7 
      1171.0          0.3          3.7 
      1172.0          0.3          3.4 
      1173.0          0.3          3.7 
      1174.0          0.3          3.5 
      1175.0          0.2          3.7 
      1176.0          0.2          3.7 
      1177.0          0.3          3.6 
      1178.0          0.2          3.5 
      1179.0          0.2          3.8 
      1180.0          0.2          3.6 
      1181.0          0.3          3.6 
      1182.0          0.1          3.6 
      1183.0          0.1          3.4 
      1184.0          0.2          3.3 
      1185.0          0.2          3.1 
      1186.0          0.2          3.3 
      1187.0          0.3          3.5 
      1188.0          0.3          3.6 
      1189.0          0.3          3.2 
      1190.0          0.3          3.5 
      1191.0          0.2          3.5 
      1192.0          0.3          3.3 
      1193.0          0.3          3.5 
      1194.0          0.2          3.5 
      1195.0          0.3          3.4 
      1196.0          3.8          3.8 
      1197.0          0.1          3.5 
      1198.0          0.3          3.5 
      1199.0          0.3          3.5 
      1200.0          0.2          3.3 
      1201.0          0.2          3.3 
      1202.0          0.3          3.0 
      1203.0          0.3          3.2 
      1204.0          0.3          3.3 
      1205.0          0.3          3.2 
      1206.0          0.3          3.3 
      1207.0          0.2          3.5 
      1208.0          0.2          3.5 
      1209.0          0.3          3.3 
      1210.0          0.2          3.1 
      1212.0          0.2          2.9 
      1212.0          0.2          3.0 
      1213.0          0.2          3.1 
      1214.0          0.3          3.2 
      1215.0          0.3          3.4 
      1216.0          0.3          3.1 
      1217.0          0.4          3.3 
      1218.0          0.4          3.2 
      1219.0          0.3          3.0 
      1220.0          0.3          3.0 
      1221.0          0.3          3.2 
      1222.0          0.3          3.2 
      1223.0          0.3          3.0 
      1224.0          0.3          3.3 
      1225.0          0.2          3.1 
      1226.0          2.9          3.5 
      1227.0          0.3          3.1 
      1228.0          0.3          3.2 
      1229.0          0.3          3.3 
      1230.0          0.2          3.1 
      1231.0          0.2          3.1 
      1232.0          0.2          2.8 
      1233.0          0.2          3.1 
      1234.0          0.2          2.8 
      1235.0          0.2          2.8 
      1236.0          0.4          3.0 
      1237.0          0.5          2.6 
      1238.0          0.3          2.6 
      1239.0          0.3          2.6 
      1240.0          0.3          2.6 
      1241.0          0.3          2.9 
      1242.0          0.2          2.8 
      1243.0          0.3          2.8 
      1244.0          0.2          2.6 
      1245.0          0.3          2.7 
      1246.0          0.3          2.6 
      1247.0          0.3          2.5 
      1248.0          0.3          2.2 
      1249.0          0.3          2.4 
      1250.0          0.4          2.4 
      1251.0          0.5          2.7 
      1252.0          0.4          2.6 
      1253.0          0.4          2.5 
      1254.0          0.4          2.3 
      1255.0          0.5          2.3 
      1256.0          5.2          2.9 
      1257.0          0.3          2.1 
      1258.0          0.5          2.1 
      1259.0          0.4          2.1 
      1260.0          0.5          2.0 
      1261.0          0.6          2.2 
      1262.0          0.4          2.0 
      1263.0          0.3          2.0 
      1264.0          0.4          2.4 
      1265.0          0.4          2.2 
      1266.0          1.3          2.7 
      1267.0          0.6          2.8 
      1268.0          0.6          2.6 
      1269.0          0.6          2.8 
      1270.0          0.6          2.5 
      1271.0          0.7          2.6 
      1272.0          0.4          2.6 
      1273.0          0.4          2.6 
      1274.0          0.6          2.5 
      1275.0          0.9          2.7 
      1276.0          0.9          2.8 
      1277.0          0.7          2.8 
      1278.0          0.6          2.6 
      1279.0          0.6          2.6 
      1280.0          0.6          2.6 
      1281.0          0.6          2.5 
      1282.0          0.7          2.3 
      1283.0          0.7          2.3 
      1284.0          0.6          1.8 
      1285.0          0.4          1.9 
      1286.0          5.7          3.3 
      1287.0          0.8          2.2 
      1288.0          0.7          1.8 
      1289.0          0.5          1.7 
