~Version Information
VERS.                      2.0: CWLS Log ASCII Standard - VERSION 2.0
WRAP.                       NO: One line per depth step
~Well Information Block
STRT.FT               510.0000: 
STOP.FT              1861.5000: 
STEP.FT                 0.1000: 
NULL.                -999.2500: 
COMP.          Pioneer Natural Resources: COMPANY
WELL.           Guajardo 24-16: WELL
FLD.           Purgatoire River: FIELD
LOC.           883' FSL & 2147' FWL: LOCATION
PROV.                 Colorado: PROVINCE
CNTY.               Las Animas: COUNTRY
SRVC.                Patterson: SERVICE COMPANY
DATE.          Mon Aug 08 09:13:01 2005: LOG DATE
UWI.           05 071 08377 00: UNIQUE WELL ID
~Curve Information Block
DEPT.FT            0 000 00 00: Depth
DCAL.in                       : CDL Caliper
RHOB.g/cc                     : CDL Bulk Density
RHOC.g/cc                     : CDL Density Correction
DPOR.pu                       : CDL Density Porosity
GR.GAPI                       : Gamma Ray
NPOR.pu                       : Neutron Porosity
~Parameter Information Block
~A  Depth       DCAL        RHOB        RHOC        DPOR         GR         NPOR    
# ...
  1220.4000      8.0368      2.5658      0.0275      5.1020    127.3707     22.5578
  1220.5000      8.0475      2.5645      0.0705      5.1841    127.7141     22.7757
  1220.6000      8.0475      2.5577      0.0000      5.5930    127.1302     22.9603
  1220.7000      8.0475      2.5533      0.0424      5.8621    129.7682     23.1963
  1220.8000      8.0463      2.5520      0.0572      5.9419    134.3713     23.5637
  1220.9000      8.0463      2.5553      0.0047      5.7408    137.6275     24.0264
  1221.0000      8.0468      2.5627      0.1009      5.2937    143.3740     24.2790
  1221.1000      8.0468      2.5658      0.0234      5.1010    151.8505     24.0328
  1221.2000      8.0468      2.5739      0.0601      4.6120    154.9721     23.5151
  1221.3000      8.0728      2.5952      0.0194      3.3227    148.6262     23.1581
  1221.4000      8.0728      2.6249      0.0970      1.5233    139.6851     23.1499
  1221.5000      8.0991      2.6586      0.0822     -0.5193    136.3245     23.3522
  1221.6000      8.0991      2.6839      0.0822     -2.0559    136.7316     23.3572
  1221.7000      8.0991      2.6846      0.0772     -2.0940    134.0265     23.0783
  1221.8000      8.1158      2.6701      0.0233     -1.2198    125.3135     22.8794
  1221.9000      8.1158      2.6584      0.0692     -0.5100    114.7693     22.8947
  1222.0000      8.1071      2.6437      0.0389      0.3830    110.4354     23.1332
  1222.1000      8.1071      2.6254     -0.0039      1.4909    112.5138     23.4553
  1222.2000      8.1071      2.6156      0.0217      2.0855    114.7388     23.3747
  1222.3000      8.0618      2.6123      0.0183      2.2869    115.4808     22.8307
  1222.4000      8.0618      2.6071     -0.0103      2.5986    115.7760     22.3117
  1222.5000      8.0529      2.5928      0.0537      3.4688    112.8818     22.0849
  1222.6000      8.0529      2.5622      0.0266      5.3188    107.7668     22.1692
  1222.7000      8.0529      2.5274     -0.0087      7.4279    108.1301     22.4560
  1222.8000      8.0377      2.5033      0.0139      8.8905    115.1870     22.6499
  1222.9000      8.0377      2.4879     -0.0061      9.8242    125.7132     22.7210
  1223.0000      8.0573      2.4813     -0.0269     10.2264    138.4452     22.9927
  1223.1000      8.0573      2.4860      0.0443      9.9366    149.4380     23.3394
  1223.2000      8.0573      2.4964      0.0298      9.3068    152.4508     23.4007
  1223.3000      8.0792      2.5000      0.0386      9.0911    148.7479     23.4112
  1223.4000      8.0792      2.4924      0.0142      9.5487    144.8871     23.8172
  1223.5000      8.0973      2.4882      0.0107      9.8075    141.6335     24.6807
  1223.6000      8.0973      2.5002      0.0110      9.0818    139.4801     25.5510
  1223.7000      8.0973      2.5221      0.0560      7.7501    140.8658     25.7805
  1223.8000      8.1131      2.5398      0.0487      6.6765    144.1700     25.4075
  1223.9000      8.1131      2.5453      0.0601      6.3433    148.2076     25.0403
  1224.0000      8.1278      2.5399      0.0469      6.6715    152.6945     24.8481
  1224.1000      8.1278      2.5319      0.0338      7.1586    154.6324     24.6067
  1224.2000      8.1278      2.5305      0.0548      7.2404    152.7887     24.4538
  1224.3000      8.1315      2.5374      0.0548      6.8269    151.2897     24.5061
  1224.4000      8.1315      2.5483      0.0136      6.1631    151.8602     24.5474
  1224.5000      8.1154      2.5620      0.0373      5.3360    149.2717     24.5782
  1224.6000      8.1154      2.5712      0.0489      4.7769    139.5592     24.5976
  1224.7000      8.1154      2.5699      0.0759      4.8558    128.8669     24.3196
  1224.8000      8.0393      2.5651      0.0240      5.1482    124.0355     23.8921
  1224.9000      8.0393      2.5683      0.0525      4.9504    124.5039     23.7820
  1225.0000      8.0438      2.5830      0.0658      4.0631    128.6969     24.0834
  1225.1000      8.0438      2.5981      0.0529      3.1425    134.6391     24.3060
  1225.2000      8.0438      2.5917      0.0790      3.5354    138.6184     24.0046
  1225.3000      8.0625      2.5630      0.0202      5.2724    138.1900     23.6143
  1225.4000      8.0625      2.5416      0.0034      6.5690    134.3669     23.6019
  1225.5000      8.0428      2.5356      0.0111      6.9348    128.4791     23.7593
  1225.6000      8.0428      2.5276      0.0088      7.4187    121.2141     23.8660
  1225.7000      8.0428      2.5146      0.0480      8.2037    117.6975     24.0437
  1225.8000      8.0438      2.5080      0.0152      8.6045    122.6964     24.1893
  1225.9000      8.0438      2.5131      0.0069      8.2952    132.0923     24.2108
  1226.0000      8.0441      2.5250      0.0167      7.5736    136.5077     24.2092
  1226.1000      8.0441      2.5398      0.0108      6.6808    130.5401     24.1429
  1226.2000      8.0441      2.5519      0.0732      5.9450    121.6722     24.1381
  1226.3000      8.0481      2.5570     -0.0023      5.6337    121.0611     24.2156
  1226.4000      8.0481      2.5623      0.0653      5.3147    125.3304     24.0835
  1226.5000      8.0457      2.5561      0.0771      5.6898    127.0878     23.6766
  1226.6000      8.0457      2.5183      0.0222      7.9807    129.5121     23.0576
  1226.7000      8.0457      2.4734     -0.0226     10.7053    136.0572     22.6133
  1226.8000      8.0489      2.4656     -0.0186     11.1744    143.8469     22.7119
  1226.9000      8.0489      2.4983      0.0107      9.1967    150.3221     23.0593
  1227.0000      8.0384      2.5412      0.0443      6.5914    152.9735     23.2368
  1227.1000      8.0384      2.5695      0.1182      4.8794    148.2033     23.1749
  1227.2000      8.0384      2.5815      0.0351      4.1490    137.2185     23.0749
  1227.3000      8.0308      2.5941      0.0891      3.3861    127.7619     23.2324
  1227.4000      8.0308      2.6157      0.1006      2.0813    125.1901     23.5922
  1227.5000      8.0354      2.6374      0.1371      0.7652    125.2556     23.8694
  1227.6000      8.0354      2.6422      0.1331      0.4715    123.4198     23.9675
  1227.7000      8.0354      2.6286      0.1128      1.2965    122.4460     23.9549
  1227.8000      8.0329      2.6113      0.0942      2.3462    127.0820     23.9843
  1227.9000      8.0329      2.5927      0.0796      3.4697    136.0720     24.1055
  1228.0000      8.0374      2.5735     -0.0204      4.6380    144.8974     24.3253
  1228.1000      8.0374      2.5613      0.0441      5.3765    151.4056     24.6669
  1228.2000      8.0374      2.5493      0.0724      6.1005    153.3252     25.0038
  1228.3000      8.0559      2.5261      0.0782      7.5079    150.8297     25.0258
  1228.4000      8.0559      2.4943      0.0367      9.4339    149.6086     24.6494
  1228.5000      8.0987      2.4683     -0.0263     11.0116    153.8761     24.2886
  1228.6000      8.0987      2.4615      0.0052     11.4261    159.7785     24.3399
  1228.7000      8.0987      2.4762      0.0027     10.5319    162.0515     24.8053
  1228.8000      8.1141      2.5012      0.0650      9.0183    159.7162     25.5388
  1228.9000      8.1141      2.5144      0.0268      8.2197    154.9895     26.3067
  1229.0000      8.1233      2.5111      0.0061      8.4201    150.4488     26.5771
  1229.1000      8.1233      2.5022      0.0956      8.9568    148.7244     26.1187
  1229.2000      8.1233      2.4901      0.0531      9.6927    153.1393     25.6801
  1229.3000      8.1234      2.4794      0.0281     10.3423    161.4488     25.7976
  1229.4000      8.1234      2.4765      0.0396     10.5158    165.5037     26.1034
  1229.5000      8.0890      2.4793      0.0027     10.3474    162.2249     26.0807
  1229.6000      8.0890      2.4784      0.0487     10.3979    156.0159     25.6868
  1229.7000      8.0890      2.4682      0.0113     11.0164    152.4306     25.3398
  1229.8000      8.0880      2.4595      0.0042     11.5461    149.5643     25.2048
  1229.9000      8.0880      2.4623      0.0184     11.3782    144.3340     25.1184
