~Version Information
VERS.                      2.0: CWLS Log ASCII Standard - VERSION 2.0
WRAP.                       NO: One line per depth step
~Well Information Block
STRT.FT               430.0000: 
STOP.FT              2417.0000: 
STEP.FT                 0.1000: 
NULL.                -999.2500: 
COMP.          Evergreen Operating Corporation: COMPANY
WELL.          McCullough 34-32: WELL
FLD.           Purgatorie River: FIELD
LOC.           261' FSL & 2098' FEL: LOCATION
PROV.                 Colorado: PROVINCE
CNTY.               Las Animas: COUNTRY
SRVC.                Patterson: SERVICE COMPANY
DATE.          Mon May 17 11:25:23 2004: LOG DATE
UWI.           05 071 07953 00: UNIQUE WELL ID
~Curve Information Block
DEPT.FT            0 000 00 00: Depth
DCAL.in                       : CDL Caliper
RHOB.g/cc                     : CDL Bulk Density
RHOC.g/cc                     : CDL Density Correction
DPOR.pu                       : CDL Density Porosity
NPOR.pu                       : Neutron Porosity
GR.GAPI                       : Gamma Ray
~Parameter Information Block
~A  Depth       DCAL        RHOB        RHOC        DPOR        NPOR         GR     
# ...
   948.4000      8.2309      2.6756      0.1332     -1.5543     22.2744     88.6981
   948.5000      8.2303      2.6807      0.1292     -1.8582     21.9196     93.9361
   948.6000      8.2303      2.6724      0.1249     -1.3562     22.1690     96.4417
   948.7000      8.2303      2.6523      0.1125     -0.1393     22.6262     91.9719
   948.8000      8.2277      2.6247      0.1005      1.5318     22.7117     85.7166
   948.9000      8.2277      2.6019      0.0547      2.9174     22.8563     82.6211
   949.0000      8.2340      2.5985      0.0550      3.1197     23.4522     85.5655
   949.1000      8.2340      2.6087      0.0742      2.5056     24.0499     89.8702
   949.2000      8.2340      2.6115      0.0893      2.3308     24.3014     87.6952
   949.3000      8.2343      2.6065      0.0465      2.6366     24.4045     80.7328
   949.4000      8.2343      2.6064      0.0482      2.6414     24.5024     78.8747
   949.5000      8.2362      2.6102      0.0772      2.4104     24.6765     87.9359
   949.6000      8.2362      2.6137      0.0689      2.2003     25.0539    101.1240
   949.7000      8.2362      2.6265      0.0579      1.4234     25.3160    108.8428
   949.8000      8.2381      2.6499      0.0798      0.0087     24.9900    109.5994
   949.9000      8.2381      2.6658      0.0484     -0.9568     24.3535    104.5239
   950.0000      8.2314      2.6683      0.0740     -1.1080     23.7764     96.8441
   950.1000      8.2314      2.6682      0.0944     -1.1014     23.3233     91.2572
   950.2000      8.2314      2.6714      0.0151     -1.3000     23.1571     89.0277
   950.3000      8.2288      2.6739      0.0592     -1.4466     23.2924     87.5777
   950.4000      8.2288      2.6645      0.0925     -0.8800     23.2517     83.8565
   950.5000      8.2305      2.6445      0.0399      0.3356     22.6154     78.3215
   950.6000      8.2305      2.6310      0.0102      1.1499     21.9980     74.4464
   950.7000      8.2305      2.6257      0.0771      1.4736     22.2520     73.4685
   950.8000      8.2369      2.6127      0.0670      2.2631     23.0423     74.5535
   950.9000      8.2369      2.5933      0.0496      3.4378     23.6804     78.1839
   951.0000      8.2281      2.5810      0.0526      4.1814     24.4743     87.1536
   951.1000      8.2281      2.5802      0.0475      4.2280     25.8325     99.8817
   951.2000      8.2281      2.5842      0.0651      3.9891     27.3622    107.6524
   951.3000      8.2282      2.5798      0.0995      4.2552     28.6049    109.8206
   951.4000      8.2282      2.5647      0.0449      5.1673     29.4706    113.8915
   951.5000      8.2252      2.5495      0.0272      6.0911     29.8552    118.9366
   951.6000      8.2252      2.5380      0.0730      6.7868     29.9128    118.6708
   951.7000      8.2252      2.5258      0.0694      7.5279     30.0792    114.8105
   951.8000      8.2544      2.5079      0.0866      8.6130     30.3071    115.8468
   951.9000      8.2544      2.4794      0.0646     10.3401     30.3646    122.6406
   952.0000      8.2431      2.4393      0.0902     12.7669     30.6461    127.5502
   952.1000      8.2431      2.4004     -0.0188     15.1286     31.2089    130.7325
   952.2000      8.2431      2.3828      0.0103     16.1965     31.2676    136.5279
   952.3000      8.2509      2.3870      0.0432     15.9420     30.5603    141.0083
   952.4000      8.2509      2.3947      0.0568     15.4752     29.8845    138.3289
   952.5000      8.2517      2.3962      0.0219     15.3822     29.8775    129.0735
   952.6000      8.2517      2.3972      0.0418     15.3224     29.8735    118.3937
   952.7000      8.2517      2.4053      0.0497     14.8330     29.0831    110.3172
   952.8000      8.2532      2.4252      0.0569     13.6225     28.0222    107.1808
   952.9000      8.2532      2.4551      0.1024     11.8136     27.5189    108.9489
   953.0000      8.2530      2.4823      0.1464     10.1620     27.5513    110.8253
   953.1000      8.2530      2.4987      0.1026      9.1676     27.5424    110.1740
   953.2000      8.2530      2.5117      0.1000      8.3836     27.1150    109.9727
   953.3000      8.2561      2.5354      0.0498      6.9464     26.3379    112.3616
   953.4000      8.2561      2.5692      0.0662      4.8988     25.7799    118.0583
   953.5000      8.2517      2.5933      0.0898      3.4359     26.0396    123.4907
   953.6000      8.2517      2.5943      0.0986      3.3765     27.0033    124.7307
   953.7000      8.2517      2.5784      0.0208      4.3392     28.1902    125.0905
   953.8000      8.2309      2.5588      0.0321      5.5286     29.3420    126.3938
   953.9000      8.2309      2.5456      0.0009      6.3274     30.2813    127.1449
   954.0000      8.2445      2.5494     -0.0118      6.0944     30.5465    127.9354
   954.1000      8.2445      2.5667      0.0641      5.0502     30.1045    127.7763
   954.2000      8.2445      2.5731      0.1035      4.6577     29.5792    126.6628
   954.3000      8.2307      2.5569      0.0110      5.6414     29.3028    127.0976
   954.4000      8.2307      2.5393      0.0100      6.7086     29.2459    128.4641
   954.5000      8.2220      2.5387      0.0357      6.7443     29.4685    128.2995
   954.6000      8.2220      2.5486      0.0615      6.1458     29.6952    127.1846
   954.7000      8.2220      2.5559      0.0849      5.7049     29.6888    126.9629
   954.8000      8.2235      2.5604      0.0536      5.4277     29.8158    127.9028
   954.9000      8.2235      2.5747      0.0545      4.5625     30.2445    130.3669
   955.0000      8.2291      2.5983      0.1099      3.1314     30.2818    134.7643
   955.1000      8.2291      2.6109      0.1035      2.3669     29.6663    140.1854
   955.2000      8.2291      2.5994      0.1164      3.0682     28.9310    144.3249
   955.3000      8.2314      2.5764      0.0643      4.4611     28.1515    145.2919
   955.4000      8.2314      2.5621      0.0790      5.3301     27.3117    141.5558
   955.5000      8.2303      2.5590      0.0624      5.5139     26.9853    133.4075
   955.6000      8.2303      2.5621      0.0608      5.3264     27.5130    126.8348
   955.7000      8.2303      2.5605      0.1018      5.4240     28.3935    125.7142
   955.8000      8.2278      2.5470      0.0484      6.2449     29.0026    124.8432
   955.9000      8.2278      2.5377      0.0508      6.8086     29.1611    121.4002
   956.0000      8.2340      2.5457      0.0652      6.3215     29.1718    120.8949
   956.1000      8.2340      2.5608      0.0828      5.4073     29.2934    126.8698
   956.2000      8.2340      2.5669      0.1039      5.0338     29.1899    131.5770
   956.3000      8.2283      2.5614      0.0666      5.3711     28.6757    127.1537
   956.4000      8.2283      2.5590      0.0443      5.5170     28.2192    118.7705
   956.5000      8.2331      2.5653      0.1036      5.1362     28.2023    114.4871
   956.6000      8.2331      2.5635      0.0892      5.2401     28.3889    114.8776
   956.7000      8.2331      2.5487      0.0649      6.1390     28.3457    116.4495
   956.8000      8.2270      2.5397      0.0319      6.6819     28.2353    117.8120
   956.9000      8.2270      2.5477      0.0778      6.2006     28.3692    120.8016
   957.0000      8.2304      2.5596      0.0606      5.4772     28.5179    125.4457
   957.1000      8.2304      2.5632      0.1050      5.2592     28.5580    128.9459
   957.2000      8.2304      2.5611      0.0873      5.3861     28.5022    129.9392
   957.3000      8.2266      2.5705      0.0185      4.8206     27.6475    126.0308
   957.4000      8.2266      2.5978      0.0735      3.1629     25.7153    117.9916
   957.5000      8.2259      2.6208      0.1037      1.7685     24.0328    113.9189
   957.6000      8.2259      2.6254      0.0371      1.4923     23.6652    116.8685
   957.7000      8.2259      2.6209      0.0686      1.7658     23.9454    118.9232
   957.8000      8.1829      2.6135      0.0437      2.2144     23.8138    112.0571
   957.9000      8.1829      2.6042      0.0775      2.7757     23.2412     99.6424
