~Version Information
 VERS.                                  2.0 : CWLS LAS VERSION
 WRAP.                                   NO : WRAPING MODE
 SWARE .                 MController 2.5.0J : SOFTWARE VERSION
~Well Information
 WELL.                  Great Plains 22-22R : WELL
 COMP.                Petrogulf Corporation : COMPANY
 FLD.                      Purgatoire River : FIELD
 LOC.                SE/NW Sec 22 T33S R67W : LOCATION
 DATE.                        09/08-09/2005 : DATE(S) LOGGED
 SRVC.       BLANCO Geological Services LLC : SERVICE COMPANY
 STAT.                                   CO : STATE
 CNTY.                           Las Animas : COUNTY
 CTRY.                                  USA : COUNTRY
 API.                       05-071-08028-00 : API NUMBER
 STRT.FT                              23.00 : START DEPTH
 STOP.FT                            1400.00 : STOP DEPTH
 STEP.FT                               1.00 : DEPTH INCREMENT
 NULL.                                -9999 : NULL VALUE
~Curve information
 DEPTH.FT                                   :
 ROP.MIN/FT                                 :
 GAS.UNITS                                  :
~ASCII Log data
# ...
      1023.0         0.13         49.7 
      1024.0         0.13         48.8 
      1025.0         0.13         48.4 
      1026.0         0.17         47.4 
      1027.0         0.17         46.6 
      1028.0         0.20         46.0 
      1029.0         0.17         45.1 
      1030.0         0.17         44.5 
      1031.0         0.17         44.8 
      1032.0         0.15         44.4 
      1033.0         0.13         44.2 
      1034.0         0.13         44.1 
      1035.0         0.10         44.0 
      1036.0         0.17         44.1 
      1037.0         0.20         44.7 
      1038.0         0.23         44.7 
      1039.0         0.20         43.8 
      1040.0         0.23         41.9 
      1041.0         0.13         36.9 
      1042.0         0.17         33.3 
      1043.0         0.17         29.7 
      1044.0         0.17         25.2 
      1045.0         0.17         21.3 
      1046.0         0.23         18.7 
      1047.0         0.27         17.9 
      1048.0         1.32         50.2 
      1049.0         0.37         51.5 
      1050.0         0.33         51.2 
      1051.0         0.33         48.9 
      1052.0         0.33         46.5 
      1053.0         0.23         43.7 
      1054.0         0.28         41.8 
      1055.0         0.30         39.8 
      1056.0         0.23         37.5 
      1057.0         0.27         36.2 
      1058.0         0.17         35.0 
      1059.0         0.17         34.9 
      1060.0         0.17         34.9 
      1061.0         0.13         35.1 
      1062.0         0.17         35.3 
      1063.0         0.27         35.5 
      1064.0         0.13         35.8 
      1065.0         0.30         36.5 
      1066.0         0.17         36.2 
      1067.0         0.17         35.0 
      1068.0         0.10         32.7 
      1069.0         0.13         29.3 
      1070.0         0.13         26.9 
      1071.0         0.15         24.6 
      1072.0         0.13         20.9 
      1073.0         0.13         20.6 
      1074.0         0.17         20.5 
      1075.0         0.17         24.5 
      1076.0         0.27         35.2 
      1077.0         0.27         44.5 
      1078.0         1.23         56.6 
      1079.0         0.27         56.5 
      1080.0         0.27         55.3 
      1081.0         0.32         52.7 
      1082.0         0.30         49.2 
      1083.0         0.33         47.0 
      1084.0         0.27         43.8 
      1085.0         0.23         41.7 
      1086.0         0.23         39.5 
      1087.0         0.10         38.5 
      1088.0         0.10         38.1 
      1089.0         0.20         37.3 
      1090.0         0.20         36.9 
      1091.0         0.17         36.0 
      1092.0         0.17         36.0 
      1093.0         0.27         35.5 
      1094.0         0.30         34.8 
      1095.0         0.28         33.5 
      1096.0         0.27         32.4 
      1097.0         0.33         32.3 
      1098.0         0.13         30.4 
      1099.0         0.13         28.2 
      1100.0         0.13         25.4 
      1101.0         0.13         23.5 
      1102.0         0.17         23.1 
      1103.0         0.10         24.0 
      1104.0         0.10         27.6 
      1105.0         0.13         34.3 
      1106.0         0.17         45.8 
      1107.0         0.27         67.2 
      1108.0         2.28         93.4 
      1109.0         0.27         54.0 
      1110.0         0.30         47.5 
      1111.0         0.17         46.4 
      1112.0         0.13         46.3 
      1113.0         0.17         47.0 
      1114.0         0.13         47.2 
      1115.0         0.17         47.2 
      1116.0         0.10         45.1 
      1117.0         0.10         44.1 
      1118.0         0.10         42.5 
      1119.0         0.10         39.9 
      1120.0         0.10         38.7 
      1121.0         0.10         37.7 
      1122.0         0.20         38.3 
      1123.0         0.32         42.7 
      1124.0         0.33         45.9 
      1125.0         0.40         48.3 
      1126.0         0.13         48.3 
      1127.0         0.17         47.6 
      1128.0         0.20         45.2 
      1129.0         0.20         40.0 
      1130.0         0.20         34.4 
      1131.0         0.20         28.4 
      1132.0         0.10         27.3 
      1133.0         0.13         30.7 
      1134.0         0.23         44.0 
      1135.0         0.20         58.2 
      1136.0         0.07         61.6 
      1137.0         0.10         68.6 
      1138.0         1.25         91.8 
      1139.0         0.20         78.2 
      1140.0         0.27         71.3 
      1141.0         0.37         62.2 
      1142.0         0.23         52.3 
      1143.0         0.20         47.3 
      1144.0         0.17         41.7 
      1145.0         0.17         35.7 
      1146.0         0.20         31.0 
      1147.0         0.20         24.3 
      1148.0         0.20         21.7 
      1149.0         0.28         20.2 
      1150.0         0.63         27.8 
      1151.0         0.57         31.2 
      1152.0         0.27         32.1 
      1153.0         0.27         32.4 
      1154.0         0.27         32.3 
      1155.0         0.23         31.8 
      1156.0         0.33         31.3 
      1157.0         0.23         31.0 
      1158.0         0.20         30.6 
      1159.0         0.17         30.7 
      1160.0         0.15         30.9 
      1161.0         0.20         30.9 
      1162.0         0.17         29.8 
      1163.0         0.17         27.3 
      1164.0         0.17         25.0 
      1165.0         0.17         21.1 
      1166.0         0.17         17.3 
      1167.0         0.27         14.6 
      1168.0         1.60         53.2 
      1169.0         0.38         53.3 
      1170.0         0.40         50.7 
      1171.0         0.33         47.2 
      1172.0         0.53         43.6 
      1173.0         0.30         39.4 
      1174.0         0.17         38.1 
      1175.0         0.20         37.4 
      1176.0         0.20         36.4 
      1177.0         0.20         35.3 
      1178.0         0.20         34.4 
      1179.0         0.20         33.3 
      1180.0         0.27         32.6 
      1181.0         0.20         31.4 
      1182.0         0.22         31.0 
      1183.0         0.17         30.6 
      1184.0         0.23         30.6 
      1185.0         0.23         29.7 
      1186.0         0.30         29.6 
      1187.0         0.30         29.2 
      1188.0         0.20         30.0 
      1189.0         0.17         30.0 
      1190.0         0.17         29.1 
      1191.0         0.20         26.7 
      1192.0         0.33         23.8 
      1193.0         0.23         17.8 
      1194.0         0.13         15.7 
      1195.0         0.17         15.0 
      1196.0         0.17         17.6 
      1197.0         0.22         22.5 
      1198.0         1.30         52.4 
      1199.0         0.27         51.4 
      1200.0         0.30         48.5 
      1201.0         0.23         44.9 
      1202.0         0.23         41.9 
      1203.0         0.20         38.8 
      1204.0         0.20         36.1 
      1205.0         0.20         34.5 
      1206.0         0.25         33.0 
      1207.0         0.20         31.2 
      1208.0         0.17         31.0 
      1209.0         0.23         30.8 
      1210.0         0.20         30.0 
      1211.0         0.20         29.9 
      1212.0         0.13         29.5 
      1213.0         0.17         29.4 
      1214.0         0.17         29.3 
      1215.0         0.17         29.3 
      1216.0         0.17         29.8 
      1217.0         0.17         31.1 
      1218.0         0.13         32.0 
      1219.0         0.17         32.7 
      1220.0         0.20         32.6 
      1221.0         0.23         31.6 
      1222.0         0.20         27.9 
