~Version Information
VERS.                      2.0: CWLS Log ASCII Standard - VERSION 2.0
WRAP.                       NO: One line per depth step
~Well Information Block
STRT.FT                -3.5000: 
STOP.FT              1841.0000: 
STEP.FT                 0.2500: 
NULL.                -999.2500: 
COMP.          Pioneer Natural Resources: COMPANY
WELL.          Corkscrew 33-12 Tr: WELL
FLD.           Purgatorie River: FIELD
LOC.           1870' FSL  & 1706' FEL--------: LOCATION
PROV.                       CO: PROVINCE
CNTY.               Las Animas: COUNTRY
SRVC.          Patterson Wireline: SERVICE COMPANY
DATE.          Mon Apr 04 10:07:45 2005: LOG DATE
UWI.           05 071 08295 00: UNIQUE WELL ID
~Curve Information Block
DEPT.FT            0 000 00 00: Depth
CCL.                          : Casing Collar Locator
TT3.usec                      : CBL 3' Travel Time
AMP3.mV                       : CBL 3' Amplitude
GR.GAPI                       : Gamma Ray
~Parameter Information Block
~A  Depth       CCL         TT3         AMP3         GR     
# ...
  1571.0000      0.0000    564.7689      7.6196    149.7423
  1571.2500      0.0000    555.6613      7.2047    136.0838
  1571.5000      0.0000    557.5823      6.7257    126.1503
  1571.7500      0.0000    571.6106      6.2447    122.7933
  1572.0000      0.0000    596.4122      5.8633    124.9230
  1572.2500      0.0000    627.6918      5.6999    129.3243
  1572.5000      0.0000    660.0903      5.7986    133.1928
  1572.7500      0.0000    690.1004      6.0718    135.1310
  1573.0000      0.0000    716.4656      6.3516    134.6000
  1573.2500      0.0000    738.0383      6.4982    131.2684
  1573.5000      0.0000    752.7280      6.4622    125.4206
  1573.7500      0.0000    758.9232      6.2715    118.8490
  1574.0000      0.0000    757.0825      5.9917    114.4162
  1574.2500      0.0000    749.4978      5.7109    114.0792
  1574.5000      0.0000    739.0547      5.5454    117.4873
  1574.7500      0.0000    728.4883      5.6125    122.6296
  1575.0000      0.0000    720.0325      5.9576    127.4907
  1575.2500      0.0000    714.9075      6.5057    130.9112
  1575.5000      0.0000    713.0062      7.1007    132.3897
  1575.7500      0.0000    713.2808      7.5918    131.7309
  1576.0000      0.0000    714.4946      7.8820    129.2499
  1576.2500      0.0000    715.7104      7.9180    126.3469
  1576.5000      0.0000    716.3284      7.6836    125.3145
  1576.7500      0.0000    715.8362      7.2315    127.8949
  1577.0000      0.0000    713.5994      6.7058    134.0532
  1577.2500      0.0000    709.0558      6.2935    142.4610
  1577.5000      0.0000    702.3483      6.1276    151.6524
  1577.7500      0.0000    694.7420      6.2264    160.2070
  1578.0000      0.0000    688.1353      6.5125    166.5248
  1578.2500      0.0000    684.0038      6.8739    169.4228
  1578.5000      0.0000    682.8867      7.2074    168.8445
  1578.7500      0.0000    684.7482      7.4240    165.5131
  1579.0000      0.0000    689.3671      7.4381    160.1327
  1579.2500      0.0000    696.1028      7.1902    153.3499
  1579.5000      0.0000    703.5256      6.7105    146.2290
  1579.7500      0.0000    709.6058      6.1604    140.1181
  1580.0000      0.0000    712.0612      5.7764    135.6303
  1580.2500      0.0000    708.0181      5.7321    131.8332
  1580.5000      0.0000    693.6047      6.0245    126.9089
  1580.7500      0.0000    665.5920      6.4763    119.8954
  1581.0000      0.0000    626.0089      6.8532    111.6541
  1581.2500      0.0000    586.0274      7.0066    104.2663
  1581.5000      0.0000    562.4374      6.9312     99.9561
  1581.7500      0.0000    566.0871      6.7212    100.4955
  1582.0000      0.0000    592.8904      6.5045    106.6215
  1582.2500      0.0000    627.8477      6.4061    117.1422
  1582.5000      0.0000    657.6239      6.5088    128.8226
  1582.7500      0.0000    678.0305      6.7929    138.0807
  1583.0000      0.0000    691.4481      7.1129    143.2429
  1583.2500      0.0000    700.9242      7.2660    144.9500
  1583.5000      0.0000    707.6573      7.1183    144.5093
  1583.7500      0.0000    711.8843      6.7087    142.4649
  1584.0000      0.0000    714.0876      6.2551    138.6481
  1584.2500      0.0000    715.0844      6.0356    132.8416
  1584.5000      0.0000    715.5623      6.2076    125.1584
  1584.7500      0.0000    715.8205      6.6955    116.1938
  1585.0000      0.0000    715.8095      7.2344    107.0591
  1585.2500      0.0000    715.1332      7.5335     99.1234
  1585.5000      0.0000    712.9923      7.4509     93.5316
  1585.7500      0.0000    708.4921      7.0799     90.8512
  1586.0000      0.0000    701.4730      6.6877     91.1107
  1586.2500      0.0000    693.1341      6.5247     94.2219
  1586.5000      0.0000    685.4379      6.6277    100.1178
  1586.7500      0.0000    679.6323      6.7919    107.9166
  1587.0000      0.0000    675.2319      6.7535    115.1334
  1587.2500      0.0000    670.4624      6.4265    118.8494
  1587.5000      0.0000    664.2289      5.9838    118.2338
  1587.7500      0.0000    658.2355      5.7162    115.3831
  1588.0000      0.0000    656.4708      5.7989    113.4478
  1588.2500      0.0000    661.2587      6.1579    114.3566
  1588.5000      0.0000    670.1468      6.5324    118.0282
  1588.7500      0.0000    677.7205      6.6799    122.7559
  1589.0000      0.0000    679.9323      6.5559    126.0973
  1589.2500      0.0000    675.8800      6.3192    126.1159
  1589.5000      0.0000    666.5762      6.1650    122.3669
  1589.7500      0.0000    653.7550      6.1577    115.9016
  1590.0000      0.0000    639.6838      6.2267    108.5600
  1590.2500      0.0000    626.2064      6.2979    102.2767
  1590.5000      0.0000    613.1902      6.3883     98.4602
  1590.7500      0.0000    599.9156      6.5600     97.3609
  1591.0000      0.0000    589.1162      6.8003     98.0204
  1591.2500      0.0000    587.2501      6.9774     99.1465
  1591.5000      0.0000    598.4774      6.9290    100.0938
  1591.7500      0.0000    619.4771      6.6075    100.9763
  1592.0000      0.0000    641.7943      6.1456    101.9967
  1592.2500      0.0000    658.6150      5.7686    102.8729
  1592.5000      0.0000    668.5048      5.6089    103.0101
  1592.7500      0.0000    673.9764      5.5914    102.1190
  1593.0000      0.0000    678.3216      5.5139    100.4977
  1593.2500      0.0000    683.5997      5.2572     98.8177
  1593.5000      0.0000    689.9318      4.9114     97.7420
  1593.7500      0.0000    695.6484      4.6877     97.5171
  1594.0000      0.0000    698.4706      4.7120     97.6835
  1594.2500      0.0000    697.3246      4.9127     97.4122
  1594.5000      0.0000    693.2361      5.1011     96.3965
  1594.7500      0.0000    688.4077      5.1398     95.1370
  1595.0000      0.0000    684.4734      5.0332     94.0609
  1595.2500      0.0000    681.6881      4.8806     92.7517
  1595.5000      0.0000    679.5286      4.7638     90.4894
  1595.7500      0.0000    677.7779      4.6825     87.3298
  1596.0000      0.0000    677.1353      4.5856     84.2945
  1596.2500      0.0000    679.2072      4.4515     82.5485
  1596.5000      0.0000    685.9407      4.3347     82.4644
  1596.7500      0.0000    698.1429      4.3256     83.3535
  1597.0000      0.0000    713.5481      4.4518     84.0184
  1597.2500      0.0000    726.7844      4.6203     83.6224
  1597.5000      0.0000    732.7759      4.6895     82.1862
  1597.7500      0.0000    730.7075      4.6189     80.4551
  1598.0000      0.0000    724.1647      4.5261     79.3454
  1598.2500      0.0000    717.7463      4.5719     79.3690
  1598.5000      0.0000    714.1751      4.7999     80.3966
  1598.7500      0.0000    713.9094      5.1108     81.8415
  1599.0000      0.0000    716.2413      5.3788     83.0250
  1599.2500      0.0000    720.3504      5.5579     83.5488
  1599.5000      0.0000    725.3383      5.6713     83.5527
  1599.7500      0.0000    729.3640      5.7410     83.5350
  1600.0000      0.0000    729.4355      5.7721     83.7759
  1600.2500      0.0000    723.1556      5.7905     84.0307
  1600.5000      0.0000    711.1026      5.8396     83.8840
  1600.7500      0.0000    696.9926      5.9209     83.2990
  1601.0000      0.0000    685.0976      5.9728     82.6488
  1601.2500      0.0000    677.5698      5.9482     82.1951
  1601.5000      0.0000    674.0805      5.9023     81.8486
  1601.7500      0.0000    673.2619      5.9611     81.5841
  1602.0000      0.0000    674.0858      6.1811     81.8072
  1602.2500      0.0000    676.3395      6.4753     83.2154
  1602.5000      0.0000    680.6750      6.7141     86.6374
  1602.7500      0.0000    688.4136      6.8726     92.8440
  1603.0000      0.0000    700.5236      7.0281    101.8225
  1603.2500      0.0000    715.7770      7.2249    112.1166
  1603.5000      0.0000    729.9134      7.4079    121.4986
  1603.7500      0.0000    737.5695      7.4946    128.6246
  1604.0000      0.0000    735.8578      7.4537    133.7744
  1604.2500      0.0000    726.3804      7.2960    137.7065
