~Version Information
VERS.                      2.0: CWLS Log ASCII Standard - VERSION 2.0
WRAP.                       NO: One line per depth step
~Well Information Block
STRT.FT                 1.5000: 
STOP.FT              1895.2500: 
STEP.FT                 0.2500: 
NULL.                -999.2500: 
COMP.          Petrogulf Corporation: COMPANY
WELL.             State 16-32R: WELL
FLD.           Purgatorie River: FIELD
LOC.           1849' FNL & 1677' FEL: LOCATION
CNTY.               Las Animas: COUNTY
SRVC.                         : SERVICE COMPANY
DATE.          Thu May 20 08:40:19 2004: LOG DATE
UWI.           05 071 08033 00: UNIQUE WELL ID
STAT.                 Colorado: STATE
~Curve Information Block
DEPT.FT            0 000 00 00: Depth
GR.GAPI                       : Gamma Ray
CCL.                          : Casing Collar Locator
TT3.usec                      : CBL 3' Travel Time
AMP3.mV                       : CBL 3' Amplitude
~Parameter Information Block
~A  Depth        GR         CCL         TT3         AMP3    
# ...
   872.5000     78.5362      0.0000    286.4727     24.9152
   872.7500     79.4027      0.0000    286.6411     24.6815
   873.0000     81.0708      0.0000    286.6133     24.9686
   873.2500     83.8505      0.0000    286.4561     25.4825
   873.5000     87.9637      0.0000    286.2941     25.9147
   873.7500     93.4608      0.0000    286.1844     26.2780
   874.0000     99.9974      0.0000    286.0909     26.8352
   874.2500    106.3180      0.0000    285.9841     27.8171
   874.5000    110.3050      0.0000    285.8906     29.2387
   874.7500    110.3820      0.0000    285.8332     30.9327
   875.0000    107.1400      0.0000    285.7799     32.7587
   875.2500    102.9899      0.0000    285.6737     34.7155
   875.5000     99.8549      0.0000    285.4965     36.7892
   875.7500     97.5026      0.0000    285.2946     38.7472
   876.0000     94.3404      0.0000    285.1303     40.2476
   876.2500     89.4039      0.0000    285.0201     41.2426
   876.5000     83.1558      0.0000    284.9512     42.0935
   876.7500     76.7542      0.0000    284.9312     43.1777
   877.0000     71.2541      0.0000    284.9739     44.5126
   877.2500     67.3918      0.0000    285.0667     45.7983
   877.5000     65.3243      0.0000    285.1858     46.7511
   877.7500     64.3556      0.0000    285.3114     47.3571
   878.0000     63.4233      0.0000    285.4048     47.7561
   878.2500     61.9628      0.0000    285.4227     47.9994
   878.5000     59.9923      0.0000    285.3703     48.0616
   878.7500     57.6225      0.0000    285.2935     47.9421
   879.0000     55.0645      0.0000    285.2376     47.6760
   879.2500     52.9966      0.0000    285.2304     47.3561
   879.5000     52.3628      0.0000    285.2698     47.1542
   879.7500     53.7083      0.0000    285.3060     47.2610
   880.0000     56.9543      0.0000    285.1102     47.7879
   880.2500     61.6209      0.0000    283.8305     48.6760
   880.5000     66.8504      0.0000    279.7285     49.7059
   880.7500     71.2954      0.0000    271.6572     50.6553
   881.0000     73.5503      0.0000    261.5670     51.4181
   881.2500     73.0775      0.0000    253.4755     52.0128
   881.5000     70.8624      0.0000    249.2766     52.5336
   881.7500     69.1528      0.0000    247.8254     53.0511
   882.0000     70.1840      0.0000    247.4402     53.6021
   882.2500     74.5612      0.0000    247.2994     54.2441
   882.5000     80.7444      0.0000    247.1934     54.9656
   882.7500     86.3888      0.0000    247.1167     55.5777
   883.0000     90.4153      0.0000    247.0960     55.8411
   883.2500     93.8782      0.0000    247.1304     55.7008
   883.5000     98.8247      0.0000    247.1839     55.3559
   883.7500    106.1674      0.0000    247.2137     55.0981
   884.0000    114.7609      0.0000    247.2024     55.1026
   884.2500    122.6573      0.0000    247.1626     55.3573
   884.5000    128.8600      0.0000    247.1194     55.7171
   884.7500    133.3899      0.0000    247.0898     56.0312
   885.0000    136.1819      0.0000    247.0826     56.2269
   885.2500    136.8591      0.0000    247.1450     56.2390
   885.5000    135.6371      0.0000    247.5481     55.9106
   885.7500    133.7461      0.0000    249.3301     54.8887
   886.0000    132.7060      0.0000    254.7379     52.5982
   886.2500    133.3003      0.0000    265.3480     49.0772
   886.5000    135.0865      0.0000    277.9192     46.0793
   886.7500    136.6134      0.0000    285.8217     45.3846
   887.0000    136.3595      0.0000    287.7616     45.9329
   887.2500    133.8618      0.0000    288.6524     45.5232
   887.5000    129.8778      0.0000    290.9384     44.0384
   887.7500    125.5441      0.0000    293.0570     42.5289
   888.0000    121.8508      0.0000    294.0417     41.4678
   888.2500    119.6165      2.0000    294.3344     40.9417
   888.5000    118.9962      0.0000    294.4292     40.9687
   888.7500    118.9248      0.0000    294.5376     41.2636
   889.0000    117.9409      0.0000    294.6752     41.0616
   889.2500    115.6267      0.0000    294.3721     39.9712
   889.5000    112.4524      0.0000    292.1632     39.2412
   889.7500    108.3950      0.0000    285.9669     40.6866
   890.0000    102.8846      0.0000    275.2442     44.3805
   890.2500     96.1940      0.0000    263.0005     48.7445
   890.5000     89.8975      0.0000    253.7800     52.0888
   890.7500     85.8333      0.0000    249.5218     53.5796
   891.0000     85.2866      0.0000    249.5638     53.4256
   891.2500     89.0395      0.0000    253.6813     52.3797
   891.5000     97.3148      0.0000    262.0646     51.0537
   891.7500    109.3146      0.0000    272.4850     49.6493
   892.0000    122.9323      0.0000    280.8183     48.1954
   892.2500    135.0161      0.0000    285.1231     46.7701
   892.5000    142.3280      0.0000    286.5758     45.4233
   892.7500    143.0389      0.0000    286.9051     44.1130
   893.0000    137.8457      0.0000    286.9428     42.8131
   893.2500    129.7081      0.0000    286.9046     41.5974
   893.5000    122.3870      0.0000    286.8451     40.6101
   893.7500    118.9248      0.0000    286.8179     40.0124
   894.0000    120.8011      0.0000    286.8560     39.9426
   894.2500    127.5756      0.0000    286.9341     40.4611
   894.5000    137.0121      0.0000    287.0092     41.4907
   894.7500    146.1758      0.0000    287.0647     42.8341
   895.0000    153.0696      0.0000    287.0988     44.2828
   895.2500    157.2977      0.0000    287.1155     45.6845
   895.5000    159.1668      0.0000    287.1294     46.9285
   895.7500    158.5827      0.0000    287.1512     47.9553
   896.0000    155.1191      0.0000    287.1737     48.7558
   896.2500    148.8004      0.0000    287.1613     49.3307
   896.5000    140.2745      0.0000    286.9010     49.7304
   896.7500    130.2863      0.0000    285.5363     50.0682
   897.0000    119.5458      0.0000    281.2810     50.4140
   897.2500    109.3480      0.0000    272.9159     50.7801
   897.5000    101.7314      0.0000    262.4501     51.1807
   897.7500     98.3369      0.0000    254.2973     51.5802
   898.0000     99.2090      0.0000    251.3570     51.8212
   898.2500    103.1750      0.0000    254.2438     51.7163
   898.5000    109.2346      0.0000    262.3734     51.2473
   898.7500    116.9354      0.0000    272.8557     50.6183
   899.0000    125.2279      0.0000    281.2676     50.1077
   899.2500    131.6326      0.0000    285.5769     49.8855
   899.5000    133.4092      0.0000    286.9790     49.9328
   899.7500    130.0146      0.0000    287.2567     50.0791
   900.0000    124.1491      0.0000    287.2889     50.1020
   900.2500    119.8686      0.0000    287.3093     49.8994
   900.5000    119.4257      0.0000    287.3354     49.5833
   900.7500    122.0077      0.0000    287.3105     49.3535
   901.0000    125.4568      0.0000    286.9991     49.3312
   901.2500    128.6998      0.0000    285.5443     49.5583
   901.5000    132.1883      0.0000    281.1780     50.0796
   901.7500    136.5840      0.0000    272.7106     50.9006
   902.0000    141.7476      0.0000    262.1469     51.8767
   902.2500    146.8007      0.0000    253.6671     52.7893
   902.5000    150.6405      0.0000    249.2660     53.5278
   902.7500    152.6088      0.0000    247.7605     54.0972
   903.0000    153.0395      0.0000    247.3925     54.5291
   903.2500    152.9111      0.0000    247.3076     54.8419
   903.5000    152.7687      0.0000    247.2808     55.0402
   903.7500    152.3545      0.0000    247.2669     55.1590
   904.0000    151.2890      0.0000    247.2484     55.2632
   904.2500    149.7187      0.0000    247.2262     55.3581
   904.5000    148.1824      0.0000    247.2159     55.3832
   904.7500    147.0312      0.0000    247.2232     55.3307
   905.0000    146.1012      0.0000    247.2356     55.2754
   905.2500    145.2544      0.0000    247.2424     55.2644
   905.5000    145.2013      0.0000    247.2508     55.2455
   905.7500    147.0343      0.0000    247.2692     55.1803
