~Version Information
VERS.                      2.0: CWLS Log ASCII Standard - VERSION 2.0
WRAP.                       NO: One line per depth step
~Well Information Block
STRT.FT               906.0000: 
STOP.FT              1960.5000: 
STEP.FT                 0.2500: 
NULL.                -999.2500: 
COMP.          Petrogulf Corporation: COMPANY
WELL.            Torcom 17-33R: WELL
FLD.           Purgatorie River: FIELD
LOC.           1483' FSL & 1804' FEL: LOCATION
PROV.                 Colorado: PROVINCE
CNTY.               Las Animas: COUNTRY
SRVC.                Patterson: SERVICE COMPANY
DATE.          Thu Aug 18 08:33:01 2005: LOG DATE
UWI.                071 08069 : UNIQUE WELL ID
~Curve Information Block
DEPT.FT            0 000 00 00: Depth
SP.mV                         : DIL Spontaneous Potential
RILD.Ohm-m                    : DIL Deep Resistivity
RILM.Ohm-m                    : DIL Medium Resistivity
RLL3.Ohm-m                    : DIL Shallow Resistivity
GR.GAPI                       : Gamma Ray
~Parameter Information Block
~A  Depth        SP         RILD        RILM        RLL3         GR     
# ...
  1242.0000    109.7504     12.2105     12.9208     12.6654    126.4555
  1242.2500    107.6291     12.7679     13.4075     11.5740    119.4668
  1242.5000    105.3405     13.2355     14.0986     11.1121    114.3952
  1242.7500    103.4424     13.2147     14.8855     11.5647    107.8409
  1243.0000    100.3253     13.1477     16.0466     13.5019     78.8379
  1243.2500     96.7198     12.8945     16.7602     17.7544     65.8969
  1243.5000     92.9383     12.8344     17.4410     23.1692     66.8740
  1243.7500     89.3070     12.8134     17.6216     31.5604     73.1867
  1244.0000     86.0862     12.8589     17.0277     33.6517     84.9226
  1244.2500     83.8609     12.8504     16.0586     24.2350    104.1281
  1244.5000     82.1063     12.8260     15.7039     14.5095    117.7412
  1244.7500     80.5317     13.0613     15.3089     11.7229    123.4728
  1245.0000     79.8230     13.5321     15.3409     12.1831    122.5076
  1245.2500     79.0161     13.8911     15.5463     13.4338    128.0659
  1245.5000     79.0647     14.3332     15.7372     13.0470    131.0887
  1245.7500     78.6378     14.3831     16.0584     12.6312    136.8721
  1246.0000     78.2691     14.4577     16.4336     12.9860    127.5632
  1246.2500     77.6548     14.4289     16.4748     14.0810    129.5644
  1246.5000     77.0841     14.3683     16.5596     14.2285    135.2320
  1246.7500     76.1497     14.2754     16.9682     14.0750    130.3494
  1247.0000     75.0607     14.1318     16.9037     13.9037    127.6053
  1247.2500     73.1769     14.2290     16.7254     13.2712    125.2564
  1247.5000     71.9669     14.0196     16.7750     11.5356    129.8364
  1247.7500     71.0121     14.1215     16.8105     10.5208    125.8424
  1248.0000     70.2846     14.0119     16.5762     11.0729    126.2413
  1248.2500     70.3058     14.1523     16.5910     11.5113    130.7505
  1248.5000     70.7436     14.1327     16.5271     11.7981    126.7264
  1248.7500     71.4152     13.9188     16.2381     13.8983    126.3084
  1249.0000     72.7236     13.8762     16.0587     14.4156    119.4150
  1249.2500     74.5237     13.7523     15.9286     16.4837    116.9522
  1249.5000     76.4714     13.6234     15.5131     16.7701    122.9044
  1249.7500     78.4398     13.4440     15.2063     16.2904    123.5952
  1250.0000     80.0969     13.2842     15.0311     16.0332    117.0672
  1250.2500     81.5057     13.3551     14.7881     15.1092    115.1242
  1250.5000     82.8903     13.1922     14.6563     14.8235    112.1363
  1250.7500     83.6818     13.2320     14.4028     15.2267    117.6815
  1251.0000     84.2140     12.9926     14.3357     17.1218    120.7501
  1251.2500     83.9382     13.0304     14.3126     18.2002    123.4818
  1251.5000     83.6874     12.9382     14.3983     18.0488    124.8182
  1251.7500     83.0325     12.8630     14.3431     17.1811    121.2063
  1252.0000     82.5035     12.7792     14.2627     16.2060    114.5303
  1252.2500     80.7659     12.8895     14.2538     15.0315    112.7197
  1252.5000     79.1591     12.9003     14.2939     14.1652    116.7078
  1252.7500     78.2860     13.1055     14.3411     14.8846    119.9780
  1253.0000     77.5749     13.1464     14.4193     15.5791    111.3017
  1253.2500     76.7699     13.2363     14.4994     16.6001    112.7848
  1253.5000     77.0836     13.5102     14.5403     17.7170    113.2728
  1253.7500     76.7912     13.8575     14.7876     17.6681    117.7006
  1254.0000     76.1768     14.3014     14.9363     17.6437    108.5248
  1254.2500     75.4284     14.7043     15.5883     17.4790    110.4369
  1254.5000     74.8803     15.3811     15.9961     17.5051    108.7894
  1254.7500     73.9290     15.9706     16.7560     17.8980    107.9554
  1255.0000     72.9321     16.5406     17.8222     18.3725     99.5452
  1255.2500     72.8680     17.3912     18.7894     19.9786    106.3368
  1255.5000     75.0676     18.5494     20.0337     21.9331    100.9007
  1255.7500     74.3181     19.4505     21.5156     24.1776    103.8644
  1256.0000     73.4982     20.8365     22.9122     25.5268    108.8601
  1256.2500     72.1984     22.3195     24.6449     25.9901    112.6260
  1256.5000     71.5893     23.6505     27.4723     26.6233    103.3690
  1256.7500     71.9222     25.2624     30.5212     28.3057     97.5897
  1257.0000     72.9347     27.5420     34.2120     30.6234     96.6053
  1257.2500     73.7190     29.5575     38.5808     34.2956     95.7210
  1257.5000     74.2346     31.1704     43.1427     38.7735     97.0095
  1257.7500     74.3317     31.6765     47.9829     43.2986     92.2249
  1258.0000     74.6461     31.8117     53.7853     47.2413     89.1078
  1258.2500     75.5712     32.9776     59.6125     56.2503     88.5458
  1258.5000     77.0340     33.7542     63.1011     73.8600     82.8732
  1258.7500     79.5983     32.9465     65.7930     98.4361     80.1210
  1259.0000     83.0507     32.1596     66.7772    120.6234     78.5775
  1259.2500     86.4133     30.8088     60.7279    120.5952     91.2471
  1259.5000     89.3102     29.1882     55.9337     88.9494     86.8587
  1259.7500     92.0590     28.0188     48.6361     54.6400     92.7336
  1260.0000     93.8880     26.3358     40.4626     40.4519    106.8689
  1260.2500     95.0680     24.8688     34.2652     34.0368    118.0519
  1260.5000     96.0613     23.0119     30.0629     27.5527    127.2373
  1260.7500     97.4894     20.9859     27.2532     21.8106    128.8983
  1261.0000     98.9508     19.3280     24.7561     19.7563    129.3512
  1261.2500    101.2511     17.3396     22.5881     20.6810    129.1698
  1261.5000    103.2901     15.3614     20.7404     21.4735    130.0107
  1261.7500    104.7111     13.9115     18.6114     19.4646    124.8974
  1262.0000    105.4425     12.7236     16.4911     18.5887    137.1581
  1262.2500    106.1935     11.7911     14.2548     17.8102    136.5111
  1262.5000    107.2089     11.1281     12.7080     15.9219    140.0748
  1262.7500    108.6192     10.4889     11.5112     13.1482    137.3323
  1263.0000    110.4493     10.0721     10.5778     11.8263    137.2992
  1263.2500    112.5355      9.6936      9.9039     11.1812    136.7913
  1263.5000    115.3004      9.4779      9.4825     11.5208    139.5045
  1263.7500    116.4830      9.3286      9.2096     11.6579    141.5910
  1264.0000    117.2169      9.1514      8.9826     11.8497    139.0140
  1264.2500    118.1192      9.1172      9.0055     12.4515    139.7723
  1264.5000    119.6135      8.9759      9.1244     10.9322    144.0665
  1264.7500    121.1024      8.9300      9.3251     11.1060    145.7475
  1265.0000    121.4900      8.8918      9.6597     13.0398    135.8989
  1265.2500    121.7905      8.7602     10.0230     16.0794    133.7167
  1265.5000    122.8039      8.6862     10.5312     16.0215    136.6908
  1265.7500    123.1341      8.5889     10.7544     18.1051    136.8146
  1266.0000    122.7695      8.5128     10.8760     21.6731    134.0088
  1266.2500    122.4601      8.5235     10.7959     24.2558    131.9189
  1266.5000    122.3233      8.5477     10.5321     19.7796    146.2870
  1266.7500    122.0946      8.7463     10.1944     15.8578    136.9488
  1267.0000    121.7857      8.8494      9.9253     13.2908    138.6696
  1267.2500    121.1343      9.0438      9.7450     11.9567    134.9047
  1267.5000    121.3614      9.1464      9.6765     11.4388    139.7471
  1267.7500    121.1111      9.1350      9.6491     11.4074    144.5074
  1268.0000    120.2606      9.2371      9.6980     11.4809    139.2469
  1268.2500    119.1601      9.1158      9.7469     12.2292    139.7086
  1268.5000    118.1281      9.1083      9.9202     12.7965    135.5276
  1268.7500    116.7735      9.0515     10.0567     13.3743    131.4277
  1269.0000    115.5499      8.9342     10.0849     13.7675    135.2967
  1269.2500    114.9224      8.9803     10.1072     13.8521    139.2947
  1269.5000    114.0682      9.1693     10.2379     13.3180    138.2960
  1269.7500    112.5675      9.2364     10.3234     13.3317    135.8010
