~Version Information
VERS.                      2.0: CWLS Log ASCII Standard - VERSION 2.0
WRAP.                       NO: One line per depth step
~Well Information Block
STRT.FT               -16.0000: 
STOP.FT              2454.2500: 
STEP.FT                 0.2500: 
NULL.                -999.2500: 
COMP.                         : COMPANY
WELL.                         : WELL
FLD.                          : FIELD
LOC.                          : LOCATION
CNTY.                         : COUNTY
SRVC.                         : SERVICE COMPANY
DATE.          Tue Aug 31 08:09:44 2004: LOG DATE
UWI.                          : UNIQUE WELL ID
STAT.                         : STATE
~Curve Information Block
DEPT.FT            0 000 00 00: Depth
GR.GAPI                       : Gamma Ray
CCL.                          : Casing Collar Locator
TT3.usec                      : CBL 3' Travel Time
AMP3.mV                       : CBL 3' Amplitude
~Parameter Information Block
~A  Depth        GR         CCL         TT3         AMP3    
# ...
  1458.0000    108.9302      0.0000    314.2728     39.2318
  1458.2500    109.2341      0.0000    314.2132     39.7437
  1458.5000    109.6118      0.0000    314.1093     40.5874
  1458.7500    109.4569      0.0000    314.0360     41.3182
  1459.0000    108.6565      0.0000    314.0075     41.5652
  1459.2500    107.9978      0.0000    314.0000     41.3752
  1459.5000    108.4353      0.0000    313.9924     41.1483
  1459.7500    109.9243      0.0000    313.9629     41.2167
  1460.0000    111.1836      0.0000    313.8820     41.5934
  1460.2500    110.8550      0.0000    313.7434     42.0682
  1460.5000    108.8459      0.0000    313.5887     42.4140
  1460.7500    106.3075      0.0000    313.4648     42.5190
  1461.0000    104.3352      0.0000    313.4129     42.3832
  1461.2500    103.0261      0.0000    313.4949     42.0470
  1461.5000    101.8968      0.0000    313.7235     41.5130
  1461.7500    100.7007      0.0000    314.0527     40.6549
  1462.0000     99.4464      0.0000    314.4840     39.3401
  1462.2500     98.0232      0.0000    315.0589     37.6990
  1462.5000     96.2604      0.0000    315.9344     36.0542
  1462.7500     94.1450      0.0000    317.9175     34.5981
  1463.0000     91.8115      0.0000    322.7476     33.3090
  1463.2500     89.6297      0.0000    331.4699     32.1277
  1463.5000     88.2320      0.0000    341.9656     31.0337
  1463.7500     87.9459      0.0000    350.2096     29.8802
  1464.0000     88.1977      0.0000    354.4660     28.4145
  1464.2500     87.8760      0.0000    356.0042     26.6775
  1464.5000     86.2870      0.0000    356.4744     25.0884
  1464.7500     83.5583      0.0000    356.5937     23.9588
  1465.0000     80.2635      0.0000    356.5801     23.2064
  1465.2500     76.9994      0.0000    356.5665     22.6208
  1465.5000     74.2904      0.0000    356.6322     22.1564
  1465.7500     72.4425      0.0000    356.7946     21.8732
  1466.0000     71.2011      0.0000    357.0284     21.7673
  1466.2500     69.6614      0.0000    357.2853     21.7665
  1466.5000     66.8932      0.0000    357.4712     21.7981
  1466.7500     63.0204      0.0000    357.4768     21.8116
  1467.0000     59.7313      0.0000    357.3138     21.8687
  1467.2500     59.3353      0.0000    357.1038     22.2366
  1467.5000     62.9514      0.0000    356.9104     23.1722
  1467.7500     69.5620      0.0000    356.7242     24.5356
  1468.0000     76.7642      0.0000    356.4926     25.7445
  1468.2500     82.3642      0.0000    355.8018     26.2206
  1468.5000     85.4459      0.0000    353.8955     25.9413
  1468.7500     86.3962      0.0000    351.4349     25.1596
  1469.0000     86.2886      0.0000    351.4802     23.6411
  1469.2500     86.1903      0.0000    355.6734     21.3644
  1469.5000     86.6882      0.0000    361.2772     19.2783
  1469.7500     87.8300      0.0000    365.0110     18.0534
  1470.0000     89.4413      5.0000    366.5269     17.4066
  1470.2500     91.4387      0.0000    367.0109     16.9499
  1470.5000     93.7859      0.0000    367.4367     16.5763
  1470.7500     96.1822      0.0000    368.8227     16.2652
  1471.0000     98.0401      0.0000    373.8629     16.0427
  1471.2500     99.0663      0.0000    387.9077     16.0200
  1471.5000     99.7666      0.0000    413.1983     16.2419
  1471.7500    101.0263      0.0000    437.5034     16.5427
  1472.0000    103.1342      0.0000    439.4952     16.8868
  1472.2500    105.3273      0.0000    415.6203     17.5637
  1472.5000    106.1876      0.0000    386.0579     18.5888
  1472.7500    104.6051      0.0000    367.9803     19.5030
  1473.0000    100.8525      0.0000    361.4523     19.9058
  1473.2500     96.6827      0.0000    360.0887     19.6607
  1473.5000     93.8730      0.0000    360.1515     18.8393
  1473.7500     92.8042      0.0000    360.4435     17.7616
  1474.0000     92.8077      0.0000    360.5564     16.8379
  1474.2500     93.4184      0.0000    360.4222     16.2347
  1474.5000     94.6973      0.0000    360.2987     15.7802
  1474.7500     96.5680      0.0000    360.5045     15.2215
  1475.0000     98.3563      0.0000    361.0808     14.5004
  1475.2500     99.1482      0.0000    361.7758     13.7773
  1475.5000     98.5066      0.0000    362.2866     13.2555
  1475.7500     96.6693      0.0000    362.4779     13.0015
  1476.0000     94.1985      0.0000    362.4319     12.9663
  1476.2500     91.7784      0.0000    362.2097     13.1473
  1476.5000     90.0915      0.0000    361.6513     13.6197
  1476.7500     89.3577      0.0000    360.6922     14.3766
  1477.0000     89.1241      0.0000    359.6819     15.2278
  1477.2500     88.6502      0.0000    359.0485     15.9371
  1477.5000     87.1206      0.0000    358.8557     16.4463
  1477.7500     83.5973      0.0000    358.8589     16.8966
  1478.0000     77.6391      0.0000    358.8115     17.4480
  1478.2500     70.1311      0.0000    358.6266     18.1590
  1478.5000     62.8486      0.0000    358.3748     18.9198
  1478.7500     57.1335      0.0000    358.1996     19.4539
  1479.0000     53.3263      0.0000    358.2052     19.5359
  1479.2500     51.0972      0.0000    358.4031     19.1940
  1479.5000     49.8758      0.0000    358.6999     18.6330
  1479.7500     49.1908      0.0000    358.9137     18.0123
  1480.0000     48.9046      0.0000    358.8989     17.3492
  1480.2500     49.1251      0.0000    358.7242     16.6034
  1480.5000     50.0138      0.0000    358.6208     15.7916
  1480.7500     51.7324      0.0000    358.6711     15.0405
  1481.0000     54.2426      0.0000    358.7256     14.5021
  1481.2500     56.9956      0.0000    358.6798     14.1692
  1481.5000     59.1349      0.0000    358.6666     13.8860
  1481.7500     60.1636      0.0000    358.8908     13.5611
  1482.0000     60.2580      0.0000    359.3587     13.2286
  1482.2500     59.9253      0.0000    360.0765     12.9388
  1482.5000     59.5445      0.0000    361.8430     12.6965
  1482.7500     59.2470      0.0000    366.6525     12.4616
  1483.0000     59.1162      0.0000    375.9401     12.1819
  1483.2500     59.4337      0.0000    387.6126     11.8585
  1483.5000     60.7409      0.0000    397.0728     11.5764
  1483.7500     63.6975      0.0000    401.9581     11.4378
  1484.0000     68.6651      0.0000    403.2193     11.4518
  1484.2500     74.9266      0.0000    401.9572     11.5323
  1484.5000     80.3238      0.0000    397.3475     11.6336
  1484.7500     82.4697      0.0000    388.2068     11.8172
  1485.0000     80.7298      0.0000    376.5173     12.1228
  1485.2500     76.6538      0.0000    366.9670     12.4677
  1485.5000     72.4926      0.0000    361.9936     12.7468
  1485.7500     69.7604      0.0000    360.2602     12.9130
  1486.0000     68.8797      0.0000    359.7196     12.9398
  1486.2500     69.4004      0.0000    359.5089     12.8417
  1486.5000     70.5144      0.0000    359.4473     12.7194
  1486.7500     71.7348      0.0000    359.4040     12.7054
  1487.0000     73.0677      0.0000    359.2518     12.8725
  1487.2500     74.6403      0.0000    358.9555     13.2138
  1487.5000     76.4769      0.0000    358.5875     13.6909
  1487.7500     78.5092      0.0000    358.2429     14.2457
  1488.0000     80.6082      0.0000    357.9896     14.7576
  1488.2500     82.8968      0.0000    357.8527     15.1384
  1488.5000     86.0106      0.0000    357.7291     15.5231
  1488.7500     90.5749      0.0000    357.4506     16.1950
  1489.0000     96.2313      0.0000    356.9934     17.3465
  1489.2500    101.3199      0.0000    356.5201     19.0002
  1489.5000    103.6067      0.0000    356.1976     20.9693
  1489.7500    101.5094      0.0000    356.0458     22.8357
  1490.0000     94.9610      0.0000    355.9738     24.1278
  1490.2500     85.3576      0.0000    355.8919     24.5692
  1490.5000     74.7072      0.0000    355.7872     24.2073
  1490.7500     64.7848      0.0000    355.7351     23.3556
  1491.0000     56.8334      0.0000    355.7957     22.3409
  1491.2500     51.5672      0.0000    355.9355     21.3250
