~Version Information
VERS.                      2.0: CWLS Log ASCII Standard - VERSION 2.0
WRAP.                       NO: One line per depth step
~Well Information Block
STRT.FT               528.0000: 
STOP.FT              2250.0000: 
STEP.FT                 0.1000: 
NULL.                -999.2500: 
COMP.          Pioneer Natural Resources: COMPANY
WELL.           Parklane 43-34: WELL
FLD.           Purgatorie River: FIELD
LOC.           1704' FSL & 1119' FEL: LOCATION
PROV.                 Colorado: PROVINCE
CNTY.               Las Animas: COUNTRY
SRVC.                         : SERVICE COMPANY
DATE.          Thu Oct 07 08:21:17 2004: LOG DATE
UWI.           05 071 08162 00: UNIQUE WELL ID
~Curve Information Block
DEPT.FT            0 000 00 00: Depth
LTEN.lb                       : Surface Line Tension
DCAL.in                       : CDL Caliper
RHOB.g/cc                     : CDL Bulk Density
RHOC.g/cc                     : CDL Density Correction
DPOR.pu                       : CDL Density Porosity
GR.GAPI                       : Gamma Ray
NPOR.pu                       : Neutron Porosity
~Parameter Information Block
~A  Depth       LTEN        DCAL        RHOB        RHOC        DPOR         GR         NPOR    
# ...
  1897.2000   1113.3656      7.9173      2.4502      0.0857     12.1066    113.3178     27.2969
  1897.3000   1128.5598      7.9246      2.4408      0.0761     12.6789    117.6170     27.5893
  1897.4000   1128.5598      7.9246      2.4293      0.0707     13.3757    113.4947     27.8396
  1897.5000   1138.3748      7.9358      2.4260      0.0598     13.5744    106.2812     28.0892
  1897.6000   1138.3748      7.9358      2.4346      0.0934     13.0553    100.1320     28.4662
  1897.7000   1138.3748      7.9358      2.4541      0.0947     11.8743     98.2439     28.6634
  1897.8000   1147.7269      7.9372      2.4783      0.1207     10.4060     98.5213     28.6514
  1897.9000   1147.7269      7.9372      2.4902      0.1401      9.6832     96.3898     28.5773
  1898.0000   1159.7877      7.9409      2.4788      0.1496     10.3785     92.6795     28.4999
  1898.1000   1159.7877      7.9409      2.4536      0.0697     11.9046     93.0188     28.5024
  1898.2000   1159.7877      7.9409      2.4372      0.0439     12.8945     97.9077     28.5722
  1898.3000   1155.2701      7.9551      2.4426      0.0710     12.5669    101.1288     28.4877
  1898.4000   1155.2701      7.9551      2.4626      0.0707     11.3550     99.7527     27.9486
  1898.5000   1133.4827      7.9522      2.4821      0.0966     10.1756     97.0120     27.0468
  1898.6000   1133.4827      7.9522      2.4965      0.0872      9.3030     95.3261     26.6556
  1898.7000   1133.4827      7.9522      2.5059      0.1006      8.7353     92.7624     27.0609
  1898.8000   1171.0774      7.9314      2.4982      0.1390      9.2029     89.4822     27.3669
  1898.9000   1171.0774      7.9314      2.4735      0.0835     10.6979     91.1371     27.1533
  1899.0000   1131.2628      7.9189      2.4547      0.1002     11.8386     98.5615     26.9123
  1899.1000   1131.2628      7.9189      2.4533      0.0908     11.9190    106.6082     27.0899
  1899.2000   1131.2628      7.9189      2.4595      0.0841     11.5460    112.9197     27.6912
  1899.3000   1170.8300      7.9222      2.4570      0.1038     11.6972    113.0018     28.2238
  1899.4000   1170.8300      7.9222      2.4455      0.0470     12.3932    104.4787     28.1041
  1899.5000   1124.3239      7.9309      2.4434      0.0520     12.5233     96.6779     27.5203
  1899.6000   1124.3239      7.9309      2.4569      0.0705     11.7055     96.2914     27.2253
  1899.7000   1124.3239      7.9309      2.4716      0.1077     10.8105     99.7509     27.5500
  1899.8000   1154.2729      7.9289      2.4789      0.0811     10.3726    102.8555     28.0499
  1899.9000   1154.2729      7.9289      2.4881      0.0706      9.8109    108.1438     28.4333
  1900.0000   1110.7051      7.9130      2.4994      0.1430      9.1275    115.1045     28.6914
  1900.1000   1110.7051      7.9130      2.4950      0.0989      9.3943    116.1034     28.6056
  1900.2000   1110.7051      7.9130      2.4774      0.0851     10.4598    110.5665     28.0673
  1900.3000   1151.0857      7.8935      2.4677      0.0823     11.0483    102.8506     27.0855
  1900.4000   1151.0857      7.8935      2.4688      0.0900     10.9812     96.6839     26.2300
  1900.5000   1113.7559      7.8822      2.4690      0.1003     10.9698     93.3425     26.1319
  1900.6000   1113.7559      7.8822      2.4671      0.0856     11.0864     90.6466     26.3608
  1900.7000   1113.7559      7.8822      2.4678      0.0794     11.0402     88.1602     26.2519
  1900.8000   1172.5099      7.8936      2.4677      0.0902     11.0508     85.9514     26.1614
  1900.9000   1172.5099      7.8936      2.4658      0.0616     11.1645     83.9608     26.6165
  1901.0000   1124.5715      7.9210      2.4731      0.0465     10.7231     84.1700     27.2265
  1901.1000   1124.5715      7.9210      2.4924      0.0758      9.5505     88.5681     27.3646
  1901.2000   1124.5715      7.9210      2.5103      0.1018      8.4649     94.5846     27.2080
  1901.3000   1161.8110      7.9398      2.5150      0.1001      8.1801     98.0715     27.2653
  1901.4000   1161.8110      7.9398      2.5092      0.0880      8.5350    102.1267     27.4827
  1901.5000   1122.1777      7.9512      2.5014      0.1228      9.0083    105.6992     27.8728
  1901.6000   1122.1777      7.9512      2.4971      0.0817      9.2647    101.1546     28.5710
  1901.7000   1122.1777      7.9512      2.4965      0.1064      9.3041     89.3503     29.0120
  1901.8000   1157.8649      7.9649      2.4918      0.1046      9.5860     80.4119     28.4983
  1901.9000   1157.8649      7.9649      2.4829      0.0490     10.1253     81.7039     27.4268
  1902.0000   1134.6410      7.9785      2.4745      0.0865     10.6340     88.9858     26.8766
  1902.1000   1134.6410      7.9785      2.4652      0.0729     11.2030     92.4768     27.0224
  1902.2000   1134.6410      7.9785      2.4578      0.0732     11.6488     91.7771     27.4475
  1902.3000   1158.2048      7.9911      2.4598      0.1089     11.5288     95.8443     28.1083
  1902.4000   1158.2048      7.9911      2.4719      0.1322     10.7967    105.1004     29.0189
  1902.5000   1120.6173      7.9988      2.4867      0.1044      9.8980    112.3523     29.5766
  1902.6000   1120.6173      7.9988      2.4995      0.1211      9.1218    113.9126     29.1163
  1902.7000   1120.6173      7.9988      2.5142      0.1244      8.2297    107.9930     27.8971
  1902.8000   1162.9209      8.0009      2.5320      0.1406      7.1531     98.5415     26.6615
  1902.9000   1162.9209      8.0009      2.5424      0.1687      6.5236     92.1942     25.7364
  1903.0000   1128.3611      7.9998      2.5410      0.1667      6.6048     89.0306     25.1762
  1903.1000   1128.3611      7.9998      2.5375      0.1589      6.8208     87.4898     24.9512
  1903.2000   1128.3611      7.9998      2.5372      0.1630      6.8358     89.2700     24.9083
  1903.3000   1159.4891      7.9954      2.5369      0.1606      6.8551     94.3099     25.1228
  1903.4000   1159.4891      7.9954      2.5343      0.1214      7.0114     97.9052     25.7102
  1903.5000   1120.7690      7.9884      2.5293      0.1494      7.3180     97.9013     26.2430
  1903.6000   1120.7690      7.9884      2.5191      0.1060      7.9317     96.0735     26.2319
  1903.7000   1120.7690      7.9884      2.5059      0.0789      8.7309     95.1811     25.6060
  1903.8000   1161.4698      7.9816      2.4976      0.0950      9.2361     96.7382     24.8000
  1903.9000   1161.4698      7.9816      2.4989      0.1149      9.1552     99.3436     24.6159
  1904.0000   1127.0741      7.9745      2.5115      0.0669      8.3942    100.8012     25.3302
  1904.1000   1127.0741      7.9745      2.5286      0.1103      7.3551    100.3491     26.1180
  1904.2000   1127.0741      7.9745      2.5319      0.1131      7.1551     99.4699     25.8110
  1904.3000   1165.9850      7.9658      2.5189      0.0697      7.9439     98.7565     24.6698
  1904.4000   1165.9850      7.9658      2.5067      0.0661      8.6843     97.6780     24.1121
  1904.5000   1109.4557      7.9506      2.5001      0.1098      9.0872     97.1034     24.6826
  1904.6000   1109.4557      7.9506      2.4957      0.0536      9.3544     95.1413     25.3551
  1904.7000   1109.4557      7.9506      2.5008      0.0745      9.0441     90.0011     25.1169
  1904.8000   1162.2821      7.9255      2.5174      0.1010      8.0346     84.8033     24.4561
  1904.9000   1162.2821      7.9255      2.5383      0.0974      6.7680     82.3716     24.1567
  1905.0000   1107.1696      7.9000      2.5524      0.1204      5.9168     81.0742     24.5161
  1905.1000   1107.1696      7.9000      2.5458      0.1041      6.3165     79.8552     25.3665
  1905.2000   1107.1696      7.9000      2.5262      0.0621      7.5058     81.7068     26.2350
  1905.3000   1149.4438      7.8802      2.5177      0.0730      8.0189     87.4419     26.9216
  1905.4000   1149.4438      7.8802      2.5200      0.0983      7.8792     90.9315     27.4394
  1905.5000   1097.8242      7.8726      2.5135      0.0921      8.2738     90.6588     27.8694
