~Version Information
VERS.                      2.0: CWLS Log ASCII Standard - VERSION 2.0
WRAP.                       NO: One line per depth step
~Well Information Block
STRT.FT               240.0000: 
STOP.FT              1453.0000: 
STEP.FT                 0.2500: 
NULL.                -999.2500: 
COMP.          Petrogulf Corporation: COMPANY
WELL.          Robinson 15-12R: WELL
FLD.           Purgatorie River: FIELD
LOC.           1752' FNL & 561' FWL: LOCATION
PROV.                 Colorado: PROVINCE
CNTY.               Las Animas: COUNTRY
SRVC.                Patterson: SERVICE COMPANY
DATE.          Tue Sep 13 15:11:42 2005: LOG DATE
UWI.                          : UNIQUE WELL ID
~Curve Information Block
DEPT.FT            0 000 00 00: Depth
SP.mV                         : DIL Spontaneous Potential
RILD.Ohm-m                    : DIL Deep Resistivity
RILM.Ohm-m                    : DIL Medium Resistivity
RLL3.Ohm-m                    : DIL Shallow Resistivity
GR.GAPI                       : Gamma Ray
~Parameter Information Block
~A  Depth        SP         RILD        RILM        RLL3         GR     
# ...
  1248.0000    192.3348     24.5566     34.8692     31.1136    109.4270
  1248.2500    191.9891     25.1803     37.8454     34.2428    108.1769
  1248.5000    191.8460     24.1870     39.9040     35.0266     98.1914
  1248.7500    191.4876     23.4254     40.6919     37.2194    102.7879
  1249.0000    190.9461     22.4104     40.4531     39.8724    119.2229
  1249.2500    190.5119     22.8414     35.9774     38.8126    111.1399
  1249.5000    190.3625     22.3305     32.5800     31.8859    127.9325
  1249.7500    190.2631     23.0702     30.5607     24.6311    159.6398
  1250.0000    189.9536     23.7187     28.2768     20.0338    136.5473
  1250.2500    189.6034     22.3783     29.9446     21.2005    122.7011
  1250.5000    189.2300     22.1494     28.2644     28.3377    108.4352
  1250.7500    189.2886     21.0234     28.6567     39.8711    100.4179
  1251.0000    189.2501     19.7170     27.6757     43.7933     67.3092
  1251.2500    189.3693     20.0756     26.4860     35.6643     95.2266
  1251.5000    189.7370     18.9167     24.3505     25.3251    123.1403
  1251.7500    189.7234     17.5977     23.7311     22.1774    125.7921
  1252.0000    189.4737     17.1112     22.2042     22.2864    125.5472
  1252.2500    189.8627     16.3877     21.2262     21.5794    133.2207
  1252.5000    190.0329     15.2513     19.5038     20.6842    120.6165
  1252.7500    189.8191     14.1776     18.3728     21.2012    124.8263
  1253.0000    189.7296     13.5323     16.9923     20.4671    130.3701
  1253.2500    190.2830     12.7183     15.3648     16.5587    117.2939
  1253.5000    190.8902     11.8315     13.5605     14.8307    135.7293
  1253.7500    191.8176     11.2571     12.1594     13.8553    137.5498
  1254.0000    193.0051     10.9185     11.2702     11.5881    141.2621
  1254.2500    193.6241     10.5392     10.5178     10.2660    168.5438
  1254.5000    194.5081     10.1256      9.9471     10.1142    187.1489
  1254.7500    195.5605      9.9129      9.5154     10.0126    169.3806
  1255.0000    196.3139      9.7094      8.8609      9.7865    169.1170
  1255.2500    196.9175      9.7338      8.5657      9.6403    175.3101
  1255.5000    197.2747      9.9590      8.4388      8.7712    182.5648
  1255.7500    197.0145     10.0022      8.4143      8.6283    182.4344
  1256.0000    196.3941     10.2894      8.5687      8.8270    163.9154
  1256.2500    195.4890     10.5666      9.0609      9.9359    168.1493
  1256.5000    194.4483     10.9797      9.6683     11.1114    158.5965
  1256.7500    193.3082     11.4042     10.5787     12.2414    162.0371
  1257.0000    192.0670     12.1243     11.6664     14.4317    138.1119
  1257.2500    190.9725     12.5825     13.0647     19.9321    117.4791
  1257.5000    190.1544     13.0022     14.8464     33.0817     99.0756
  1257.7500    189.2194     14.3444     16.8292     55.0797     98.8272
  1258.0000    188.7201     15.4010     19.3153     69.9724     96.6210
  1258.2500    188.8278     16.0774     21.0111     71.6667     98.7074
  1258.5000    188.9961     17.4008     23.2080     69.2737     79.9498
  1258.7500    189.0801     18.5878     27.2247     66.7838     70.5103
  1259.0000    189.3671     19.1616     30.6500     62.6185     67.2281
  1259.2500    190.0018     21.5226     31.4153     53.5488     67.5000
  1259.5000    190.5782     22.6209     33.5871     44.5936     87.3857
  1259.7500    190.7240     22.8931     36.4559     40.1382     83.1066
  1260.0000    190.5384     23.0315     38.2742     39.8201     88.5898
  1260.2500    190.1891     23.3745     37.5393     42.5726     83.7026
  1260.5000    189.9442     22.2130     37.9715     45.6366     90.1753
  1260.7500    189.7398     21.6216     35.2546     45.5388     98.4895
  1261.0000    189.2880     20.5476     34.0505     39.3213    117.0015
  1261.2500    189.1214     19.9243     31.3934     32.9332    109.0298
  1261.5000    189.2925     18.8095     26.0555     29.1186    110.2197
  1261.7500    189.6325     17.8451     24.5352     26.4058    121.7429
  1262.0000    189.5952     16.4017     22.5997     24.8322    130.7058
  1262.2500    189.5454     15.8270     19.9657     24.3014    122.9173
  1262.5000    189.3961     15.4327     18.3528     22.2725    116.4948
  1262.7500    189.2025     15.0616     17.1151     18.5888    135.2562
  1263.0000    188.7547     14.6299     15.3291     15.5142    150.1400
  1263.2500    188.4203     14.6442     14.3478     13.9477    130.6946
  1263.5000    188.2178     14.3931     13.9036     13.7157    147.3114
  1263.7500    188.1070     14.7410     13.3903     13.3919    160.7187
  1264.0000    187.8819     15.0091     13.4566     12.5238    142.1772
  1264.2500    187.5042     15.1806     13.4661     11.8587    125.5915
  1264.5000    186.7911     14.9251     14.2303     12.4349    104.0369
  1264.7500    186.4398     15.2909     15.5969     15.4671    103.3347
  1265.0000    186.4032     15.8981     17.1025     22.6948     94.3218
  1265.2500    186.2453     16.3367     18.6691     32.9219     80.8750
  1265.5000    185.8365     16.6059     21.2992     42.7744     84.0333
  1265.7500    185.7303     17.2179     24.1252     50.3584     74.3862
  1266.0000    186.0583     17.7624     27.0335     63.3333     80.0303
  1266.2500    186.5310     18.0474     28.8654     78.8532     74.3272
  1266.5000    186.9628     18.3280     30.7844     83.4005     60.1950
  1266.7500    187.3842     18.1581     34.3516     76.3042     62.7210
  1267.0000    187.6479     18.1280     34.0722     72.5714     55.1387
  1267.2500    188.0644     17.2611     34.6640     76.0485     57.9026
  1267.5000    188.7111     16.1094     31.3667     81.5243     71.2540
  1267.7500    189.1634     15.3548     28.2232     81.2488     72.5855
  1268.0000    189.8075     14.2648     23.3225     67.2389    101.8723
  1268.2500    190.7772     13.5370     19.8099     40.4158    109.8840
  1268.5000    191.5073     12.7407     16.1433     20.3416    150.7779
  1268.7500    192.0674     12.3479     13.8419     12.2860    174.4081
  1269.0000    192.2766     11.7198     11.9103     10.1041    179.0165
  1269.2500    192.4339     11.2636     10.8750      8.7930    197.6590
  1269.5000    192.1620     10.9953     10.1723      8.2388    180.2270
  1269.7500    191.6307     10.7556      9.8010      8.4087    186.8411
  1270.0000    190.9340     10.5867      9.5230      8.7735    189.4247
  1270.2500    190.1039     10.3467      9.4790      8.6834    163.4515
  1270.5000    189.3849     10.1013      9.7364      8.8126    135.8424
  1270.7500    188.9826      9.9644     10.0153      9.8458    135.9793
  1271.0000    188.9272     10.0874     10.2477     11.6001    146.1326
  1271.2500    188.7766     10.1222     10.7548     13.1368    120.0490
  1271.5000    188.6444     10.2335     11.1106     14.2830    114.1481
  1271.7500    188.6461     10.4831     11.6822     15.8193    107.1391
  1272.0000    189.1449     10.7955     11.9701     18.4969    127.5337
  1272.2500    189.7231     11.3306     12.4510     20.5651    139.4672
  1272.5000    190.1604     11.8576     12.6209     19.2075    128.8895
  1272.7500    191.0389     12.6152     13.1016     14.9409    140.8808
  1273.0000    191.6859     13.4685     13.6114     13.3724    117.7402
  1273.2500    192.2860     13.9129     14.3154     14.4501    114.2863
  1273.5000    192.7016     14.4574     15.1765     15.1905    114.3029
  1273.7500    192.8277     14.8777     16.1183     14.8741    101.0353
  1274.0000    192.8163     15.6061     16.8466     15.3670    118.3474
  1274.2500    192.5242     15.3910     18.4570     16.1862    129.4654
  1274.5000    191.9027     15.1920     20.0206     17.3307    121.4707
  1274.7500    191.6537     14.6947     21.4613     19.9354    126.3420
  1275.0000    191.6150     14.2906     21.6817     25.2088    109.8615
  1275.2500    191.4756     13.8485     21.3856     33.0141     99.5979
  1275.5000    191.6472     13.2525     20.4020     35.3107    101.7137
  1275.7500    191.6731     12.4875     18.7747     27.9353    113.0566
