~Version Information
VERS.                      2.0: CWLS Log ASCII Standard - VERSION 2.0
WRAP.                       NO: One line per depth step
~Well Information Block
STRT.FT               350.0000: 
STOP.FT              2531.5000: 
STEP.FT                 0.1000: 
NULL.                -999.2500: 
COMP.          Pioneer Natural Resources: COMPANY
WELL.          Cock-a-doodle-doo: WELL
FLD.           Purgatoire River: FIELD
LOC.           163' FSL & 54' FEL: LOCATION
PROV.                 Colorado: PROVINCE
CNTY.               Las Animas: COUNTRY
SRVC.                Patterson: SERVICE COMPANY
DATE.          Fri Jul 01 09:34:59 2005: LOG DATE
UWI.           05 071 08429 00: UNIQUE WELL ID
~Curve Information Block
DEPT.FT            0 000 00 00: Depth
DCAL.in                       : CDL Caliper
RHOB.g/cc                     : CDL Bulk Density
RHOC.g/cc                     : CDL Density Correction
DPOR.pu                       : CDL Density Porosity
GR.GAPI                       : Gamma Ray
NPOR.pu                       : Neutron Porosity
~Parameter Information Block
~A  Depth       DCAL        RHOB        RHOC        DPOR         GR         NPOR    
# ...
  2231.6000      7.9340      2.5745      0.0186      4.5746     97.1310     24.2309
  2231.7000      7.9340      2.5699      0.0542      4.8546     90.8923     22.4967
  2231.8000      7.9373      2.5780      0.0509      4.3650     93.7747     21.7802
  2231.9000      7.9373      2.5841      0.0938      3.9968    102.9538     21.7359
  2232.0000      7.9639      2.5835      0.1161      4.0310    109.5323     21.7208
  2232.1000      7.9639      2.5811      0.0774      4.1760    107.3014     21.5930
  2232.2000      7.9639      2.5794      0.0707      4.2801    102.6909     21.5233
  2232.3000      7.9745      2.5791      0.0841      4.2948    102.5222     21.3458
  2232.4000      7.9745      2.5868      0.0784      3.8305    103.1238     20.8446
  2232.5000      7.9434      2.6005      0.0766      3.0023    100.4010     20.5656
  2232.6000      7.9434      2.6074      0.0805      2.5848     97.9624     20.8518
  2232.7000      7.9434      2.6022      0.0756      2.8971     99.0600     21.1295
  2232.8000      7.9502      2.5896      0.0708      3.6609    100.5869     21.3707
  2232.9000      7.9502      2.5656      0.0731      5.1161     98.9351     22.1775
  2233.0000      7.9748      2.5321     -0.0105      7.1427     95.4718     23.0458
  2233.1000      7.9748      2.5143     -0.0214      8.2262     94.4151     22.8728
  2233.2000      7.9748      2.5197      0.0220      7.8968     97.0924     22.3825
  2233.3000      7.9970      2.5325      0.0243      7.1224    103.1627     22.5286
  2233.4000      7.9970      2.5391      0.0599      6.7195    111.1368     22.8815
  2233.5000      8.0183      2.5341      0.0579      7.0260    117.2236     23.2817
  2233.6000      8.0183      2.5275      0.0491      7.4255    120.1943     23.9184
  2233.7000      8.0183      2.5319      0.0759      7.1572    118.7337     23.9376
  2233.8000      8.0466      2.5396      0.0637      6.6905    112.3092     23.0040
  2233.9000      8.0466      2.5398      0.0568      6.6782    106.8096     22.6018
  2234.0000      8.0318      2.5343      0.0547      7.0102    106.2719     23.2424
  2234.1000      8.0318      2.5274      0.0427      7.4327    108.5527     23.6833
  2234.2000      8.0318      2.5270      0.0450      7.4525    113.3816     23.7751
  2234.3000      8.0183      2.5377      0.0300      6.8069    119.8440     24.7134
  2234.4000      8.0183      2.5461      0.0488      6.2958    121.5588     25.9588
  2234.5000      8.0038      2.5340      0.0573      7.0288    116.4289     25.9213
  2234.6000      8.0038      2.5019      0.0400      8.9756    112.3065     25.0418
  2234.7000      8.0038      2.4751     -0.0386     10.5985    115.7329     24.6605
  2234.8000      7.9998      2.4690      0.0680     10.9684    121.8998     24.7022
  2234.9000      7.9998      2.4608      0.0282     11.4668    122.6330     24.6436
  2235.0000      7.9866      2.4248      0.0392     13.6479    118.0364     24.9121
  2235.1000      7.9866      2.3678     -0.0228     17.1013    114.0963     25.6418
  2235.2000      7.9866      2.3247     -0.0257     19.7178    112.5891     26.1404
  2235.3000      7.9882      2.3070      0.0570     20.7875    110.4516     26.2848
  2235.4000      7.9882      2.2822      0.0394     22.2879    105.5744     26.4497
  2235.5000      7.9853      2.2214      0.0386     25.9728    100.3798     26.5177
  2235.6000      7.9853      2.1314     -0.0311     31.4318     99.0134     26.4179
  2235.7000      7.9853      2.0314      0.0227     37.4909    101.1290     26.7675
  2235.8000      7.9762      1.9390     -0.0769     43.0895    100.9258     27.6751
  2235.9000      7.9762      1.8826     -0.0565     46.5120     96.8434     28.2354
  2236.0000      7.9677      1.8779     -0.0211     46.7944     93.2169     28.4273
  2236.1000      7.9677      1.9160      0.0139     44.4828     93.0269     28.7725
  2236.2000      7.9677      1.9862      0.0879     40.2307     95.5937     28.6519
  2236.3000      7.9783      2.0774      0.1116     34.7052     97.1240     27.7002
  2236.4000      7.9783      2.1606      0.1915     29.6587     93.8158     26.7044
  2236.5000      7.9642      2.2021      0.2545     27.1481     88.4698     25.9927
  2236.6000      7.9642      2.1964      0.2395     27.4904     88.6953     25.9555
  2236.7000      7.9642      2.1532      0.2067     30.1085     93.3609     27.1457
  2236.8000      7.9384      2.0580      0.1615     35.8769     95.0939     28.7098
  2236.9000      7.9384      1.8839      0.0706     46.4329     94.3864     29.5259
  2237.0000      7.9635      1.6509     -0.0901     60.5528     93.5089     29.3830
  2237.1000      7.9635      1.4446     -0.2133     73.0559     89.3275     28.8689
  2237.2000      7.9635      1.3378     -0.2044     79.5251     82.5546     29.3157
  2237.3000      7.9688      1.3220     -0.1377     80.4875     79.7965     30.9056
  2237.4000      7.9688      1.3430     -0.1507     79.2108     80.4858     32.1071
  2237.5000      8.0129      1.3615     -0.0297     78.0935     74.4647     32.0126
  2237.6000      8.0129      1.3651      0.0198     77.8751     59.9481     31.3253
  2237.7000      8.0129      1.3647      0.0394     77.8945     47.0089     31.0486
  2237.8000      8.0251      1.3706      0.0321     77.5369     41.7224     31.4281
  2237.9000      8.0251      1.3782      0.0801     77.0804     39.7561     31.8828
  2238.0000      8.0568      1.3862      0.0250     76.5913     35.2849     31.7008
  2238.1000      8.0568      1.3976      0.0808     75.9026     28.6141     30.7780
  2238.2000      8.0568      1.3999      0.1032     75.7642     23.2010     30.0217
  2238.3000      8.0287      1.3813      0.0403     76.8888     20.2765     30.6324
  2238.4000      8.0287      1.3539     -0.0103     78.5539     19.0100     32.0599
  2238.5000      8.2081      1.3376     -0.0128     79.5375     19.0454     33.1432
  2238.6000      8.2081      1.3386      0.0075     79.4780     20.5621     34.0099
  2238.7000      8.2081      1.3507     -0.0254     78.7482     22.3382     35.0705
  2238.8000      8.7428      1.3571      0.0647     78.3587     22.7695     36.0875
  2238.9000      8.7428      1.3339      0.0445     79.7637     23.0228     36.6157
  2239.0000      9.6168      1.2783      0.0479     83.1360     23.9097     36.5229
  2239.1000      9.6168      1.2164     -0.0141     86.8864     25.4718     35.8948
  2239.2000      9.6168      1.1800     -0.0047     89.0928     27.9857     35.2765
  2239.3000      9.6719      1.1821     -0.0117     88.9628     30.3241     35.2426
  2239.4000      9.6719      1.2139      0.0342     87.0380     31.4630     35.3689
  2239.5000      8.8522      1.2628     -0.0113     84.0711     31.7078     34.9869
  2239.6000      8.8522      1.3222      0.0323     80.4706     32.0863     34.3868
  2239.7000      8.8522      1.3786      0.0703     77.0569     32.5537     34.1522
  2239.8000      9.0655      1.4219      0.0680     74.4324     32.6510     34.5867
  2239.9000      9.0655      1.4552      0.0860     72.4094     33.4588     35.2947
  2240.0000      9.9650      1.4740      0.1398     71.2710     34.8130     35.2229
  2240.1000      9.9650      1.4744      0.0958     71.2494     35.0433     34.1444
  2240.2000      9.9650      1.4763      0.0450     71.1315     33.3706     32.6388
  2240.3000     11.0331      1.4970      0.0550     69.8787     30.5273     31.0834
  2240.4000     11.0331      1.5272      0.0541     68.0480     30.3533     29.9910
  2240.5000     10.8673      1.5555      0.0369     66.3333     35.1939     29.8549
  2240.6000     10.8673      1.5794      0.0549     64.8856     39.6175     30.2299
  2240.7000     10.8673      1.5949      0.0586     63.9472     39.3781     30.5145
  2240.8000      8.6652      1.6024      0.0228     63.4883     38.1574     30.4845
  2240.9000      8.6652      1.6133      0.0385     62.8296     39.6558     29.7467
  2241.0000      8.1390      1.6367      0.0539     61.4146     43.2867     28.5002
  2241.1000      8.1390      1.6653      0.0678     59.6794     45.0157     28.0333
