~Version Information
VERS.                      2.0: CWLS Log ASCII Standard - VERSION 2.0
WRAP.                       NO: One line per depth step
~Well Information Block
STRT.FT               965.2500: 
STOP.FT              2602.5000: 
STEP.FT                 0.2500: 
NULL.                -999.2500: 
COMP.          Petrogulf Corporation: COMPANY
WELL.             Valejo 8-12V: WELL
FLD.           Purgatorie River: FIELD
LOC.           1510' FNL & 1460' FWL: LOCATION
CNTY.               Las Animas: COUNTY
SRVC.                         : SERVICE COMPANY
DATE.          Fri Nov 14 05:32:33 2003: LOG DATE
UWI.                          : UNIQUE WELL ID
STAT.                 Colorado: STATE
~Curve Information Block
DEPT.FT            0 000 00 00: Depth
RILD.Ohm-m                    : DIL Deep Resistivity
RILM.Ohm-m                    : DIL Medium Resistivity
RLL3.Ohm-m                    : DIL Shallow Resistivity
SP.mV                         : DIL Spontaneous Potential
GR.GAPI                       : Gamma Ray
~Parameter Information Block
~A  Depth       RILD        RILM        RLL3         SP          GR     
# ...
  2029.2500     24.3155     31.9100     35.5607    -16.4356     52.5373
  2029.5000     24.2153     31.4936     35.6181    -16.4040     57.8227
  2029.7500     24.1088     31.1952     35.7255    -16.4066     61.3626
  2030.0000     24.0290     31.0158     35.9557    -16.4419     64.3387
  2030.2500     24.0100     30.9225     36.2760    -16.5095     63.8744
  2030.5000     24.0719     30.8823     36.5805    -16.6080     59.6007
  2030.7500     24.2039     30.8621     36.7235    -16.7288     55.1993
  2031.0000     24.3639     30.8216     36.5631    -16.8533     48.2808
  2031.2500     24.4998     30.7226     36.0501    -16.9552     44.6493
  2031.5000     24.5779     30.5554     35.2931    -17.0081     42.0298
  2031.7500     24.5968     30.3551     34.5090    -16.9944     42.1381
  2032.0000     24.5814     30.1896     33.8903    -16.9072     43.7450
  2032.2500     24.5660     30.1204     33.5105    -16.7464     44.8962
  2032.5000     24.5781     30.1716     33.3511    -16.5200     46.0035
  2032.7500     24.6286     30.3262     33.4028    -16.2523     46.2732
  2033.0000     24.7095     30.5468     33.7088    -15.9821     46.0529
  2033.2500     24.8025     30.7936     34.2828    -15.7407     45.6468
  2033.5000     24.8928     31.0249     35.0023    -15.5305     45.1729
  2033.7500     24.9799     31.1911     35.6213    -15.3304     45.1798
  2034.0000     25.0806     31.2439     35.9100    -15.1190     45.5810
  2034.2500     25.2227     31.1609     35.7967    -14.8927     45.9156
  2034.5000     25.4312     30.9593     35.4077    -14.6665     46.3982
  2034.7500     25.7060     30.6872     34.9899    -14.4665     46.7625
  2035.0000     26.0061     30.4056     34.7747    -14.3213     47.3921
  2035.2500     26.2565     30.1806     34.8787    -14.2536     47.8006
  2035.5000     26.3884     30.0750     35.2919    -14.2716     48.5147
  2035.7500     26.3837     30.1328     35.9233    -14.3619     49.3881
  2036.0000     26.2915     30.3618     36.6549    -14.4909     51.6857
  2036.2500     26.2044     30.7361     37.4050    -14.6142     53.4800
  2036.5000     26.2157     31.2170     38.1786    -14.6969     55.0269
  2036.7500     26.3835     31.7750     39.0341    -14.7342     54.7412
  2037.0000     26.7112     32.3962     39.9638    -14.7522     53.1813
  2037.2500     27.1458     33.0785     40.8203    -14.7825     52.6838
  2037.5000     27.5905     33.8282     41.4335    -14.8430     54.7304
  2037.7500     27.9294     34.6539     41.8697    -14.9363     58.1534
  2038.0000     28.0627     35.5423     42.5681    -15.0579     64.6672
  2038.2500     27.9451     36.4168     44.1525    -15.2019     68.2294
  2038.5000     27.6054     37.1038     47.0348    -15.3654     70.0399
  2038.7500     27.1286     37.3478     51.0864    -15.5494     68.6436
  2039.0000     26.6061     36.9013     55.4771    -15.7538     64.2589
  2039.2500     26.0898     35.6637     58.6976    -15.9711     61.3582
  2039.5000     25.5803     33.7684     58.9959    -16.1842     59.7834
  2039.7500     25.0567     31.5326     55.3522    -16.3695     62.0469
  2040.0000     24.5163     29.3056     48.3893    -16.5070     72.0007
  2040.2500     23.9900     27.3416     40.2410    -16.5897     82.6789
  2040.5000     23.5215     25.7602     33.2602    -16.6260    101.5364
  2040.7500     23.1335     24.5750     28.6677    -16.6361    113.4411
  2041.0000     22.8134     23.7427     26.2695    -16.6437    127.2078
  2041.2500     22.5257     23.2057     25.2053    -16.6689    133.0825
  2041.5000     22.2381     22.9193     24.8124    -16.7226    137.0171
  2041.7500     21.9404     22.8580     24.9342    -16.8048    136.6863
  2042.0000     21.6440     23.0045     25.7218    -16.9056    133.3560
  2042.2500     21.3650     23.3304     27.3078    -17.0089    130.8592
  2042.5000     21.1065     23.7806     29.6021    -17.0983    129.0455
  2042.7500     20.8516     24.2701     32.2847    -17.1617    129.3879
  2043.0000     20.5747     24.6915     35.0121    -17.1939    130.8552
  2043.2500     20.2641     24.9265     37.6926    -17.1992    131.3137
  2043.5000     19.9390     24.8630     40.4679    -17.1939    130.0211
  2043.7500     19.6460     24.4281     43.2096    -17.2034    128.0144
  2044.0000     19.4365     23.6351     44.9965    -17.2522    124.9892
  2044.2500     19.3426     22.6091     44.3919    -17.3500    124.4278
  2044.5000     19.3657     21.5545     40.5993    -17.4832    128.2774
  2044.7500     19.4786     20.6834     34.4609    -17.6200    134.7239
  2045.0000     19.6372     20.1546     28.2539    -17.7268    148.6363
  2045.2500     19.7921     20.0470     24.4599    -17.7869    157.9470
  2045.5000     19.8998     20.3558     24.5199    -17.8081    166.0883
  2045.7500     19.9336     20.9895     28.2146    -17.8173    165.3069
  2046.0000     19.8928     21.7786     33.7209    -17.8476    154.5753
  2046.2500     19.8059     22.5173     38.4104    -17.9252    142.9782
  2046.5000     19.7244     23.0494     40.2970    -18.0602    124.4690
  2046.7500     19.7094     23.3369     39.2481    -18.2456    114.8189
  2047.0000     19.8170     23.4467     36.8655    -18.4646    107.7914
  2047.2500     20.0866     23.4795     35.1039    -18.7030    107.4135
  2047.5000     20.5323     23.5163     34.9078    -18.9555    108.1164
  2047.7500     21.1376     23.6225     35.9413    -19.2229    105.9605
  2048.0000     21.8578     23.8671     37.2848    -19.5019     96.2223
  2048.2500     22.6347     24.3124     38.2220    -19.7774     86.6480
  2048.5000     23.4225     24.9753     38.5183    -20.0231     72.2166
  2048.7500     24.2080     25.8071     38.2699    -20.2112     64.5499
  2049.0000     25.0080     26.7294     37.6839    -20.3199     56.4725
  2049.2500     25.8386     27.7028     36.9851    -20.3370     52.5631
  2049.5000     26.6813     28.7557     36.4158    -20.2653     47.6900
  2049.7500     27.4730     29.9397     36.2545    -20.1302     44.8985
  2050.0000     28.1370     31.2676     36.8027    -19.9746     41.3905
  2050.2500     28.6397     32.6946     38.2957    -19.8383     39.3962
  2050.5000     29.0204     34.1487     40.7406    -19.7394     36.6185
  2050.7500     29.3610     35.5637     43.8007    -19.6734     34.9064
  2051.0000     29.7198     36.8877     46.9050    -19.6223     32.9905
  2051.2500     30.0903     38.0798     49.5793    -19.5638     32.4009
  2051.5000     30.4175     39.1269     51.7154    -19.4792     32.3137
  2051.7500     30.6525     40.0605     53.4996    -19.3612     32.2813
  2052.0000     30.7914     40.9460     55.0752    -19.2195     31.6017
  2052.2500     30.8663     41.8218     56.3125    -19.0794     30.8571
  2052.5000     30.9060     42.6269     56.9153    -18.9699     30.3651
  2052.7500     30.9105     43.1925     56.6684    -18.9086     31.2241
  2053.0000     30.8540     43.3228     55.5113    -18.8901     35.1833
  2053.2500     30.7055     42.9171     53.4460    -18.8859     39.6153
  2053.5000     30.4435     42.0243     50.5431    -18.8582     48.0685
  2053.7500     30.0600     40.7934     47.1105    -18.7818     54.1484
  2054.0000     29.5619     39.3792     43.7749    -18.6587     62.8662
  2054.2500     28.9698     37.8726     41.2768    -18.5156     68.0256
  2054.5000     28.3153     36.2848     40.1054    -18.3843     74.3507
  2054.7500     27.6319     34.5913     40.2205    -18.2817     77.5394
  2055.0000     26.9471     32.8046     40.9634    -18.2046     81.4558
  2055.2500     26.2822     31.0153     41.2134    -18.1387     84.6107
  2055.5000     25.6567     29.3662     39.9195    -18.0724     92.7586
  2055.7500     25.0917     27.9880     36.8745    -18.0049    101.2783
  2056.0000     24.6055     26.9549     33.0641    -17.9461    116.8443
  2056.2500     24.2061     26.2790     30.0404    -17.9106    126.3850
  2056.5000     23.8857     25.9269     28.7669    -17.9105    134.9798
  2056.7500     23.6254     25.8327     29.0461    -17.9495    135.7443
  2057.0000     23.4066     25.9067     29.9740    -18.0187    130.1145
