~Version Information
VERS.                      2.0: CWLS Log ASCII Standard - VERSION 2.0
WRAP.                       NO: One line per depth step
~Well Information Block
STRT.FT               475.0000: 
STOP.FT              2336.7000: 
STEP.FT                 0.1000: 
NULL.                -999.2500: 
COMP.          Pioneer Natural Resources: COMPANY
WELL.              Bobsy 34-11: WELL
FLD.           Purgatoire River: FIELD
LOC.           1937' FEL & 451' FSL----: LOCATION
PROV.                 Colorado: PROVINCE
CNTY.               Las Animas: COUNTRY
SRVC.                Patterson: SERVICE COMPANY
DATE.          Fri Apr 08 11:07:54 2005: LOG DATE
UWI.           05 071 08330 00: UNIQUE WELL ID
~Curve Information Block
DEPT.FT            0 000 00 00: Depth
DCAL.in                       : CDL Caliper
RHOB.g/cc                     : CDL Bulk Density
RHOC.g/cc                     : CDL Density Correction
DPOR.pu                       : CDL Density Porosity
NPOR.pu                       : Neutron Porosity
GR.GAPI                       : Gamma Ray
~Parameter Information Block
~A  Depth       DCAL        RHOB        RHOC        DPOR        NPOR         GR     
# ...
  1819.0000      8.1600      2.5265      0.0596      7.4830     29.1720    152.5867
  1819.1000      8.1600      2.5174      0.1147      8.0367     29.9369    151.5448
  1819.2000      8.1600      2.5284      0.0725      7.3709     29.9598    149.6823
  1819.3000      8.1615      2.5587      0.1061      5.5359     29.8356    149.1606
  1819.4000      8.1615      2.5889      0.1289      3.7047     29.9502    150.1546
  1819.5000      8.1704      2.6016      0.0773      2.9329     29.9677    152.0674
  1819.6000      8.1704      2.5950      0.0911      3.3355     29.8736    154.8920
  1819.7000      8.1704      2.5673      0.0993      5.0112     29.8456    158.6822
  1819.8000      8.1913      2.5260      0.0568      7.5171     29.7726    160.5344
  1819.9000      8.1913      2.4891      0.0341      9.7531     29.5430    158.3097
  1820.0000      8.2158      2.4707      0.0297     10.8641     29.3819    153.0436
  1820.1000      8.2158      2.4802      0.0366     10.2922     29.6386    147.7050
  1820.2000      8.2158      2.5135      0.1007      8.2729     30.1679    145.6162
  1820.3000      8.2311      2.5428      0.1378      6.4997     30.3538    142.5206
  1820.4000      8.2311      2.5453      0.0837      6.3452     30.2088    134.6484
  1820.5000      8.2464      2.5237      0.1046      7.6543     30.3440    130.8303
  1820.6000      8.2464      2.4781      0.1276     10.4189     30.9900    134.7006
  1820.7000      8.2464      2.4177      0.1000     14.0813     31.6949    137.9632
  1820.8000      8.2909      2.3823      0.0221     16.2242     31.9633    139.4827
  1820.9000      8.2909      2.3934      0.1205     15.5497     31.8132    144.7820
  1821.0000      8.3639      2.4195      0.1669     13.9671     31.6784    156.5421
  1821.1000      8.3639      2.4193      0.1209     13.9795     32.0613    168.2152
  1821.2000      8.3639      2.3804      0.1101     16.3405     32.7231    167.2251
  1821.3000      8.4168      2.3182      0.0721     20.1108     32.9145    155.3607
  1821.4000      8.4168      2.2707      0.0632     22.9895     32.5426    147.7776
  1821.5000      8.4548      2.2752      0.0515     22.7156     32.4037    148.8542
  1821.6000      8.4548      2.3353      0.1401     19.0713     32.8565    149.3724
  1821.7000      8.4548      2.4127      0.2557     14.3826     33.0954    145.8916
  1821.8000      8.4988      2.4640      0.2746     11.2713     32.7259    143.6788
  1821.9000      8.4988      2.4794      0.2569     10.3378     32.2787    145.5361
  1822.0000      8.4936      2.4776      0.2456     10.4494     31.8349    152.8512
  1822.1000      8.4936      2.4821      0.2560     10.1777     31.0639    161.3542
  1822.2000      8.4936      2.5126      0.2308      8.3302     29.9368    162.5990
  1822.3000      8.3648      2.5721      0.2300      4.7200     29.0330    155.2219
  1822.4000      8.3648      2.6322      0.2307      1.0797     28.6107    144.7353
  1822.5000      8.1553      2.6625      0.1638     -0.7587     28.0863    135.1350
  1822.6000      8.1553      2.6597      0.1998     -0.5907     27.2265    125.4343
  1822.7000      8.1553      2.6335      0.1369      1.0015     26.3655    115.3715
  1822.8000      8.0186      2.6015      0.1063      2.9372     25.9536    107.7301
  1822.9000      8.0186      2.5821      0.1252      4.1126     25.7346    103.5017
  1823.0000      7.9790      2.5859      0.1151      3.8860     24.9946    101.5022
  1823.1000      7.9790      2.6118      0.1511      2.3172     23.8797    100.3148
  1823.2000      7.9790      2.6455      0.1260      0.2728     23.0324    100.4623
  1823.3000      7.9740      2.6768      0.1118     -1.6241     22.7526    105.2123
  1823.4000      7.9740      2.7103      0.0920     -3.6562     22.8167    112.1904
  1823.5000      7.9749      2.7423      0.1429     -5.5914     22.8477    115.9790
  1823.6000      7.9749      2.7466      0.1355     -5.8575     22.8214    113.8535
  1823.7000      7.9749      2.7183      0.0789     -4.1403     22.8977    104.1859
  1823.8000      7.9766      2.6956      0.0653     -2.7617     23.0030     93.1683
  1823.9000      7.9766      2.7120      0.0765     -3.7583     22.9918     87.9086
  1824.0000      7.9763      2.7579      0.1188     -6.5368     22.8729     87.7575
  1824.1000      7.9763      2.8036      0.1112     -9.3073     22.8681     90.2782
  1824.2000      7.9763      2.8281      0.0939    -10.7951     23.1030     93.7089
  1824.3000      7.9745      2.8204      0.0897    -10.3268     23.5659     95.8725
  1824.4000      7.9745      2.7923      0.0206     -8.6239     24.1453     96.7544
  1824.5000      7.9747      2.7752      0.0054     -7.5900     24.3573     99.3867
  1824.6000      7.9747      2.7792      0.0367     -7.8300     23.7347    102.3827
  1824.7000      7.9747      2.7854      0.0744     -8.2087     22.3876    100.9119
  1824.8000      7.9763      2.7801      0.1038     -7.8850     21.3039     96.8295
  1824.9000      7.9763      2.7663      0.0923     -7.0462     21.0430     93.2743
  1825.0000      7.9769      2.7528      0.0655     -6.2285     21.1396     87.6946
  1825.1000      7.9769      2.7485      0.0593     -5.9697     21.4068     81.6261
  1825.2000      7.9769      2.7513      0.1048     -6.1390     21.8359     80.1659
  1825.3000      7.9759      2.7549      0.0307     -6.3571     22.0515     84.0195
  1825.4000      7.9759      2.7595      0.0442     -6.6334     22.0873     88.7493
  1825.5000      7.9752      2.7549      0.0561     -6.3605     22.0971     90.8125
  1825.6000      7.9752      2.7288      0.0739     -4.7773     21.8841     90.3256
  1825.7000      7.9752      2.6885      0.0204     -2.3351     21.6041     88.7031
  1825.8000      7.9750      2.6547      0.0151     -0.2873     21.4012     87.9802
  1825.9000      7.9750      2.6359      0.0076      0.8539     21.1690     89.3039
  1826.0000      7.9766      2.6244      0.0163      1.5537     20.9984     91.5068
  1826.1000      7.9766      2.6139      0.0345      2.1904     21.0773     89.1387
  1826.2000      7.9766      2.6063      0.0116      2.6514     21.3935     82.0513
  1826.3000      7.9779      2.5986      0.0277      3.1125     21.7785     78.9474
  1826.4000      7.9779      2.5823      0.0080      4.1041     21.9768     81.9731
  1826.5000      7.9776      2.5668     -0.0030      5.0407     21.5056     86.0116
  1826.6000      7.9776      2.5751      0.0121      4.5373     20.5495     86.8244
  1826.7000      7.9776      2.6066      0.0528      2.6291     20.2259     81.8489
  1826.8000      7.9777      2.6357      0.0836      0.8660     20.8982     74.1652
  1826.9000      7.9777      2.6470      0.0772      0.1808     21.5382     71.5206
  1827.0000      7.9774      2.6461      0.0554      0.2372     21.2562     74.7749
  1827.1000      7.9774      2.6377      0.0726      0.7441     20.7601     80.3216
  1827.2000      7.9774      2.6271      0.0261      1.3891     21.0623     86.7498
  1827.3000      7.9767      2.6274      0.0597      1.3675     21.5570     91.1531
  1827.4000      7.9767      2.6400      0.0696      0.6053     21.3173     92.3241
  1827.5000      7.9764      2.6550      0.0487     -0.3037     20.8401     92.3909
  1827.6000      7.9764      2.6634      0.0971     -0.8149     20.6996     91.2596
  1827.7000      7.9764      2.6595      0.0601     -0.5739     20.7652     89.5406
  1827.8000      7.9760      2.6495      0.0497      0.0306     20.9781     87.9138
  1827.9000      7.9760      2.6422      0.0881      0.4753     21.2275     85.6318
  1828.0000      7.9753      2.6418      0.0298      0.4978     20.9892     82.4463
  1828.1000      7.9753      2.6504      0.0760     -0.0221     20.4712     81.6964
  1828.2000      7.9753      2.6603      0.0277     -0.6257     20.6104     84.6999
  1828.3000      7.9753      2.6595      0.0696     -0.5784     21.0808     89.4466
  1828.4000      7.9753      2.6428      0.0520      0.4379     21.1856     94.8942
  1828.5000      7.9761      2.6259      0.0066      1.4613     21.5981     98.4255
