~Version Information
VERS.                      2.0: CWLS Log ASCII Standard - VERSION 2.0
WRAP.                       NO: One line per depth step
~Well Information Block
STRT.FT                -7.2500: 
STOP.FT               765.5000: 
STEP.FT                 0.2500: 
NULL.                -999.2500: 
COMP.          Pioneer Natural Resources: COMPANY
WELL.          Barrelman 41-27: WELL
FLD.           Purgatorie River: FIELD
LOC.           371' FNL & 493' FEL--: LOCATION
PROV.                       CO: PROVINCE
CNTY.               Las Animas: COUNTRY
SRVC.          Patterson Wireline: SERVICE COMPANY
DATE.          Wed May 25 09:32:20 2005: LOG DATE
UWI.           05 071 08334 00: UNIQUE WELL ID
~Curve Information Block
DEPT.FT            0 000 00 00: Depth
CCL.                          : Casing Collar Locator
TT3.usec                      : CBL 3' Travel Time
AMP3.mV                       : CBL 3' Amplitude
GR.GAPI                       : Gamma Ray
~Parameter Information Block
~A  Depth       CCL         TT3         AMP3         GR     
# ...
   227.2500      0.0000    800.8643      4.9403     82.4164
   227.5000      0.0000    778.1222      4.9243     80.1033
   227.7500      0.0000    761.9662      4.9114     77.6693
   228.0000      0.0000    747.0680      4.9114     75.4166
   228.2500      0.0000    728.0636      4.9364     73.7708
   228.5000      0.0000    703.5627      4.9901     73.1159
   228.7500      0.0000    679.7744      5.0661     73.2631
   229.0000      0.0000    667.3422      5.1549     73.2110
   229.2500      0.0000    673.1780      5.2528     71.5342
   229.5000      0.0000    695.3816      5.3639     67.0006
   229.7500      0.0000    724.9434      5.4962     59.2443
   230.0000      0.0000    751.7326      5.6528     49.4373
   230.2500      0.0000    769.9773      5.8255     40.1614
   230.5000      0.0000    779.5847      5.9980     33.9710
   230.7500      0.0000    783.5660      6.1576     31.8337
   231.0000      0.0000    784.8643      6.3011     32.9361
   231.2500      0.0000    785.1371      6.4302     35.5911
   231.5000      0.0000    785.0643      6.5472     38.1076
   231.7500      0.0000    784.9465      6.6587     39.3721
   232.0000      0.0000    785.0089      6.7794     39.2583
   232.2500      0.0000    785.5203      6.9246     38.5272
   232.5000      0.0000    786.7313      7.0946     38.0890
   232.7500      0.0000    788.5602      7.2656     38.2888
   233.0000      0.0000    790.2675      7.4014     38.8372
   233.2500      0.0000    790.7426      7.4766     39.2182
   233.5000      0.0000    789.4333      7.4931     39.0740
   233.7500      0.0000    786.9011      7.4736     38.4122
   234.0000      0.0000    784.2755      7.4454     37.6532
   234.2500      0.0000    782.3217      7.4285     37.3946
   234.5000      0.0000    781.1550      7.4320     37.9119
   234.7500      0.0000    780.5675      7.4558     38.8708
   235.0000      0.0000    780.3347      7.4977     39.6760
   235.2500      0.0000    780.2869      7.5576     40.0469
   235.5000      0.0000    780.3104      7.6339     40.1029
   235.7500      0.0000    780.3661      7.7154     40.0555
   236.0000      0.0000    780.4689      7.7831     40.0525
   236.2500      0.0000    780.6331      7.8224     40.1965
   236.5000      0.0000    780.8467      7.8327     40.4723
   236.7500      0.0000    781.0961      7.8248     40.7249
   237.0000      0.0000    781.3779      7.8124     40.8043
   237.2500      0.0000    781.6662      7.8045     40.6590
   237.5000      0.0000    781.8879      7.8020     40.2989
   237.7500      0.0000    781.9532      7.7990     39.8675
   238.0000      0.0000    781.8121      7.7902     39.7891
   238.2500      0.0000    781.4815      7.7745     40.5249
   238.5000      0.0000    781.0308      7.7543     41.8976
   238.7500      0.0000    780.5532      7.7316     42.8002
   239.0000      0.0000    780.1443      7.7057     41.9480
   239.2500      0.0000    779.8815      7.6747     39.0882
   239.5000      0.0000    779.7921      7.6395     35.3866
   239.7500      0.0000    779.8369      7.6040     32.5858
   240.0000      0.0000    779.9456      7.5706     31.8058
   240.2500      0.0000    780.0852      7.5350     32.9764
   240.5000      0.0000    780.2947      7.4893     35.1355
   240.7500      0.0000    780.6754      7.4292     37.2627
   241.0000      0.0000    781.4274      7.3582     39.0088
   241.2500      0.0000    782.9890      7.2844     40.6238
   241.5000      0.0000    786.1221      7.2149     42.1761
   241.7500      0.0000    791.5712      7.1524     43.1686
   242.0000      0.0000    799.2848      7.0959     43.1604
   242.2500      0.0000    807.8250      7.0452     42.4867
   242.5000      0.0000    814.6673      7.0031     42.0054
   242.7500      0.0000    817.4014      6.9738     42.1762
   243.0000      0.0000    815.2899      6.9588     42.6794
   243.2500      0.0000    810.2224      6.9567     42.9704
   243.5000      0.0000    805.8096      6.9666     42.8874
   243.7500      0.0000    804.7818      6.9892     42.5631
   244.0000      0.0000    807.1404      7.0230     42.0965
   244.2500      0.0000    810.9734      7.0630     41.6535
   244.5000      0.0000    814.5721      7.1059     41.7923
   244.7500      0.0000    817.1815      7.1550     43.3680
   245.0000      0.0000    818.0823      7.2141     46.8637
   245.2500      0.0000    816.1843      7.2774     51.6671
   245.5000      0.0000    811.2142      7.3266     56.1076
   245.7500      0.0000    804.6271      7.3434     58.5326
   246.0000      0.0000    798.4952      7.3260     58.4617
   246.2500      0.0000    793.8149      7.2919     56.6986
   246.5000      0.0000    790.5587      7.2624     54.7052
   246.7500      0.0000    788.8228      7.2440     53.9685
   247.0000      0.0000    788.9659      7.2278     55.2414
   247.2500      0.0000    790.8245      7.2044     57.8178
   247.5000      0.0000    793.7755      7.1773     59.9040
   247.7500      0.0000    797.8171      7.1574     60.1906
   248.0000      0.0000    803.5363      7.1443     58.9653
   248.2500      0.0000    809.9039      7.1164     57.5124
   248.5000      0.0000    812.1810      7.0455     56.6867
   248.7500      0.0000    803.3845      6.9252     56.2744
   249.0000      0.0000    780.0537      6.7790     55.4924
   249.2500      0.0000    748.2822      6.6366     53.8544
   249.5000      0.0000    722.5770      6.5073     51.7537
   249.7500      0.0000    714.2945      6.3819     50.5174
   250.0000      0.0000    719.7233      6.2520     51.6707
   250.2500      0.0000    723.6846      6.1207     55.6514
   250.5000      0.0000    717.4273      5.9973     61.2176
   250.7500      0.0000    709.2626      5.8905     66.4456
   251.0000      0.0000    714.0363      5.8048     70.3671
   251.2500      0.0000    734.3537      5.7406     73.3781
   251.5000      0.0000    755.9121      5.6961     76.1127
   251.7500      0.0000    761.3756      5.6703     78.4813
   252.0000      0.0000    747.5172      5.6637     80.0529
   252.2500      0.0000    728.8765      5.6757     80.7812
   252.5000      0.0000    724.4525      5.7016     80.9357
   252.7500      0.0000    740.8718      5.7342     80.7041
   253.0000      0.0000    769.3140      5.7676     80.1940
   253.2500      0.0000    796.5857      5.8019     79.5860
   253.5000      0.0000    815.3094      5.8430     79.0293
   253.7500      0.0000    824.5895      5.8982     78.4691
   254.0000      0.0000    826.3375      5.9712     77.7060
   254.2500      0.0000    823.3688      6.0584     76.6922
   254.5000      0.0000    818.8140      6.1509     75.8141
   254.7500      0.0000    815.0385      6.2379     75.7353
   255.0000      0.0000    812.8400      6.3106     76.7042
   255.2500      0.0000    811.8422      6.3651     78.0209
   255.5000      0.0000    811.4464      6.4036     78.3871
   255.7500      0.0000    811.3462      6.4353     76.8181
   256.0000      0.0000    811.4474      6.4716     73.1712
   256.2500      0.0000    811.6690      6.5186     67.9983
   256.5000      0.0000    811.9152      6.5701     62.2718
   256.7500      0.0000    812.1840      6.6140     57.2447
   257.0000      0.0000    812.6898      6.6432     54.0635
   257.2500      0.0000    813.9766      6.6619     53.0301
   257.5000      0.0000    816.9155      6.6801     53.2569
   257.7500      0.0000    822.3042      6.7067     53.2249
   258.0000      0.0000    830.0529      6.7438     51.7968
   258.2500      0.0000    838.6955      6.7844     48.9830
   258.5000      0.0000    846.0008      6.8147     46.0258
   258.7500      0.0000    850.3075      6.8239     44.5877
   259.0000      0.0000    851.4164      6.8111     45.4208
   259.2500      0.0000    850.4371      6.7854     47.6650
   259.5000      0.0000    848.8964      6.7609     49.5709
   259.7500      0.0000    847.8245      6.7513     50.0623
   260.0000      0.0000    847.4955      6.7662     49.6651
   260.2500      0.0000    847.6628      6.8075     49.9828
   260.5000      0.0000    847.6188      6.8713     52.3925
