~Version Information
VERS.                      2.0: CWLS Log ASCII Standard - VERSION 2.0
WRAP.                       NO: One line per depth step
~Well Information Block
STRT.FT               -10.3000: 
STOP.FT              1936.7000: 
STEP.FT                 0.1000: 
NULL.                -999.2500: 
COMP.          Petrogulf Corporation: COMPANY
WELL.              Graff 9-31R: WELL
FLD.           Purgatorie River: FIELD
LOC.           707' FNL & 1713' FEL------: LOCATION
CNTY.               Las Animas: COUNTY
SRVC.                         : SERVICE COMPANY
DATE.          Wed Nov 17 13:41:51 2004: LOG DATE
UWI.                          : UNIQUE WELL ID
STAT.                       CO: STATE
~Curve Information Block
DEPT.FT            0 000 00 00: Depth
GR.GAPI                       : Gamma Ray
CCL.                          : Casing Collar Locator
TT3.usec                      : CBL 3' Travel Time
AMP3.mV                       : CBL 3' Amplitude
~Parameter Information Block
~A  Depth        GR         CCL         TT3         AMP3    
# ...
  1530.7000    170.8195      0.0000    706.5574     16.8283
  1530.8000    172.0488      0.0000    652.3322     19.6335
  1530.9000    172.0488      0.0000    652.3322     19.6335
  1531.0000    170.3822      0.0000    572.6136     22.8053
  1531.1000    170.3822      0.0000    572.6136     22.8053
  1531.2000    170.3822      0.0000    572.6136     22.8053
  1531.3000    167.6171      0.0000    481.9783     26.0738
  1531.4000    167.6171      0.0000    481.9783     26.0738
  1531.5000    165.0225      0.0000    401.8616     29.0333
  1531.6000    165.0225      0.0000    401.8616     29.0333
  1531.7000    165.0225      0.0000    401.8616     29.0333
  1531.8000    162.9499      0.0000    346.7571     31.3059
  1531.9000    162.9499      0.0000    346.7571     31.3059
  1532.0000    162.3458      0.0000    317.3133     32.6977
  1532.1000    162.3458      0.0000    317.3133     32.6977
  1532.2000    162.3458      0.0000    317.3133     32.6977
  1532.3000    165.0584      0.0000    305.1724     33.2417
  1532.4000    165.0584      0.0000    305.1724     33.2417
  1532.5000    171.6104      0.0000    301.4175     33.1403
  1532.6000    171.6104      0.0000    301.4175     33.1403
  1532.7000    171.6104      0.0000    301.4175     33.1403
  1532.8000    179.1903      0.0000    300.6747     32.6730
  1532.9000    179.1903      0.0000    300.6747     32.6730
  1533.0000    182.7802      0.0000    300.7532     32.1056
  1533.1000    182.7802      0.0000    300.7532     32.1056
  1533.2000    182.7802      0.0000    300.7532     32.1056
  1533.3000    178.6230      0.0000    301.1149     31.6065
  1533.4000    178.6230      0.0000    301.1149     31.6065
  1533.5000    166.8733      0.0000    302.2531     31.1921
  1533.6000    166.8733      0.0000    302.2531     31.1921
  1533.7000    166.8733      0.0000    302.2531     31.1921
  1533.8000    151.4929      0.0000    306.3221     30.7351
  1533.9000    151.4929      0.0000    306.3221     30.7351
  1534.0000    137.9718      0.0000    318.6837     30.0538
  1534.1000    137.9718      0.0000    318.6837     30.0538
  1534.2000    137.9718      0.0000    318.6837     30.0538
  1534.3000    130.6410      0.0000    348.3365     29.0222
  1534.4000    130.6410      0.0000    348.3365     29.0222
  1534.5000    131.1147      0.0000    403.9404     27.6181
  1534.6000    131.1147      0.0000    403.9404     27.6181
  1534.7000    131.1147      0.0000    403.9404     27.6181
  1534.8000    138.2718      0.0000    485.3458     25.8974
  1534.9000    138.2718      0.0000    485.3458     25.8974
  1535.0000    149.1057      0.0000    578.3474     23.9590
  1535.1000    149.1057      0.0000    578.3474     23.9590
  1535.2000    149.1057      0.0000    578.3474     23.9590
  1535.3000    159.8535      0.0000    661.0950     21.9241
  1535.4000    159.8535      0.0000    661.0950     21.9241
  1535.5000    167.3247      0.0000    717.9659     19.9117
  1535.6000    167.3247      0.0000    717.9659     19.9117
  1535.7000    167.3247      0.0000    717.9659     19.9117
  1535.8000    169.8965      0.0000    746.9133     18.0143
  1535.9000    169.8965      0.0000    746.9133     18.0143
  1536.0000    167.6428      0.0000    755.0342     16.2901
  1536.1000    167.6428      0.0000    755.0342     16.2901
  1536.2000    167.6428      0.0000    755.0342     16.2901
  1536.3000    162.1384      0.0000    751.0211     14.7624
  1536.4000    162.1384      0.0000    751.0211     14.7624
  1536.5000    156.2495      0.0000    742.5043     13.4267
  1536.6000    156.2495      0.0000    742.5043     13.4267
  1536.7000    156.2495      0.0000    742.5043     13.4267
  1536.8000    152.9208      0.0000    736.0391     12.2729
  1536.9000    152.9208      0.0000    736.0391     12.2729
  1537.0000    153.2923      0.0000    735.1492     11.3105
  1537.1000    153.2923      0.0000    735.1492     11.3105
  1537.2000    153.2923      0.0000    735.1492     11.3105
  1537.3000    156.3771      0.0000    738.5270     10.5681
  1537.4000    156.3771      0.0000    738.5270     10.5681
  1537.5000    160.4833      0.0000    742.2924     10.0713
  1537.6000    160.4833      0.0000    742.2924     10.0713
  1537.7000    160.4833      0.0000    742.2924     10.0713
  1537.8000    164.0177      0.0000    744.1329      9.8157
  1537.9000    164.0177      0.0000    744.1329      9.8157
  1538.0000    165.3872      0.0000    744.6265      9.7468
  1538.1000    165.3872      0.0000    744.6265      9.7468
  1538.2000    165.3872      0.0000    744.6265      9.7468
  1538.3000    163.9042      0.0000    745.2802      9.7597
  1538.4000    163.9042      0.0000    745.2802      9.7597
  1538.5000    160.9755      0.0000    746.5654      9.7381
  1538.6000    160.9755      0.0000    746.5654      9.7381
  1538.7000    160.9755      0.0000    746.5654      9.7381
  1538.8000    158.7886      0.0000    747.8688      9.6143
  1538.9000    158.7886      0.0000    747.8688      9.6143
  1539.0000    157.6302      0.0000    748.4313      9.3960
  1539.1000    157.6302      0.0000    748.4313      9.3960
  1539.2000    157.6302      0.0000    748.4313      9.3960
  1539.3000    156.0250      0.0000    747.7874      9.1395
  1539.4000    156.0250      0.0000    747.7874      9.1395
  1539.5000    153.6694      0.0000    745.6342      8.9067
  1539.6000    153.6694      0.0000    745.6342      8.9067
  1539.7000    153.6694      0.0000    745.6342      8.9067
  1539.8000    152.4961      0.0000    741.9526      8.7440
  1539.9000    152.4961      0.0000    741.9526      8.7440
  1540.0000    154.1888      0.0000    737.6471      8.6795
  1540.1000    154.1888      0.0000    737.6471      8.6795
  1540.2000    154.1888      0.0000    737.6471      8.6795
  1540.3000    157.8446      0.0000    734.7000      8.7243
  1540.4000    157.8446      0.0000    734.7000      8.7243
  1540.5000    160.8476      0.0000    734.9505      8.8679
  1540.6000    160.8476      0.0000    734.9505      8.8679
  1540.7000    160.8476      0.0000    734.9505      8.8679
  1540.8000    161.4828      0.0000    738.4554      9.0695
  1540.9000    161.4828      0.0000    738.4554      9.0695
  1541.0000    160.2811      0.0000    743.3790      9.2567
  1541.1000    160.2811      0.0000    743.3790      9.2567
  1541.2000    160.2811      0.0000    743.3790      9.2567
  1541.3000    159.0533      0.0000    747.5850      9.3546
  1541.4000    159.0533      0.0000    747.5850      9.3546
  1541.5000    159.0536      0.0000    750.0590      9.3317
  1541.6000    159.0536      0.0000    750.0590      9.3317
  1541.7000    159.0536      0.0000    750.0590      9.3317
  1541.8000    160.3326      0.0000    750.9514      9.2136
  1541.9000    160.3326      0.0000    750.9514      9.2136
  1542.0000    162.4218      0.0000    750.8435      9.0487
  1542.1000    162.4218      0.0000    750.8435      9.0487
  1542.2000    162.4218      0.0000    750.8435      9.0487
  1542.3000    164.6157      0.0000    750.1780      8.8689
  1542.4000    164.6157      0.0000    750.1780      8.8689
  1542.5000    165.3812      0.0000    749.0781      8.6826
  1542.6000    165.3812      0.0000    749.0781      8.6826
  1542.7000    165.3812      0.0000    749.0781      8.6826
  1542.8000    162.6922      0.0000    747.2313      8.4897
  1542.9000    162.6922      0.0000    747.2313      8.4897
  1543.0000    155.9948      0.0000    743.6667      8.2863
  1543.1000    155.9948      0.0000    743.6667      8.2863
  1543.2000    155.9948      0.0000    743.6667      8.2863
  1543.3000    147.5413      0.0000    736.5786      8.0637
  1543.4000    147.5413      0.0000    736.5786      8.0637
  1543.5000    140.9264      0.0000    723.6581      7.8224
  1543.6000    140.9264      0.0000    723.6581      7.8224
  1543.7000    140.9264      0.0000    723.6581      7.8224
  1543.8000    138.1874      0.0000    703.4865      7.5883
  1543.9000    138.1874      0.0000    703.4865      7.5883
  1544.0000    138.5924      0.0000    677.9296      7.4027
