~Version Information
VERS.                      2.0: CWLS Log ASCII Standard - VERSION 2.0
WRAP.                       NO: One line per depth step
~Well Information Block
STRT.FT                15.0000: 
STOP.FT              2409.7500: 
STEP.FT                 0.2500: 
NULL.                -999.2500: 
COMP.          Pioneer Natural Resources: COMPANY
WELL.          Oink Oink 14-36: WELL
FLD.           Purgatoire River: FIELD
LOC.           216' FSL & 263' FWL: LOCATION
PROV.                 Colorado: PROVINCE
CNTY.               Las Animas: COUNTRY
SRVC.                Patterson: SERVICE COMPANY
DATE.          Wed Jun 22 11:05:26 2005: LOG DATE
UWI.           05 071 08394 00: UNIQUE WELL ID
~Curve Information Block
DEPT.FT            0 000 00 00: Depth
GR.GAPI                       : Gamma Ray
CCL.                          : Casing Collar Locator
TT3.usec                      : CBL 3' Travel Time
AMP3.mV                       : CBL 3' Amplitude
~Parameter Information Block
~A  Depth        GR         CCL         TT3         AMP3    
# ...
   785.5000     67.1296      0.0000    663.3812      6.0178
   785.7500     67.9426      0.0000    631.4509      6.0146
   786.0000     68.6387      0.0000    596.6099      6.0152
   786.2500     68.8116      0.0000    567.2042      6.0108
   786.5000     69.2224      0.0000    548.6636      5.9876
   786.7500     70.6585      0.0000    541.0281      5.9299
   787.0000     72.9289      0.0000    541.7466      5.8240
   787.2500     75.1475      0.0000    549.5524      5.6637
   787.5000     76.6989      0.0000    564.7527      5.4560
   787.7500     77.6531      0.0000    586.2611      5.2236
   788.0000     78.3043      0.0000    609.7037      5.0013
   788.2500     78.6531      0.0000    629.6758      4.8242
   788.5000     78.5684      0.0000    643.7906      4.7109
   788.7500     78.2308      0.0000    653.5880      4.6558
   789.0000     78.0882      0.0000    661.5470      4.6358
   789.2500     78.3588      0.0000    668.2078      4.6282
   789.5000     78.9504      0.0000    672.2474      4.6233
   789.7500     79.9831      0.0000    672.1996      4.6252
   790.0000     81.9814      0.0000    667.4310      4.6504
   790.2500     85.2578      0.0000    658.0259      4.7276
   790.5000     89.3800      0.0000    644.5130      4.8911
   790.7500     93.5793      0.0000    627.8589      5.1604
   791.0000     97.5431      0.0000    609.8320      5.5217
   791.2500    101.5134      0.0000    593.4421      5.9306
   791.5000    105.5096      0.0000    582.6867      6.3334
   791.7500    108.6975      0.0000    581.3621      6.6849
   792.0000    109.9982      0.0000    591.5298      6.9578
   792.2500    109.3952      0.0000    612.1394      7.1439
   792.5000    108.2014      0.0000    638.6251      7.2493
   792.7500    107.8673      0.0000    664.7405      7.2887
   793.0000    108.8592      0.0000    685.8993      7.2827
   793.2500    110.7361      0.0000    700.8095      7.2556
   793.5000    112.8051      0.0000    709.9767      7.2293
   793.7500    114.5171      0.0000    713.4511      7.2166
   794.0000    115.7278      0.0000    710.6212      7.2195
   794.2500    116.8736      0.0000    701.6335      7.2337
   794.5000    118.5295      0.0000    688.3286      7.2525
   794.7500    120.5056      0.0000    673.6020      7.2689
   795.0000    121.6624      0.0000    659.7587      7.2770
   795.2500    120.9197      0.0000    647.2877      7.2723
   795.5000    118.2907      0.0000    635.4146      7.2529
   795.7500    114.7593      0.0000    623.7236      7.2225
   796.0000    111.4172      0.0000    612.4493      7.1925
   796.2500    109.0557      0.0000    601.0385      7.1777
   796.5000    108.2953      0.0000    588.1698      7.1884
   796.7500    109.2872      0.0000    574.8608      7.2239
   797.0000    111.0107      0.0000    566.2746      7.2685
   797.2500    111.4646      0.0000    567.6025      7.2964
   797.5000    109.1748      0.0000    577.5518      7.2891
   797.7500    104.5945      0.0000    587.2444      7.2525
   798.0000     99.7996      0.0000    586.3731      7.2142
   798.2500     96.8220      0.0000    571.0482      7.2011
   798.5000     96.4906      0.0000    547.4748      7.2198
   798.7500     98.7803      0.0000    528.7899      7.2575
   799.0000    103.5548      0.0000    526.1328      7.2994
   799.2500    110.3090      0.0000    540.7595      7.3448
   799.5000    117.4393      0.0000    565.0612      7.4051
   799.7500    122.6164      0.0000    590.3275      7.4854
   800.0000    124.3908      0.0000    611.6398      7.5661
   800.2500    123.4764      0.0000    626.9314      7.6097
   800.5000    122.3931      0.0000    635.3283      7.5905
   800.7500    123.6436      0.0000    637.2582      7.5138
   801.0000    127.8494      0.0000    634.1472      7.3966
   801.2500    133.3365      0.0000    627.3170      7.2337
   801.5000    137.5212      0.0000    617.8259      7.0005
   801.7500    138.7408      0.0000    607.5974      6.6982
   802.0000    136.7444      0.0000    600.3689      6.3838
   802.2500    131.9328      0.0000    600.9377      6.1414
   802.5000    124.9125      0.0000    611.6459      6.0227
   802.7500    116.7366      0.0000    628.4655      6.0158
   803.0000    108.7420      0.0000    642.6575      6.0677
   803.2500    101.8344      0.0000    648.9133      6.1276
   803.5000     96.3239      2.4394    650.5428      6.1728
   803.7500     92.5311      3.0000    654.1410      6.2045
   804.0000     91.0390      2.2549    660.5974      6.2322
   804.2500     92.0461      0.0000    664.4346      6.2662
   804.5000     94.8114      0.0000    661.5193      6.3204
   804.7500     98.2435      0.0000    654.5897      6.4098
   805.0000    102.0357      0.0000    650.4056      6.5365
   805.2500    106.7272      0.0000    652.7067      6.6734
   805.5000    112.5029      0.0000    658.7688      6.7704
   805.7500    118.3689      0.0000    662.6210      6.7860
   806.0000    122.7074      0.0000    660.7819      6.7183
   806.2500    124.3645      0.0000    654.6108      6.6024
   806.5000    123.2453      0.0000    647.9150      6.4835
   806.7500    120.3387      0.0000    643.4322      6.3957
   807.0000    117.2513      0.0000    641.5033      6.3563
   807.2500    115.3395      0.0000    641.0369      6.3673
   807.5000    114.9150      0.0000    640.9339      6.4200
   807.7500    115.2661      0.0000    640.6981      6.4986
   808.0000    115.5138      0.0000    640.2712      6.5826
   808.2500    115.3133      0.0000    639.6887      6.6506
   808.5000    114.6784      0.0000    638.9780      6.6902
   808.7500    113.5736      0.0000    638.1785      6.7073
   809.0000    112.0013      0.0000    637.3027      6.7205
   809.2500    110.1470      0.0000    636.1270      6.7448
   809.5000    108.2295      0.0000    634.0773      6.7824
   809.7500    106.6139      0.0000    630.8494      6.8285
   810.0000    106.1211      0.0000    627.6137      6.8782
   810.2500    107.5486      0.0000    626.8940      6.9262
   810.5000    110.5924      0.0000    630.0550      6.9650
   810.7500    113.6087      0.0000    635.3054      6.9930
   811.0000    114.7244      0.0000    639.4049      7.0175
   811.2500    113.2052      0.0000    640.9474      7.0462
   811.5000    109.8899      0.0000    641.0893      7.0768
   811.7500    106.5833      0.0000    641.6810      7.0990
   812.0000    104.8220      0.0000    643.4907      7.1077
   812.2500    104.7617      0.0000    645.8318      7.1108
   812.5000    105.1717      0.0000    647.4739      7.1252
   812.7500    104.6374      0.0000    648.0073      7.1647
   813.0000    102.6361      0.0000    648.1724      7.2275
   813.2500     99.4679      0.0000    648.6525      7.2945
   813.5000     95.6634      0.0000    649.2061      7.3415
   813.7500     91.7983      0.0000    649.2373      7.3565
   814.0000     88.4319      0.0000    647.8143      7.3454
   814.2500     85.6163      0.0000    641.5832      7.3251
   814.5000     82.6200      0.0000    623.5836      7.3091
   814.7500     78.6658      0.0000    587.4666      7.2968
   815.0000     73.9291      0.0000    535.6282      7.2743
   815.2500     69.5626      0.0000    483.1598      7.2247
   815.5000     66.8618      0.0000    451.6252      7.1419
   815.7500     66.4925      0.0000    456.2085      7.0348
   816.0000     68.1411      0.0000    495.9221      6.9208
   816.2500     70.6949      0.0000    554.0425      6.8141
   816.5000     73.0624      0.0000    608.4628      6.7203
   816.7500     74.9707      0.0000    643.6488      6.6402
   817.0000     76.7089      0.0000    654.9738      6.5741
   817.2500     78.2003      0.0000    645.3164      6.5254
   817.5000     78.7711      0.0000    621.2044      6.5011
   817.7500     77.8490      0.0000    591.5717      6.5065
   818.0000     75.6013      0.0000    565.9077      6.5330
   818.2500     72.8996      0.0000    550.3298      6.5567
   818.5000     70.8488      0.0000    544.6959      6.5538
   818.7500     70.2988      0.0000    543.4037      6.5157
