~Version Information
VERS.                      2.0: CWLS Log ASCII Standard - VERSION 2.0
WRAP.                       NO: One line per depth step
~Well Information Block
STRT.FT               -13.0000: 
STOP.FT              1411.2500: 
STEP.FT                 0.2500: 
NULL.                -999.2500: 
COMP.                         : COMPANY
WELL.                         : WELL
FLD.                          : FIELD
LOC.                          : LOCATION
CNTY.                         : COUNTY
SRVC.                         : SERVICE COMPANY
DATE.          Sat Jan 17 07:25:27 2004: LOG DATE
UWI.                          : UNIQUE WELL ID
STAT.                         : STATE
~Curve Information Block
DEPT.FT            0 000 00 00: Depth
CCL.                          : Casing Collar Locator
TT3.usec                      : CBL 3' Travel Time
AMP3.mV                       : CBL 3' Amplitude
GR.GAPI                       : Gamma Ray
~Parameter Information Block
~A  Depth       CCL         TT3         AMP3         GR     
# ...
   188.0000      0.0000    945.3197      3.2074     39.5434
   188.2500      0.0000    928.2051      3.2214     38.9956
   188.5000      0.0000    918.9958      3.1951     38.9541
   188.7500      0.0000    922.4355      3.1377     39.6532
   189.0000      0.0000    934.8119      3.0662     41.0115
   189.2500      0.0000    948.3372      2.9934     42.6726
   189.5000      0.0000    957.4661      2.9198     44.5660
   189.7500      0.0000    960.9939      2.8373     46.9002
   190.0000      0.0000    959.9060      2.7446     49.3825
   190.2500      0.0000    955.4379      2.6590     50.9762
   190.5000      0.0000    948.9470      2.6093     50.8882
   190.7500      0.0000    941.8759      2.6187     49.5361
   191.0000      0.0000    935.2983      2.6919     48.0920
   191.2500      0.0000    930.0212      2.8121     47.1492
   191.5000      0.0000    926.7328      2.9462     46.1913
   191.7500      0.0000    925.2556      3.0611     44.4515
   192.0000      0.0000    923.7737      3.1423     42.0987
   192.2500      0.0000    919.3365      3.2015     40.3016
   192.5000      0.0000    910.1149      3.2718     40.0306
   192.7500      0.0000    898.9720      3.3908     41.0343
   193.0000      0.0000    895.0738      3.5674     42.1252
   193.2500      0.0000    908.5073      3.7511     42.2405
   193.5000      0.0000    939.6184      3.8526     41.0829
   193.7500      0.0000    974.7707      3.8273     39.0023
   194.0000      0.0000    995.9368      3.7277     36.5419
   194.2500      0.0000    994.9083      3.6474     34.0825
   194.5000      0.0000    978.0344      3.6215     31.8954
   194.7500      4.0000    959.8832      3.6072     30.5583
   195.0000      4.0000    952.9950      3.5557     30.9591
   195.2500      0.0000    959.5026      3.4802     33.4164
   195.5000      0.0000    969.4074      3.4505     36.9175
   195.7500      0.0000    969.2698      3.5277     39.6999
   196.0000      0.0000    955.1936      3.6934     40.6437
   196.2500      0.0000    935.8882      3.8460     39.9722
   196.5000      0.0000    922.2552      3.8831     38.8445
   196.7500      0.0000    916.9482      3.7898     38.4042
   197.0000      0.0000    915.2023      3.6356     38.8714
   197.2500      0.0000    912.4356      3.5029     39.2943
   197.5000      0.0000    908.3932      3.4333     38.4179
   197.7500      0.0000    905.4653      3.4267     35.9970
   198.0000      0.0000    905.3897      3.4652     33.0476
   198.2500      0.0000    907.3470      3.5396     30.7392
   198.5000      0.0000    907.9713      3.6598     29.4372
   198.7500      0.0000    903.6695      3.8405     29.0036
   199.0000      0.0000    894.0022      4.0722     29.5016
   199.2500      0.0000    882.3032      4.3069     31.0805
   199.5000      0.0000    872.1063      4.4774     33.3417
   199.7500      0.0000    863.8576      4.5433     35.3662
   200.0000      0.0000    855.9461      4.5258     36.5392
   200.2500      0.0000    847.8001      4.4925     37.1045
   200.5000      0.0000    840.7520      4.4979     37.7970
   200.7500      0.0000    836.4573      4.5423     39.0809
   201.0000      0.0000    835.4259      4.5854     40.7524
   201.2500      0.0000    836.8333      4.5863     42.1113
   201.5000      0.0000    838.9055      4.5265     42.4596
   201.7500      0.0000    839.6337      4.4168     41.5173
   202.0000      0.0000    837.6694      4.2914     39.4735
   202.2500      0.0000    832.8619      4.1853     36.7987
   202.5000      0.0000    826.4028      4.1096     34.1625
   202.7500      0.0000    821.0229      4.0521     32.4779
   203.0000      0.0000    820.0559      4.0029     32.6158
   203.2500      0.0000    824.4985      3.9743     34.6982
   203.5000      0.0000    830.8876      3.9901     37.7122
   203.7500      0.0000    833.2234      4.0594     40.1863
   204.0000      0.0000    827.2225      4.1627     41.3993
   204.2500      0.0000    812.9444      4.2575     41.7989
   204.5000      0.0000    794.6578      4.3051     42.3476
   204.7500      0.0000    779.0559      4.3061     43.8170
   205.0000      0.0000    772.4632      4.3086     46.6520
   205.2500      0.0000    777.4229      4.3656     50.9333
   205.5000      0.0000    790.6701      4.4833     56.1264
   205.7500      0.0000    805.2075      4.6140     61.1783
   206.0000      0.0000    815.3354      4.6976     65.1581
   206.2500      0.0000    819.8638      4.7084     67.6501
   206.5000      0.0000    820.9999      4.6694     68.4504
   206.7500      0.0000    821.3766      4.6306     67.3275
   207.0000      0.0000    822.5237      4.6409     64.3731
   207.2500      0.0000    825.0626      4.7308     60.2897
   207.5000      0.0000    828.8874      4.9025     56.0750
   207.7500      0.0000    833.1930      5.1235     52.6888
   208.0000      0.0000    837.3542      5.3394     51.0520
   208.2500      0.0000    841.9298      5.5049     51.7303
   208.5000      0.0000    847.9080      5.6056     54.1488
   208.7500      0.0000    854.8137      5.6584     56.4751
   209.0000      0.0000    860.2903      5.7018     56.8428
   209.2500      0.0000    861.7658      5.7760     54.8237
   209.5000      0.0000    858.4774      5.8959     51.6414
   209.7500      0.0000    852.4649      6.0417     49.1441
   210.0000      0.0000    847.8151      6.1794     48.7107
   210.2500      0.0000    847.9620      6.2844     50.7623
   210.5000      0.0000    852.9007      6.3481     54.6792
   210.7500      0.0000    859.1649      6.3802     59.0547
   211.0000      0.0000    862.4546      6.4096     62.5325
   211.2500      0.0000    860.1380      6.4722     64.6885
   211.5000      0.0000    852.3445      6.5850     65.8722
   211.7500      0.0000    842.0567      6.7308     66.2844
   212.0000      0.0000    833.3248      6.8683     65.7642
   212.2500      0.0000    827.5490      6.9557     64.4126
   212.5000      0.0000    821.8707      6.9595     62.6762
   212.7500      0.0000    813.0386      6.8641     60.6441
   213.0000      0.0000    802.4803      6.6983     57.7989
   213.2500      0.0000    795.6828      6.5404     53.6611
   213.5000      0.0000    796.8324      6.4552     48.4378
   213.7500      0.0000    805.8795      6.4278     43.1240
   214.0000      0.0000    820.5098      6.3934     39.1555
   214.2500      0.0000    838.4120      6.3242     37.8449
   214.5000      0.0000    857.0151      6.2482     39.9055
   214.7500      0.0000    873.4283      6.1936     45.3281
   215.0000      0.0000    885.7691      6.1582     53.5187
   215.2500      0.0000    893.0834      6.1325     63.4303
   215.5000      0.0000    893.5338      6.1316     73.5578
   215.7500      0.0000    884.5508      6.1984     81.9677
   216.0000      0.0000    865.7235      6.3773     86.7715
   216.2500      0.0000    841.1537      6.6718     87.0701
   216.5000      0.0000    818.8289      7.0276     83.6456
   216.7500      0.0000    807.2007      7.3728     78.5625
   217.0000      0.0000    810.4187      7.6727     73.8042
   217.2500      0.0000    825.4232      7.9358     70.0486
   217.5000      0.0000    844.1239      8.1841     66.7012
   217.7500      0.0000    859.2054      8.4425     63.1555
   218.0000      0.0000    868.0273      8.7495     59.8054
   218.2500      0.0000    871.7827      9.1469     57.4751
   218.5000      0.0000    872.0610      9.6572     56.0855
   218.7500      0.0000    867.7045     10.2763     54.6362
   219.0000      0.0000    852.7708     10.9839     52.6507
   219.2500      0.0000    816.9120     11.7447     50.9471
   219.5000      0.0000    750.9866     12.4939     50.5934
   219.7500      0.0000    656.9317     13.1276     51.5791
   220.0000      0.0000    552.8820     13.5315     52.9180
   220.2500      0.0000    465.4855     13.6355     53.7654
   220.5000      0.0000    415.9279     13.4462     54.0655
   220.7500      0.0000    413.3770     13.0333     54.3863
   221.0000      0.0000    456.7653     12.4927     55.6579
   221.2500      0.0000    535.4019     11.9147     58.8986
