~Version Information
 VERS.                                  2.0 : CWLS LAS VERSION
 WRAP.                                   NO : WRAPING MODE
 SWARE .                 MController 2.5.0J : SOFTWARE VERSION
~Well Information
 WELL.                        McLeod 09-42R : WELL
 COMP.                Petrogulf Corporation : COMPANY
 FLD.                      Purgatoire River : FIELD
 LOC.                SE/NE Sec 09 T33S R67W : LOCATION
 DATE.                          08/13-14/05 : DATE(S) LOGGED
 SRVC.       BLANCO Geological Services LLC : SERVICE COMPANY
 STAT.                                   CO : STATE
 CNTY.                           Las Animas : COUNTY
 CTRY.                                  USA : COUNTRY
 API.                       05 071 08092 00 : API NUMBER
 STRT.FT                               6.00 : START DEPTH
 STOP.FT                            1775.00 : STOP DEPTH
 STEP.FT                               1.00 : DEPTH INCREMENT
 NULL.                                -9999 : NULL VALUE
~Curve information
 DEPTH.FT                                   :
 ROP.MIN/FT                                 :
 GAS.UNITS                                  :
~ASCII Log data
# ...
      1406.0         0.20          8.9 
      1407.0         0.27         13.5 
      1408.0         0.23         22.5 
      1409.0         0.30         35.8 
      1410.0         3.08        172.0 
      1411.0         0.33         19.0 
      1412.0         0.33         16.7 
      1413.0         0.33         13.7 
      1414.0         0.30         13.9 
      1415.0         0.20         13.7 
      1416.0         0.20         12.7 
      1417.0         0.28         12.2 
      1418.0         0.27         12.8 
      1419.0         0.17         13.2 
      1420.0         0.20         13.6 
      1421.0         0.23         12.8 
      1422.0         0.27         12.5 
      1423.0         0.27         12.2 
      1424.0         0.23         12.7 
      1425.0         0.23         11.9 
      1426.0         0.27         11.7 
      1427.0         0.27         11.5 
      1428.0         0.27         10.7 
      1429.0         0.28         10.9 
      1430.0         0.17         10.5 
      1431.0         0.30         10.9 
      1432.0         0.33         10.7 
      1433.0         0.23         10.2 
      1434.0         0.17          9.2 
      1435.0         0.17          8.9 
      1436.0         0.20          7.0 
      1437.0         0.23          7.1 
      1438.0         0.20          9.0 
      1439.0         0.27         14.3 
      1440.0         2.18         51.8 
      1441.0         0.33         19.5 
      1442.0         0.33         16.3 
      1443.0         0.37         15.0 
      1444.0         0.40         13.2 
      1445.0         0.30         11.8 
      1446.0         0.38         11.0 
      1447.0         0.50         11.5 
      1448.0         0.37         11.6 
      1449.0         0.23         11.8 
      1450.0         0.23         11.9 
      1451.0         0.27         11.8 
      1452.0         0.23         12.1 
      1453.0         0.43         11.8 
      1454.0         0.40         11.7 
      1455.0         0.47         11.0 
      1456.0         0.45         11.5 
      1457.0         0.27         11.6 
      1458.0         0.23         11.8 
      1459.0         0.30         11.9 
      1460.0         0.40         11.3 
      1461.0         0.37         10.9 
      1462.0         0.30         11.1 
      1463.0         0.27         11.0 
      1464.0         0.23          9.8 
      1465.0         0.23          8.5 
      1466.0         0.23          7.6 
      1467.0         0.22          8.7 
      1468.0         0.20         11.4 
      1469.0         0.23         17.8 
      1470.0         1.73         57.1 
      1471.0         0.37         33.8 
      1472.0         0.27         24.2 
      1473.0         0.30         19.9 
      1474.0         0.32         16.3 
      1475.0         0.27         14.5 
      1476.0         0.27         13.8 
      1477.0         0.23         13.5 
      1478.0         0.27         12.9 
      1479.0         0.23         11.9 
      1480.0         0.23         12.1 
      1481.0         0.27         11.1 
      1482.0         0.23         11.1 
      1483.0         0.27         11.0 
      1484.0         0.23         10.6 
      1485.0         0.23         10.7 
      1486.0         0.23         10.7 
      1487.0         0.25         10.8 
      1488.0         0.23         10.4 
      1489.0         0.33         12.8 
      1490.0         0.23         13.0 
      1491.0         0.23         12.5 
      1492.0         0.23         11.4 
      1493.0         0.20         11.0 
      1494.0         0.23         10.9 
      1495.0         0.23          9.9 
      1496.0         0.27          8.8 
      1497.0         0.23          6.8 
      1498.0         0.23          8.1 
      1499.0         0.23         11.4 
      1500.0         2.55         64.1 
      1501.0         0.37         21.5 
      1502.0         0.40         17.0 
      1503.0         0.35         14.0 
      1504.0         0.33         11.4 
      1505.0         0.50         12.3 
      1506.0         0.37         12.6 
      1507.0         0.40         13.0 
      1508.0         0.37         13.3 
      1509.0         0.37         13.0 
      1510.0         0.30         13.1 
      1511.0         0.30         12.3 
      1512.0         0.30         12.3 
      1513.0         0.28         11.8 
      1514.0         0.30         11.7 
      1515.0         0.27         11.6 
      1516.0         0.30         11.5 
      1517.0         0.30         11.3 
      1518.0         0.23         11.1 
      1519.0         0.30         11.1 
      1520.0         0.27         11.7 
      1521.0         0.27         11.7 
      1522.0         0.30         11.9 
      1523.0         0.33         11.8 
      1524.0         0.28         11.9 
      1525.0         0.30         10.7 
      1526.0         0.27          8.2 
      1527.0         0.27          8.4 
      1528.0         0.33         12.4 
      1529.0         0.43         27.9 
      1530.0         1.68         46.0 
      1531.0         0.33         20.6 
      1532.0         0.37         16.1 
      1533.0         0.33         15.1 
      1534.0         0.30         14.9 
      1535.0         0.30         15.3 
      1536.0         0.27         14.4 
      1537.0         0.27         14.4 
      1538.0         0.27         15.0 
      1539.0         0.23         14.3 
      1540.0         0.27         12.8 
      1541.0         0.22         11.0 
      1542.0         0.27         10.2 
      1543.0         0.27          9.1 
      1544.0         0.23          9.5 
      1545.0         0.13          8.7 
      1546.0         0.23          8.9 
      1547.0         0.23          9.1 
      1548.0         0.20          8.7 
      1549.0         0.20          9.3 
      1550.0         0.20          9.3 
      1551.0         0.20          8.7 
      1552.0         0.27          9.0 
      1553.0         0.23          9.7 
      1554.0         0.22          9.2 
      1555.0         0.37          7.7 
      1556.0         0.23          4.9 
      1557.0         0.27          5.9 
      1558.0         0.33         12.6 
      1559.0         0.47         31.7 
      1560.0         1.68         51.8 
      1561.0         0.40         22.2 
      1562.0         0.27         15.5 
      1563.0         0.23         14.4 
      1564.0         0.30         15.3 
      1565.0         0.40         15.4 
      1566.0         0.27         13.6 
      1567.0         0.20         12.7 
      1568.0         0.20         12.3 
      1569.0         0.23         11.6 
      1570.0         0.25         11.3 
      1571.0         0.23         10.5 
      1572.0         0.27         10.3 
      1573.0         0.20          9.7 
      1574.0         0.17          9.4 
      1575.0         0.20         10.1 
      1576.0         0.17          9.5 
      1577.0         0.20          9.7 
      1578.0         0.20          9.7 
      1579.0         0.20          9.1 
      1580.0         0.20          9.2 
      1581.0         0.20          9.4 
      1582.0         0.17          9.3 
      1583.0         0.22          8.5 
      1584.0         0.17          7.0 
      1585.0         0.17          6.2 
      1586.0         0.17          6.7 
      1587.0         0.20          8.8 
      1588.0         0.27         11.9 
      1589.0         0.27         19.2 
      1590.0         2.15         63.2 
      1591.0         0.30         26.5 
      1592.0         0.17         20.8 
      1593.0         0.27         18.8 
      1594.0         0.27         15.6 
      1595.0         0.17         15.2 
      1596.0         0.23         14.3 
      1597.0         0.20         13.3 
      1598.0         0.20         12.5 
      1599.0         0.17         12.3 
      1600.0         0.13         12.2 
      1601.0         0.23         11.9 
      1602.0         0.20         11.3 
      1603.0         0.22         10.9 
      1604.0         0.23         10.7 
      1605.0         0.23         10.6 
