~Version Information
VERS.                      2.0: CWLS Log ASCII Standard - VERSION 2.0
WRAP.                       NO: One line per depth step
~Well Information Block
STRT.FT               530.0000: 
STOP.FT              1825.0000: 
STEP.FT                 0.1000: 
NULL.                -999.2500: 
COMP.          Pioneer Natural Resources: COMPANY
WELL.          Vision 31-11 Tr: WELL
FLD.           Purgatoire River: FIELD
LOC.           742' FNL & 1593' FEL: LOCATION
STAT.                 Colorado: State
CNTY.               Las Animas: COUNTY
CTRY. USA : Country
SECT. 11 : Section
TOWN. 32S : Township
RANG. 66W : Range
SRVC.                Patterson: SERVICE COMPANY
DATE.          Mon Oct 10 07:17:32 2005: LOG DATE
API.           05 071 08305 00: UNIQUE WELL ID
~Curve Information Block
DEPT.FT            0 000 00 00: Depth
DCAL.in                       : CDL Caliper
RHOB.g/cc                     : CDL Bulk Density
RHOC.g/cc                     : CDL Density Correction
DPOR.pu                       : CDL Density Porosity
GR.GAPI                       : Gamma Ray
NPOR.pu                       : Neutron Porosity
~Parameter Information Block
~A  Depth       DCAL        RHOB        RHOC        DPOR         GR         NPOR    
# ...
  1720.4000      8.0197      2.6206      0.0915      1.7804    132.7980     23.1668
  1720.5000      8.0536      2.5877      0.0176      3.7751    129.9093     24.1395
  1720.6000      8.0536      2.5564      0.0377      5.6711    130.1668     23.7624
  1720.7000      8.0536      2.5314      0.0725      7.1894    136.2715     22.8366
  1720.8000      8.0507      2.5162     -0.0124      8.1090    141.1328     22.0251
  1720.9000      8.0507      2.5210      0.0187      7.8181    137.2897     20.7288
  1721.0000      8.0658      2.5441      0.0407      6.4169    131.0238     19.7284
  1721.1000      8.0658      2.5829      0.0267      4.0677    129.4552     19.9558
  1721.2000      8.0658      2.6244      0.1686      1.5511    130.4215     20.5873
  1721.3000      8.0691      2.6411      0.1653      0.5387    130.5829     20.2645
  1721.4000      8.0691      2.6327      0.1030      1.0460    129.2581     19.3155
  1721.5000      8.0570      2.6208      0.0723      1.7705    125.6602     18.7706
  1721.6000      8.0570      2.6137      0.0728      2.2024    118.4304     18.2385
  1721.7000      8.0570      2.6107      0.0459      2.3804    109.6877     17.4329
  1721.8000      8.0312      2.6072      0.0862      2.5955    105.7158     17.1175
  1721.9000      8.0312      2.6007      0.0301      2.9866    105.8037     17.4217
  1722.0000      8.0125      2.6064      0.0135      2.6403    101.9660     17.8348
  1722.1000      8.0125      2.6320      0.0125      1.0932     94.4608     17.7887
  1722.2000      8.0125      2.6574      0.0835     -0.4459     89.9047     17.2147
  1722.3000      8.0022      2.6610      0.0949     -0.6662     87.3676     16.8302
  1722.4000      8.0022      2.6490      0.0449      0.0597     84.0915     17.0305
  1722.5000      8.0023      2.6399      0.0406      0.6106     82.1811     17.6640
  1722.6000      8.0023      2.6316      0.0866      1.1134     83.4757     18.1081
  1722.7000      8.0023      2.6116      0.0478      2.3301     88.5036     17.4272
  1722.8000      8.0068      2.5834      0.0230      4.0373     94.1373     15.8719
  1722.9000      8.0068      2.5645     -0.0163      5.1808     97.1806     14.7452
  1723.0000      8.0222      2.5652     -0.0247      5.1420    100.0182     14.9564
  1723.1000      8.0222      2.5703      0.0697      4.8295    103.3200     16.1002
  1723.2000      8.0222      2.5627      0.0375      5.2903    104.0637     16.7203
  1723.3000      8.0246      2.5515      0.0424      5.9667    103.9779     16.7306
  1723.4000      8.0246      2.5502      0.0238      6.0489    106.7335     17.2032
  1723.5000      8.0255      2.5507      0.0545      6.0202    111.8874     17.8248
  1723.6000      8.0255      2.5400      0.0118      6.6637    118.5338     18.1411
  1723.7000      8.0255      2.5254     -0.0419      7.5528    127.4582     18.5049
  1723.8000      8.0097      2.5122      0.0211      8.3507    136.7806     18.8006
  1723.9000      8.0097      2.4914      0.0272      9.6129    140.9309     18.9825
  1724.0000      8.0206      2.4713     -0.0030     10.8296    138.3895     19.2220
  1724.1000      8.0206      2.4669      0.0377     11.0998    133.7835     19.4902
  1724.2000      8.0206      2.4688      0.0653     10.9807    132.9880     19.9281
  1724.3000      8.0357      2.4726      0.0052     10.7522    137.1781     20.1464
  1724.4000      8.0357      2.4939     -0.0030      9.4607    141.1024     20.0278
  1724.5000      8.0303      2.5268      0.0572      7.4667    142.0510     20.5744
  1724.6000      8.0303      2.5424      0.0985      6.5199    143.5524     21.5272
  1724.7000      8.0303      2.5409      0.0207      6.6110    144.2558     21.3915
  1724.8000      8.0793      2.5437      0.0728      6.4396    139.4175     20.6713
  1724.9000      8.0793      2.5474      0.0900      6.2173    132.1807     20.7028
  1725.0000      8.1082      2.5415      0.0557      6.5727    128.5167     21.3276
  1725.1000      8.1082      2.5344      0.0421      7.0049    129.4328     22.0825
  1725.2000      8.1082      2.5334      0.0223      7.0680    128.4111     21.9951
  1725.3000      8.1519      2.5319      0.0385      7.1560    120.7271     20.1206
  1725.4000      8.1519      2.5215      0.0366      7.7873    113.8266     17.4732
  1725.5000      8.0643      2.5077      0.0169      8.6224    111.2895     15.6636
  1725.6000      8.0643      2.5063      0.0380      8.7084    107.8319     14.8912
  1725.7000      8.0643      2.5224      0.0824      7.7313    100.8127     14.2145
  1725.8000      8.0417      2.5467      0.0568      6.2581     92.1320     13.4447
  1725.9000      8.0417      2.5712      0.0504      4.7736     87.0300     13.1911
  1726.0000      7.9723      2.5997      0.0782      3.0480     88.1629     13.2840
  1726.1000      7.9723      2.6354      0.1057      0.8868     93.9117     13.1984
  1726.2000      7.9723      2.6649      0.1539     -0.9025     99.3618     13.0917
  1726.3000      7.9315      2.6694      0.1531     -1.1757    100.5795     13.3288
  1726.4000      7.9315      2.6422      0.1329      0.4727    101.1104     13.6504
  1726.5000      7.9141      2.5885      0.1332      3.7263    106.3139     13.6115
  1726.6000      7.9141      2.5347     -0.0105      6.9903    112.9780     13.6427
  1726.7000      7.9141      2.5173     -0.0303      8.0427    115.5998     14.3338
  1726.8000      7.9227      2.5338      0.0344      7.0451    114.9829     15.4894
  1726.9000      7.9227      2.5455      0.0787      6.3318    114.1712     16.8345
  1727.0000      7.9671      2.5349      0.0581      6.9786    116.3382     18.4703
  1727.1000      7.9671      2.5223      0.0581      7.7375    122.1172     19.8084
  1727.2000      7.9671      2.5268      0.0809      7.4682    126.0993     20.2983
  1727.3000      8.0032      2.5409      0.0820      6.6146    128.5476     20.4528
  1727.4000      8.0032      2.5429      0.1092      6.4907    137.3437     20.4716
  1727.5000      8.0277      2.5270      0.0799      7.4554    150.8201     19.7659
  1727.6000      8.0277      2.5203      0.0513      7.8611    158.3579     18.5212
  1727.7000      8.0277      2.5419      0.0784      6.5539    156.6287     17.8238
  1727.8000      8.0447      2.5715      0.0811      4.7575    150.5593     18.0768
  1727.9000      8.0447      2.5856      0.1012      3.9022    144.1255     18.9423
  1728.0000      8.0489      2.5831      0.0740      4.0562    140.9679     20.0532
  1728.1000      8.0489      2.5753      0.0996      4.5248    143.3897     21.2230
  1728.2000      8.0489      2.5751      0.1158      4.5390    147.4727     22.3793
  1728.3000      8.0558      2.5883      0.1225      3.7405    147.9613     23.1649
  1728.4000      8.0558      2.6079      0.0757      2.5520    143.6908     23.3550
  1728.5000      8.1081      2.6221      0.0565      1.6888    135.9306     22.8647
  1728.6000      8.1081      2.6327      0.0124      1.0494    128.2342     21.3469
  1728.7000      8.1081      2.6535      0.0515     -0.2123    123.4018     19.3046
  1728.8000      8.1353      2.6830      0.0932     -2.0009    121.7579     18.3665
  1728.9000      8.1353      2.7065      0.0851     -3.4233    122.7747     19.1776
  1729.0000      8.0730      2.7184      0.1183     -4.1474    125.5284     20.3001
  1729.1000      8.0730      2.7206      0.0994     -4.2797    128.8878     20.0579
  1729.2000      8.0730      2.7077      0.1292     -3.4999    127.7022     19.0935
  1729.3000      8.0468      2.6734      0.0858     -1.4205    120.3377     18.6776
  1729.4000      8.0468      2.6340      0.0887      0.9713    114.3688     18.6536
  1729.5000      7.9218      2.6108      0.1062      2.3728    112.2936     18.9910
  1729.6000      7.9218      2.6027      0.1451      2.8677    111.1836     19.9929
  1729.7000      7.9218      2.6000      0.1245      3.0320    113.0268     20.9536
  1729.8000      7.9029      2.6008      0.1137      2.9834    118.4877     21.1041
  1729.9000      7.9029      2.6018      0.0921      2.9231    124.4878     20.6255
