~Version Information
VERS.                      2.0: CWLS Log ASCII Standard - VERSION 2.0
WRAP.                       NO: One line per depth step
~Well Information Block
STRT.FT               453.5000: 
STOP.FT              1386.0000: 
STEP.FT                 0.1000: 
NULL.                -999.2500: 
COMP.          Petrogulf Corporation: COMPANY
WELL.          Great Plains 22-22R: WELL
FLD.           Purgatoire River: FIELD
LOC.           2042' FNL & 1657' FWL--: LOCATION
PROV.                 Colorado: PROVINCE
CNTY.               Las Animas: COUNTRY
SRVC.                Patterson: SERVICE COMPANY
DATE.          Fri Sep 09 14:42:42 2005: LOG DATE
UWI.           05 071 08028 00: UNIQUE WELL ID
~Curve Information Block
DEPT.FT            0 000 00 00: Depth
DCAL.in                       : CDL Caliper
RHOB.g/cc                     : CDL Bulk Density
RHOC.g/cc                     : CDL Density Correction
DPOR.pu                       : CDL Density Porosity
NPOR.pu                       : Neutron Porosity
GR.GAPI                       : Gamma Ray
~Parameter Information Block
~A  Depth       DCAL        RHOB        RHOC        DPOR        NPOR         GR     
# ...
  1000.7000      7.9437      2.5420      0.0277      6.5432     26.9879    107.3998
  1000.8000      7.9308      2.5530      0.0505      5.8766     26.7070    104.5971
  1000.9000      7.9308      2.5628      0.0260      5.2834     26.5914    105.9357
  1001.0000      7.9195      2.5768      0.0356      4.4337     26.3208    106.2413
  1001.1000      7.9195      2.5946      0.0369      3.3566     25.7345    104.7526
  1001.2000      7.9195      2.5986      0.0879      3.1127     24.9642    103.3495
  1001.3000      7.9158      2.5792      0.0369      4.2927     24.2324    103.0360
  1001.4000      7.9158      2.5513      0.0004      5.9836     23.7666    103.9732
  1001.5000      7.9151      2.5309     -0.0108      7.2167     23.4649    104.3512
  1001.6000      7.9151      2.5159      0.0151      8.1301     22.9818    101.6488
  1001.7000      7.9151      2.5013     -0.0173      9.0146     22.4706     96.3239
  1001.8000      7.9146      2.4988     -0.0202      9.1643     22.3565     89.9609
  1001.9000      7.9146      2.5117      0.0259      8.3825     22.7804     83.4137
  1002.0000      7.9147      2.5192      0.0247      7.9272     23.5162     79.0914
  1002.1000      7.9147      2.5128      0.0327      8.3133     24.1514     80.0885
  1002.2000      7.9147      2.5076      0.0283      8.6279     24.7477     84.7134
  1002.3000      7.9183      2.5209      0.0154      7.8244     25.1863     86.5270
  1002.4000      7.9183      2.5521      0.0496      5.9311     24.9925     82.2496
  1002.5000      7.9249      2.5784      0.0863      4.3388     24.2916     76.2403
  1002.6000      7.9249      2.5778      0.0956      4.3729     23.8105     72.6525
  1002.7000      7.9249      2.5512      0.0871      5.9864     23.8587     68.8707
  1002.8000      7.9208      2.5170      0.0709      8.0583     23.8775     64.5964
  1002.9000      7.9208      2.4927      0.0513      9.5314     23.6163     61.1454
  1003.0000      7.9030      2.4843      0.0658     10.0450     23.4324     56.2885
  1003.1000      7.9030      2.4891      0.0498      9.7537     23.2679     53.3804
  1003.2000      7.9030      2.5010      0.0608      9.0294     22.9423     56.1356
  1003.3000      7.8941      2.5135      0.0377      8.2730     22.5165     59.5094
  1003.4000      7.8941      2.5269      0.0362      7.4610     22.0790     57.7590
  1003.5000      7.8957      2.5420      0.0690      6.5459     21.7211     51.4027
  1003.6000      7.8957      2.5509      0.0916      6.0045     21.1260     46.5613
  1003.7000      7.8957      2.5537      0.0608      5.8378     20.1514     46.4165
  1003.8000      7.8964      2.5588      0.0930      5.5289     19.3720     47.6314
  1003.9000      7.8964      2.5588      0.1094      5.5251     18.9500     47.2486
  1004.0000      7.9025      2.5515      0.0251      5.9696     19.0477     46.2612
  1004.1000      7.9025      2.5524      0.0356      5.9170     19.6920     46.0850
  1004.2000      7.9025      2.5611      0.0228      5.3868     19.9939     44.7965
  1004.3000      7.9173      2.5625      0.0200      5.3056     19.6050     41.7917
  1004.4000      7.9173      2.5417      0.0575      6.5659     19.3146     41.7246
  1004.5000      7.9251      2.4967     -0.0092      9.2902     19.8118     48.6162
  1004.6000      7.9251      2.4508     -0.0273     12.0740     21.1321     59.2276
  1004.7000      7.9251      2.4206     -0.0076     13.9050     23.2165     66.0457
  1004.8000      7.9163      2.3960     -0.0110     15.3957     25.6488     66.1577
  1004.9000      7.9163      2.3713     -0.0251     16.8907     27.4456     64.5188
  1005.0000      7.9149      2.3600     -0.0660     17.5759     28.3182     67.7558
  1005.1000      7.9149      2.3653     -0.0032     17.2545     28.8903     72.3982
  1005.2000      7.9149      2.3684      0.0273     17.0674     29.3436     72.8611
  1005.3000      7.9508      2.3607      0.0440     17.5332     29.3024     74.5849
  1005.4000      7.9508      2.3524      0.0711     18.0366     28.8435     82.7881
  1005.5000      8.0023      2.3523      0.0879     18.0411     28.4505     95.3763
  1005.6000      8.0023      2.3610      0.0619     17.5160     28.4609    107.9184
  1005.7000      8.0023      2.3767      0.0286     16.5647     28.9986    112.4255
  1005.8000      8.0068      2.3943      0.0886     15.4960     29.8439    106.8313
  1005.9000      8.0068      2.4039      0.0794     14.9150     30.4955    101.3218
  1006.0000      7.9776      2.4054      0.0729     14.8218     30.5769    102.7038
  1006.1000      7.9776      2.4131      0.0235     14.3569     30.2762    108.2551
  1006.2000      7.9776      2.4307      0.0400     13.2903     30.3990    114.4667
  1006.3000      7.9771      2.4386      0.0661     12.8128     31.2292    118.7467
  1006.4000      7.9771      2.4251      0.0307     13.6310     32.1690    119.9560
  1006.5000      8.0006      2.4033      0.0214     14.9514     32.6769    120.5311
  1006.6000      8.0006      2.3879      0.0035     15.8875     32.4936    120.6038
  1006.7000      8.0006      2.3865      0.0063     15.9671     31.7295    118.2530
  1006.8000      8.0130      2.4030      0.0144     14.9690     30.7831    118.9035
  1006.9000      8.0130      2.4301      0.0553     13.3277     30.1119    125.1081
  1007.0000      7.9973      2.4562      0.0911     11.7457     30.1588    130.8913
  1007.1000      7.9973      2.4763      0.1128     10.5265     30.8862    135.0636
  1007.2000      7.9973      2.4839      0.1161     10.0642     31.6253    138.3330
  1007.3000      7.9746      2.4766      0.0795     10.5096     31.8070    138.3891
  1007.4000      7.9746      2.4659      0.0838     11.1565     31.4365    135.6090
  1007.5000      7.9678      2.4624      0.0745     11.3687     30.8955    130.9076
  1007.6000      7.9678      2.4658      0.0765     11.1640     30.3771    126.9781
  1007.7000      7.9678      2.4745      0.0752     10.6352     29.9923    127.9770
  1007.8000      7.9799      2.4870      0.0575      9.8811     29.8809    131.7318
  1007.9000      7.9799      2.4964      0.0583      9.3069     30.0013    134.0628
  1008.0000      8.0019      2.5022      0.0327      8.9602     30.1003    135.0609
  1008.1000      8.0019      2.5115      0.0783      8.3926     30.0233    132.1816
  1008.2000      8.0019      2.5182      0.1089      7.9867     30.1369    124.6268
  1008.3000      8.0144      2.5173      0.0400      8.0394     30.4253    119.2033
  1008.4000      8.0144      2.5192      0.0608      7.9245     30.2814    121.6799
  1008.5000      8.0097      2.5208      0.0625      7.8324     29.7330    129.1040
  1008.6000      8.0097      2.5070      0.0538      8.6659     29.5102    133.7763
  1008.7000      8.0097      2.4804      0.0361     10.2802     29.9210    133.5474
  1008.8000      7.9929      2.4605      0.0276     11.4844     30.4627    131.0983
  1008.9000      7.9929      2.4602      0.0375     11.5014     30.8699    129.1278
  1009.0000      7.9782      2.4754      0.0543     10.5800     31.3746    129.2035
  1009.1000      7.9782      2.4948      0.0791      9.4044     31.9227    128.2548
  1009.2000      7.9782      2.5124      0.0627      8.3398     32.0231    124.6698
  1009.3000      7.9792      2.5283      0.0776      7.3783     31.3438    123.8276
  1009.4000      7.9792      2.5416      0.0495      6.5711     30.4907    125.0213
  1009.5000      7.9946      2.5508      0.0568      6.0141     30.3489    121.6834
  1009.6000      7.9946      2.5515      0.0739      5.9678     30.7923    117.8051
  1009.7000      7.9946      2.5443      0.0374      6.4079     30.9981    119.3262
  1009.8000      8.0107      2.5394      0.0339      6.7017     30.6843    122.9054
  1009.9000      8.0107      2.5387      0.0476      6.7440     30.1041    126.1586
  1010.0000      8.0181      2.5324      0.0327      7.1286     29.7090    130.0699
  1010.1000      8.0181      2.5116      0.0400      8.3906     29.6340    133.8645
  1010.2000      8.0181      2.4814     -0.0502     10.2181     29.4896    136.5842
