~Version Information
VERS.                      2.0: CWLS Log ASCII Standard - VERSION 2.0
WRAP.                       NO: One line per depth step
~Well Information Block
STRT.FT               482.2000: 
STOP.FT              2349.0000: 
STEP.FT                 0.1000: 
NULL.                -999.2500: 
COMP.          Pioneer Natural Resources: COMPANY
WELL.          Hill Climb 22-2: WELL
FLD.           Purgatoire River: FIELD
LOC.           1820' FNL & 2193' FWL: LOCATION
PROV.                 Colorado: PROVINCE
CNTY.               Las Animas: COUNTRY
SRVC.                Patterson: SERVICE COMPANY
DATE.          Wed Oct 20 09:25:25 2004: LOG DATE
UWI.           05 071 08175 00: UNIQUE WELL ID
~Curve Information Block
DEPT.FT            0 000 00 00: Depth
DCAL.in                       : CDL Caliper
DPOR.pu                       : CDL Density Porosity
NPOR.pu                       : Neutron Porosity
RHOB.g/cc                     : CDL Bulk Density
RHOC.g/cc                     : CDL Density Correction
GR.GAPI                       : Gamma Ray
~Parameter Information Block
~A  Depth       DCAL        DPOR        NPOR        RHOB        RHOC         GR     
# ...
  2133.4000      8.0639     15.4385     26.0054      2.3953     -0.0112    145.0832
  2133.5000      8.0676     14.6598     25.5155      2.4081      0.0041    151.9514
  2133.6000      8.0676     13.4553     24.9874      2.4280      0.0274    144.5560
  2133.7000      8.0676     12.3530     24.6524      2.4462      0.0501    137.3087
  2133.8000      8.0695     11.8971     24.7919      2.4537      0.0763    141.8424
  2133.9000      8.0695     11.9804     25.5047      2.4523      0.0158    144.4532
  2134.0000      8.0695     11.5550     26.1017      2.4593      0.0137    134.6867
  2134.1000      8.0695     10.6360     25.7215      2.4745      0.0614    128.3187
  2134.2000      8.0695     10.3566     24.8577      2.4791      0.0475    138.2844
  2134.3000      8.0677     10.5822     24.6635      2.4754      0.0234    152.1122
  2134.4000      8.0677     10.5785     25.1508      2.4755      0.0123    160.3296
  2134.5000      8.0659     10.7098     25.2870      2.4733      0.0647    161.5289
  2134.6000      8.0659     11.3648     24.7222      2.4625      0.0114    152.3690
  2134.7000      8.0659     11.6297     24.3772      2.4581      0.0071    144.9325
  2134.8000      8.0659     11.2024     24.9516      2.4652      0.0781    157.9463
  2134.9000      8.0659     11.2699     25.8786      2.4640      0.0728    180.1100
  2135.0000      8.0667     12.0930     26.4234      2.4505      0.0154    186.3559
  2135.1000      8.0667     12.2790     26.4480      2.4474     -0.0068    181.6179
  2135.2000      8.0667     11.4522     25.8815      2.4610      0.0474    180.0489
  2135.3000      8.0685     10.8479     25.1743      2.4710      0.0168    176.1031
  2135.4000      8.0685     10.6588     24.9848      2.4741     -0.0003    161.8810
  2135.5000      8.0720     10.3514     25.1806      2.4792      0.0067    143.0323
  2135.6000      8.0720     10.4188     25.3195      2.4781      0.0296    128.9096
  2135.7000      8.0720     11.3645     24.9365      2.4625     -0.0007    125.8335
  2135.8000      8.0744     12.3199     24.0628      2.4467     -0.0034    133.8809
  2135.9000      8.0744     12.3344     23.5269      2.4465      0.0091    146.1913
  2136.0000      8.0706     12.0804     23.6828      2.4507      0.0296    154.8805
  2136.1000      8.0706     12.3190     24.2813      2.4467     -0.0024    155.2930
  2136.2000      8.0706     12.5490     25.1403      2.4429     -0.0154    151.5667
  2136.3000      8.0656     12.2755     25.9569      2.4475      0.0006    150.0003
  2136.4000      8.0656     11.6832     26.3877      2.4572      0.0427    153.0335
  2136.5000      8.0667     10.7028     26.1831      2.4734      0.0049    163.5460
  2136.6000      8.0667      8.7300     25.6040      2.5060      0.0385    174.0454
  2136.7000      8.0667      6.5883     25.2254      2.5413      0.1121    170.9922
  2136.8000      8.0726      6.3351     25.0786      2.5455      0.0706    160.7012
  2136.9000      8.0726      8.2382     25.1703      2.5141      0.0591    159.4828
  2137.0000      8.0745     10.6023     25.6207      2.4751      0.0238    167.3651
  2137.1000      8.0745     12.1600     25.9488      2.4494      0.0230    173.0447
  2137.2000      8.0745     13.2057     25.8982      2.4321      0.0155    171.1024
  2137.3000      8.0701     14.1772     26.1642      2.4161     -0.0280    159.4699
  2137.4000      8.0701     14.7442     27.1626      2.4067     -0.0502    147.6498
  2137.5000      8.0699     15.1528     28.2573      2.4000     -0.0049    153.9021
  2137.6000      8.0699     16.5046     28.8502      2.3777     -0.0004    167.4185
  2137.7000      8.0699     19.2233     29.1908      2.3328     -0.0187    162.4920
  2137.8000      8.0706     22.3413     29.2678      2.2814     -0.0461    146.1016
  2137.9000      8.0706     24.5728     28.9857      2.2445     -0.0842    136.2371
  2138.0000      8.0745     25.8493     28.8768      2.2235     -0.0530    132.8337
  2138.1000      8.0745     26.8266     28.9797      2.2074     -0.0486    128.7285
  2138.2000      8.0745     27.7934     29.0759      2.1914     -0.0045    125.5026
  2138.3000      8.0856     29.0019     29.3634      2.1715     -0.0056    128.5295
  2138.4000      8.0856     30.0838     29.5692      2.1536     -0.0105    133.5458
  2138.5000      8.0961     30.0878     29.0788      2.1536      0.0454    137.3898
  2138.6000      8.0961     29.0827     28.1264      2.1701      0.1609    144.0459
  2138.7000      8.0961     28.0934     27.5207      2.1865      0.1752    150.5217
  2138.8000      8.0984     27.6092     27.4152      2.1944      0.1492    151.5895
  2138.9000      8.0984     27.3221     27.4253      2.1992      0.0983    147.0622
  2139.0000      8.0874     26.6697     27.2424      2.2100      0.0779    135.6940
  2139.1000      8.0874     25.0956     26.8211      2.2359      0.0626    123.4330
  2139.2000      8.0874     22.6323     26.1820      2.2766      0.1141    115.9571
  2139.3000      8.0676     20.2832     25.4709      2.3153      0.0957    113.4377
  2139.4000      8.0676     18.8355     25.0449      2.3392      0.0556    118.9210
  2139.5000      8.0572     17.7233     24.9725      2.3576      0.0394    130.2722
  2139.6000      8.0572     16.1207     25.1302      2.3840      0.0561    137.4511
  2139.7000      8.0572     14.4285     25.1971      2.4119      0.0758    142.3712
  2139.8000      8.0554     13.5530     24.6539      2.4264      0.0416    160.6510
  2139.9000      8.0554     13.4139     23.5696      2.4287      0.0066    190.4521
  2140.0000      8.0567     13.4294     22.6369      2.4284      0.0175    208.7396
  2140.1000      8.0567     13.3206     22.2695      2.4302      0.0212    201.1584
  2140.2000      8.0567     12.6207     22.3682      2.4418      0.0162    176.6414
  2140.3000      8.0589     11.3880     22.5995      2.4621      0.0561    154.2538
  2140.4000      8.0589     10.3105     22.6474      2.4799      0.0432    145.5619
  2140.5000      8.0571      9.3371     22.5260      2.4959      0.0484    146.6022
  2140.6000      8.0571      8.3858     22.4147      2.5116      0.1177    151.1111
  2140.7000      8.0571      7.6174     22.4203      2.5243      0.0822    150.5098
  2140.8000      8.0446      6.7350     22.4403      2.5389      0.1193    138.8995
  2140.9000      8.0446      5.8881     22.4062      2.5528      0.1420    129.2563
  2141.0000      8.0223      5.7086     22.4956      2.5558      0.1120    131.9357
  2141.1000      8.0223      6.3766     22.8934      2.5448      0.0996    140.0088
  2141.2000      8.0223      7.4577     23.8018      2.5269      0.0898    140.0414
  2141.3000      8.0041      8.2696     24.8629      2.5136      0.0309    129.5320
  2141.4000      8.0041      8.8639     25.3683      2.5037      0.0876    124.0783
  2141.5000      7.9962      9.8274     25.3290      2.4878      0.0522    132.3000
  2141.6000      7.9962     10.4894     25.1095      2.4769      0.0383    146.0478
  2141.7000      7.9962     10.0154     24.7025      2.4847      0.0677    154.2255
  2141.8000      7.9936      9.0694     24.1823      2.5004      0.0696    152.5364
  2141.9000      7.9936      8.4318     24.0413      2.5109      0.0585    147.9307
  2142.0000      7.9935      8.2255     24.3108      2.5143      0.0734    152.1643
  2142.1000      7.9935      8.1793     24.2365      2.5150      0.0770    165.8650
  2142.2000      7.9935      7.3328     23.3957      2.5290      0.0591    177.5818
  2142.3000      7.9960      5.3927     22.5896      2.5610      0.0598    178.7180
  2142.4000      7.9960      4.0212     22.4723      2.5837      0.1082    169.9651
  2142.5000      7.9968      4.5722     22.3887      2.5746      0.0773    153.7651
  2142.6000      7.9968      5.9212     21.8416      2.5523      0.0510    128.8320
  2142.7000      7.9968      6.4494     21.5695      2.5436      0.0248    102.0583
  2142.8000      7.9932      6.0244     22.0180      2.5506      0.0683     92.6175
  2142.9000      7.9932      5.3345     22.5468      2.5620      0.0628    110.1708
