~Version Information
VERS.                      2.0: CWLS Log ASCII Standard - VERSION 2.0
WRAP.                       NO: One line per depth step
~Well Information Block
STRT.FT               650.0000: 
STOP.FT              1999.0000: 
STEP.FT                 0.2500: 
NULL.                -999.2500: 
COMP.          Pioneer Natural Resources: COMPANY
WELL.           Firehawk 34-26: WELL
FLD.           Purgatoire River: FIELD
LOC.           1196' FSL & 1595' FEL--: LOCATION
STAT.                 Colorado: State
CNTY.               Las Animas: COUNTY
CTRY. USA : Country
SECT. 26 : Section
TOWN. 32S : Township
RANG. 66W : Range
SRVC.                Patterson: SERVICE COMPANY
DATE.          Sun Oct 16 16:57:28 2005: LOG DATE
API.           05 071 08389 00: UNIQUE WELL ID
~Curve Information Block
DEPT.FT            0 000 00 00: Depth
SN.Ohm-m                      : IEL Short Normal
SP.mV                         : IEL Spontaneous Potential
DIR.Ohm-m                     : IEL Induction Resistivity
GR.GAPI                       : Gamma Ray
~Parameter Information Block
~A  Depth        SN          SP         DIR          GR     
# ...
  1621.5000     16.7722     48.3746     13.8280    102.8572
  1621.7500     17.0386     49.1851     13.5596    103.3169
  1622.0000     17.2247     50.1060     13.3778    106.0990
  1622.2500     17.2614     50.8499     13.2875    109.4754
  1622.5000     17.1278     51.2395     13.2723    116.4316
  1622.7500     16.8448     51.3024     13.3029    121.6152
  1623.0000     16.4611     51.2013     13.3471    128.5376
  1623.2500     16.0351     51.0994     13.3763    131.6728
  1623.5000     15.6191     51.0834     13.3669    133.3603
  1623.7500     15.2598     51.1675     13.2974    132.6403
  1624.0000     14.9933     51.3356     13.1480    129.5134
  1624.2500     14.8071     51.5732     12.9055    126.1175
  1624.5000     14.6185     51.8830     12.5693    118.6406
  1624.7500     14.3285     52.2918     12.1540    112.4331
  1625.0000     13.8988     52.8432     11.6862    104.0051
  1625.2500     13.3593     53.5688     11.1965    101.0668
  1625.5000     12.7507     54.4542     10.7124    102.5289
  1625.7500     12.0992     55.4302     10.2528    106.8100
  1626.0000     11.4525     56.3946      9.8278    115.5387
  1626.2500     10.8870     57.2532      9.4396    121.5221
  1626.5000     10.4480     57.9544      9.0848    129.4133
  1626.7500     10.1089     58.4959      8.7553    133.6162
  1627.0000      9.8150     58.8991      8.4396    138.3744
  1627.2500      9.5413     59.1785      8.1258    140.7122
  1627.5000      9.2885     59.3358      7.8056    142.5874
  1627.7500      9.0518     59.3797      7.4781    141.8407
  1628.0000      8.8186     59.3433      7.1505    136.1973
  1628.2500      8.5840     59.2763      6.8354    129.6709
  1628.5000      8.3541     59.2201      6.5470    118.7524
  1628.7500      8.1377     59.1905      6.2964    113.0121
  1629.0000      7.9494     59.1877      6.0905    108.9710
  1629.2500      7.8069     59.2186      5.9316    109.1507
  1629.5000      7.7109     59.3038      5.8194    111.9075
  1629.7500      7.6445     59.4613      5.7520    114.3086
  1630.0000      7.5953     59.6855      5.7271    117.5617
  1630.2500      7.5575     59.9466      5.7417    119.0486
  1630.5000      7.5254     60.2076      5.7910    119.4989
  1630.7500      7.5054     60.4424      5.8688    118.2534
  1631.0000      7.5229     60.6391      5.9676    113.9451
  1631.2500      7.6003     60.7915      6.0806    109.6484
  1631.5000      7.7336     60.8948      6.2035    101.7958
  1631.7500      7.8992     60.9505      6.3347     96.3580
  1632.0000      8.0750     60.9697      6.4746     89.5028
  1632.2500      8.2497     60.9660      6.6250     86.4841
  1632.5000      8.4271     60.9450      6.7875     84.4617
  1632.7500      8.6268     60.9083      6.9632     84.5130
  1633.0000      8.8586     60.8645      7.1531     86.1716
  1633.2500      9.0962     60.8316      7.3584     88.0126
  1633.5000      9.2983     60.8249      7.5804     91.1050
  1633.7500      9.4477     60.8465      7.8193     92.8620
  1634.0000      9.5521     60.8896      8.0726     94.2828
  1634.2500      9.6305     60.9525      8.3347     94.1349
  1634.5000      9.7057     61.0411      8.5986     92.2317
  1634.7500      9.7988     61.1590      8.8590     90.2169
  1635.0000      9.9286     61.2998      9.1157     87.1961
  1635.2500     10.1130     61.4463      9.3744     85.6810
  1635.5000     10.3657     61.5701      9.6457     84.2986
  1635.7500     10.6970     61.6365      9.9417     83.8502
  1636.0000     11.1184     61.6181     10.2732     83.5764
  1636.2500     11.6426     61.5114     10.6476     83.1272
  1636.5000     12.2800     61.3432     11.0696     80.3212
  1636.7500     13.0292     61.1566     11.5425     76.1330
  1637.0000     13.8551     60.9891     12.0703     66.5119
  1637.2500     14.6857     60.8598     12.6576     59.0869
  1637.5000     15.4762     60.7747     13.3085     49.2335
  1637.7500     16.2924     60.7415     14.0223     44.7137
  1638.0000     17.3175     60.7697     14.7901     41.5277
  1638.2500     18.7423     60.8560     15.5957     41.2912
  1638.5000     20.5753     60.9717     16.4217     42.0229
  1638.7500     22.5405     61.0744     17.2554     42.1198
  1639.0000     24.2365     61.1342     18.0883     40.5732
  1639.2500     25.4259     61.1449     18.9049     38.5625
  1639.5000     26.1432     61.1066     19.6693     35.2886
  1639.7500     26.5719     61.0045     20.3227     33.6174
  1640.0000     26.8922     60.8074     20.8043     32.2526
  1640.2500     27.2199     60.4851     21.0884     31.8941
  1640.5000     27.5938     60.0191     21.2092     31.7187
  1640.7500     27.9661     59.3960     21.2460     31.7770
  1641.0000     28.2486     58.6055     21.2809     32.2934
  1641.2500     28.3936     57.6795     21.3622     32.9374
  1641.5000     28.4148     56.7728     21.4930     34.0005
  1641.7500     28.3531     56.2065     21.6432     34.4908
  1642.0000     28.2462     56.3462     21.7717     34.7234
  1642.2500     28.1195     57.3077     21.8470     34.6939
  1642.5000     27.9989     58.7348     21.8619     34.7440
  1642.7500     27.9165     59.9424     21.8340     34.8942
  1643.0000     27.8909     60.3789     21.7952     35.1188
  1643.2500     27.9163     59.9790     21.7756     35.2323
  1643.5000     27.9725     59.1032     21.7916     35.5817
  1643.7500     28.0334     58.1974     21.8427     36.0478
  1644.0000     28.0837     57.5063     21.9170     36.8245
  1644.2500     28.1370     57.0098     21.9992     37.0326
  1644.5000     28.2338     56.5407     22.0799     36.4745
  1644.7500     28.4208     55.9548     22.1605     35.5941
  1645.0000     28.7226     55.2494     22.2530     33.9005
  1645.2500     29.1190     54.5656     22.3754     32.6855
  1645.5000     29.5463     54.0898     22.5413     30.8846
  1645.7500     29.9306     53.9317     22.7539     29.8276
  1646.0000     30.2353     54.0672     23.0058     28.7433
  1646.2500     30.5025     54.3651     23.2873     28.4422
  1646.5000     30.8409     54.6562     23.5935     28.5207
  1646.7500     31.3448     54.8044     23.9194     28.7217
  1647.0000     32.0105     54.7529     24.2427     28.7582
  1647.2500     32.7339     54.5289     24.5087     28.4236
  1647.5000     33.3796     54.2144     24.6311     27.5749
  1647.7500     33.8546     53.9075     24.5158     27.1069
  1648.0000     34.1224     53.6933     24.0968     27.0297
  1648.2500     34.1558     53.6271     23.3646     27.5675
  1648.5000     33.8953     53.7301     22.3710     29.7507
  1648.7500     33.2246     53.9980     21.2096     32.6615
  1649.0000     31.9573     54.4152     19.9816     40.3311
  1649.2500     29.9285     54.9623     18.7672     48.1444
  1649.5000     27.1918     55.6067     17.6138     63.8578
  1649.7500     24.0810     56.2869     16.5412     76.1021
  1650.0000     21.0380     56.9160     15.5540     94.1954
  1650.2500     18.3858     57.4128     14.6509    104.1626
  1650.5000     16.2321     57.7355     13.8287    113.8014
  1650.7500     14.5356     57.8947     13.0809    116.5151
  1651.0000     13.2307     57.9389     12.3973    116.4989
  1651.2500     12.2737     57.9273     11.7647    115.2116
  1651.5000     11.6080     57.9048     11.1716    113.6949
  1651.7500     11.1444     57.8885     10.6127    113.7681
  1652.0000     10.7958     57.8714     10.0912    115.7413
  1652.2500     10.5083     57.8402      9.6175    117.9292
  1652.5000     10.2561     57.7899      9.2025    121.5864
  1652.7500     10.0216     57.7227      8.8528    123.8560
  1653.0000      9.7840     57.6380      8.5687    126.5588
  1653.2500      9.5319     57.5332      8.3454    127.6034
  1653.5000      9.2747     57.4132      8.1763    127.5917
  1653.7500      9.0332     57.2906      8.0551    126.6479
  1654.0000      8.8281     57.1747      7.9778    124.7749
  1654.2500      8.6762     57.0677      7.9417    123.7365
  1654.5000      8.5921     56.9770      7.9441    122.5344
  1654.7500      8.5959     56.9227      7.9801    121.6195
