~Version Information
VERS.                      2.0: CWLS Log ASCII Standard - VERSION 2.0
WRAP.                       NO: One line per depth step
~Well Information Block
STRT.FT               -11.5000: 
STOP.FT              2395.2500: 
STEP.FT                 0.2500: 
NULL.                -999.2500: 
COMP.          Petrogulf Corporation: COMPANY
WELL.            Montoya 7-21V: WELL
FLD.           Purgatorie River: FIELD
LOC.           738' FSL & 2070' FWL--: LOCATION
CNTY.               Las Animas: COUNTY
SRVC.                         : SERVICE COMPANY
DATE.          Mon Aug 30 15:10:00 2004: LOG DATE
UWI.                          : UNIQUE WELL ID
STAT.                       CO: STATE
~Curve Information Block
DEPT.FT            0 000 00 00: Depth
CCL.                          : Casing Collar Locator
TT3.usec                      : CBL 3' Travel Time
AMP3.mV                       : CBL 3' Amplitude
GR.GAPI                       : Gamma Ray
~Parameter Information Block
~A  Depth       CCL         TT3         AMP3         GR     
# ...
  1261.5000      0.0000    310.1057     14.6997    119.4493
  1261.7500      0.0000    310.7760     13.7644    121.6982
  1262.0000      0.0000    311.2634     12.8532    122.8927
  1262.2500      0.0000    311.5132     12.0986    124.1917
  1262.5000      0.0000    311.5530     11.6113    127.0139
  1262.7500      0.0000    311.4454     11.4637    131.4614
  1263.0000      0.0000    311.2524     11.6591    135.7437
  1263.2500      0.0000    311.0349     12.1063    137.5507
  1263.5000      0.0000    310.8494     12.6396    136.2618
  1263.7500      0.0000    310.7195     13.0833    133.6553
  1264.0000      0.0000    310.6136     13.3226    132.3721
  1264.2500      0.0000    310.4974     13.3408    133.7271
  1264.5000      0.0000    310.4675     13.2063    136.7911
  1264.7500      0.0000    311.1927     13.0213    139.2202
  1265.0000      0.0000    314.9442     12.8619    139.0406
  1265.2500      0.0000    327.1682     12.7393    136.0061
  1265.5000      0.0000    356.7778     12.5912    131.5118
  1265.7500      0.0000    411.8586     12.3002    127.4066
  1266.0000      0.0000    491.0689     11.7402    124.9986
  1266.2500      0.0000    579.1454     10.8441    124.8857
  1266.5000      0.0000    654.7750      9.6621    127.1182
  1266.7500      0.0000    704.9980      8.3623    131.0503
  1267.0000      0.0000    731.2428      7.1677    135.2514
  1267.2500      0.0000    742.9782      6.2646    138.3968
  1267.5000      0.0000    748.7312      5.7337    140.4526
  1267.7500      0.0000    752.5104      5.5317    142.1958
  1268.0000      0.0000    754.9496      5.5213    143.4261
  1268.2500      0.0000    755.7122      5.5292    142.7769
  1268.5000      0.0000    755.2802      5.4133    139.7223
  1268.7500      0.0000    755.3718      5.1192    135.6292
  1269.0000      0.0000    757.6364      4.7038    132.0749
  1269.2500      0.0000    761.7122      4.3113    129.0996
  1269.5000      0.0000    764.9053      4.1021    126.0379
  1269.7500      0.0000    764.4339      4.1631    123.4115
  1270.0000      0.0000    759.7778      4.4490    123.1254
  1270.2500      0.0000    752.5096      4.7971    126.9433
  1270.5000      0.0000    744.6213      5.0114    134.9865
  1270.7500      0.0000    737.8063      4.9642    145.3011
  1271.0000      0.0000    733.5039      4.6613    154.7955
  1271.2500      0.0000    732.2968      4.2386    160.8993
  1271.5000      0.0000    733.1801      3.8908    162.5958
  1271.7500      0.0000    734.2134      3.7613    160.4823
  1272.0000      0.0000    734.2991      3.8643    156.4279
  1272.2500      0.0000    734.1028      4.0915    152.7601
  1272.5000      0.0000    734.9391      4.2932    150.8604
  1272.7500      0.0000    736.8792      4.3686    150.2988
  1273.0000      0.0000    738.2702      4.3112    149.5754
  1273.2500      0.0000    737.2781      4.1996    147.6931
  1273.5000      0.0000    733.7615      4.1517    144.8496
  1273.7500      0.0000    729.4872      4.2611    141.9657
  1274.0000      0.0000    726.6235      4.5358    140.0711
  1274.2500      0.0000    726.0769      4.8771    139.7782
  1274.5000      0.0000    726.9584      5.1283    140.5247
  1274.7500      0.0000    727.5231      5.1766    140.5180
  1275.0000      0.0000    726.9395      5.0318    138.2191
  1275.2500      0.0000    726.3641      4.8088    133.7164
  1275.5000      0.0000    728.1662      4.6305    128.3220
  1275.7500      0.0000    733.9270      4.5445    123.4286
  1276.0000      0.0000    742.9537      4.5185    120.2219
  1276.2500      0.0000    752.5198      4.4997    119.9137
  1276.5000      0.0000    759.4596      4.4740    123.4490
  1276.7500      0.0000    761.5278      4.4799    130.8986
  1277.0000      0.0000    757.7835      4.5732    141.2343
  1277.2500      0.0000    748.8402      4.7670    152.5352
  1277.5000      0.0000    737.0589      4.9963    162.4177
  1277.7500      0.0000    725.6100      5.1458    168.7997
  1278.0000      0.0000    716.6859      5.1172    170.8507
  1278.2500      0.0000    710.4378      4.8899    169.3923
  1278.5000      0.0000    705.3080      4.5520    166.1726
  1278.7500      0.0000    698.8883      4.2788    162.5726
  1279.0000      0.0000    689.0906      4.2370    158.7914
  1279.2500      0.0000    676.4428      4.4594    154.0203
  1279.5000      0.0000    666.3493      4.8022    147.3909
  1279.7500      0.0000    666.9142      5.0410    138.9338
  1280.0000      0.0000    681.6667      5.0282    129.7832
  1280.2500      0.0000    705.1852      4.7871    121.5582
  1280.5000      0.0000    727.6768      4.4896    115.7252
  1280.7500      0.0000    742.6503      4.3490    113.5223
  1281.0000      0.0000    749.2415      4.4962    115.7399
  1281.2500      0.0000    749.5922      4.9179    121.8939
  1281.5000      0.0000    746.4559      5.4909    130.0066
  1281.7500      0.0000    742.6863      6.0726    137.7515
  1282.0000      0.0000    740.8375      6.5766    143.7169
  1282.2500      0.0000    742.1000      6.9907    147.7057
  1282.5000      0.0000    745.8163      7.3325    150.4742
  1282.7500      0.0000    750.1974      7.5946    153.2805
  1283.0000      0.0000    753.4639      7.7392    156.9394
  1283.2500      0.0000    754.4995      7.7400    160.9411
  1283.5000      0.0000    753.0346      7.6259    163.6745
  1283.7500      0.0000    749.5562      7.4923    163.6038
  1284.0000      0.0000    745.1109      7.4617    160.2677
  1284.2500      0.0000    741.0685      7.5982    154.4612
  1284.5000      0.0000    738.7950      7.8363    147.6376
  1284.7500      0.0000    739.3574      8.0056    140.8370
  1285.0000      0.0000    743.3999      7.9614    134.2885
  1285.2500      0.0000    750.8726      7.7206    128.5355
  1285.5000      0.0000    760.5453      7.4798    125.3132
  1285.7500      0.0000    769.5208      7.4825    126.1133
  1286.0000      0.0000    772.9794      7.8405    130.3117
  1286.2500      0.0000    764.0233      8.4671    135.8409
  1286.5000      0.0000    734.6862      9.1834    141.2197
  1286.7500      0.0000    680.4717      9.8867    145.9455
  1287.0000      0.0000    608.2049     10.6091    149.5984
  1287.2500      0.0000    538.9982     11.4212    151.8234
  1287.5000      0.0000    496.1826     12.3196    153.0318
  1287.7500      0.0000    484.3888     13.2416    154.1238
  1288.0000      0.0000    483.3640     14.1601    155.1694
  1288.2500      0.0000    467.5602     15.0912    154.7922
  1288.5000      0.0000    430.2270     16.0156    151.2855
  1288.7500      0.0000    385.1634     16.8637    144.3548
  1289.0000      0.0000    349.1213     17.5724    135.6379
  1289.2500      0.0000    328.2664     18.1145    127.5627
  1289.5000      2.0000    319.2496     18.5098    121.8840
  1289.7500     -2.0000    316.4521     18.8494    119.4750
  1290.0000      0.0000    316.2127     19.2482    121.0757
  1290.2500      0.0000    316.8858     19.7328    127.0624
  1290.5000      0.0000    317.5155     20.2158    135.8648
  1290.7500      0.0000    317.0562     20.5902    143.6330
  1291.0000      0.0000    314.8588     20.7899    146.8431
  1291.2500      0.0000    311.5168     20.7680    145.3402
  1291.5000      0.0000    308.5343     20.5148    142.3886
  1291.7500      0.0000    306.9383     20.0784    141.8437
  1292.0000      0.0000    306.5718     19.5054    145.2596
  1292.2500      0.0000    306.7130     18.8136    151.0291
  1292.5000      0.0000    306.8927     18.0493    155.8295
  1292.7500      0.0000    307.0516     17.2767    157.1676
  1293.0000      0.0000    307.2828     16.4870    155.1743
  1293.2500      0.0000    307.6257     15.6145    152.2348
  1293.5000      0.0000    308.0331     14.6746    150.4893
  1293.7500      0.0000    308.4316     13.8171    149.4254
  1294.0000      0.0000    308.7962     13.1852    146.4792
  1294.2500      0.0000    309.1521     12.7662    140.3935
  1294.5000      0.0000    309.5143     12.4304    133.3823
  1294.7500      0.0000    309.8335     12.1143    129.2985
