~Version Information
VERS.                      2.0: CWLS Log ASCII Standard - VERSION 2.0
WRAP.                       NO: One line per depth step
~Well Information Block
STRT.FT               745.2500: 
STOP.FT              2003.5000: 
STEP.FT                 0.2500: 
NULL.                -999.2500: 
COMP.          Petrogulf Corporation: COMPANY
WELL.            Montoya 6-14V: WELL
FLD.           Purgatorie River: FIELD
LOC.           318' FSL & 882' FWL: LOCATION
CNTY.               Las Animas: COUNTY
SRVC.                         : SERVICE COMPANY
DATE.          Fri Aug 13 04:55:06 2004: LOG DATE
UWI.           05 071 08020 00: UNIQUE WELL ID
STAT.                 Colorado: STATE
~Curve Information Block
DEPT.FT            0 000 00 00: Depth
SP.mV                         : DIL Spontaneous Potential
RILD.Ohm-m                    : DIL Deep Resistivity
RILM.Ohm-m                    : DIL Medium Resistivity
RLL3.Ohm-m                    : DIL Shallow Resistivity
GR.GAPI                       : Gamma Ray
~Parameter Information Block
~A  Depth        SP         RILD        RILM        RLL3         GR     
# ...
   773.2500   1970.0000     75.7810    131.2713   1998.0000    117.6013
   773.5000   1970.0000     70.2335    133.5252   1998.0000    119.2803
   773.7500   1970.0000     65.0499    137.2058   1998.0000    117.5468
   774.0000   1970.0000     60.9289    142.1359   1998.0000    111.7693
   774.2500   1970.0000     58.0476    147.8613   1998.0000    107.4389
   774.5000   1970.0000     56.2351    153.5968   1998.0000    103.2083
   774.7500   1970.0000     55.1719    158.2647   1998.0000    102.8859
   775.0000   1970.0000     54.5453    160.7542   1998.0000    105.6683
   775.2500   1970.0000     54.1395    160.3497   1998.0000    108.4246
   775.5000   1970.0000     53.8693    157.1369   1998.0000    111.7725
   775.7500   1970.0000     53.7629    151.9972   1998.0000    113.0192
   776.0000   1970.0000     53.9242    146.2417   1998.0000    113.8217
   776.2500   1970.0000     54.4771    141.1436   1998.0000    114.0351
   776.5000   1970.0000     55.4967    137.6947   1998.0000    114.2224
   776.7500   1970.0000     56.9304    136.5232   1998.0000    114.2575
   777.0000   1970.0000     58.5675    137.9555   1998.0000    113.8832
   777.2500   1970.0000     60.0852    142.0235   1998.0000    113.0307
   777.5000   1970.0000     61.1951    148.3861   1998.0000    110.3712
   777.7500   1970.0000     61.7964    156.1649   1998.0000    107.7205
   778.0000   1970.0000     62.0052    163.8732   1998.0000    103.2570
   778.2500   1970.0000     62.0337    169.6716   1998.0000    100.5416
   778.5000   1970.0000     62.0600    172.1003   1998.0000     96.9957
   778.7500   1970.0000     62.1832    170.9184   1998.0000     94.3434
   779.0000   1970.0000     62.4928    167.1975   1998.0000     88.5044
   779.2500   1970.0000     63.1413    162.6303   1998.0000     83.1494
   779.5000   1970.0000     64.3448    158.7651   1998.0000     74.1986
   779.7500   1970.0000     66.2934    156.5773   1998.0000     68.8185
   780.0000   1970.0000     69.0129    156.5356   1998.0000     63.0741
   780.2500   1970.0000     72.2458    158.7131   1998.0000     61.0762
   780.5000   1970.0000     75.4686    162.9208   1998.0000     60.9007
   780.7500   1970.0000     78.1025    168.7571   1998.0000     62.6447
   781.0000   1970.0000     79.8584    175.5683   1998.0000     67.4660
   781.2500   1970.0000     80.8503    182.3499   1998.0000     71.3135
   781.5000   1970.0000     81.3849    187.7403   1998.0000     76.4561
   781.7500   1970.0000     81.6354    190.1494   1998.0000     79.1212
   782.0000   1970.0000     81.5392    188.2185   1998.0000     82.7349
   782.2500   1970.0000     80.9418    181.3847   1998.0000     85.6174
   782.5000   1970.0000     79.8289    170.2777   1998.0000     91.1364
   782.7500   1970.0000     78.4104    156.4791   1998.0000     95.1519
   783.0000   1970.0000     77.0202    141.9049   1998.0000    100.2396
   783.2500   1970.0000     75.9320    128.1795   1998.0000    102.5030
   783.5000   1970.0000     75.2703    116.3844   1998.0000    104.5113
   783.7500   1970.0000     74.9978    107.0437   1998.0000    105.3693
   784.0000   1970.0000     74.9480    100.3369   1998.0000    106.2529
   784.2500   1970.0000     74.8533     96.2558   1998.0000    106.5820
   784.5000   1970.0000     74.3536     94.7481   1998.0000    106.8761
   784.7500   1970.0000     73.0654     95.7719   1998.0000    107.0242
   785.0000   1970.0000     70.7301     99.3298   1998.0000    106.9685
   785.2500   1970.0000     67.4085    105.4247   1998.0000    106.6058
   785.5000   1970.0000     63.5350    113.9635   1998.0000    105.6883
   785.7500   1970.0000     59.7370    124.5880   1998.0000    104.9834
   786.0000   1970.0000     56.5726    136.4870   1998.0000    103.9427
   786.2500   1970.0000     54.3945    148.2989   1998.0000    103.3896
   786.5000   1970.0000     53.3631    158.3974   1998.0000    103.1062
   786.7500   1970.0000     53.5234    165.5011   1998.0000    103.2575
   787.0000   1970.0000     54.8562    169.3110   1998.0000    103.3532
   787.2500   1970.0000     57.2502    170.5096   1998.0000    102.9809
   787.5000   1970.0000     60.4128    170.3083   1998.0000    101.9307
   787.7500   1970.0000     63.8011    169.6944   1998.0000    101.3065
   788.0000   1970.0000     66.7344    169.1685   1998.0000    101.1758
   788.2500   1970.0000     68.7675    168.6488   1998.0000    102.0136
   788.5000   1970.0000     70.0709    167.7148   1998.0000    105.4171
   788.7500   1970.0000     71.4238    165.8706   1998.0000    109.4202
   789.0000   1970.0000     73.8400    162.8507   1998.0000    117.7623
   789.2500   1970.0000     78.1960    158.7927   1998.0000    124.0979
   789.5000   1970.0000     84.9372    154.1689   1998.0000    132.4520
   789.7500   1970.0000     93.6842    149.6003   1998.0000    135.7641
   790.0000   1970.0000    102.6816    145.6813   1998.0000    135.8184
   790.2500   1970.0000    108.8502    142.8400   1998.0000    132.7885
   790.5000   1970.0000    109.6212    141.3076   1998.0000    125.7289
   790.7500   1970.0000    105.2526    141.1077   1998.0000    120.9707
   791.0000   1970.0000     98.3685    142.0768   1998.0000    115.9517
   791.2500   1970.0000     91.5601    143.8651   1998.0000    114.5704
   791.5000   1970.0000     86.1418    145.9841   1998.0000    115.0945
   791.7500   1970.0000     82.3971    147.8630   1998.0000    116.4400
   792.0000   1970.0000     80.1311    148.9816   1998.0000    118.5479
   792.2500   1970.0000     79.0087    148.9971   1998.0000    119.5612
   792.5000   1970.0000     78.6491    147.8542   1998.0000    120.4853
   792.7500   1970.0000     78.5893    145.7634   1998.0000    120.8610
   793.0000   1970.0000     78.2410    143.1367   1998.0000    121.2826
   793.2500   1970.0000     77.0067    140.4236   1998.0000    121.6140
   793.5000   1970.0000     74.5351    138.0459   1998.0000    122.1901
   793.7500   1970.0000     70.9383    136.3161   1998.0000    122.2153
   794.0000   1970.0000     66.7315    135.4201   1998.0000    120.7210
   794.2500   1970.0000     62.5563    135.4249   1998.0000    118.5912
   794.5000   1970.0000     58.9197    136.2702   1998.0000    114.5757
   794.7500   1970.0000     56.0915    137.7592   1998.0000    111.9720
   795.0000   1970.0000     54.1295    139.5433   1998.0000    108.6681
   795.2500   1970.0000     52.9328    141.1334   1998.0000    106.8916
   795.5000   1970.0000     52.2754    141.9554   1998.0000    104.7644
   795.7500   1970.0000     51.8228    141.4911   1998.0000    103.6235
   796.0000   1970.0000     51.1677    139.4723   1998.0000    102.5334
   796.2500   1970.0000     49.9637    135.9738   1998.0000    102.6556
   796.5000   1970.0000     48.1532    131.4101   1998.0000    104.5994
   796.7500   1970.0000     46.1300    126.3966   1998.0000    106.6496
   797.0000   1970.0000     44.6752    121.5645   1998.0000    109.4458
   797.2500   1970.0000     44.7823    117.4427   1998.0000    110.7649
   797.5000   1970.0000     47.7038    114.4024   1998.0000    112.3897
   797.7500   1970.0000     55.5324    112.7094   1998.0000    113.4509
   798.0000   1970.0000     73.0124    112.5512   1998.0000    114.5882
   798.2500   1970.0000    113.9403    114.0866   1998.0000    114.7273
   798.5000   1970.0000    234.5953    117.4675   1998.0000    113.9925
   798.7500   1970.0000    964.4018    122.8092   1998.0000    112.9800
   799.0000   1970.0000 100000.0000    130.1109   1998.0000    110.7446
   799.2500   1970.0000 100000.0000    139.0542   1998.0000    108.9004
   799.5000   1970.0000   1717.0255    148.6988   1998.0000    106.0226
   799.7500   1970.0000    516.9734    157.2058   1998.0000    104.1599
   800.0000   1970.0000    335.2608    162.0276   1998.0000    101.4898
   800.2500   1970.0000    302.6608    161.0340   1998.0000    100.0770
   800.5000   1970.0000    376.1414    154.0160   1998.0000     99.5011
   800.7500   1970.0000   1030.2906    143.0086   1998.0000    100.4440
   801.0000   1970.0000 100000.0000    130.9501   1998.0000    103.1076
