~Version Information
VERS.                      2.0: CWLS Log ASCII Standard - VERSION 2.0
WRAP.                       NO: One line per depth step
~Well Information Block
STRT.FT               720.0000: 
STOP.FT              2730.2000: 
STEP.FT                 0.1000: 
NULL.                -999.2500: 
COMP.          Evergreen Operating Corporation: COMPANY
WELL.            Rangely 22-28: WELL
FLD.           Purgatoire River: FIELD
LOC.           1741' FNL & 2335' FWL: LOCATION
PROV.                 Colorado: PROVINCE
CNTY.               Las Animas: COUNTRY
SRVC.                Patterson: SERVICE COMPANY
DATE.          Thu Sep 16 15:10:36 2004: LOG DATE
UWI.           05 071 08044 00: UNIQUE WELL ID
~Curve Information Block
DEPT.FT            0 000 00 00: Depth
DCAL.in                       : CDL Caliper
DPOR.pu                       : CDL Density Porosity
NPOR.pu                       : Neutron Porosity
RHOB.g/cc                     : CDL Bulk Density
RHOC.g/cc                     : CDL Density Correction
GR.GAPI                       : Gamma Ray
~Parameter Information Block
~A  Depth       DCAL        DPOR        NPOR        RHOB        RHOC         GR     
# ...
  1171.2000      8.0980      5.8652     19.7497      2.5532      0.0817     68.9241
  1171.3000      8.0962      2.8803     20.1322      2.6025      0.1037     71.6786
  1171.4000      8.0962     -0.8608     20.8218      2.6642      0.1416     72.8715
  1171.5000      8.0987     -3.9163     21.6392      2.7146      0.1841     70.7181
  1171.6000      8.0987     -5.0305     22.4254      2.7330      0.1471     69.9527
  1171.7000      8.0987     -4.8770     23.2446      2.7305      0.1155     72.9946
  1171.8000      8.1042     -4.8697     24.1810      2.7303      0.0899     76.9156
  1171.9000      8.1042     -4.3293     24.8866      2.7214      0.0883     77.1125
  1172.0000      8.1063     -1.4878     24.8656      2.6745      0.0009     74.1235
  1172.1000      8.1063      2.9850     24.4385      2.6007     -0.1196     73.1564
  1172.2000      8.1063      6.8892     24.2111      2.5363     -0.1287     75.1121
  1172.3000      8.1030      9.2217     24.0306      2.4978     -0.1245     76.1056
  1172.4000      8.1030     10.3727     23.5305      2.4789     -0.0708     77.2869
  1172.5000      8.0993     11.0904     22.8522      2.4670     -0.0576     81.5754
  1172.6000      8.0993     11.7592     22.2313      2.4560     -0.0393     87.6031
  1172.7000      8.0993     12.7409     21.6862      2.4398     -0.0039     93.3741
  1172.8000      8.0989     13.8971     21.1863      2.4207     -0.0505     97.0669
  1172.9000      8.0989     14.3337     20.6986      2.4135     -0.0291     94.7469
  1173.0000      8.0995     13.9270     20.1596      2.4202     -0.0012     88.4097
  1173.1000      8.0995     13.6541     19.5630      2.4247      0.0383     86.7542
  1173.2000      8.0995     14.0672     19.0467      2.4179      0.0000     86.7221
  1173.3000      8.0989     14.5163     18.6152      2.4105      0.0195     81.7360
  1173.4000      8.0989     14.1503     18.0591      2.4165      0.0124     79.1546
  1173.5000      8.0985     13.4163     17.3658      2.4286      0.0637     82.8512
  1173.6000      8.0985     13.4344     16.9223      2.4283      0.0385     86.1407
  1173.7000      8.0985     13.9333     17.1345      2.4201      0.0227     84.7326
  1173.8000      8.0984     14.1079     17.8909      2.4172      0.0560     79.2520
  1173.9000      8.0984     14.0690     18.6304      2.4179      0.0404     72.8957
  1174.0000      8.0976     14.3052     18.9375      2.4140      0.0507     70.0478
  1174.1000      8.0976     14.8343     18.7404      2.4052      0.0172     71.4193
  1174.2000      8.0976     15.1754     18.2318      2.3996      0.0301     73.6120
  1174.3000      8.0975     15.2303     17.8225      2.3987      0.0114     75.3262
  1174.4000      8.0975     15.1651     17.7821      2.3998      0.0485     77.4852
  1174.5000      8.0992     14.6936     18.1292      2.4076      0.0162     79.6935
  1174.6000      8.0992     13.4173     18.7135      2.4286      0.0437     77.8802
  1174.7000      8.0992     11.9765     19.2406      2.4524      0.0743     68.6447
  1174.8000      8.1004     11.3859     19.5110      2.4621      0.0301     59.5642
  1174.9000      8.1004     11.4253     19.4685      2.4615      0.0085     59.3788
  1175.0000      8.0986     11.3486     19.1340      2.4627      0.0321     64.4308
  1175.1000      8.0986     11.1898     18.8208      2.4654      0.0393     67.6991
  1175.2000      8.0986     11.2383     18.8936      2.4646      0.0226     69.9553
  1175.3000      8.0981     11.0943     19.4044      2.4669      0.0427     72.6732
  1175.4000      8.0981     10.2119     19.9553      2.4815      0.0421     75.3876
  1175.5000      8.1005      9.1202     20.0554      2.4995      0.1016     78.8508
  1175.6000      8.1005      9.1647     20.0040      2.4988      0.0985     79.9094
  1175.7000      8.1005     10.2455     20.4560      2.4809      0.0466     77.3511
  1175.8000      8.1008     11.0956     21.3166      2.4669      0.0405     77.5876
  1175.9000      8.1008     11.4367     21.9386      2.4613      0.0316     82.3554
  1176.0000      8.1005     11.6532     22.0889      2.4577      0.0002     86.4197
  1176.1000      8.1005     11.6531     22.2084      2.4577      0.0224     88.5872
  1176.2000      8.1005     11.0979     22.6528      2.4669      0.0166     92.6089
  1176.3000      8.1014     10.1653     23.3031      2.4823      0.0563     96.5802
  1176.4000      8.1014      9.9920     23.8733      2.4851      0.0466     97.3815
  1176.5000      8.1019     11.6202     24.1268      2.4583      0.0441     98.4310
  1176.6000      8.1019     14.2191     24.0904      2.4154     -0.0106    102.7629
  1176.7000      8.1019     15.4220     24.0164      2.3955     -0.0399    109.9252
  1176.8000      8.0993     14.0646     24.0636      2.4179     -0.0096    115.9515
  1176.9000      8.0993     11.3884     24.3305      2.4621      0.0337    116.9733
  1177.0000      8.0968      9.4790     24.8385      2.4936      0.0214    115.7516
  1177.1000      8.0968      9.2147     25.1855      2.4980      0.0423    118.2039
  1177.2000      8.0968      9.5035     24.9991      2.4932      0.0010    123.3047
  1177.3000      8.0991      9.1020     24.5880      2.4998      0.0678    124.1012
  1177.4000      8.0991      8.4060     24.3691      2.5113      0.1210    121.5701
  1177.5000      8.1014      7.4767     24.1090      2.5266      0.0924    120.6393
  1177.6000      8.1014      5.6637     23.6289      2.5565      0.1273    119.9669
  1177.7000      8.1014      4.1577     23.2735      2.5814      0.2159    117.7552
  1177.8000      8.0997      4.3220     23.0339      2.5787      0.1089    116.4132
  1177.9000      8.0997      5.4249     22.8201      2.5605      0.0802    116.8214
  1178.0000      8.0986      6.5750     22.8459      2.5415      0.0263    116.5063
  1178.1000      8.0986      7.8095     23.0212      2.5211      0.0413    115.6305
  1178.2000      8.0986      9.2841     23.0071      2.4968      0.0149    114.9364
  1178.3000      8.0968     10.2221     22.6806      2.4813      0.0175    109.9219
  1178.4000      8.0968      9.6004     22.1882      2.4916      0.0167     99.6877
  1178.5000      8.0922      7.9786     21.7473      2.5184      0.0872     92.8287
  1178.6000      8.0922      6.9179     21.4632      2.5359      0.0693     93.5379
  1178.7000      8.0922      6.3544     21.3598      2.5452      0.0330     95.5288
  1178.8000      8.0884      5.0574     21.4516      2.5666      0.0438     93.6992
  1178.9000      8.0884      3.6018     21.6940      2.5906      0.1013     87.5992
  1179.0000      8.0855      4.0669     21.9899      2.5829      0.1210     80.5985
  1179.1000      8.0855      6.4055     22.1563      2.5443      0.0443     78.3406
  1179.2000      8.0855      8.2942     22.1853      2.5131      0.0269     80.3706
  1179.3000      8.0796      8.4240     22.3463      2.5110     -0.0033     80.9860
  1179.4000      8.0796      7.9300     22.4426      2.5192      0.0902     80.0431
  1179.5000      8.0761      8.3431     22.0006      2.5123      0.0239     81.4015
  1179.6000      8.0761      9.0131     21.3331      2.5013      0.0029     82.7231
  1179.7000      8.0761      8.6569     21.0545      2.5072      0.0138     78.5634
  1179.8000      8.0833      7.5612     21.3324      2.5252      0.0503     70.3820
  1179.9000      8.0833      7.0719     21.9263      2.5333      0.0473     67.5867
  1180.0000      8.0918      7.8980     22.4817      2.5197      0.0430     74.9337
  1180.1000      8.0918      9.3825     22.8693      2.4952      0.0215     86.3378
  1180.2000      8.0918     10.6519     23.0917      2.4742      0.0176     94.8189
  1180.3000      8.0952     11.7399     23.0257      2.4563      0.0130     95.4667
  1180.4000      8.0952     12.5660     22.5796      2.4427     -0.0387     90.4146
  1180.5000      8.0955     12.1876     22.1549      2.4489      0.0019     89.8709
  1180.6000      8.0955     10.2787     22.3176      2.4804      0.0029     95.2449
  1180.7000      8.0955      7.9802     23.0339      2.5183      0.0426     99.6333
