~Version Information
VERS.                      2.0: CWLS Log ASCII Standard - VERSION 2.0
WRAP.                       NO: One line per depth step
~Well Information Block
STRT.FT               750.0000: 
STOP.FT              2433.0000: 
STEP.FT                 0.2500: 
NULL.                -999.2500: 
COMP.          Petrogulf Corporation: COMPANY
WELL.           McDaniel 9-34V: WELL
FLD.           Purgatorie River: FIELD
LOC.           620' FSL & 1800' FEL: LOCATION
PROV.                 Colorado: PROVINCE
CNTY.               Las Animas: COUNTRY
SRVC.                Patterson: SERVICE COMPANY
DATE.          Tue Sep 27 19:56:11 2005: LOG DATE
UWI.                          : UNIQUE WELL ID
~Curve Information Block
DEPT.FT            0 000 00 00: Depth
SP.mV                         : DIL Spontaneous Potential
RILD.Ohm-m                    : DIL Deep Resistivity
RILM.Ohm-m                    : DIL Medium Resistivity
RLL3.Ohm-m                    : DIL Shallow Resistivity
GR.GAPI                       : Gamma Ray
~Parameter Information Block
~A  Depth        SP         RILD        RILM        RLL3         GR     
# ...
  1730.0000    127.6045      9.8644      9.7117      8.9390     93.7725
  1730.2500    128.3453      9.6850      9.3582      8.3115    102.0925
  1730.5000    128.8832      9.5327      9.1465      8.3794    113.4395
  1730.7500    129.2031      9.4097      9.0613      8.9169    118.9640
  1731.0000    129.3134      9.3214      9.0885      9.8162    122.5673
  1731.2500    129.2420      9.2761      9.2150     11.0200    121.7847
  1731.5000    129.0319      9.2834      9.4289     12.4591    117.1652
  1731.7500    128.7356      9.3509      9.7177     13.9962    112.9255
  1732.0000    128.4092      9.4807     10.0681     15.4371    106.4041
  1732.2500    128.1053      9.6680     10.4636     16.6450    102.2914
  1732.5000    127.8660      9.8998     10.8836     17.6687     96.0112
  1732.7500    127.7173     10.1570     11.3014     18.7230     91.2717
  1733.0000    127.6654     10.4173     11.6848     19.9577     83.3611
  1733.2500    127.6974     10.6590     11.9986     21.1861     78.3994
  1733.5000    127.7850     10.8635     12.2112     21.8728     73.4479
  1733.7500    127.8913     11.0174     12.3019     21.4844     72.4835
  1734.0000    127.9791     11.1122     12.2675     19.9133     74.2801
  1734.2500    128.0180     11.1442     12.1225     17.5792     77.0732
  1734.5000    127.9910     11.1140     11.8944     15.1544     82.8121
  1734.7500    127.8973     11.0253     11.6149     13.1958     87.3459
  1735.0000    127.7530     10.8843     11.3125     11.9459     94.7495
  1735.2500    127.5882     10.6999     11.0091     11.3433     99.7213
  1735.5000    127.4412     10.4832     10.7186     11.1452    106.2759
  1735.7500    127.3509     10.2473     10.4490     11.0824    109.4483
  1736.0000    127.3492     10.0060     10.2046     10.9869    111.9052
  1736.2500    127.4539      9.7721      9.9868     10.8396    112.1617
  1736.5000    127.6663      9.5552      9.7952     10.7157    111.3746
  1736.7500    127.9715      9.3611      9.6274     10.6879    110.7612
  1737.0000    128.3439      9.1908      9.4790     10.7768    110.4869
  1737.2500    128.7530      9.0416      9.3439     10.9657    110.6368
  1737.5000    129.1701      8.9093      9.2150     11.2238    110.5949
  1737.7500    129.5724      8.7896      9.0856     11.5015    110.1766
  1738.0000    129.9439      8.6814      8.9511     11.7230    109.5142
  1738.2500    130.2742      8.5868      8.8105     11.8037    109.6095
  1738.5000    130.5549      8.5107      8.6661     11.6850    111.0887
  1738.7500    130.7773      8.4586      8.5242     11.3662    112.9174
  1739.0000    130.9301      8.4344      8.3929     10.9156    116.7434
  1739.2500    130.9998      8.4407      8.2820     10.4476    120.0418
  1739.5000    130.9721      8.4793      8.2015     10.0731    125.7520
  1739.7500    130.8336      8.5523      8.1609      9.8557    129.1941
  1740.0000    130.5740      8.6629      8.1700      9.7979    131.9075
  1740.2500    130.1874      8.8153      8.2383      9.8618    131.7427
  1740.5000    129.6731      9.0141      8.3758     10.0106    129.7265
  1740.7500    129.0360      9.2636      8.5935     10.2501    128.1843
  1741.0000    128.2856      9.5675      8.9040     10.6509    126.5857
  1741.2500    127.4359      9.9298      9.3217     11.3513    126.1711
  1741.5000    126.5038     10.3553      9.8631     12.5586    126.0542
  1741.7500    125.5075     10.8510     10.5475     14.5413    125.3773
  1742.0000    124.4653     11.4278     11.3962     17.5771    121.3704
  1742.2500    123.3937     12.1008     12.4334     21.8458    116.1896
  1742.5000    122.3075     12.8887     13.6854     27.3289    105.9818
  1742.7500    121.2199     13.8098     15.1811     33.7901     98.9556
  1743.0000    120.1442     14.8783     16.9514     40.8377     89.3430
  1743.2500    119.0957     16.1007     19.0291     48.0286     83.2157
  1743.5000    118.0937     17.4721     21.4464     54.9926     73.3230
  1743.7500    117.1631     18.9698     24.2276     61.5155     66.2307
  1744.0000    116.3340     20.5457     27.3758     67.4613     56.2184
  1744.2500    115.6409     22.1202     30.8478     72.5934     50.9171
  1744.5000    115.1195     23.5850     34.5194     76.5806     45.4387
  1744.7500    114.8039     24.8171     38.1491     79.2497     42.8338
  1745.0000    114.7220     25.7021     41.3626     80.7208     39.1711
  1745.2500    114.8922     26.1596     43.6959     81.1760     36.6093
  1745.5000    115.3204     26.1608     44.7199     80.5778     33.1682
  1745.7500    115.9981     25.7329     44.2113     78.7267     31.7465
  1746.0000    116.9019     24.9499     42.2650     75.5095     31.5659
  1746.2500    117.9943     23.9130     39.2597     70.9590     32.7044
  1746.5000    119.2256     22.7275     35.6980     65.1274     35.9040
  1746.7500    120.5367     21.4811     32.0361     58.0404     38.9432
  1747.0000    121.8635     20.2334     28.5895     49.8213     45.0173
  1747.2500    123.1420     19.0164     25.5218     40.9017     50.1732
  1747.5000    124.3147     17.8436     22.8813     32.1581     59.5134
  1747.7500    125.3379     16.7205     20.6454     24.7333     66.5180
  1748.0000    126.1882     15.6517     18.7576     19.5130     76.9915
  1748.2500    126.8670     14.6451     17.1520     16.6620     83.0057
  1748.5000    127.4004     13.7116     15.7690     15.6282     89.5365
  1748.7500    127.8344     12.8627     14.5624     15.5266     92.3425
  1749.0000    128.2242     12.1063     13.5025     15.5414     95.3174
  1749.2500    128.6216     11.4454     12.5728     15.1499     97.1209
  1749.5000    129.0624     10.8766     11.7658     14.1897    100.0791
  1749.7500    129.5580     10.3906     11.0765     12.8182    102.2828
  1750.0000    130.0945      9.9732     10.4980     11.3824    106.1837
  1750.2500    130.6391      9.6065     10.0191     10.2421    109.4826
  1750.5000    131.1513      9.2733      9.6240      9.6165    115.6281
  1750.7500    131.5955      8.9610      9.2934      9.5197    119.9905
  1751.0000    131.9512      8.6634      9.0074      9.7916    125.1495
  1751.2500    132.2163      8.3813      8.7481     10.1816    126.8193
  1751.5000    132.4043      8.1194      8.5024     10.4452    126.7385
  1751.7500    132.5363      7.8835      8.2637     10.4353    125.7806
  1752.0000    132.6317      7.6784      8.0312     10.1535    124.3432
  1752.2500    132.7003      7.5072      7.8086      9.7239    123.6597
  1752.5000    132.7395      7.3711      7.6015      9.2967    122.9547
  1752.7500    132.7365      7.2697      7.4160      8.9572    122.6013
  1753.0000    132.6737      7.2013      7.2569      8.7008    122.1492
  1753.2500    132.5360      7.1623      7.1280      8.4743    122.0723
  1753.5000    132.3165      7.1482      7.0321      8.2359    123.2389
  1753.7500    132.0193      7.1547      6.9716      7.9900    125.3148
  1754.0000    131.6590      7.1794      6.9485      7.7869    129.6152
  1754.2500    131.2584      7.2221      6.9645      7.7045    132.0503
  1754.5000    130.8446      7.2843      7.0212      7.8203    133.2844
  1754.7500    130.4452      7.3681      7.1195      8.1741    132.2935
  1755.0000    130.0857      7.4752      7.2599      8.7358    128.9202
  1755.2500    129.7871      7.6072      7.4427      9.4046    126.1792
  1755.5000    129.5642      7.7661      7.6677     10.0507    122.7076
  1755.7500    129.4247      7.9537      7.9351     10.5751    121.4847
  1756.0000    129.3685      8.1707      8.2448     10.9599    121.7157
  1756.2500    129.3883      8.4147      8.5957     11.2972    122.8402
  1756.5000    129.4698      8.6804      8.9847     11.7779    124.2164
  1756.7500    129.5940      8.9604      9.4045     12.6118    123.6699
  1757.0000    129.7386      9.2469      9.8419     13.8776    119.2355
  1757.2500    129.8800      9.5324     10.2777     15.3897    113.9828
  1757.5000    129.9944      9.8076     10.6870     16.7194    104.5756
  1757.7500    130.0589     10.0575     11.0434     17.4089     98.9380
