~Version Information
VERS.                      2.0: CWLS Log ASCII Standard - VERSION 2.0
WRAP.                       NO: One line per depth step
~Well Information Block
STRT.FT               260.0000: 
STOP.FT              1200.5000: 
STEP.FT                 0.2500: 
NULL.                -999.2500: 
COMP.          Evergreen Operating Corporation: COMPANY
WELL.             Justin 32-10: WELL
FLD.           Purgatorie River: FIELD
LOC.           2994' FNL & 1449' FEL: LOCATION
PROV.                 Colorado: PROVINCE
CNTY.               Las Animas: COUNTRY
SRVC.                         : SERVICE COMPANY
DATE.          Sun Aug 29 20:47:20 2004: LOG DATE
UWI.           05 071 08053 00: UNIQUE WELL ID
~Curve Information Block
DEPT.FT            0 000 00 00: Depth
LTEN.lb                       : Surface Line Tension
SN.Ohm-m                      : IEL Short Normal
SP.mV                         : IEL Spontaneous Potential
DIR.Ohm-m                     : IEL Induction Resistivity
GR.GAPI                       : Gamma Ray
~Parameter Information Block
~A  Depth       LTEN         SN          SP         DIR          GR     
# ...
   876.0000    614.8174     41.8317     11.9747     40.2215     88.1957
   876.2500    614.5209     41.3976     12.0582     39.6346     94.6901
   876.5000    615.0767     40.9623     12.0896     38.9443     99.2719
   876.7500    616.1439     40.5413     12.0725     38.2542     98.0553
   877.0000    617.2070     40.1406     12.0146     37.6643     91.1858
   877.2500    617.9411     39.7579     11.9266     37.2284     85.1576
   877.5000    618.3386     39.3901     11.8209     36.9352     77.3506
   877.7500    618.5333     39.0388     11.7099     36.7243     74.1664
   878.0000    618.6171     38.7081     11.6044     36.5255     72.3875
   878.2500    618.6016     38.4014     11.5131     36.2948     72.2719
   878.5000    618.5058     38.1206     11.4416     36.0276     72.0443
   878.7500    618.4446     37.8707     11.3926     35.7461     71.4191
   879.0000    618.5577     37.6627     11.3663     35.4780     69.7204
   879.2500    618.8182     37.5109     11.3604     35.2437     68.0926
   879.5000    619.0472     37.4256     11.3717     35.0557     64.9193
   879.7500    619.1736     37.4063     11.3958     34.9257     62.5371
   880.0000    619.3307     37.4402     11.4281     34.8684     59.4544
   880.2500    619.6429     37.5075     11.4643     34.8987     58.2851
   880.5000    620.0915     37.5894     11.5003     35.0255     58.1621
   880.7500    620.6461     37.6736     11.5332     35.2463     58.8916
   881.0000    621.3312     37.7581     11.5609     35.5438     60.6273
   881.2500    622.0383     37.8497     11.5830     35.8861     62.2246
   881.5000    622.3796     37.9623     11.6010     36.2306     65.7806
   881.7500    621.9462     38.1127     11.6177     36.5356     69.0288
   882.0000    620.7966     38.3185     11.6372     36.7719     74.4088
   882.2500    619.5447     38.5949     11.6644     36.9314     77.4421
   882.5000    618.8519     38.9496     11.7039     37.0279     79.8757
   882.7500    618.9359     39.3768     11.7595     37.0953     79.8437
   883.0000    619.5706     39.8525     11.8332     37.1794     77.7161
   883.2500    620.3485     40.3374     11.9255     37.3251     75.4635
   883.5000    620.8993     40.7887     12.0346     37.5630     72.1986
   883.7500    621.0558     41.1751     12.1570     37.9007     70.9852
   884.0000    620.9149     41.4845     12.2871     38.3222     71.4561
   884.2500    620.6840     41.7200     12.4181     38.7917     72.9479
   884.5000    620.4462     41.8873     12.5422     39.2633     75.0395
   884.7500    620.0901     41.9857     12.6513     39.6918     75.0935
   885.0000    619.4869     42.0072     12.7379     40.0375     72.1740
   885.2500    618.7607     41.9457     12.7963     40.2666     68.6761
   885.5000    618.2996     41.8056     12.8230     40.3560     63.1804
   885.7500    618.4028     41.6044     12.8178     40.3070     60.5494
   886.0000    619.0149     41.3676     12.7837     40.1523     58.8012
   886.2500    619.8846     41.1201     12.7267     39.9422     58.6024
   886.5000    620.8038     40.8790     12.6550     39.7205     58.5323
   886.7500    621.6243     40.6513     12.5780     39.5128     58.3183
   887.0000    622.2625     40.4357     12.5046     39.3329     57.9643
   887.2500    622.7488     40.2275     12.4422     39.1921     57.9387
   887.5000    623.0928     40.0238     12.3960     39.0972     58.2841
   887.7500    623.1359     39.8267     12.3676     39.0419     58.6045
   888.0000    622.7150     39.6416     12.3559     39.0031     58.7959
   888.2500    621.9235     39.4742     12.3569     38.9492     58.5319
   888.5000    621.0777     39.3270     12.3644     38.8563     57.5646
   888.7500    620.4459     39.1994     12.3718     38.7205     56.7457
   889.0000    620.1003     39.0903     12.3724     38.5609     55.4024
   889.2500    620.0590     39.0008     12.3614     38.4129     54.1837
   889.5000    620.4558     38.9357     12.3363     38.3183     51.4932
   889.7500    621.3825     38.9017     12.2979     38.3132     49.4642
   890.0000    622.5820     38.9049     12.2499     38.4162     47.4458
   890.2500    623.5165     38.9477     12.1989     38.6201     47.3017
   890.5000    623.8062     39.0280     12.1535     38.8923     48.3896
   890.7500    623.4838     39.1415     12.1224     39.1877     49.2263
   891.0000    622.8450     39.2847     12.1141     39.4671     49.6933
   891.2500    622.1869     39.4575     12.1351     39.7136     49.2985
   891.5000    621.6553     39.6606     12.1893     39.9346     47.7594
   891.7500    621.2183     39.8907     12.2782     40.1481     46.4114
   892.0000    620.7839     40.1367     12.4007     40.3631     44.7197
   892.2500    620.3894     40.3811     12.5533     40.5675     44.1038
   892.5000    620.2501     40.6076     12.7311     40.7381     43.7770
   892.7500    620.6069     40.8075     12.9276     40.8609     43.7876
   893.0000    621.5293     40.9795     13.1354     40.9470     44.3831
   893.2500    622.8084     41.1242     13.3463     41.0330     45.4463
   893.5000    624.0075     41.2380     13.5515     41.1655     47.9536
   893.7500    624.7044     41.3123     13.7422     41.3801     49.7731
   894.0000    624.7880     41.3383     13.9100     41.6800     51.9184
   894.2500    624.5268     41.3122     14.0475     42.0212     52.8174
   894.5000    624.2897     41.2364     14.1494     42.3054     53.5756
   894.7500    624.1757     41.1165     14.2131     42.3849     53.7561
   895.0000    623.9674     40.9564     14.2388     42.0840     53.3425
   895.2500    623.4730     40.7519     14.2305     41.2431     52.4911
   895.5000    622.8191     40.4853     14.1948     39.7842     50.6701
   895.7500    622.3428     40.1213     14.1402     37.7593     49.6929
   896.0000    622.2849     39.6052     14.0766     35.3453     49.8236
   896.2500    622.6306     38.8644     14.0134     32.7837     51.3070
   896.5000    623.1531     37.8168     13.9587     30.3008     55.0433
   896.7500    623.5812     36.3898     13.9185     28.0475     57.8000
   897.0000    623.8051     34.5503     13.8965     26.0780     61.3222
   897.2500    623.9276     32.3360     13.8934     24.3699     63.1850
   897.5000    624.0582     29.8680     13.9075     22.8724     66.2781
   897.7500    624.1293     27.3322     13.9352     21.5518     69.6882
   898.0000    624.0077     24.9310     13.9713     20.4074     78.8406
   898.2500    623.7137     22.8311     14.0105     19.4541     88.1966
   898.5000    623.4247     21.1310     14.0477     18.6981    106.3403
   898.7500    623.3058     19.8615     14.0797     18.1266    119.7267
   899.0000    623.3955     19.0078     14.1055     17.7133    138.2201
   899.2500    623.6331     18.5345     14.1280     17.4304    147.5279
   899.5000    623.9568     18.4002     14.1522     17.2587    155.1222
   899.7500    624.3410     18.5640     14.1865     17.1937    156.0630
   900.0000    624.7361     18.9894     14.2426     17.2468    152.9920
   900.2500    625.0544     19.6512     14.3350     17.4418    149.2221
   900.5000    625.2835     20.5411     14.4813     17.8078    142.6487
   900.7500    625.5393     21.6643     14.7023     18.3736    137.9943
   901.0000    625.9083     23.0259     15.0218     19.1639    130.0195
   901.2500    626.2720     24.6127     15.4638     20.1987    123.4363
   901.5000    626.3686     26.3808     16.0472     21.4903    111.5564
   901.7500    626.0296     28.2578     16.7772     23.0387    103.2006
   902.0000    625.3353     30.1600     17.6348     24.8277     92.2518
   902.2500    624.5824     32.0156     18.5692     26.8241     86.6725
   902.5000    624.1389     33.7808     19.4968     28.9798     79.9736
   902.7500    624.2697     35.4414     20.3112     31.2315     75.4747
   903.0000    624.9877     36.9993     20.9030     33.4920     67.5658
   903.2500    626.0603     38.4556     21.1860     35.6497     61.8111
   903.5000    627.2242     39.8023     21.1199     37.5925     53.7966
   903.7500    628.4624     41.0253     20.7219     39.2500     49.5420
