~Version Information
VERS.                      2.0: CWLS Log ASCII Standard - VERSION 2.0
WRAP.                       NO: One line per depth step
~Well Information Block
STRT.FT               392.5000: 
STOP.FT              2252.6000: 
STEP.FT                 0.1000: 
NULL.                -999.2500: 
COMP.          Petrogulf Corporation: COMPANY
WELL.          Alexander 9-43V: WELL
FLD.           Purgatorie River: FIELD
LOC.           1651' FSL & 1081' FEL: LOCATION
CNTY.               Las Animas: COUNTY
SRVC.                         : SERVICE COMPANY
DATE.          Mon Mar 17 08:48:25 2003: LOG DATE
UWI.           05 071 07727 00: UNIQUE WELL ID
STAT.                 Colorado: STATE
~Curve Information Block
DEPT.FT            0 000 00 00: Depth
DCAL.in                       : CDL Caliper
RHOB.g/cc                     : CDL Bulk Density
RHOC.g/cc                     : CDL Density Correction
DPOR.pu                       : CDL Density Porosity
GR.GAPI                       : Gamma Ray
NPOR.pu                       : Neutron Porosity
~Parameter Information Block
~A  Depth       DCAL        RHOB        RHOC        DPOR         GR         NPOR    
# ...
  2245.3000      7.7810      2.5703      0.1081      4.8327   -999.2500   -999.2500
  2245.4000      7.7810      2.5726      0.1074      4.6905   -999.2500   -999.2500
  2245.5000      7.7941      2.5751      0.1063      4.5407   -999.2500   -999.2500
  2245.6000      7.7941      2.5775      0.1047      4.3909   -999.2500   -999.2500
  2245.7000      7.7941      2.5799      0.1025      4.2494   -999.2500   -999.2500
  2245.8000      7.8018      2.5819      0.0996      4.1245   -999.2500   -999.2500
  2245.9000      7.8018      2.5836      0.0962      4.0244   -999.2500   -999.2500
  2246.0000      7.7889      2.5847      0.0923      3.9560   -999.2500   -999.2500
  2246.1000      7.7889      2.5852      0.0880      3.9248   -999.2500   -999.2500
  2246.2000      7.7889      2.5851      0.0834      3.9340   -999.2500   -999.2500
  2246.3000      7.7647      2.5843      0.0789      3.9839   -999.2500   -999.2500
  2246.4000      7.7647      2.5828      0.0746      4.0722   -999.2500   -999.2500
  2246.5000      7.7508      2.5808      0.0709      4.1927   -999.2500   -999.2500
  2246.6000      7.7508      2.5785      0.0678      4.3363   -999.2500   -999.2500
  2246.7000      7.7508      2.5759      0.0657      4.4903   -999.2500   -999.2500
  2246.8000      7.7480      2.5735      0.0648      4.6390   -999.2500   -999.2500
  2246.9000      7.7480      2.5714      0.0651      4.7638   -999.2500   -999.2500
  2247.0000      7.7470      2.5701      0.0666      4.8428   -999.2500   -999.2500
  2247.1000      7.7470      2.5699      0.0693      4.8519   -999.2500   -999.2500
  2247.2000      7.7470      2.5714      0.0730      4.7641   -999.2500   -999.2500
  2247.3000      7.7437      2.5749      0.0775      4.5503   -999.2500   -999.2500
  2247.4000      7.7437      2.5811      0.0826      4.1787   -999.2500   -999.2500
  2247.5000      7.7406      2.5903      0.0881      3.6158   -999.2500   -999.2500
  2247.6000      7.7406      2.6034      0.0939      2.8262   -999.2500   -999.2500
  2247.7000      7.7406      2.6207      0.0999      1.7736   -999.2500   -999.2500
  2247.8000      7.7384      2.6430      0.1060      0.4216   -999.2500   -999.2500
  2247.9000      7.7384      2.6709      0.1123     -1.2652   -999.2500   -999.2500
  2248.0000      7.6933      2.7048      0.1188     -3.3203   -999.2500   -999.2500
  2248.1000      7.6933      2.7453      0.1251     -5.7737   -999.2500   -999.2500
  2248.2000      7.6933      2.7927      0.1309     -8.6502   -999.2500   -999.2500
  2248.3000      7.4544      2.8474      0.1354    -11.9608   -999.2500   -999.2500
  2248.4000      7.4544      2.9093      0.1377    -15.7163   -999.2500   -999.2500
  2248.5000      6.7319      2.9785      0.1365    -19.9113   -999.2500   -999.2500
  2248.6000      6.7319      3.0547      0.1302    -24.5245   -999.2500   -999.2500
  2248.7000      6.7319      3.1370      0.1172    -29.5125   -999.2500   -999.2500
  2248.8000      4.9709      3.2242      0.0957    -34.8019   -999.2500   -999.2500
  2248.9000      4.9709      3.3146      0.0641    -40.2782   -999.2500   -999.2500
  2249.0000      2.5185      3.4053      0.0208    -45.7738   -999.2500   -999.2500
  2249.1000      2.5185      3.4924     -0.0359    -51.0536   -999.2500   -999.2500
  2249.2000      2.5185      3.5708     -0.1071    -55.8048   -999.2500   -999.2500
  2249.3000      1.0965      3.6339     -0.1941    -59.6329   -999.2500   -999.2500
  2249.4000      1.0965      3.6742     -0.2980    -62.0701   -999.2500   -999.2500
  2249.5000      0.7835      3.6829     -0.4196    -62.6023   -999.2500   -999.2500
  2249.6000      0.7835      3.6518     -0.5597    -60.7145   -999.2500   -999.2500
  2249.7000      0.7835      3.5732     -0.7190    -55.9545   -999.2500   -999.2500
  2249.8000      0.7579      3.4421     -0.8980    -48.0073   -999.2500   -999.2500
  2249.9000      0.7579      3.2566     -1.0971    -36.7657   -999.2500   -999.2500
  2250.0000   -999.2500      3.0193     -1.3165    -22.3828   -999.2500   -999.2500
  2250.1000   -999.2500      2.7373     -1.5562     -5.2907   -999.2500   -999.2500
  2250.2000   -999.2500      2.4219     -1.8153     13.8234   -999.2500   -999.2500
  2250.3000   -999.2500      2.0876      0.0200     34.0849   -999.2500   -999.2500
  2250.4000   -999.2500      1.7502      0.0200     54.5317   -999.2500   -999.2500
  2250.5000   -999.2500      1.4252      0.0200     74.2284   -999.2500   -999.2500
  2250.6000   -999.2500      1.1258      0.0200     92.3733   -999.2500   -999.2500
  2250.7000   -999.2500      0.8618   -999.2500    108.3775   -999.2500   -999.2500
  2250.8000   -999.2500      0.6386   -999.2500    121.9045   -999.2500   -999.2500
  2250.9000   -999.2500      0.4577   -999.2500    132.8673   -999.2500   -999.2500
  2251.0000   -999.2500      0.3171   -999.2500    141.3901   -999.2500   -999.2500
  2251.1000   -999.2500      0.2122   -999.2500    147.7482   -999.2500   -999.2500
  2251.2000   -999.2500      0.1370   -999.2500    152.3009   -999.2500   -999.2500
  2251.3000   -999.2500      0.0854   -999.2500    155.4304   -999.2500   -999.2500
  2251.4000   -999.2500      0.0513   -999.2500    157.4960   -999.2500   -999.2500
  2251.5000   -999.2500      0.0297   -999.2500    158.8051   -999.2500   -999.2500
  2251.6000   -999.2500      0.0166   -999.2500    159.6020   -999.2500   -999.2500
  2251.7000   -999.2500      0.0089   -999.2500    160.0678   -999.2500   -999.2500
  2251.8000   -999.2500      0.0046   -999.2500    160.3294   -999.2500   -999.2500
  2251.9000   -999.2500      0.0022   -999.2500    160.4706   -999.2500   -999.2500
  2252.0000   -999.2500      0.0010   -999.2500    160.5438   -999.2500   -999.2500
  2252.1000   -999.2500      0.0004   -999.2500    160.5803   -999.2500   -999.2500
  2252.2000   -999.2500      0.0001   -999.2500    160.5979   -999.2500   -999.2500
  2252.3000   -999.2500      0.0000   -999.2500    160.6061   -999.2500   -999.2500
  2252.4000   -999.2500      0.0000   -999.2500    160.6061   -999.2500   -999.2500
  2252.5000   -999.2500      0.0000   -999.2500    160.6061   -999.2500   -999.2500
  2252.6000   -999.2500      0.0000   -999.2500    160.6061   -999.2500   -999.2500
