~Version Information
VERS.                      2.0: CWLS Log ASCII Standard - VERSION 2.0
WRAP.                       NO: One line per depth step
~Well Information Block
STRT.FT               554.0000: 
STOP.FT              1002.0000: 
STEP.FT                 0.1000: 
NULL.                -999.2500: 
COMP.          Pioneer Natural Resources: COMPANY
WELL.          Rising Star 22-11: WELL
FLD.           Purgatoire River: FIELD
LOC.           2152' FNL & 2105' FWL: LOCATION
PROV.                 Colorado: PROVINCE
CNTY.               Las Animas: COUNTRY
SRVC.                Patterson: SERVICE COMPANY
DATE.          Mon Apr 11 16:46:53 2005: LOG DATE
UWI.           05 071 08354 00: UNIQUE WELL ID
~Curve Information Block
DEPT.FT            0 000 00 00: Depth
DCAL.in                       : CDL Caliper
RHOB.g/cc                     : CDL Bulk Density
RHOC.g/cc                     : CDL Density Correction
DPOR.pu                       : CDL Density Porosity
GR.GAPI                       : Gamma Ray
NPOR.pu                       : Neutron Porosity
~Parameter Information Block
~A  Depth       DCAL        RHOB        RHOC        DPOR         GR         NPOR    
# ...
   784.4000      8.1127      2.4061      0.2104     14.7833     70.9438     21.3823
   784.5000      8.0776      2.4031      0.1924     14.9664     70.7679     21.2824
   784.6000      8.0776      2.4072      0.0888     14.7165     72.7948     21.3738
   784.7000      8.0776      2.4308      0.0512     13.2842     74.2392     21.9168
   784.8000      8.0720      2.4725      0.0789     10.7546     76.1772     22.4661
   784.9000      8.0720      2.5035      0.1233      8.8816     79.4558     22.2749
   785.0000      8.0287      2.5056      0.0556      8.7498     80.4533     21.5282
   785.1000      8.0287      2.4932      0.0831      9.5038     79.5052     21.1096
   785.2000      8.0287      2.4853      0.0165      9.9835     80.2388     21.1871
   785.3000      8.0185      2.4854      0.0637      9.9756     81.9148     21.4193
   785.4000      8.0185      2.4810      0.0651     10.2415     83.4094     21.5726
   785.5000      8.0000      2.4683      0.0667     11.0122     85.3999     21.5755
   785.6000      8.0000      2.4593      0.0254     11.5602     86.8207     21.4378
   785.7000      8.0000      2.4604      0.0464     11.4931     86.7885     21.2543
   785.8000      7.9891      2.4696      0.0234     10.9337     85.7040     21.1338
   785.9000      7.9891      2.4823      0.0549     10.1619     86.4359     21.1303
   786.0000      7.9730      2.4881      0.0713      9.8093     89.0165     21.3209
   786.1000      7.9730      2.4900      0.0223      9.6960     90.0035     21.7433
   786.2000      7.9730      2.4986      0.1124      9.1766     88.9913     22.2204
   786.3000      7.9662      2.5037      0.0886      8.8671     88.5177     22.4894
   786.4000      7.9662      2.4954      0.1007      9.3671     89.6470     22.4203
   786.5000      7.9412      2.4794      0.0809     10.3415     92.1292     22.0338
   786.6000      7.9412      2.4663      0.0420     11.1339     95.7027     21.5596
   786.7000      7.9412      2.4708      0.0322     10.8581     99.1110     21.2796
   786.8000      7.9334      2.4965      0.0637      9.3004    100.4671     21.0737
   786.9000      7.9334      2.5231      0.1175      7.6912     99.8757     20.9025
   787.0000      7.9243      2.5324      0.0341      7.1272    101.5326     21.0015
   787.1000      7.9243      2.5274      0.0832      7.4316    107.8510     21.3491
   787.2000      7.9243      2.5179      0.0636      8.0080    112.2201     21.7889
   787.3000      7.9246      2.5165      0.0439      8.0908    108.0439     22.1563
   787.4000      7.9246      2.5224      0.0680      7.7319     98.8801     22.3462
   787.5000      7.9240      2.5185      0.0484      7.9686     91.9952     22.5289
   787.6000      7.9240      2.5015      0.0491      9.0017     90.9176     22.6674
   787.7000      7.9240      2.4824      0.0183     10.1561     95.9427     22.3037
   787.8000      7.9366      2.4705      0.0147     10.8800    103.0858     21.5953
   787.9000      7.9366      2.4665      0.0347     11.1185    105.3332     21.2692
   788.0000      7.9541      2.4632      0.0372     11.3195    103.0319     21.3717
   788.1000      7.9541      2.4568      0.0160     11.7118    100.1277     21.6360
   788.2000      7.9541      2.4520      0.0192     11.9973     95.2535     22.0087
   788.3000      7.9610      2.4569     -0.0023     11.7052     89.6872     22.2048
   788.4000      7.9610      2.4727     -0.0139     10.7439     87.6050     22.1514
   788.5000      7.9603      2.4912      0.0709      9.6218     89.3929     22.0857
   788.6000      7.9603      2.5033      0.0678      8.8892     92.1665     22.1346
   788.7000      7.9603      2.5113      0.0686      8.4061     93.2039     22.1177
   788.8000      7.9458      2.5216      0.0918      7.7818     92.8261     21.7340
   788.9000      7.9458      2.5361      0.0748      6.9035     91.8110     21.3373
   789.0000      7.9369      2.5514      0.0813      5.9762     91.4613     21.4748
   789.1000      7.9369      2.5622      0.0693      5.3207     92.3172     21.8267
   789.2000      7.9369      2.5619      0.0968      5.3384     92.5062     21.9505
   789.3000      7.9315      2.5520      0.0856      5.9392     91.6653     21.8825
   789.4000      7.9315      2.5434      0.0642      6.4621     90.2664     21.6281
   789.5000      7.8974      2.5359      0.1095      6.9180     87.6283     21.1935
   789.6000      7.8974      2.5246      0.0516      7.6012     83.8278     20.8423
   789.7000      7.8974      2.5110      0.0977      8.4215     80.7825     20.9625
   789.8000      7.8820      2.4988      0.0428      9.1619     80.8095     21.5386
   789.9000      7.8820      2.5018      0.0531      8.9840     82.0136     21.8867
   790.0000      7.8932      2.5234      0.1189      7.6728     81.8433     21.5915
   790.1000      7.8932      2.5413      0.1292      6.5869     81.5351     20.9750
   790.2000      7.8932      2.5373      0.0967      6.8308     82.8616     20.4879
   790.3000      7.9009      2.5186      0.0599      7.9648     85.5261     20.2611
   790.4000      7.9009      2.4967      0.0831      9.2893     85.2430     20.3105
   790.5000      7.9075      2.4736      0.0425     10.6909     79.3829     20.6547
   790.6000      7.9075      2.4558     -0.0130     11.7721     73.1389     21.1005
   790.7000      7.9075      2.4501     -0.0071     12.1132     73.4036     21.4331
   790.8000      7.9026      2.4540      0.0302     11.8760     80.5007     21.5937
   790.9000      7.9026      2.4712     -0.0060     10.8384     89.4113     21.7810
   791.0000      7.8978      2.5112      0.0323      8.4143     96.8810     22.2487
   791.1000      7.8978      2.5528      0.1254      5.8933    100.9995     22.6356
   791.2000      7.8978      2.5590      0.1078      5.5126    100.7339     22.4723
   791.3000      7.9285      2.5358      0.0261      6.9202     98.7229     21.9541
   791.4000      7.9285      2.5147      0.0118      8.1986     97.4159     21.4234
   791.5000      7.9373      2.5020      0.0849      8.9672     94.8859     21.0198
   791.6000      7.9373      2.4910      0.0429      9.6392     89.5586     20.8384
   791.7000      7.9373      2.4854      0.0367      9.9729     83.6928     20.8754
   791.8000      7.9701      2.4813      0.0513     10.2232     82.0508     20.9234
   791.9000      7.9701      2.4727      0.0094     10.7460     83.8109     21.0308
   792.0000      7.9207      2.4720      0.0044     10.7896     81.0072     21.4968
   792.1000      7.9207      2.4907      0.0311      9.6564     72.7679     21.9239
   792.2000      7.9207      2.5162      0.1047      8.1120     66.4262     21.8092
   792.3000      7.9104      2.5277      0.1352      7.4149     64.5124     21.5002
   792.4000      7.9104      2.5341      0.1045      7.0255     65.9727     21.4686
   792.5000      7.8848      2.5620      0.0738      5.3363     69.0602     21.8512
   792.6000      7.8848      2.6016      0.1657      2.9362     72.3731     22.3765
   792.7000      7.8848      2.6185      0.1492      1.9077     75.9069     22.5419
   792.8000      7.8488      2.6152      0.0803      2.1091     77.3709     22.2694
   792.9000      7.8488      2.6155      0.1264      2.0928     75.1659     21.7873
   793.0000      7.8486      2.6181      0.1590      1.9364     71.1121     21.2988
   793.1000      7.8486      2.6152      0.0868      2.1108     67.0023     21.1097
   793.2000      7.8486      2.6127      0.1110      2.2605     64.6333     21.2019
   793.3000      7.8704      2.6121      0.1003      2.2972     65.6500     21.1359
   793.4000      7.8704      2.6150      0.0254      2.1200     68.6261     20.7908
   793.5000      7.9009      2.6251      0.0746      1.5083     69.4671     20.5697
   793.6000      7.9009      2.6382      0.0912      0.7131     66.2810     20.5437
   793.7000      7.9009      2.6424      0.1306      0.4613     61.2776     20.3015
   793.8000      7.8811      2.6182      0.0972      1.9255     57.4559     20.0186
   793.9000      7.8811      2.5722      0.0927      4.7174     54.3886     20.0782
