~Version Information
VERS.                      2.0: CWLS Log ASCII Standard - VERSION 2.0
WRAP.                       NO: One line per depth step
~Well Information Block
STRT.FT               768.0000: 
STOP.FT              2635.5000: 
STEP.FT                 0.1000: 
NULL.                -999.2500: 
COMP.          Pioneer Natural Resources: COMPANY
WELL.               Zink 44-10: WELL
FLD.           Purgatoire River: FIELD
LOC.           548' FSL & 473' FEL: LOCATION
PROV.                 Colorado: PROVINCE
CNTY.               Las Animas: COUNTRY
SRVC.                Patterson: SERVICE COMPANY
DATE.          Tue May 31 07:05:25 2005: LOG DATE
UWI.           05 071 08380 00: UNIQUE WELL ID
~Curve Information Block
DEPT.FT            0 000 00 00: Depth
DCAL.in                       : CDL Caliper
RHOB.g/cc                     : CDL Bulk Density
RHOC.g/cc                     : CDL Density Correction
DPOR.pu                       : CDL Density Porosity
GR.GAPI                       : Gamma Ray
NPOR.pu                       : Neutron Porosity
~Parameter Information Block
~A  Depth       DCAL        RHOB        RHOC        DPOR         GR         NPOR    
# ...
  2371.2000      7.8996      2.5059      0.1151      8.7304     79.6524     27.6596
  2371.3000      7.8914      2.5097      0.1151      8.5052     80.1386     26.8192
  2371.4000      7.8914      2.5020      0.0334      8.9687     81.7795     27.0419
  2371.5000      7.8826      2.5047      0.0916      8.8045     83.9768     27.9635
  2371.6000      7.8826      2.5191      0.0636      7.9355     84.8211     28.0489
  2371.7000      7.8826      2.5246      0.0810      7.5972     83.7920     26.9191
  2371.8000      7.8782      2.5177      0.0490      8.0186     80.5888     26.0771
  2371.9000      7.8782      2.5206      0.0000      7.8399     76.7156     26.3701
  2372.0000      7.8892      2.5347      0.0732      6.9895     76.4249     27.2456
  2372.1000      7.8892      2.5420      0.0487      6.5471     80.0401     27.7294
  2372.2000      7.8892      2.5527      0.0691      5.8976     82.1574     27.0072
  2372.3000      7.9034      2.5792      0.1264      4.2912     80.3737     25.1681
  2372.4000      7.9034      2.6027      0.1755      2.8664     78.2429     23.4667
  2372.5000      7.9043      2.6132      0.0975      2.2307     76.4775     23.4112
  2372.6000      7.9043      2.6212      0.1762      1.7436     72.2991     24.5194
  2372.7000      7.9043      2.6239      0.1444      1.5840     67.1372     24.9366
  2372.8000      7.8785      2.6078      0.1693      2.5597     65.7694     25.0874
  2372.9000      7.8785      2.5796      0.0983      4.2685     68.1104     25.7884
  2373.0000      7.8366      2.5773      0.0206      4.4089     68.4937     26.4331
  2373.1000      7.8366      2.6236      0.0462      1.5997     66.6973     26.7556
  2373.2000      7.8366      2.6891      0.0834     -2.3667     66.0886     27.0110
  2373.3000      7.8672      2.7372      0.1388     -5.2874     66.1316     27.3104
  2373.4000      7.8672      2.7708      0.0658     -7.3236     66.0232     27.2647
  2373.5000      7.8970      2.7993      0.1309     -9.0513     65.3736     26.6385
  2373.6000      7.8970      2.8037      0.1660     -9.3139     63.2029     25.8745
  2373.7000      7.8970      2.7739      0.1565     -7.5073     61.6791     25.3748
  2373.8000      7.8848      2.7412      0.0168     -5.5288     64.6003     24.9067
  2373.9000      7.8848      2.7284      0.0237     -4.7506     71.0182     24.1009
  2374.0000      7.8553      2.6993      0.0596     -2.9892     75.7419     23.3467
  2374.1000      7.8553      2.6300     -0.0592      1.2151     77.6507     23.2588
  2374.2000      7.8553      2.5605     -0.0956      5.4236     79.3615     23.7291
  2374.3000      7.8049      2.5296     -0.0231      7.2967     83.5247     24.6195
  2374.4000      7.8049      2.5317      0.0472      7.1698     91.9403     25.7900
  2374.5000      7.8437      2.5431      0.0532      6.4789    100.2003     26.3775
  2374.6000      7.8437      2.5439      0.1026      6.4285    102.0607     25.8691
  2374.7000      7.8437      2.5322      0.0475      7.1371     97.3918     25.1333
  2374.8000      7.9146      2.5222      0.0567      7.7471     91.1804     25.0661
  2374.9000      7.9146      2.5151      0.0683      8.1749     89.8293     25.6763
  2375.0000      7.9113      2.5087      0.0192      8.5644     94.2839     26.6212
  2375.1000      7.9113      2.5148      0.0213      8.1960     97.7059     26.8042
  2375.2000      7.9113      2.5398      0.0650      6.6811     95.9067     25.6547
  2375.3000      7.9786      2.5673      0.1078      5.0120     93.5818     24.5489
  2375.4000      7.9786      2.5750      0.0785      4.5446     94.3780     24.7363
  2375.5000      7.9897      2.5657      0.0747      5.1072     94.9558     25.7513
  2375.6000      7.9897      2.5591      0.0653      5.5092     92.6858     26.2148
  2375.7000      7.9897      2.5602      0.1026      5.4449     90.2308     25.5239
  2375.8000      7.9631      2.5624      0.0551      5.3109     87.3451     24.0881
  2375.9000      7.9631      2.5715     -0.0123      4.7577     82.3177     22.6195
  2376.0000      7.9671      2.5963      0.0254      3.2565     79.3340     21.7379
  2376.1000      7.9671      2.6193      0.0999      1.8576     78.7248     21.6937
  2376.2000      7.9671      2.6221      0.0377      1.6917     77.0816     21.7683
  2376.3000      7.9582      2.6174      0.0449      1.9763     75.9555     20.9943
  2376.4000      7.9582      2.6098      0.0474      2.4338     76.0147     19.9505
  2376.5000      7.9680      2.5854      0.0267      3.9181     75.5401     19.7525
  2376.6000      7.9680      2.5554     -0.0038      5.7352     78.3116     20.5835
  2376.7000      7.9680      2.5439      0.0246      6.4310     87.1688     22.2298
  2376.8000      7.9636      2.5460      0.0280      6.3029     95.6877     24.1132
  2376.9000      7.9636      2.5462      0.0707      6.2911     96.7369     25.4243
  2377.0000      7.9313      2.5485      0.0065      6.1486     92.4947     26.0952
  2377.1000      7.9313      2.5577      0.0466      5.5958     90.1023     25.9126
  2377.2000      7.9313      2.5548      0.0600      5.7726     91.9633     24.8632
  2377.3000      7.8894      2.5288      0.0605      7.3450     96.9500     23.8468
  2377.4000      7.8894      2.4952      0.0704      9.3841    102.5577     23.5090
  2377.5000      7.8794      2.4680      0.0737     11.0276    105.2403     24.0146
  2377.6000      7.8794      2.4550      0.0195     11.8200    104.2649     25.2638
  2377.7000      7.8794      2.4599      0.0328     11.5185    100.9096     26.8277
  2377.8000      7.8128      2.4733      0.0733     10.7083     96.5451     27.6180
  2377.9000      7.8128      2.4869      0.0229      9.8858     94.0925     27.0019
  2378.0000      7.6688      2.5002      0.0483      9.0764     94.0860     25.9915
  2378.1000      7.6688      2.5076      0.0727      8.6280     93.2278     25.9135
  2378.2000      7.6688      2.5055      0.1165      8.7597     91.1231     26.7613
  2378.3000      7.7918      2.4956      0.0702      9.3576     90.3848     27.5134
  2378.4000      7.7918      2.4772      0.0868     10.4731     91.5701     27.5234
  2378.5000      7.8346      2.4498      0.0234     12.1313     93.8729     27.3449
  2378.6000      7.8346      2.4268      0.0032     13.5258     96.3564     27.5170
  2378.7000      7.8346      2.4135      0.0589     14.3316     97.5021     27.3868
  2378.8000      7.8932      2.3921      0.0614     15.6332     96.8857     26.7835
  2378.9000      7.8932      2.3627     -0.0097     17.4093     97.0488     26.9337
  2379.0000      7.9014      2.3463      0.0551     18.4086     99.8617     28.3026
  2379.1000      7.9014      2.3461      0.0163     18.4153    102.8345     29.8288
  2379.2000      7.9014      2.3588      0.0201     17.6461    102.1717     30.4064
  2379.3000      7.9247      2.3885      0.0383     15.8506     98.4503     29.8019
  2379.4000      7.9247      2.4392      0.1018     12.7787     93.9374     28.7071
  2379.5000      7.9260      2.5000      0.1503      9.0887     89.5297     27.7093
  2379.6000      7.9260      2.5465      0.1615      6.2741     86.5983     26.6066
  2379.7000      7.9260      2.5667      0.1687      5.0459     84.1006     25.1137
  2379.8000      7.9113      2.5724      0.1604      4.7018     81.2961     23.6582
  2379.9000      7.9113      2.5835      0.1686      4.0285     79.0623     22.7981
  2380.0000      7.8358      2.6058      0.2003      2.6769     74.8853     22.3477
  2380.1000      7.8358      2.6237      0.1572      1.5948     68.4318     22.2987
  2380.2000      7.8358      2.6261      0.1440      1.4479     63.8855     22.8398
  2380.3000      7.8306      2.6233      0.0825      1.6176     61.2439     23.0705
  2380.4000      7.8306      2.6286      0.1013      1.2996     59.8171     22.0406
  2380.5000      7.8407      2.6352      0.1028      0.8968     61.1951     20.7386
  2380.6000      7.8407      2.6347      0.0669      0.9290     61.8642     20.5668
  2380.7000      7.8407      2.6294      0.0918      1.2499     58.0080     21.4880
