~Version Information
VERS.                      2.0: CWLS Log ASCII Standard - VERSION 2.0
WRAP.                       NO: One line per depth step
~Well Information Block
STRT.FT                -4.0000: 
STOP.FT              2638.2500: 
STEP.FT                 0.2500: 
NULL.                -999.2500: 
COMP.          Petrogulf Corporation: COMPANY
WELL.            Montoya 6-14V: WELL
FLD.           Purgatorie River: FIELD
LOC.           318' FSL & 882' FWL--: LOCATION
PROV.                       CO: PROVINCE
CNTY.               Las Animas: COUNTRY
SRVC.                         : SERVICE COMPANY
DATE.          Mon May 02 08:32:04 2005: LOG DATE
UWI.      005 071 08020: UNIQUE WELL ID
~Curve Information Block
DEPT.FT            0 000 00 00: Depth
AMP3.mV                       : CBL 3' Amplitude
CCL.                          : Casing Collar Locator
GR.GAPI                       : Gamma Ray
TT3.usec                      : CBL 3' Travel Time
~Parameter Information Block
~A  Depth       AMP3        CCL          GR         TT3     
# ...
  1034.5000     30.5521      0.0000    105.1370    256.5264
  1034.7500     28.8486      0.0000     98.8599    259.2944
  1035.0000     27.1259      0.0000     95.1848    264.1988
  1035.2500     25.3403      0.0000     95.2073    271.2202
  1035.5000     23.5178      0.0000     98.7880    279.2402
  1035.7500     21.7164      0.0000    104.4330    286.6669
  1036.0000     19.9901      0.0000    110.0136    292.7021
  1036.2500     18.3849      0.0000    114.3131    298.0916
  1036.5000     16.9403      0.0000    117.8894    304.6494
  1036.7500     15.6708      0.0000    121.9982    313.7552
  1037.0000     14.5552      0.0000    126.8315    324.7780
  1037.2500     13.5633      0.0000    131.1965    334.9837
  1037.5000     12.7020      0.0000    133.6893    341.5527
  1037.7500     12.0297      0.0000    133.8680    343.8060
  1038.0000     11.6225      0.0000    132.5542    343.2168
  1038.2500     11.5269      0.0000    131.1423    341.5503
  1038.5000     11.7358      0.0000    130.3826    339.3792
  1038.7500     12.1917      0.0000    129.8171    336.0635
  1039.0000     12.8067      0.0000    128.6360    330.7002
  1039.2500     13.4925      0.0000    127.0230    323.2086
  1039.5000     14.1979      0.0000    126.3707    314.7739
  1039.7500     14.9218      0.0000    128.0450    307.2012
  1040.0000     15.6710      0.0000    131.8673    301.7307
  1040.2500     16.3960      0.0000    135.6036    298.4815
  1040.5000     16.9773      0.0000    136.0524    296.8614
  1040.7500     17.2866      0.0000    131.3669    296.2780
  1041.0000     17.2588      0.0000    122.7380    296.6212
  1041.2500     16.9132      0.0000    113.4261    298.7700
  1041.5000     16.3160      0.0000    105.9303    305.3340
  1041.7500     15.5333      0.0000    100.4707    320.8931
  1042.0000     14.6227      0.0000     96.0804    349.8074
  1042.2500     13.6675      0.0000     92.3362    391.4916
  1042.5000     12.7857      0.0000     89.8475    438.5475
  1042.7500     12.0748      0.0000     89.5266    483.1528
  1043.0000     11.5491      0.0000     91.7024    525.4128
  1043.2500     11.1469      0.0000     95.9589    570.5662
  1043.5000     10.8079      0.0000    101.5046    617.1414
  1043.7500     10.5370      0.0000    107.3392    653.7127
  1044.0000     10.3903      0.0000    112.3032    669.5203
  1044.2500     10.4017      0.0000    115.4694    663.8627
  1044.5000     10.5387      0.0000    116.4978    643.1774
  1044.7500     10.7323      0.0000    115.4495    613.0618
  1045.0000     10.9319      0.0000    112.5995    577.0241
  1045.2500     11.1167      0.0000    108.6756    541.8727
  1045.5000     11.2690      0.0000    104.9650    519.6619
  1045.7500     11.3662      0.0000    103.0193    520.4894
  1046.0000     11.4094      0.0000    104.1759    543.2721
  1046.2500     11.4486      0.0000    108.7375    575.9031
  1046.5000     11.5500      0.0000    115.1369    604.6603
  1046.7500     11.7233      0.0000    120.3029    621.5420
  1047.0000     11.8900      0.0000    121.4658    623.6368
  1047.2500     11.9454      0.0000    117.8119    610.2458
  1047.5000     11.8650      0.0000    110.6054    584.3744
  1047.7500     11.7522      0.0000    101.9078    554.9231
  1048.0000     11.7776      0.0000     93.0912    532.0416
  1048.2500     12.0681      0.0000     84.4530    517.9659
  1048.5000     12.6433      0.0000     76.1108    504.5657
  1048.7500     13.4331      0.0000     68.8731    481.2821
  1049.0000     14.3259      0.0000     64.0535    444.4797
  1049.2500     15.1956      0.0000     62.5406    399.8472
  1049.5000     15.9228      0.0000     64.1144    357.9195
  1049.7500     16.4391      0.0000     67.5003    327.0720
  1050.0000     16.7654      0.0000     71.1224    309.1897
  1050.2500     16.9951      0.0000     74.2076    300.8621
  1050.5000     17.2362      0.0000     77.3860    297.5378
  1050.7500     17.5639      0.0000     81.9446    296.2244
  1051.0000     17.9998      0.0000     88.3072    295.6748
  1051.2500     18.5007      0.0000     95.6416    295.5406
  1051.5000     18.9522      0.0000    102.9484    296.0205
  1051.7500     19.1803      0.0000    109.7477    298.0604
  1052.0000     18.9866      0.0000    115.5331    303.8110
  1052.2500     18.2456      0.0000    119.4407    316.0916
  1052.5000     17.0462      0.0000    121.0334    335.8770
  1052.7500     15.7225      0.0000    121.0578    359.6262
  1053.0000     14.6660      0.0000    120.9552    380.3899
  1053.2500     14.1137      0.0000    121.6012    392.3329
  1053.5000     14.1588      0.0000    122.8390    392.9582
  1053.7500     14.8556      0.0000    124.1161    381.8477
  1054.0000     16.1443      0.0000    124.9261    360.9448
  1054.2500     17.6905      0.0000    124.6015    336.2072
  1054.5000     18.9489     -2.0000    122.6193    315.4379
  1054.7500     19.4723      0.0000    119.3888    303.3626
  1055.0000     19.2072      0.0000    116.0589    299.5422
  1055.2500     18.5351      0.0000    113.5443    300.2258
  1055.5000     18.0063      0.0000    112.3487    301.3530
  1055.7500     17.9574      0.0000    112.9194    300.6779
  1056.0000     18.3391      0.0000    115.2813    298.3968
  1056.2500     18.9037      0.0000    118.4571    296.0192
  1056.5000     19.4874      0.0000    121.0384    294.5483
  1056.7500     20.0596      0.0000    122.6449    293.7294
  1057.0000     20.5789      0.0000    124.5336    292.6978
  1057.2500     20.9086      0.0000    128.4332    291.0372
  1057.5000     20.8759      0.0000    134.9297    289.2890
  1057.7500     20.3970      0.0000    143.0846    288.5381
  1058.0000     19.5705      0.0000    151.0872    289.3831
  1058.2500     18.6473      0.0000    156.9712    291.3515
  1058.5000     17.8843      0.0000    159.4434    293.4072
  1058.7500     17.4077      0.0000    158.5071    294.8579
  1059.0000     17.1771      0.0000    154.8593    295.6721
  1059.2500     17.0234      0.0000    148.6792    296.3349
  1059.5000     16.7319      0.0000    139.6709    297.8616
  1059.7500     16.1499      0.0000    128.1708    302.2904
  1060.0000     15.2576      0.0000    115.5722    313.1714
  1060.2500     14.1552      0.0000    103.6507    334.8084
  1060.5000     13.0012      0.0000     93.7826    369.1779
  1060.7500     11.9690      0.0000     86.4319    411.4116
  1061.0000     11.2188      0.0000     80.9851    447.9402
  1061.2500     10.8574      0.0000     76.3564    462.0287
  1061.5000     10.9028      0.0000     72.1242    445.4607
  1061.7500     11.2828      0.0000     69.1290    406.1019
  1062.0000     11.8679      0.0000     69.0528    362.2415
  1062.2500     12.5078      0.0000     73.4001    329.2511
  1062.5000     13.0587      0.0000     82.5080    312.4246
  1062.7500     13.4106      0.0000     95.1796    310.3300
  1063.0000     13.5299      0.0000    109.1157    320.3343
  1063.2500     13.4867      0.0000    121.5492    338.6341
  1063.5000     13.4173      0.0000    129.5744    357.0747
  1063.7500     13.4307      0.0000    130.6416    364.9136
  1064.0000     13.5444      0.0000    123.7391    356.9124
  1064.2500     13.7022      0.0000    110.5163    338.2129
  1064.5000     13.8353      0.0000     94.9958    319.0845
  1064.7500     13.9040      0.0000     81.7331    306.1927
  1065.0000     13.9257      0.0000     73.8465    299.9431
  1065.2500     14.0111      0.0000     72.3593    297.6093
  1065.5000     14.3718      0.0000     76.7754    296.5424
  1065.7500     15.2572      0.0000     85.7984    295.0302
  1066.0000     16.8357      0.0000     97.6500    291.9416
  1066.2500     19.0800      0.0000    110.1747    286.6018
  1066.5000     21.7189      0.0000    121.0287    279.1733
  1066.7500     24.3079      0.0000    128.2031    270.9610
  1067.0000     26.4045      0.0000    131.0374    263.8007
  1067.2500     27.7497      0.0000    131.0317    258.9109
  1067.5000     28.3431      0.0000    131.1790    256.3232
  1067.7500     28.3932      0.0000    133.8282    255.3004
