~Version Information
 VERS.                                  2.0 : CWLS LAS VERSION
 WRAP.                                   NO : WRAPING MODE
 SWARE .                 MController 2.5.0J : SOFTWARE VERSION
~Well Information
 WELL.                        Harlee L 34-9 : WELL
 COMP.    Pioneer natural Resources USA Inc : COMPANY
 FLD.                      Purgatoire River : FIELD
 LOC.                 SW/SE Sec 9 T32S R65W : LOCATION
 DATE.                              1/25/05 : DATE(S) LOGGED
 SRVC.       Blanco Geological Services LLC : SERVICE COMPANY
 STAT.                                   CO : STATE
 CNTY.                           Las Animas : COUNTY
 CTRY.                                  USA : COUNTRY
 API.                       05-071-08009-00 : API NUMBER
 STRT.FT                             404.00 : START DEPTH
 STOP.FT                            1773.00 : STOP DEPTH
 STEP.FT                               1.00 : DEPTH INCREMENT
 NULL.                                -9999 : NULL VALUE
~Curve information
 DEPTH.FT                                   :
 ROP.MIN/FT                                 :
 GAS.UNITS                                  :
~ASCII Log data
# ...
       804.0         0.23         10.5 
       805.0         0.23          9.6 
       806.0         0.35          9.7 
       807.0         0.33         10.3 
       808.0         0.27          9.8 
       809.0         0.13          9.9 
       810.0         0.23          9.9 
       811.0         0.23          9.9 
       812.0         0.17         10.0 
       813.0         0.18          9.8 
       814.0         0.13          9.6 
       815.0         0.23          9.4 
       816.0         0.23          9.9 
       817.0         0.20         10.0 
       818.0         0.23          9.9 
       819.0         0.23          7.2 
       820.0         0.20          7.4 
       821.0         0.20          7.2 
       822.0         0.20          7.6 
       823.0         0.17          8.3 
       824.0         0.17          7.3 
       825.0         0.17          8.3 
       826.0         0.17          8.3 
       827.0         0.13          8.3 
       828.0         0.20          8.3 
       829.0         0.13          9.1 
       830.0         0.13          9.1 
       831.0         0.17          9.5 
       832.0         0.15         10.2 
       833.0         0.17         10.9 
       834.0         0.17         12.7 
       835.0         0.27         36.1 
       836.0         0.30         37.7 
       837.0         0.30         14.4 
       838.0         0.30          6.3 
       839.0         0.25          4.4 
       840.0         0.37          4.4 
       841.0         0.23          2.6 
       842.0         0.17          3.1 
       843.0         0.20          2.9 
       844.0         0.20          1.3 
       845.0         0.23          6.0 
       846.0         0.27          6.5 
       847.0         0.20         15.0 
       848.0         0.13        103.9 
       849.0         0.17        100.1 
       850.0         0.20          5.5 
       851.0         0.13          5.8 
       852.0         0.13          6.0 
       853.0         0.13          6.0 
       854.0         0.17          6.0 
       855.0         0.13          6.0 
       856.0         0.13          6.0 
       857.0         0.15          6.0 
       858.0         0.17          6.2 
       859.0         0.13          6.2 
       860.0         0.13          6.7 
       861.0         0.10          6.7 
       862.0         0.13          8.3 
       863.0         0.10          8.8 
       864.0         0.07         10.5 
       865.0         0.10         11.7 
       866.0         0.10         13.4 
       867.0         0.17         15.4 
       868.0         0.13         16.1 
       869.0         0.20         15.7 
       870.0         0.28         15.2 
       871.0         0.27         13.8 
       872.0         0.27          9.3 
       873.0         0.20          8.9 
       874.0         0.17          6.5 
       875.0         0.13          6.5 
       876.0         0.17          5.7 
       877.0         0.17          6.2 
       878.0         0.10          5.3 
       879.0         0.17          5.2 
       880.0         0.17          5.5 
       881.0         0.17          5.6 
       882.0         0.13          5.1 
       883.0         0.13          8.0 
       884.0         0.10          8.0 
       885.0         0.17          8.4 
       886.0         0.17         10.5 
       887.0         0.17         16.8 
       888.0         0.17         22.6 
       889.0         0.18         31.4 
       890.0         0.17         29.5 
       891.0         0.17         29.5 
       892.0         0.17         28.1 
       893.0         0.17         21.6 
       894.0         0.13         18.4 
       895.0         0.17         15.6 
       896.0         0.17         15.5 
       897.0         0.23         11.4 
       898.0         0.23          8.4 
       899.0         0.20          6.1 
       900.0         0.23          5.3 
       901.0         0.20          4.6 
       902.0         0.20          4.4 
       903.0         0.20          5.4 
       904.0         0.17          5.1 
       905.0         0.20          5.1 
       906.0         0.13          6.1 
       907.0         0.17          6.1 
       908.0         0.17          6.4 
       909.0         0.13          6.4 
       910.0         0.13          6.4 
       911.0         0.17          5.7 
       912.0         0.20          5.7 
       913.0         0.17          6.5 
       914.0         0.20          6.8 
       915.0         0.18          4.3 
       916.0         0.13          4.6 
       917.0         0.20          4.5 
       918.0         0.20          4.3 
       919.0         0.23          4.6 
       920.0         0.20          4.1 
       921.0         0.13          5.6 
       922.0         0.13          5.6 
       923.0         0.17         10.2 
       924.0         0.17         10.2 
       925.0         0.20         10.5 
       926.0         0.30          9.6 
       927.0         0.23          8.1 
       928.0         0.20          7.5 
       929.0         0.20          7.1 
       930.0         0.27          7.5 
       931.0         0.33          6.3 
       932.0         0.30          6.1 
       933.0         0.27          6.1 
       934.0         0.27          5.1 
       935.0         0.20          5.3 
       936.0         0.20          5.1 
       937.0         0.20          4.5 
       938.0         0.27          4.7 
       939.0         0.25          3.9 
       940.0         0.20          3.9 
       941.0         0.13          4.4 
       942.0         0.13          4.1 
       943.0         0.13          4.1 
       944.0         0.13          3.9 
       945.0         0.13          3.6 
       946.0         0.17          3.8 
       947.0         0.23          5.8 
       948.0         0.23          4.1 
       949.0         0.27          3.8 
       950.0         0.23          3.9 
       951.0         0.27          3.5 
       952.0         0.23          3.7 
       953.0         0.23          4.3 
       954.0         0.30          4.2 
       955.0         0.42          4.2 
       956.0     -9999.00          3.6 
       957.0         0.33          4.0 
       958.0         0.37          3.9 
       959.0         0.27          4.1 
       960.0         0.30          4.2 
       961.0         0.28          4.1 
       962.0         0.27          4.2 
       963.0         0.27          3.9 
       964.0         0.30          3.8 
       965.0         0.27          3.1 
       966.0         0.27          4.3 
       967.0         0.30          4.6 
       968.0         0.30          4.1 
       969.0         0.30          4.1 
       970.0         0.20          3.6 
       971.0         0.17          3.6 
       972.0         0.20          3.9 
       973.0         0.23          4.1 
       974.0         0.20          3.6 
       975.0         0.28          4.0 
       976.0         0.23          3.7 
       977.0         0.30          4.0 
       978.0         0.33          4.5 
       979.0         0.33          4.0 
       980.0         0.27          3.7 
       981.0         0.30          4.0 
       982.0         0.30          4.0 
       983.0         0.30          4.0 
       984.0         0.30          3.9 
       985.0         0.27          4.4 
       986.0         0.20          5.6 
       987.0         0.27          9.6 
       988.0         0.27         12.3 
       989.0         0.37         14.0 
       990.0         0.27         11.7 
       991.0         0.20          9.9 
       992.0         0.23          8.0 
       993.0         0.23          7.2 
       994.0         0.32          6.5 
       995.0         0.30          4.7 
       996.0         0.23          6.0 
       997.0         0.20          6.0 
       998.0         0.20          5.7 
       999.0         0.27          6.5 
      1000.0         0.30          6.0 
      1001.0         0.17          5.6 
      1002.0         0.17          6.0 
      1003.0         0.13          6.1 
