~Version Information
VERS.                      2.0: CWLS Log ASCII Standard - VERSION 2.0
WRAP.                       NO: One line per depth step
~Well Information Block
STRT.FT               507.5000: 
STOP.FT              2145.0000: 
STEP.FT                 0.2500: 
NULL.                -999.2500: 
COMP.          Petrogulf Corporation: COMPANY
WELL.            Montoya 1-44R: WELL
FLD.           Purgatorie River: FIELD
LOC.           658' FSL & 1052' FWL: LOCATION
CNTY.               Las Animas: COUNTY
SRVC.                         : SERVICE COMPANY
DATE.          Tue Nov 16 02:59:24 2004: LOG DATE
UWI.           05 071 08239 00: UNIQUE WELL ID
STAT.                 Colorado: STATE
~Curve Information Block
DEPT.FT            0 000 00 00: Depth
SP.mV                         : DIL Spontaneous Potential
RILD.Ohm-m                    : DIL Deep Resistivity
RILM.Ohm-m                    : DIL Medium Resistivity
RLL3.Ohm-m                    : DIL Shallow Resistivity
GR.GAPI                       : Gamma Ray
~Parameter Information Block
~A  Depth        SP         RILD        RILM        RLL3         GR     
# ...
  1683.5000      0.1891     31.3224     37.3317     44.5120    133.4599
  1683.7500      0.4088     31.8195     37.7832     45.6242    131.7264
  1684.0000      0.4374     32.2231     38.1389     46.8407    122.9146
  1684.2500      0.1825     32.5253     38.3958     48.0481    115.3814
  1684.5000     -0.3616     32.7419     38.5633     49.1982    106.4121
  1684.7500     -1.1107     32.9057     38.6592     50.2929    103.6179
  1685.0000     -1.9169     33.0580     38.7020     51.3505    103.4441
  1685.2500     -2.6115     33.2362     38.7094     52.3767    104.0278
  1685.5000     -3.0595     33.4656     38.6963     53.3620    102.8981
  1685.7500     -3.1985     33.7553     38.6750     54.3067    100.5295
  1686.0000     -3.0489     34.0970     38.6597     55.2597     96.3812
  1686.2500     -2.6972     34.4675     38.6668     56.3443     94.4776
  1686.5000     -2.2646     34.8348     38.7174     57.7498     93.8751
  1686.7500     -1.8627     35.1669     38.8367     59.6813     94.7783
  1687.0000     -1.5648     35.4352     39.0514     62.2817     96.8642
  1687.2500     -1.3954     35.6200     39.3853     65.5528     97.7724
  1687.5000     -1.3474     35.7125     39.8550     69.3081     97.0398
  1687.7500     -1.4072     35.7129     40.4654     73.1833     94.9082
  1688.0000     -1.5762     35.6290     41.2036     76.7056     89.8587
  1688.2500     -1.8771     35.4734     42.0366     79.4038     85.8757
  1688.5000     -2.3355     35.2631     42.9107     80.9228     79.7185
  1688.7500     -2.9515     35.0176     43.7568     81.1019     75.6577
  1689.0000     -3.6677     34.7581     44.4984     79.9974     70.0245
  1689.2500     -4.3614     34.5031     45.0620     77.8481     67.1485
  1689.5000     -4.8711     34.2700     45.3904     75.0041     65.3776
  1689.7500     -5.0384     34.0707     45.4503     71.8438     66.2308
  1690.0000     -4.7637     33.9127     45.2358     68.7009     69.9119
  1690.2500     -4.0506     33.7995     44.7677     65.8171     73.0958
  1690.5000     -3.0112     33.7316     44.0901     63.3237     77.5503
  1690.7500     -1.8375     33.7063     43.2626     61.2527     79.8063
  1691.0000     -0.7412     33.7190     42.3525     59.5681     81.7371
  1691.2500      0.1153     33.7633     41.4282     58.2051     82.0389
  1691.5000      0.6689     33.8302     40.5510     57.1047     81.4245
  1691.7500      0.9694     33.9076     39.7713     56.2316     80.8199
  1692.0000      1.1625     33.9840     39.1237     55.5747     80.6335
  1692.2500      1.4269     34.0471     38.6302     55.1353     81.2632
  1692.5000      1.9188     34.0898     38.2981     54.9153     82.6186
  1692.7500      2.7206     34.1087     38.1273     54.9104     82.7902
  1693.0000      3.8185     34.1046     38.1095     55.1110     80.4511
  1693.2500      5.1156     34.0833     38.2346     55.5060     77.1055
  1693.5000      6.4641     34.0533     38.4903     56.0842     70.7216
  1693.7500      7.7090     34.0240     38.8641     56.8303     66.5053
  1694.0000      8.7209     34.0063     39.3464     57.7166     61.2287
  1694.2500      9.4218     34.0117     39.9296     58.6970     58.6086
  1694.5000      9.7927     34.0540     40.6094     59.7061     56.0110
  1694.7500      9.8688     34.1480     41.3830     60.6684     54.9643
  1695.0000      9.7263     34.3085     42.2484     61.5136     53.8370
  1695.2500      9.4558     34.5483     43.2020     62.1960     53.1212
  1695.5000      9.1387     34.8730     44.2359     62.7106     52.1571
  1695.7500      8.8245     35.2758     45.3370     63.0981     51.8507
  1696.0000      8.5174     35.7319     46.4853     63.4397     52.2330
  1696.2500      8.1878     36.1949     47.6547     63.8395     52.9033
  1696.5000      7.7938     36.5958     48.8099     64.4023     53.7280
  1696.7500      7.3149     36.8500     49.9016     65.2089     53.7412
  1697.0000      6.7802     36.8697     50.8641     66.2987     53.0523
  1697.2500      6.2740     36.5868     51.6138     67.6631     52.5745
  1697.5000      5.9125     35.9705     52.0534     69.2536     52.4065
  1697.7500      5.8025     35.0400     52.0824     71.0009     52.5980
  1698.0000      5.9942     33.8615     51.6194     72.8423     53.0025
  1698.2500      6.4434     32.5320     50.6255     74.7374     53.3851
  1698.5000      7.0181     31.1553     49.1162     76.6561     54.5403
  1698.7500      7.5272     29.8204     47.1632     78.5282     55.8101
  1699.0000      7.7768     28.5904     44.8795     80.1748     58.1483
  1699.2500      7.6295     27.4962     42.3944     81.2572     59.7452
  1699.5000      7.0392     26.5407     39.8331     81.2983     62.3146
  1699.7500      6.0624     25.7040     37.2998     79.7985     64.6991
  1700.0000      4.8246     24.9505     34.8708     76.4235     70.8410
  1700.2500      3.4684     24.2387     32.5928     71.1818     77.4709
  1700.5000      2.1127     23.5288     30.4856     64.4960     91.3371
  1700.7500      0.8124     22.7916     28.5488     57.1154    102.1223
  1701.0000     -0.4340     22.0129     26.7675     49.8910    117.3857
  1701.2500     -1.6604     21.1937     25.1211     43.5113    125.1369
  1701.5000     -2.8926     20.3481     23.5894     38.3181    131.5903
  1701.7500     -4.1194     19.4961     22.1590     34.2759    132.6803
  1702.0000     -5.2758     18.6587     20.8252     31.0887    131.1520
  1702.2500     -6.2607     17.8538     19.5918     28.3884    129.1972
  1702.5000     -6.9723     17.0935     18.4678     25.8966    126.8309
  1702.7500     -7.3450     16.3851     17.4632     23.4997    126.6890
  1703.0000     -7.3780     15.7319     16.5848     21.2292    129.6529
  1703.2500     -7.1376     15.1342     15.8335     19.1887    133.5070
  1703.5000     -6.7268     14.5909     15.2036     17.4763    140.6540
  1703.7500     -6.2423     14.1000     14.6831     16.1367    145.4959
  1704.0000     -5.7326     13.6588     14.2547     15.1518    151.8815
  1704.2500     -5.1702     13.2642     13.8976     14.4578    154.9890
  1704.5000     -4.4682     12.9124     13.5902     13.9696    157.0414
  1704.7500     -3.5192     12.5991     13.3122     13.6052    156.6575
  1705.0000     -2.2533     12.3196     13.0467     13.3019    154.6369
  1705.2500     -0.6871     12.0692     12.7818     13.0226    153.2545
  1705.5000      1.0622     11.8430     12.5113     12.7549    151.9491
  1705.7500      2.8082     11.6362     12.2343     12.5047    151.4823
  1706.0000      4.3532     11.4438     11.9530     12.2879    150.9592
  1706.2500      5.5589     11.2615     11.6716     12.1177    150.7642
  1706.5000      6.3953     11.0848     11.3947     11.9984    151.0983
  1706.7500      6.9456     10.9104     11.1261     11.9216    151.7188
  1707.0000      7.3716     10.7359     10.8689     11.8676    152.5415
  1707.2500      7.8459     10.5610     10.6251     11.8121    152.6250
  1707.5000      8.4865     10.3872     10.3965     11.7333    152.1192
  1707.7500      9.3115     10.2181     10.1851     11.6203    151.7637
  1708.0000     10.2372     10.0587      9.9929     11.4758    151.9311
  1708.2500     11.1071      9.9153      9.8227     11.3151    152.7238
  1708.5000     11.7457      9.7941      9.6776     11.1605    154.7542
  1708.7500     12.0038      9.7011      9.5615     11.0345    156.3058
  1709.0000     11.7952      9.6413      9.4784     10.9537    158.2986
  1709.2500     11.1029      9.6184      9.4327     10.9283    159.3182
  1709.5000      9.9672      9.6347      9.4292     10.9653    160.7382
  1709.7500      8.4608      9.6913      9.4727     11.0755    161.7456
  1710.0000      6.6716      9.7882      9.5687     11.2832    162.9515
  1710.2500      4.6859      9.9247      9.7231     11.6339    163.1052
  1710.5000      2.5965     10.0998      9.9431     12.2011    161.7408
  1710.7500      0.4996     10.3129     10.2365     13.0927    159.5753
  1711.0000     -1.5002     10.5644     10.6129     14.4539    154.4668
  1711.2500     -3.3045     10.8556     11.0830     16.4609    150.0912
