~Version Information
VERS.                      2.0: CWLS Log ASCII Standard - VERSION 2.0
WRAP.                       NO: One line per depth step
~Well Information Block
STRT.FT               750.6000: 
STOP.FT              2495.5000: 
STEP.FT                 0.1000: 
NULL.                -999.2500: 
COMP.                         : COMPANY
WELL.                         : WELL
FLD.                          : FIELD
LOC.                          : LOCATION
CNTY.                         : COUNTY
SRVC.                         : SERVICE COMPANY
DATE.          Sat Feb 28 14:05:57 2004: LOG DATE
UWI.                          : UNIQUE WELL ID
STAT.                         : STATE
~Curve Information Block
DEPT.FT            0 000 00 00: Depth
DCAL.in                       : CDL Caliper
RHOB.g/cc                     : CDL Bulk Density
RHOC.g/cc                     : CDL Density Correction
DPOR.pu                       : CDL Density Porosity
GR.GAPI                       : Gamma Ray
NPOR.pu                       : Neutron Porosity
~Parameter Information Block
~A  Depth       DCAL        RHOB        RHOC        DPOR         GR         NPOR    
# ...
  2478.6000      7.8230      2.5080      0.0807      8.6049   -999.2500     21.2528
  2478.7000      7.8230      2.5416      0.1057      6.5723   -999.2500     20.7425
  2478.8000      7.8183      2.5853      0.1464      3.9242   -999.2500     20.4309
  2478.9000      7.8183      2.6164      0.1405      2.0372   -999.2500     20.7918
  2479.0000      7.7949      2.6276      0.1848      1.3551   -999.2500     21.3925
  2479.1000      7.7949      2.6173      0.1624      1.9814   -999.2500     21.1820
  2479.2000      7.7949      2.5950      0.1565      3.3341   -999.2500     20.3737
  2479.3000      7.7437      2.5843      0.1268      3.9843   -999.2500     20.0759
  2479.4000      7.7437      2.5979      0.1490      3.1579   -999.2500     20.6397
  2479.5000      7.7312      2.6169      0.1610      2.0056   -999.2500     21.4428
  2479.6000      7.7312      2.6179      0.1622      1.9425   -999.2500     21.6315
  2479.7000      7.7312      2.5938      0.1393      3.4080   -999.2500     21.2247
  2479.8000      7.7016      2.5530      0.0720      5.8784   -999.2500     21.0266
  2479.9000      7.7016      2.5155      0.0716      8.1501   -999.2500     21.7094
  2480.0000      7.7107      2.4938      0.1343      9.4652   -999.2500     23.0108
  2480.1000      7.7107      2.4946      0.0348      9.4163   -999.2500     23.5718
  2480.2000      7.7107      2.5200      0.0973      7.8779   -999.2500     23.1193
  2480.3000      7.7574      2.5468      0.1411      6.2538   -999.2500     22.8937
  2480.4000      7.7574      2.5536      0.0781      5.8419   -999.2500     23.0151
  2480.5000      7.7835      2.5509      0.0578      6.0041   -999.2500     22.6364
  2480.6000      7.7835      2.5473      0.1031      6.2237   -999.2500     22.3996
  2480.7000      7.7835      2.5311      0.0915      7.2043   -999.2500     24.6236
  2480.8000      7.7994      2.5041      0.0541      8.8429   -999.2500     30.9548
  2480.9000      7.7994      2.4858      0.0246      9.9535   -999.2500     39.3261
  2481.0000      7.7986      2.4866      0.0732      9.9009   -999.2500     45.1092
  2481.1000      7.7986      2.4997      0.0606      9.1069   -999.2500     47.2394
  2481.2000      7.7986      2.5149      0.0855      8.1880   -999.2500     47.6625
  2481.3000      7.8013      2.5234      0.1170      7.6720   -999.2500     47.7074
  2481.4000      7.8013      2.5246      0.0571      7.5988   -999.2500     47.7099
  2481.5000      7.8165      2.5316      0.0521      7.1761   -999.2500   -999.2500
  2481.6000      7.8165      2.5432      0.1209      6.4712   -999.2500   -999.2500
  2481.7000      7.8165      2.5398      0.1204      6.6812   -999.2500   -999.2500
  2481.8000      7.8133      2.5205      0.0679      7.8472   -999.2500   -999.2500
  2481.9000      7.8133      2.5144      0.0161      8.2196   -999.2500   -999.2500
  2482.0000      7.8030      2.5398      0.1197      6.6815   -999.2500   -999.2500
  2482.1000      7.8030      2.5704      0.1991      4.8213   -999.2500   -999.2500
  2482.2000      7.8030      2.5712      0.1260      4.7742   -999.2500   -999.2500
  2482.3000      7.8168      2.5504      0.0848      6.0359   -999.2500   -999.2500
  2482.4000      7.8168      2.5421      0.0395      6.5376   -999.2500   -999.2500
  2482.5000      7.8210      2.5537      0.1043      5.8349   -999.2500   -999.2500
  2482.6000      7.8210      2.5667      0.1205      5.0504   -999.2500   -999.2500
  2482.7000      7.8210      2.5834      0.0189      4.0338   -999.2500   -999.2500
  2482.8000      7.8498      2.6141      0.1216      2.1760   -999.2500   -999.2500
  2482.9000      7.8498      2.6410      0.1168      0.5434   -999.2500   -999.2500
  2483.0000      7.8499      2.6513      0.1182     -0.0807   -999.2500   -999.2500
  2483.1000      7.8499      2.6495      0.1110      0.0286   -999.2500   -999.2500
  2483.2000      7.8499      2.6361      0.0857      0.8426   -999.2500   -999.2500
  2483.3000      7.8210      2.6109      0.1012      2.3717   -999.2500   -999.2500
  2483.4000      7.8210      2.5887      0.0243      3.7175   -999.2500   -999.2500
  2483.5000      7.6706      2.5907      0.0498      3.5918   -999.2500   -999.2500
  2483.6000      7.6706      2.6201      0.1221      1.8092   -999.2500   -999.2500
  2483.7000      7.6706      2.6518      0.1982     -0.1069   -999.2500   -999.2500
  2483.8000      7.6534      2.6595      0.1545     -0.5754   -999.2500   -999.2500
  2483.9000      7.6534      2.6490      0.1240      0.0578   -999.2500   -999.2500
  2484.0000      7.6484      2.6409      0.1085      0.5504   -999.2500   -999.2500
  2484.1000      7.6484      2.6421      0.0736      0.4815   -999.2500   -999.2500
  2484.2000      7.6484      2.6421      0.1281      0.4772   -999.2500   -999.2500
  2484.3000      7.6612      2.6318      0.0660      1.1009   -999.2500   -999.2500
  2484.4000      7.6612      2.6151      0.0914      2.1142   -999.2500   -999.2500
  2484.5000      7.7970      2.5930      0.1245      3.4559   -999.2500   -999.2500
  2484.6000      7.7970      2.5698      0.0221      4.8632   -999.2500   -999.2500
  2484.7000      7.7970      2.5506      0.0430      6.0235   -999.2500   -999.2500
  2484.8000      7.7374      2.5325      0.0418      7.1239   -999.2500   -999.2500
  2484.9000      7.7374      2.5378     -0.0058      6.7998   -999.2500   -999.2500
  2485.0000      7.6941      2.5829      0.0924      4.0641   -999.2500   -999.2500
  2485.1000      7.6941      2.6292      0.1370      1.2616   -999.2500   -999.2500
  2485.2000      7.6941      2.6495      0.0895      0.0327   -999.2500   -999.2500
  2485.3000      7.6355      2.6603      0.0794     -0.6260   -999.2500   -999.2500
  2485.4000      7.6355      2.6688      0.1088     -1.1366   -999.2500   -999.2500
  2485.5000      7.7174      2.6541      0.2256     -0.2485   -999.2500   -999.2500
  2485.6000      7.7174      2.6139      0.0628      2.1865   -999.2500   -999.2500
  2485.7000      7.7174      2.5862      0.0542      3.8658   -999.2500   -999.2500
  2485.8000      7.7116      2.5850      0.0974      3.9420   -999.2500   -999.2500
  2485.9000      7.7116      2.5741      0.0753      4.5978   -999.2500   -999.2500
  2486.0000      7.7102      2.5205      0.0568      7.8508   -999.2500   -999.2500
  2486.1000      7.7102      2.4409     -0.0162     12.6702   -999.2500   -999.2500
  2486.2000      7.7102      2.3865     -0.0252     15.9687   -999.2500   -999.2500
  2486.3000      7.6552      2.3744      0.0175     16.7058   -999.2500   -999.2500
  2486.4000      7.6552      2.3836     -0.0010     16.1439   -999.2500   -999.2500
  2486.5000      7.5116      2.4006      0.0716     15.1180   -999.2500   -999.2500
  2486.6000      7.5116      2.4268      0.0775     13.5250   -999.2500   -999.2500
  2486.7000      7.5116      2.4629      0.1644     11.3367   -999.2500   -999.2500
  2486.8000      7.4147      2.4982      0.1765      9.2002   -999.2500   -999.2500
  2486.9000      7.4147      2.5264      0.2012      7.4880   -999.2500   -999.2500
  2487.0000      7.4005      2.5466      0.1883      6.2693   -999.2500   -999.2500
  2487.1000      7.4005      2.5498      0.2403      6.0721   -999.2500   -999.2500
  2487.2000      7.4005      2.5390      0.1570      6.7278   -999.2500   -999.2500
  2487.3000      7.3747      2.5403      0.1532      6.6477   -999.2500   -999.2500
  2487.4000      7.3747      2.5631      0.1818      5.2643   -999.2500   -999.2500
  2487.5000      7.1181      2.5824      0.2220      4.0995   -999.2500   -999.2500
  2487.6000      7.1181      2.5763      0.1893      4.4664   -999.2500   -999.2500
  2487.7000      7.1181      2.5572      0.1080      5.6214   -999.2500   -999.2500
  2487.8000      7.0520      2.5537      0.1237      5.8349   -999.2500   -999.2500
  2487.9000      7.0520      2.5716      0.1363      4.7512   -999.2500   -999.2500
  2488.0000      7.0483      2.5956      0.1468      3.2952   -999.2500   -999.2500
  2488.1000      7.0483      2.6127      0.1552      2.2601   -999.2500   -999.2500
