~Version Information
VERS.                      2.0: CWLS Log ASCII Standard - VERSION 2.0
WRAP.                       NO: One line per depth step
~Well Information Block
STRT.FT                 3.0000: 
STOP.FT              1884.7500: 
STEP.FT                 0.2500: 
NULL.                -999.2500: 
COMP.          Pioneer Natural Resources: COMPANY
WELL.          Blackjack 32-11 Tr: WELL
FLD.           Purgatoire River: FIELD
LOC.           2066' FNL & 1453' FEL: LOCATION
PROV.                 Colorado: PROVINCE
CNTY.               Las Animas: COUNTRY
SRVC.                Patterson: SERVICE COMPANY
DATE.          Fri Aug 19 11:07:11 2005: LOG DATE
UWI.           05 071 08310 00: UNIQUE WELL ID
~Curve Information Block
DEPT.FT            0 000 00 00: Depth
CCL.                          : Casing Collar Locator
TT3.usec                      : CBL 3' Travel Time
AMP3.mV                       : CBL 3' Amplitude
GR.GAPI                       : Gamma Ray
~Parameter Information Block
~A  Depth       CCL         TT3         AMP3         GR     
# ...
  1242.5000      0.0000    545.1743     16.0499     93.7763
  1242.7500      0.0000    609.1865     15.7769     90.1431
  1243.0000      0.0000    661.9704     15.6401     87.5579
  1243.2500      0.0000    694.9898     15.6524     86.5927
  1243.5000      0.0000    709.5828     15.7411     86.6767
  1243.7500      0.0000    711.2150     15.8314     86.8247
  1244.0000      0.0000    704.3276     15.8815     86.6017
  1244.2500      0.0000    692.8643     15.8452     86.2053
  1244.5000      0.0000    682.8093     15.6584     86.1191
  1244.7500      0.0000    679.9730     15.3029     86.9012
  1245.0000      0.0000    683.6683     14.8665     88.7975
  1245.2500      0.0000    686.0787     14.5051     91.3786
  1245.5000      0.0000    680.3793     14.3458     93.9802
  1245.7500      0.0000    665.8096     14.4353     96.6084
  1246.0000      0.0000    642.4636     14.7572     99.9912
  1246.2500      0.0000    606.9713     15.2583    104.6528
  1246.5000      0.0000    558.1083     15.8465    110.2566
  1246.7500      0.0000    502.8575     16.3897    115.8939
  1247.0000      0.0000    453.0709     16.7599    120.5995
  1247.2500      0.0000    418.0662     16.9002    123.5127
  1247.5000      0.0000    401.4982     16.8385    124.0962
  1247.7500      0.0000    401.9648     16.6286    122.5347
  1248.0000      0.0000    413.9169     16.3098    119.5771
  1248.2500      0.0000    429.1386     15.9418    115.7932
  1248.5000      0.0000    440.2631     15.6296    111.2885
  1248.7500      0.0000    444.3312     15.4674    106.2010
  1249.0000      0.0000    442.9062     15.4720    101.1153
  1249.2500      0.0000    438.8743     15.5907     96.8043
  1249.5000      0.0000    433.5334     15.7554     93.6649
  1249.7500      0.0000    426.3863     15.9163     91.4774
  1250.0000      0.0000    416.6787     16.0474     89.6375
  1250.2500      0.0000    404.5573     16.1510     87.6303
  1250.5000      0.0000    391.0217     16.2580     85.3479
  1250.7500      0.0000    377.4139     16.4000     82.9612
  1251.0000      0.0000    365.2079     16.5694     80.4128
  1251.2500      0.0000    355.8015     16.7197     77.2143
  1251.5000      0.0000    350.0231     16.8081     73.0633
  1251.7500      0.0000    347.9807     16.8251     68.5492
  1252.0000      0.0000    349.5844     16.7967     64.8148
  1252.2500      0.0000    354.9741     16.7958     62.4505
  1252.5000      0.0000    364.2663     16.9326     61.0140
  1252.7500      0.0000    377.1621     17.2694     59.7613
  1253.0000      0.0000    392.9385     17.7223     58.7093
  1253.2500      0.0000    410.1562     18.0840     58.8025
  1253.5000      0.0000    425.7170     18.1802     60.9109
  1253.7500      0.0000    434.8774     18.0121     64.7677
  1254.0000      0.0000    433.8107     17.7385     69.0909
  1254.2500      0.0000    423.0744     17.5207     72.6149
  1254.5000      0.0000    408.2957     17.3976     74.7011
  1254.7500      0.0000    396.9305     17.3039     75.2590
  1255.0000      0.0000    394.0747     17.1827     74.6082
  1255.2500      0.0000    400.7997     17.0510     73.3441
  1255.5000      0.0000    415.0848     16.9606     72.0790
  1255.7500      0.0000    433.2043     16.9304     71.4515
  1256.0000      0.0000    450.8407     16.9359     72.2937
  1256.2500      0.0000    464.5630     16.9426     75.0670
  1256.5000      0.0000    473.1535     16.9299     78.9461
  1256.7500      0.0000    477.5126     16.8926     82.1422
  1257.0000      0.0000    479.3232     16.8355     83.4761
  1257.2500      0.0000    479.7461     16.7691     83.2191
  1257.5000      0.0000    478.7953     16.7056     82.3126
  1257.7500      0.0000    475.1096     16.6632     81.2840
  1258.0000      0.0000    466.1413     16.6755     80.0776
  1258.2500      0.0000    449.4940     16.7914     78.5297
  1258.5000      0.0000    425.4141     17.0537     76.6397
  1258.7500      0.0000    398.2131     17.4578     74.5084
  1259.0000      0.0000    374.2756     17.9110     72.2981
  1259.2500      0.0000    358.0820     18.2370     70.2885
  1259.5000      0.0000    350.2926     18.2591     68.7365
  1259.7500      0.0000    349.0934     17.9230     67.5594
  1260.0000      0.0000    352.1070     17.3519     66.2898
  1260.2500      0.0000    356.7677     16.7686     64.4850
  1260.5000      0.0000    360.1866     16.3505     62.3105
  1260.7500      0.0000    360.1714     16.1500     60.7279
  1261.0000      0.0000    356.6911     16.1205     60.8279
  1261.2500      0.0000    351.7324     16.1789     62.6470
  1261.5000      0.0000    347.4999     16.2468     64.7728
  1261.7500      0.0000    344.9904     16.2827     65.4104
  1262.0000      0.0000    344.1443     16.3163     63.9796
  1262.2500      0.0000    344.7792     16.4271     61.7080
  1262.5000      0.0000    347.0797     16.6432     60.5919
  1262.7500      0.0000    351.1468     16.8741     61.6490
  1263.0000      0.0000    356.0466     16.9877     64.1581
  1263.2500      0.0000    359.6123     16.9452     66.5380
  1263.5000      0.0000    359.8444     16.8119     67.6910
  1263.7500      0.0000    356.6918     16.6577     67.5198
  1264.0000      0.0000    352.0616     16.5146     66.6783
  1264.2500      0.0000    348.0500     16.4254     66.2098
  1264.5000      0.0000    345.5117     16.4707     67.1930
  1264.7500      0.0000    344.1682     16.7274     70.1738
  1265.0000      0.0000    343.4673     17.2016     74.6218
  1265.2500      0.0000    343.1943     17.7799     78.9416
  1265.5000      0.0000    343.7000     18.2471     81.2000
  1265.7500      0.0000    346.1237     18.4074     80.1976
  1266.0000      0.0000    352.6817     18.2415     76.3084
  1266.2500      0.0000    366.7910     17.9359     71.3614
  1266.5000      0.0000    392.5503     17.6913     67.3681
  1266.7500      0.0000    433.0390     17.4457     65.1256
  1267.0000      0.0000    487.0419     16.8199     64.1221
  1267.2500      0.0000    546.3030     15.4467     63.6186
  1267.5000      0.0000    598.2977     13.4034     63.4425
  1267.7500      0.0000    634.9534     11.2471     63.7457
  1268.0000      0.0000    658.1485      9.5832     64.4412
  1268.2500      0.0000    674.8098      8.6560     65.2581
  1268.5000      3.0000    688.0803      8.3498     66.2068
  1268.7500     -3.0000    695.3719      8.4504     67.5132
  1269.0000     -2.2522    693.8969      8.8332     69.0669
  1269.2500      0.0000    686.2249      9.4868     70.4162
  1269.5000      0.0000    679.2994     10.4424     71.3412
  1269.7500      0.0000    676.7714     11.6735     71.9921
  1270.0000      0.0000    673.6370     13.0298     72.5610
  1270.2500      0.0000    660.9905     14.2849     73.3067
  1270.5000      0.0000    635.1923     15.2554     74.8234
  1270.7500      0.0000    600.3946     15.8698     77.8196
  1271.0000      0.0000    563.7405     16.1611     82.5153
  1271.2500      0.0000    531.1016     16.2357     88.3854
  1271.5000      0.0000    506.6013     16.2197     94.5301
  1271.7500      0.0000    493.1813     16.1896    100.2513
  1272.0000      0.0000    493.4746     16.1316    105.3098
  1272.2500      0.0000    511.8184     15.9341    109.7448
  1272.5000      0.0000    554.1112     15.4048    113.5666
  1272.7500      0.0000    621.8897     14.3527    116.5489
  1273.0000      0.0000    704.6111     12.7386    118.2153
  1273.2500      0.0000    780.2111     10.7628    118.1874
  1273.5000      0.0000    827.9634      8.7673    116.5406
  1273.7500      0.0000    843.0917      7.0311    113.5441
  1274.0000      0.0000    837.7574      5.6452    109.0620
  1274.2500      0.0000    826.3405      4.5491    102.5087
  1274.5000      0.0000    811.6647      3.6494     93.5745
  1274.7500      0.0000    788.0299      2.9008     83.0007
  1275.0000      0.0000    754.9024      2.3109     72.5456
  1275.2500      0.0000    723.2932      1.9037     64.1507
  1275.5000      0.0000    709.0303      1.6939     59.0874
  1275.7500      0.0000    721.3358      1.6836     57.5795
