~Version Information
VERS.                      2.0: CWLS Log ASCII Standard - VERSION 2.0
WRAP.                       NO: One line per depth step
~Well Information Block
STRT.FT                 1.5000: 
STOP.FT              1895.2500: 
STEP.FT                 0.2500: 
NULL.                -999.2500: 
COMP.          Petrogulf Corporation: COMPANY
WELL.             State 16-32R: WELL
FLD.           Purgatorie River: FIELD
LOC.           1849' FNL & 1677' FEL: LOCATION
CNTY.               Las Animas: COUNTY
SRVC.                         : SERVICE COMPANY
DATE.          Thu May 20 08:40:19 2004: LOG DATE
UWI.           05 071 08033 00: UNIQUE WELL ID
STAT.                 Colorado: STATE
~Curve Information Block
DEPT.FT            0 000 00 00: Depth
GR.GAPI                       : Gamma Ray
CCL.                          : Casing Collar Locator
TT3.usec                      : CBL 3' Travel Time
AMP3.mV                       : CBL 3' Amplitude
~Parameter Information Block
~A  Depth        GR         CCL         TT3         AMP3    
# ...
   135.5000     72.8119      0.0000    287.0166     31.7105
   135.7500     71.9979      0.0000    286.8781     32.9577
   136.0000     69.1264      0.0000    286.7720     33.7186
   136.2500     65.2103      0.0000    286.7351     33.7720
   136.5000     62.1313      0.0000    286.7793     33.6056
   136.7500     60.7650      0.0000    286.8636     34.0564
   137.0000     60.4661      0.0000    286.9205     35.4756
   137.2500     60.2895      0.0000    286.9192     37.4298
   137.5000     60.1631      0.0000    286.8796     39.1153
   137.7500     60.6799      0.0000    286.8317     39.9926
   138.0000     62.1383      0.0000    286.7930     40.0685
   138.2500     64.1498      0.0000    286.7755     39.6054
   138.5000     66.1149      0.0000    286.7874     38.7690
   138.7500     67.7013      0.0000    286.8264     37.6475
   139.0000     68.6335      0.0000    286.8855     36.2846
   139.2500     68.4073      0.0000    286.9753     34.7161
   139.5000     66.8094      0.0000    287.1050     33.2500
   139.7500     64.5327      0.0000    287.2339     32.4343
   140.0000     62.6632      0.0000    287.2852     32.5371
   140.2500     61.6458      0.0000    287.2192     33.3029
   140.5000     61.1604      0.0000    287.0662     34.2418
   140.7500     60.8147      0.0000    286.9036     34.9465
   141.0000     60.5845      0.0000    286.8082     35.2329
   141.2500     60.7267      0.0000    286.7926     35.3291
   141.5000     61.4867      0.0000    286.7855     35.9036
   141.7500     62.7625      0.0000    286.7292     37.3741
   142.0000     63.9967      0.0000    286.6699     39.2518
   142.2500     64.6715      0.0000    286.6815     40.6753
   142.5000     65.0144      0.0000    286.7480     41.3210
   142.7500     65.8808      0.0000    286.7932     41.3749
   143.0000     67.6414      0.0000    286.7919     41.0304
   143.2500     69.5256      0.0000    286.7948     40.4686
   143.5000     70.5442      0.0000    286.8544     40.0013
   143.7500     70.7496      0.0000    286.9559     39.9064
   144.0000     70.9000      0.0000    287.0230     40.2640
   144.2500     70.9971      0.0000    286.9885     40.9570
   144.5000     69.9539      0.0000    286.8639     41.7350
   144.7500     67.0485      0.0000    286.7248     42.3355
   145.0000     63.2273      0.0000    286.6222     42.6437
   145.2500     60.4384      0.0000    286.5455     42.6467
   145.5000     59.8364      0.0000    286.4835     42.2511
   145.7500     61.1265      0.0000    286.4738     41.3618
   146.0000     63.4717      0.0000    286.5605     40.0966
   146.2500     66.3565      0.0000    286.7223     38.7614
   146.5000     69.6347      0.0000    286.8961     37.6350
   146.7500     73.3579      0.0000    287.0504     36.8353
   147.0000     77.4393      0.0000    287.1857     36.2714
   147.2500     81.0795      0.0000    287.2857     35.7156
   147.5000     83.0263      0.0000    287.3304     34.9872
   147.7500     82.9225      0.0000    287.3472     34.0695
   148.0000     81.9504      0.0000    287.3709     33.1959
   148.2500     81.6226      0.0000    287.3631     32.6977
   148.5000     82.1892      0.0000    287.2502     32.6345
   148.7500     82.5290      0.0000    287.0310     32.8134
   149.0000     81.3227      0.0000    286.7924     33.0476
   149.2500     78.0970      0.0000    286.6342     33.1624
   149.5000     73.3485      0.0000    286.6060     32.9892
   149.7500     67.9373      0.0000    286.7007     32.4187
   150.0000     62.4835      0.0000    286.8823     31.4017
   150.2500     57.3552      0.0000    287.1225     30.0402
   150.5000     53.0357      0.0000    287.4954     28.5380
   150.7500     50.2408      0.0000    288.5111     27.0459
   151.0000     49.4846      0.0000    291.8212     25.7168
   151.2500     50.4049      0.0000    300.0515     24.6780
   151.5000     51.6623      0.0000    312.7331     23.9241
   151.7500     51.9018      0.0000    321.9321     23.4692
   152.0000     50.9577      0.0000    319.1786     23.4336
   152.2500     49.8515      0.0000    307.1272     23.8150
   152.5000     49.5838      0.0000    295.6636     24.3491
   152.7500     50.2009      0.0000    289.8228     24.7422
   153.0000     51.0298      0.0000    288.5368     24.9528
   153.2500     51.4454      0.0000    290.6840     25.0341
   153.5000     51.2456      0.0000    297.1445     24.8717
   153.7500     50.5943      0.0000    306.3234     24.4621
   154.0000     49.9037      0.0000    310.9990     24.1923
   154.2500     49.6358      0.0000    306.2872     24.4315
   154.5000     49.9002      0.0000    297.1182     25.1282
   154.7500     50.1674      0.0000    290.6430     26.1597
   155.0000     49.6031      0.0000    288.1145     27.7619
   155.2500     47.8580      0.0000    287.4750     30.1484
   155.5000     45.3938      0.0000    287.3444     32.9549
   155.7500     42.9748      0.0000    287.3367     35.5881
   156.0000     41.0508      0.0000    287.3325     37.8453
   156.2500     39.6797      0.0000    287.0498     39.9047
   156.5000     38.7718      0.0000    285.5827     42.0533
   156.7500     38.1952      0.0000    281.1706     44.5171
   157.0000     37.6914      0.0000    272.6804     47.2640
   157.2500     36.9512      0.0000    262.1501     49.8085
   157.5000     35.9814      0.0000    253.7598     51.4920
   157.7500     35.3171      0.0000    249.4893     52.1409
   158.0000     35.6336      0.0000    248.1173     52.1883
   158.2500     37.1187      0.0000    247.8492     52.1423
   158.5000     39.4120      0.0000    247.8341     52.2198
   158.7500     42.1918      0.0000    247.8974     52.4290
   159.0000     45.4418      0.0000    248.2227     52.6248
   159.2500     48.9761      0.0000    249.6569     52.5020
   159.5000     52.1987      0.0000    253.9732     51.8647
   159.7500     54.7366      0.0000    262.3730     50.8528
   160.0000     56.9977      0.0000    272.8623     49.8658
   160.2500     59.7687      0.0000    281.2274     49.3385
   160.5000     63.4344      0.0000    285.2479     49.3892
   160.7500     67.6773      0.0000    285.2541     49.7579
   161.0000     71.6311      0.0000    281.2387     50.2325
   161.2500     74.1645      0.0000    272.8843     50.8602
   161.5000     74.3253      0.0000    262.5934     51.6795
   161.7500     72.0018      0.0000    255.2367     52.4490
   162.0000     68.2752      0.0000    253.7664     52.7581
   162.2500     64.8181      0.0000    256.4333     52.5144
   162.5000     62.7106      0.0000    258.2522     52.2110
   162.7500     61.8931      0.0000    256.1324     52.4832
   163.0000     61.6385      0.0000    252.0120     53.4908
   163.2500     61.3304      0.0000    249.0755     54.7911
   163.5000     60.7900      0.0000    247.9389     55.7625
   163.7500     60.1943      0.0000    247.6895     56.2355
   164.0000     60.0371      0.0000    247.6591     56.5763
   164.2500     61.1891      0.0000    247.6478     57.0238
   164.5000     64.7004      0.0000    247.6383     57.2331
   164.7500     71.2170      0.0000    247.6396     56.7433
   165.0000     80.4832      0.0000    247.6459     55.8035
   165.2500     91.3957      0.0000    247.6377     55.2681
   165.5000    102.4613      0.0000    247.6147     55.4736
   165.7500    112.2608      0.0000    247.6124     55.8138
   166.0000    119.6915      0.0000    247.6574     55.6985
   166.2500    124.0441      0.0000    247.7227     55.3591
   166.5000    125.1457      0.0000    247.7593     55.3946
   166.7500    123.4927      0.0000    247.7586     55.8824
   167.0000    120.0561      0.0000    247.7542     56.2815
   167.2500    116.0152      0.0000    247.7726     56.1276
   167.5000    112.6675      0.0000    247.8028     55.5498
   167.7500    111.0779      0.0000    247.8169     55.0907
   168.0000    111.2291      0.0000    247.8038     55.1331
   168.2500    111.7031      0.0000    247.7797     55.5463
   168.5000    110.8786      0.0000    247.7641     56.0208
   168.7500    108.7177      0.0000    247.7542     56.6538
