~Version Information
VERS.                      2.0: CWLS Log ASCII Standard - VERSION 2.0
WRAP.                       NO: One line per depth step
~Well Information Block
STRT.FT                 0.0000: 
STOP.FT              1916.0000: 
STEP.FT                 0.1000: 
NULL.                -999.2500: 
COMP.          Pioneer Natural Resources: COMPANY
WELL.          Blackjack 32-11 Tr: WELL
FLD.           Purgatorie River: FIELD
LOC.           2066' FNL & 1453' FEL: LOCATION
PROV.                 Colorado: PROVINCE
CNTY.               Las Animas: COUNTRY
SRVC.                Patterson: SERVICE COMPANY
DATE.          Tue Aug 16 12:08:23 2005: LOG DATE
UWI.                          : UNIQUE WELL ID
~Curve Information Block
DEPT.FT            0 000 00 00: Depth
DCAL.in                       : CDL Caliper
RHOB.g/cc                     : CDL Bulk Density
RHOC.g/cc                     : CDL Density Correction
DPOR.pu                       : CDL Density Porosity
GR.GAPI                       : Gamma Ray
NPOR.pu                       : Neutron Porosity
~Parameter Information Block
~A  Depth       DCAL        RHOB        RHOC        DPOR         GR         NPOR    
# ...
  1132.8000      8.0797      2.4431      0.0160     12.5371    145.0309     25.4641
  1132.9000      8.0797      2.4250      0.0301     13.6340    143.9053     24.9540
  1133.0000      8.0223      2.4201      0.0778     13.9316    142.1327     24.4866
  1133.1000      8.0223      2.4224      0.0807     13.7956    140.4505     24.0360
  1133.2000      8.0223      2.4247      0.0607     13.6540    140.3767     23.7404
  1133.3000      7.9977      2.4273      0.0757     13.4976    142.8385     23.5615
  1133.4000      7.9977      2.4355      0.0813     12.9979    143.4701     23.3482
  1133.5000      8.0230      2.4513      0.1544     12.0405    139.1183     23.1615
  1133.6000      8.0230      2.4679      0.1486     11.0336    135.6929     23.0789
  1133.7000      8.0230      2.4786      0.1520     10.3906    136.8356     23.1847
  1133.8000      7.9993      2.4816      0.1760     10.2047    137.9685     23.4959
  1133.9000      7.9993      2.4851      0.1377      9.9930    137.6554     23.7177
  1134.0000      8.0391      2.4972      0.1541      9.2597    140.8594     23.7331
  1134.1000      8.0391      2.5109      0.1834      8.4279    146.6667     23.8836
  1134.2000      8.0391      2.5160      0.1445      8.1186    147.5347     24.3798
  1134.3000      8.1115      2.5108      0.1372      8.4346    142.2506     24.9657
  1134.4000      8.1115      2.4987      0.0848      9.1726    135.7829     25.4398
  1134.5000      8.0682      2.4863      0.0905      9.9192    132.6395     25.8198
  1134.6000      8.0682      2.4848      0.0347     10.0121    132.6478     25.9559
  1134.7000      8.0682      2.4994      0.0711      9.1279    132.4611     25.8753
  1134.8000      8.0512      2.5178      0.0804      8.0128    131.0821     26.0361
  1134.9000      8.0512      2.5307      0.0521      7.2315    128.8205     26.6835
  1135.0000      8.1021      2.5424      0.0484      6.5234    124.7050     27.4886
  1135.1000      8.1021      2.5537      0.0588      5.8361    119.3069     27.8616
  1135.2000      8.1021      2.5633      0.0614      5.2566    115.4728     27.6186
  1135.3000      8.1271      2.5731      0.0766      4.6597    115.0665     27.2899
  1135.4000      8.1271      2.5846      0.0594      3.9636    115.8424     27.2893
  1135.5000      8.1340      2.5946      0.0226      3.3578    114.5820     27.5147
  1135.6000      8.1340      2.5934      0.0315      3.4325    112.9512     27.7873
  1135.7000      8.1340      2.5731      0.0340      4.6577    111.8166     28.0826
  1135.8000      8.0414      2.5446     -0.0022      6.3867    108.3790     28.4956
  1135.9000      8.0414      2.5311      0.0152      7.2089    103.3489     28.9159
  1136.0000      8.0001      2.5364      0.0284      6.8830    100.0899     29.1806
  1136.1000      8.0001      2.5402      0.0687      6.6557     97.8439     29.3035
  1136.2000      8.0001      2.5336     -0.0095      7.0558     94.1409     29.2655
  1136.3000      8.0203      2.5311      0.0445      7.2066     90.1058     29.0042
  1136.4000      8.0203      2.5358      0.0905      6.9212     89.1443     28.4502
  1136.5000      8.0020      2.5363      0.0886      6.8939     92.1519     27.6534
  1136.6000      8.0020      2.5293      0.1234      7.3160     97.3036     26.8208
  1136.7000      8.0020      2.5246      0.1262      7.6005    102.6170     26.2935
  1136.8000      7.9803      2.5264      0.1909      7.4912    106.2112     26.1314
  1136.9000      7.9803      2.5223      0.2121      7.7401    107.5707     25.9267
  1137.0000      7.8864      2.5077      0.2037      8.6217    108.1096     25.5044
  1137.1000      7.8864      2.4950      0.1917      9.3927    110.8776     25.0211
  1137.2000      7.8864      2.4960      0.1722      9.3312    118.2150     24.5391
  1137.3000      7.7933      2.5174      0.1764      8.0350    126.2629     24.1753
  1137.4000      7.7933      2.5557      0.1845      5.7140    129.3450     23.9603
  1137.5000      7.8157      2.5908      0.2131      3.5899    128.1927     23.7497
  1137.6000      7.8157      2.6052      0.1982      2.7141    127.2188     23.5891
  1137.7000      7.8157      2.6069      0.1723      2.6134    127.9546     23.7447
  1137.8000      7.9040      2.6111      0.1845      2.3555    128.9113     24.2682
  1137.9000      7.9040      2.6170      0.1722      1.9971    129.2824     24.7842
  1138.0000      7.9826      2.6166      0.1764      2.0240    129.1248     25.0791
  1138.1000      7.9826      2.6091      0.1528      2.4807    127.4586     25.3426
  1138.2000      7.9826      2.5955      0.1402      3.3018    124.1169     25.6500
  1138.3000      8.0037      2.5753      0.1062      4.5300    121.5196     25.7963
  1138.4000      8.0037      2.5545      0.0788      5.7862    121.5702     25.6250
  1138.5000      8.0159      2.5409      0.0836      6.6102    124.0320     25.2783
  1138.6000      8.0159      2.5336      0.0792      7.0525    127.5022     24.9852
  1138.7000      8.0159      2.5333      0.0475      7.0708    129.5180     24.8628
  1138.8000      8.0047      2.5485      0.0557      6.1544    128.8688     24.8193
  1138.9000      8.0047      2.5752      0.0985      4.5324    128.1199     24.6855
  1139.0000      7.9706      2.5905      0.1426      3.6081    129.2853     24.4326
  1139.1000      7.9706      2.5830      0.0877      4.0578    131.3292     24.1653
  1139.2000      7.9706      2.5644      0.1287      5.1860    134.1573     24.0184
  1139.3000      7.9964      2.5473      0.0920      6.2234    137.8310     24.0082
  1139.4000      7.9964      2.5378      0.0978      6.8008    140.7210     23.9802
  1139.5000      8.0202      2.5335      0.0960      7.0595    140.3889     23.9031
  1139.6000      8.0202      2.5345      0.0401      6.9986    138.2735     23.8751
  1139.7000      8.0202      2.5452      0.0977      6.3487    137.9422     23.8351
  1139.8000      8.0023      2.5582      0.1114      5.5611    137.9072     23.7487
  1139.9000      8.0023      2.5619      0.1035      5.3367    137.1577     23.7329
  1140.0000      8.0370      2.5515      0.1125      5.9716    138.7793     23.8265
  1140.1000      8.0370      2.5308      0.0730      7.2261    142.9724     24.0128
  1140.2000      8.0370      2.5096      0.0786      8.5070    145.9583     24.2401
  1140.3000      8.0470      2.4934      0.0502      9.4891    145.7771     24.3292
  1140.4000      8.0470      2.4825      0.0641     10.1545    143.9556     24.2850
  1140.5000      8.0725      2.4754      0.0466     10.5807    143.7589     24.3338
  1140.6000      8.0725      2.4705      0.0529     10.8789    146.0260     24.5008
  1140.7000      8.0725      2.4654      0.0678     11.1909    148.2126     24.6436
  1140.8000      8.0713      2.4653      0.0331     11.1926    147.8130     24.6234
  1140.9000      8.0713      2.4774      0.0625     10.4588    144.7273     24.3485
  1141.0000      8.0856      2.4932      0.0925      9.5028    143.0011     23.9839
  1141.1000      8.0856      2.5014      0.0704      9.0052    145.1093     23.9117
  1141.2000      8.0856      2.4989      0.0987      9.1590    147.2327     24.1370
  1141.3000      8.1013      2.4855      0.0758      9.9723    145.4324     24.3624
  1141.4000      8.1013      2.4663      0.0523     11.1340    142.1852     24.5618
  1141.5000      8.0872      2.4474      0.0574     12.2759    141.4094     24.8655
  1141.6000      8.0872      2.4331      0.0589     13.1455    141.6847     25.1635
  1141.7000      8.0872      2.4281      0.0417     13.4474    142.0423     25.2416
  1141.8000      8.0666      2.4278      0.0713     13.4673    144.5631     25.2147
  1141.9000      8.0666      2.4191      0.0589     13.9969    147.1175     25.2026
  1142.0000      8.0961      2.4041      0.0564     14.9026    145.3917     25.0595
  1142.1000      8.0961      2.3954      0.0854     15.4325    141.5305     24.5905
  1142.2000      8.0961      2.3951      0.0927     15.4505    140.8592     23.9271
  1142.3000      8.0809      2.4030      0.1044     14.9683    143.2919     23.4591
