~Version Information
 VERS.                                  2.0 : CWLS LAS VERSION
 WRAP.                                   NO : WRAPING MODE
 SWARE .                 MController 2.5.0I : SOFTWARE VERSION
~Well Information
 WELL.                           J&P 12-33v : WELL
 COMP.             Petrogulf Operating Corp : COMPANY
 FLD.                      Purgatorie River : FIELD
 LOC.                NW/SE Sec 12 T33S R68W : LOCATION
 DATE.                              8/27/04 : DATE(S) LOGGED
 SRVC.       Blanco Geological services LLC : SERVICE COMPANY
 STAT.                                   CO : STATE
 CNTY.                           Las Animas : COUNTY
 CTRY.                                  USA : COUNTRY
 API.                       05-071-08091-00 : API NUMBER
 STRT.FT                             770.00 : START DEPTH
 STOP.FT                            2580.00 : STOP DEPTH
 STEP.FT                               1.00 : DEPTH INCREMENT
 NULL.                                -9999 : NULL VALUE
~Curve information
 DEPTH.FT                                   :
 ROP.MIN/FT                                 :
 GAS.UNITS                                  :
~ASCII Log data
       770.0      -9999.0          3.1 
       771.0          0.9          3.8 
       772.0          0.2          3.6 
       773.0          0.1          3.5 
       774.0         11.5          4.2 
       775.0          1.4          2.2 
       776.0          0.2          1.8 
       777.0          0.2          1.5 
       778.0          0.1          1.5 
       779.0          0.1          1.5 
       780.0          0.2          1.2 
       781.0          0.2          1.1 
       782.0          0.2          0.6 
       783.0          0.2          0.1 
       784.0          0.2          0.1 
       785.0          0.1          0.2 
       786.0          0.2          0.0 
       787.0          0.2          0.0 
       788.0          0.1          0.2 
       789.0          0.1          0.3 
       790.0          0.2          1.3 
       791.0          0.1          0.5 
       792.0          0.1          0.5 
       793.0          0.2          1.7 
       794.0          0.2          3.4 
       795.0          0.2          1.9 
       796.0          0.2          1.8 
       797.0          0.2          1.8 
       798.0          0.2          2.0 
       799.0          0.2          1.7 
       800.0          0.2          2.1 
       801.0          0.2          2.1 
       802.0          0.2          2.1 
       803.0          0.2          2.0 
       804.0          0.2          1.9 
       805.0          0.2          2.5 
       806.0          0.2          2.1 
       807.0          0.2          2.2 
       808.0          2.7          2.5 
       809.0          0.3          2.3 
       810.0          0.2          2.2 
       811.0          0.2          1.8 
       812.0          0.2          1.6 
       813.0          0.2          1.5 
       814.0          0.2          1.4 
       815.0          0.2          1.5 
       816.0          0.2          1.6 
       817.0          0.2          1.8 
       818.0          0.2          2.1 
       819.0          0.2          2.1 
       820.0          0.2          1.9 
       821.0          0.2          1.9 
       822.0          0.1          2.1 
       823.0          0.2          2.2 
       824.0          0.2          1.9 
       825.0          0.2          1.9 
       826.0          0.2          2.0 
       827.0          0.2          1.8 
       828.0          0.2          2.1 
       829.0          0.1          2.1 
       830.0          0.1          2.2 
       831.0          0.1          1.9 
       832.0          0.1          2.0 
       833.0          0.1          2.0 
       834.0          0.1          1.8 
       835.0          0.1          1.6 
       836.0          0.1          1.6 
       837.0          0.2          2.2 
       838.0          1.3          2.4 
       839.0          0.1          2.0 
       840.0          0.3          2.2 
       841.0          0.2          2.0 
       842.0          0.2          2.2 
       843.0          0.2          2.1 
       844.0          0.2          2.3 
       845.0          0.2          2.3 
       846.0          0.2          2.2 
       847.0          0.2          2.2 
       848.0          0.2          2.3 
       849.0          0.2          2.1 
       850.0          0.2          2.2 
       851.0          0.2          2.0 
       852.0          0.2          2.1 
       853.0          0.2          2.0 
       854.0          0.2          2.1 
       855.0          0.2          2.3 
       856.0          0.2          2.2 
       857.0          0.2          2.3 
       858.0          0.2          2.3 
       859.0          0.2          2.3 
       860.0          0.1          2.1 
       861.0          0.2          2.5 
       862.0          0.1          2.4 
       863.0          0.1          2.4 
       864.0          0.1          2.6 
       865.0          0.1          2.6 
       866.0          0.2          2.4 
       867.0          0.1          2.6 
       868.0          1.8          2.9 
       869.0          0.4          2.8 
       870.0          0.2          2.8 
       871.0          0.2          2.6 
       872.0          0.2          2.5 
       873.0          0.2          2.5 
       874.0          0.1          2.5 
       875.0          0.2          2.7 
       876.0          0.2          2.3 
       877.0          0.2          2.6 
       878.0          0.1          2.4 
       879.0          0.2          2.4 
       880.0          0.1          2.5 
       881.0          0.2          2.4 
       882.0          0.2          2.7 
       883.0          0.2          2.5 
       884.0          0.2          2.4 
       885.0          0.1          2.3 
       886.0          0.2          2.3 
       887.0          0.2          2.3 
       888.0          0.2          2.4 
       889.0          0.2          2.3 
       890.0          0.2          2.5 
       891.0          0.2          2.4 
       892.0          0.2          2.4 
       893.0          0.2          2.5 
       894.0          0.2          2.7 
       895.0          0.2          2.5 
       896.0          0.2          2.5 
       897.0          0.2          2.6 
       898.0          1.8          2.8 
       899.0          0.1          2.9 
       900.0          0.4          2.9 
       901.0          0.3          2.5 
       902.0          0.4          2.6 
       903.0          0.3          2.5 
       904.0          0.2          2.2 
       905.0          0.2          2.5 
       906.0          0.1          2.6 
       907.0          0.1          2.2 
       908.0          0.1          2.3 
       909.0          0.1          2.1 
       910.0          0.1          2.3 
       911.0          0.1          2.1 
       912.0          0.1          1.9 
       913.0          0.1          2.2 
       914.0          0.1          2.1 
       915.0          0.2          2.2 
       916.0          0.2          2.1 
       917.0          0.1          1.7 
       918.0          0.1          1.8 
       919.0          0.2          1.8 
       920.0          0.2          1.8 
       921.0          0.2          1.9 
       922.0          0.1          1.7 
       923.0          0.2          2.0 
       924.0          0.1          2.1 
       925.0          0.2          2.1 
       926.0          0.2          2.2 
       927.0          0.2          2.2 
       928.0          2.4          2.9 
       929.0          0.4          2.9 
       930.0          0.2          2.9 
       931.0          0.2          2.8 
       932.0          0.2          2.8 
       933.0          0.2          2.9 
       934.0          0.2          2.9 
       935.0          0.2          2.9 
       936.0          0.2          2.8 
       937.0          0.2          2.5 
       938.0          0.2          2.4 
       939.0          0.2          2.4 
       940.0          0.2          2.1 
       941.0          0.2          2.3 
       942.0          0.2          2.1 
       943.0          0.2          2.5 
       944.0          0.2          2.4 
       945.0          0.2          2.6 
       946.0          0.2          2.4 
       947.0          0.2          2.3 
       948.0          0.1          2.1 
       949.0          0.2          2.4 
       950.0          0.2          2.4 
       951.0          0.2          2.4 
       952.0          0.2          2.2 
       953.0          0.2          2.3 
       954.0          0.3          2.2 
       955.0          0.2          2.3 
       956.0          0.2          2.3 
       957.0          0.2          2.3 
       958.0          2.9          3.0 
       959.0          0.3          2.8 
       960.0          0.4          2.6 
       961.0          0.3          2.6 
       962.0          0.2          2.5 
       963.0          0.2          2.2 
       964.0          0.2          2.3 
       965.0          0.2          2.3 
       966.0          0.2          2.3 
       967.0          0.2          2.4 
       968.0          0.2          2.7 
       969.0          0.2          2.4 
