~Version Information
VERS.                      2.0: CWLS Log ASCII Standard - VERSION 2.0
WRAP.                       NO: One line per depth step
~Well Information Block
STRT.FT                -2.2500: 
STOP.FT              1676.7500: 
STEP.FT                 0.2500: 
NULL.                -999.2500: 
COMP.          Pioneer Natural Resources: COMPANY
WELL.              Patten 22-2: WELL
FLD.           Purgatoire River: FIELD
LOC.           2157' FNL & 1528' FWL: LOCATION
PROV.                 Colorado: PROVINCE
CNTY.               Las Animas: COUNTRY
SRVC.                Patterson: SERVICE COMPANY
DATE.          Tue Dec 14 11:45:47 2004: LOG DATE
UWI.           05 071 08168 00: UNIQUE WELL ID
~Curve Information Block
DEPT.FT            0 000 00 00: Depth
GR.GAPI                       : Gamma Ray
CCL.                          : Casing Collar Locator
TT3.usec                      : CBL 3' Travel Time
AMP3.mV                       : CBL 3' Amplitude
~Parameter Information Block
~A  Depth        GR         CCL         TT3         AMP3    
# ...
  1103.2500    116.9675      0.0000    798.8903      3.9110
  1103.5000    117.3812      0.0000    804.0734      3.9116
  1103.7500    120.0945      0.0000    808.9705      3.9730
  1104.0000    124.3017      0.0000    814.4677      4.1163
  1104.2500    128.1810      0.0000    819.7905      4.3571
  1104.5000    130.1373      0.0000    822.3621      4.6835
  1104.7500    129.8357      0.0000    818.1037      5.0507
  1105.0000    127.9173      0.0000    805.0202      5.3986
  1105.2500    125.0134      0.0000    786.2703      5.6764
  1105.5000    121.1745      0.0000    768.0663      5.8558
  1105.7500    116.1083      0.0000    754.9896      5.9330
  1106.0000    110.0080      0.0000    747.8613      5.9274
  1106.2500    104.1976      0.0000    744.8920      5.8726
  1106.5000    100.5864      0.0000    743.6594      5.8009
  1106.7500    100.0866      0.0000    742.3776      5.7311
  1107.0000    101.7611      0.0000    740.3972      5.6703
  1107.2500    103.9068      0.0000    738.1208      5.6227
  1107.5000    105.7541      0.0000    736.3762      5.5928
  1107.7500    107.7977      0.0000    735.8706      5.5815
  1108.0000    110.7636      0.0000    737.1295      5.5853
  1108.2500    114.7876      0.0000    740.4811      5.5997
  1108.5000    119.5361      0.0000    745.5664      5.6200
  1108.7500    124.6593      0.0000    750.8198      5.6425
  1109.0000    129.8022      0.0000    753.8217      5.6662
  1109.2500    134.2368      0.0000    752.5840      5.6920
  1109.5000    136.9107      0.0000    746.9410      5.7171
  1109.7500    137.3122      0.0000    739.0062      5.7364
  1110.0000    136.2585      0.0000    732.0540      5.7519
  1110.2500    135.3901      0.0000    728.3347      5.7756
  1110.5000    135.6747      0.0000    727.6847      5.8198
  1110.7500    136.5193      0.0000    728.3566      5.8857
  1111.0000    136.2318      0.0000    729.0493      5.9636
  1111.2500    133.3505      0.0000    729.7896      6.0409
  1111.5000    128.1893      0.0000    731.0264      6.1066
  1111.7500    123.4528      0.0000    732.5839      6.1540
  1112.0000    122.5853      0.0000    733.7881      6.1837
  1112.2500    126.6568      0.0000    734.1830      6.2047
  1112.5000    132.9538      0.0000    733.7490      6.2285
  1112.7500    136.9724      0.0000    732.6408      6.2588
  1113.0000    135.6466      0.0000    731.1125      6.2893
  1113.2500    128.8757      0.0000    729.7307      6.3108
  1113.5000    118.8747      0.0000    729.2941      6.3176
  1113.7500    108.5938      0.0000    730.1930      6.3083
  1114.0000    100.2795      0.0000    731.9459      6.2833
  1114.2500     94.7073      0.0000    733.6129      6.2446
  1114.5000     91.3330      0.0000    734.6121      6.1979
  1114.7500     89.1167      0.0000    734.9937      6.1532
  1115.0000     87.3551      0.0000    735.0567      6.1219
  1115.2500     85.9963      0.0000    734.8873      6.1116
  1115.5000     85.4377      0.0000    734.1610      6.1208
  1115.7500     86.2281      0.0000    732.2160      6.1388
  1116.0000     88.8595      0.0000    728.4051      6.1530
  1116.2500     93.4796      0.0000    722.7413      6.1590
  1116.5000     99.6292      0.0000    716.3473      6.1614
  1116.7500    106.4094      0.0000    710.9422      6.1625
  1117.0000    112.9390      0.0000    707.5247      6.1537
  1117.2500    118.5026      0.0000    705.8998      6.1235
  1117.5000    122.3918      0.0000    706.0392      6.0749
  1117.7500    124.0893      0.0000    709.2025      6.0297
  1118.0000    123.8182      0.0000    716.4057      6.0101
  1118.2500    122.6659      0.0000    726.0696      6.0186
  1118.5000    121.8968      0.0000    734.7769      6.0370
  1118.7500    122.0430      0.0000    740.5182      6.0425
  1119.0000    122.6274      0.0000    744.0015      6.0223
  1119.2500    122.6906      0.0000    746.5593      5.9754
  1119.5000    121.5039      0.0000    747.6505      5.9091
  1119.7500    118.9711      0.0000    744.8805      5.8356
  1120.0000    115.7383      0.0000    736.3626      5.7703
  1120.2500    113.0560      0.0000    722.9284      5.7278
  1120.5000    112.3438      0.0000    708.0680      5.7130
  1120.7500    114.5341      0.0000    695.8171      5.7181
  1121.0000    119.5677      0.0000    688.3823      5.7298
  1121.2500    126.4211      0.0000    685.2127      5.7403
  1121.5000    133.4822      0.0000    684.2593      5.7506
  1121.7500    138.7381      0.0000    684.5583      5.7648
  1122.0000    140.1250      0.0000    687.7062      5.7844
  1122.2500    136.7708      0.0000    696.3224      5.8051
  1122.5000    130.1716      0.0000    710.7101      5.8201
  1122.7500    123.4273      0.0000    727.0713      5.8292
  1123.0000    119.0775      0.0000    739.4710      5.8419
  1123.2500    117.9555      0.0000    743.9864      5.8656
  1123.5000    119.6142      0.0000    741.1994      5.8909
  1123.7500    122.9732      0.0000    734.9218      5.8964
  1124.0000    126.5730      0.0000    728.9802      5.8695
  1124.2500    128.9196      0.0000    725.3015      5.8177
  1124.5000    129.0924      0.0000    723.9976      5.7608
  1124.7500    127.2934      0.0000    723.8353      5.7167
  1125.0000    124.8002      0.0000    722.7072      5.6960
  1125.2500    123.0038      0.0000    718.9346      5.7009
  1125.5000    122.3941      0.0000    712.5580      5.7223
  1125.7500    122.7084      0.0000    705.0375      5.7421
  1126.0000    123.7626      0.0000    697.8028      5.7459
  1126.2500    125.5614      0.0000    691.4437      5.7350
  1126.5000    127.8598      0.0000    686.1708      5.7231
  1126.7500    130.1648      0.0000    682.5649      5.7234
  1127.0000    131.9462      0.0000    681.6152      5.7401
  1127.2500    132.5907      0.0000    684.0246      5.7718
  1127.5000    131.5836      0.0000    689.5212      5.8149
  1127.7500    129.0215      0.0000    696.8560      5.8648
  1128.0000    125.6766      0.0000    704.7352      5.9164
  1128.2500    122.5250      0.0000    712.9380      5.9680
  1128.5000    120.5275      0.0000    722.2485      6.0193
  1128.7500    120.7186      0.0000    732.9545      6.0655
  1129.0000    123.7557      0.0000    743.4841      6.0985
  1129.2500    128.9879      0.0000    750.9470      6.1130
  1129.5000    134.3661      0.0000    753.1846      6.1097
  1129.7500    137.8580      0.0000    750.2399      6.0921
  1130.0000    139.0171      0.0000    743.9828      6.0638
  1130.2500    138.8281      0.0000    736.8492      6.0301
  1130.5000    138.1437      0.0000    731.0964      5.9990
  1130.7500    136.6786      0.0000    728.4645      5.9792
  1131.0000    133.4579      0.0000    729.5013      5.9763
  1131.2500    127.8640      0.0000    733.1346      5.9906
  1131.5000    120.3310      0.0000    737.4222      6.0174
  1131.7500    112.5282      0.0000    740.8561      6.0478
  1132.0000    106.9947      0.0000    742.9540      6.0710
  1132.2500    105.9433      0.0000    743.9358      6.0797
  1132.5000    109.6351      0.0000    744.1512      6.0758
  1132.7500    115.6901      0.0000    743.7932      6.0685
  1133.0000    120.3775      0.0000    742.8356      6.0654
  1133.2500    121.1341      0.0000    741.1314      6.0683
  1133.5000    118.1540      0.0000    738.7838      6.0766
  1133.7500    113.6872      0.0000    736.3759      6.0927
  1134.0000    109.9946      0.0000    734.4764      6.1206
  1134.2500    107.9462      0.0000    732.8960      6.1636
  1134.5000    107.1025      0.0000    730.7351      6.2211
  1134.7500    106.5619      0.0000    727.2103      6.2841
  1135.0000    105.6619      0.0000    722.2147      6.3357
  1135.2500    104.1312      0.0000    715.9492      6.3621
  1135.5000    101.8720      0.0000    708.3343      6.3623
  1135.7500     98.9025      0.0000    698.9539      6.3464
  1136.0000     95.6850      0.0000    687.0805      6.3256
  1136.2500     93.1695      0.0000    672.2590      6.3065
  1136.5000     91.9981      0.0000    656.8099      6.2902
