~Version Information
 VERS.                                  2.0 : CWLS LAS VERSION
 WRAP.                                   NO : WRAPING MODE
 SWARE .                 MController 2.5.0J : SOFTWARE VERSION
~Well Information
 WELL.                         Hill 33-22Tr : WELL
 COMP.    Pioneer Natural Resources USA Inc : COMPANY
 FLD.                      Purgatoire River : FIELD
 LOC.                 NW/SE Sec22 T32S R66W : LOCATION
 DATE.                           4/13-14/05 : DATE(S) LOGGED
 SRVC.       Blanco Geological Services LLC : SERVICE COMPANY
 STAT.                                   CO : STATE
 CNTY.                           Las Animas : COUNTY
 CTRY.                                  USA : COUNTRY
 API.                       05-071-08316-00 : API NUMBER
 STRT.FT                             642.00 : START DEPTH
 STOP.FT                            1810.00 : STOP DEPTH
 STEP.FT                               1.00 : DEPTH INCREMENT
 NULL.                                -9999 : NULL VALUE
~Curve information
 DEPTH.FT                                   :
 ROP.MIN/FT                                 :
 GAS.UNITS                                  :
~ASCII Log data
       642.0     -9999.00         11.1 
       643.0         7.03         12.4 
       644.0         0.50         11.4 
       645.0         2.52         12.1 
       646.0         0.13         11.4 
       647.0         0.67         12.3 
       648.0         8.02         13.4 
       649.0         1.80         13.6 
       650.0         0.10         12.9 
       651.0         0.07         13.5 
       652.0         0.90         13.9 
       653.0         0.10         11.6 
       654.0         0.98         11.6 
       655.0         0.23          1.2 
       656.0         0.13          1.2 
       657.0         0.07          0.8 
       658.0         0.40          2.0 
       659.0         1.62          3.3 
       660.0         1.20          2.5 
       661.0        10.62          2.4 
       662.0         0.67          2.2 
       663.0         6.57          3.5 
       664.0         0.37          1.9 
       665.0         0.43          1.7 
       666.0         1.28          2.5 
       667.0         1.20          2.9 
       668.0         0.27          1.4 
       669.0         0.23          1.8 
       670.0         0.43          2.3 
       671.0         0.12          2.4 
       672.0         0.20          2.4 
       673.0         0.20          2.4 
       674.0        98.05          6.7 
       675.0         1.75          3.3 
       676.0         0.33          2.5 
       677.0         0.63          3.3 
       678.0         1.50          3.3 
       679.0         0.23          3.0 
       680.0         0.40          2.4 
       681.0         0.38          2.3 
       682.0         0.17          2.4 
       683.0         0.37          2.6 
       684.0         0.17          2.8 
       685.0         0.30          3.0 
       686.0         0.23          3.1 
       687.0         0.80          2.8 
       688.0         0.23          2.4 
       689.0         0.73          2.6 
       690.0         0.22          2.6 
       691.0         0.17          2.6 
       692.0         1.00          2.7 
       693.0         0.70          3.3 
       694.0         0.13          2.7 
       695.0         0.87          2.9 
       696.0         0.10          2.8 
       697.0         0.20          2.8 
       698.0         0.12          2.9 
       699.0         0.53          2.8 
       700.0         0.10          2.5 
       701.0         0.23          2.8 
       702.0         0.10          3.3 
       703.0         0.67          3.6 
       704.0         0.90          3.2 
       705.0         0.17          2.9 
       706.0         0.20          3.2 
       707.0         0.85          3.1 
       708.0         0.17          2.2 
       709.0         0.10          2.2 
       710.0         0.73          2.7 
       711.0         0.17          2.9 
       712.0         0.20          3.4 
       713.0         0.40          3.2 
       714.0         0.27          3.0 
       715.0         0.98          3.4 
       716.0         0.13          2.7 
       717.0         0.20          2.3 
       718.0         0.10          2.3 
       719.0         0.63          3.2 
       720.0         0.20          2.7 
       721.0         0.40          2.2 
       722.0         0.37          2.4 
       723.0         0.57          2.7 
       724.0         0.27          1.8 
       725.0         0.38          1.9 
       726.0         4.42          2.1 
       727.0         0.23          1.2 
       728.0         0.10          1.1 
       729.0         0.13          1.1 
       730.0         0.13          0.9 
       731.0         0.23          1.3 
       732.0         0.40          1.6 
       733.0         0.87          2.4 
       734.0         0.22          1.7 
       735.0         0.30          1.7 
       736.0         0.17          1.9 
       737.0         0.17          1.6 
       738.0         0.13          1.6 
       739.0         0.13          1.0 
       740.0         0.13          1.6 
       741.0         0.13          1.3 
       742.0         0.13          1.3 
       743.0         0.20          1.9 
       744.0         0.27          2.1 
       745.0         0.10          2.1 
       746.0         0.13          1.8 
       747.0         0.20          1.7 
       748.0         0.10          1.7 
       749.0         0.27          2.4 
       750.0         0.40          2.4 
       751.0         0.17          2.4 
       752.0         0.13          1.7 
       753.0         0.15          1.7 
       754.0         0.23          1.5 
       755.0         0.10          2.1 
       756.0         0.17          2.0 
       757.0         1.33          2.4 
       758.0         0.27          1.3 
       759.0         0.17          1.9 
       760.0         0.17          1.9 
       761.0         0.13          2.3 
       762.0         0.10          2.1 
       763.0         0.13          2.5 
       764.0         0.10          2.5 
       765.0         0.38          2.8 
       766.0         0.10          2.5 
       767.0         0.20          2.2 
       768.0         0.10          2.2 
       769.0         0.10          2.2 
       770.0         0.13          2.8 
       771.0         0.53          2.7 
       772.0         0.13          2.7 
       773.0         0.17          2.1 
       774.0         0.17          2.3 
       775.0         0.13          2.3 
       776.0         0.17          2.5 
       777.0         0.13          2.5 
       778.0         0.23          2.9 
       779.0         0.23          2.6 
       780.0         1.02          3.0 
       781.0         0.60          2.7 
       782.0         0.20          3.1 
       783.0         0.23          2.5 
       784.0         0.17          2.5 
       785.0         0.17          2.6 
       786.0         0.17          2.6 
       787.0         0.17          3.1 
       788.0         0.13          3.1 
       789.0         0.30          2.7 
       790.0         0.13          2.5 
       791.0         0.17          2.9 
       792.0         0.13          2.6 
       793.0         0.13          2.6 
       794.0         0.98          1.2 
       795.0         0.17          0.9 
       796.0         0.17          1.3 
       797.0         2.27          9.0 
       798.0         1.55         69.7 
       799.0         0.30          7.6 
       800.0         0.13          7.6 
       801.0         0.20          7.4 
       802.0         0.43          9.3 
       803.0         0.20          9.6 
       804.0         0.13          9.6 
       805.0         0.20          9.9 
       806.0         1.32         10.8 
       807.0         0.07          9.0 
       808.0         0.50         10.0 
       809.0         0.37         10.2 
       810.0         0.20          9.4 
       811.0         0.17          9.4 
       812.0         0.40          9.0 
       813.0         0.13          8.4 
       814.0         0.13          8.3 
       815.0         0.17          8.4 
       816.0         0.13          8.4 
       817.0         0.12          9.3 
       818.0         0.13          9.3 
       819.0         0.10         10.0 
       820.0         0.13          9.5 
       821.0         0.30          9.6 
       822.0         0.37         10.2 
       823.0         0.30         10.6 
       824.0         0.10         11.1 
       825.0         0.23         10.4 
       826.0         0.23         10.4 
       827.0         0.33          9.9 
       828.0         0.33          9.8 
       829.0         0.13          9.4 
       830.0         0.37          9.9 
       831.0         0.28          9.8 
       832.0         0.50         10.0 
       833.0         0.10         10.0 
       834.0         0.13          9.9 
       835.0         0.17         10.2 
       836.0         0.97         10.1 
       837.0         0.17         10.0 
       838.0         0.13         10.4 
       839.0         0.23          9.6 
       840.0         0.33          9.3 
       841.0         0.23          8.4 
