~Version Information
VERS.                      2.0: CWLS Log ASCII Standard - VERSION 2.0
WRAP.                       NO: One line per depth step
~Well Information Block
STRT.FT               770.0000: 
STOP.FT              1718.7000: 
STEP.FT                 0.1000: 
NULL.                -999.2500: 
COMP.          Pioneer Natural Resources: COMPANY
WELL.            Salty 42-6 Tr: WELL
FLD.           Purgatoire River: FIELD
LOC.           2409' FNL & 599' FEL: LOCATION
PROV.                 Colorado: PROVINCE
CNTY.               Las Animas: COUNTRY
SRVC.                Patterson: SERVICE COMPANY
DATE.          Thu Dec 16 09:30:36 2004: LOG DATE
UWI.           05 071 08238 00: UNIQUE WELL ID
~Curve Information Block
DEPT.FT            0 000 00 00: Depth
DCAL.in                       : CDL Caliper
RHOB.g/cc                     : CDL Bulk Density
RHOC.g/cc                     : CDL Density Correction
DPOR.pu                       : CDL Density Porosity
NPOR.pu                       : Neutron Porosity
GR.GAPI                       : Gamma Ray
~Parameter Information Block
~A  Depth       DCAL        RHOB        RHOC        DPOR        NPOR         GR     
# ...
  1202.0000      8.0278      2.5754      0.0844      4.5231     26.7779    131.4790
  1202.1000      8.0278      2.5685      0.0332      4.9367     26.9159    126.2688
  1202.2000      8.0278      2.5440      0.0377      6.4237     27.2398    124.5255
  1202.3000      8.0441      2.5160      0.0234      8.1211     27.3308    127.4342
  1202.4000      8.0441      2.5003      0.0007      9.0738     27.0780    130.0468
  1202.5000      8.0517      2.5024      0.0233      8.9468     26.5241    133.3466
  1202.6000      8.0517      2.5097      0.0131      8.5013     25.7159    140.9737
  1202.7000      8.0517      2.5092      0.0727      8.5327     24.8398    150.5330
  1202.8000      8.0586      2.4978      0.0524      9.2241     24.1648    154.5567
  1202.9000      8.0586      2.4852      0.0837      9.9898     23.5383    151.5590
  1203.0000      8.0684      2.4826      0.0674     10.1467     22.7477    149.4142
  1203.1000      8.0684      2.4880      0.1037      9.8175     22.2701    150.5018
  1203.2000      8.0684      2.4907      0.1240      9.6549     22.4083    149.6833
  1203.3000      8.0718      2.4862      0.1377      9.9255     22.6901    146.3325
  1203.4000      8.0718      2.4762      0.1184     10.5330     22.5551    145.2059
  1203.5000      8.0566      2.4606      0.1281     11.4770     21.9600    148.4652
  1203.6000      8.0566      2.4469      0.0562     12.3112     21.3951    151.9877
  1203.7000      8.0566      2.4542      0.0454     11.8645     21.2827    152.9633
  1203.8000      8.0303      2.4869      0.1137      9.8838     21.4251    151.9240
  1203.9000      8.0303      2.5222      0.1531      7.7462     21.3172    149.9160
  1204.0000      8.0093      2.5410      0.1531      6.6062     20.9281    146.1478
  1204.1000      8.0093      2.5504      0.1189      6.0386     20.8224    139.8666
  1204.2000      8.0093      2.5639      0.1434      5.2172     21.3089    134.5010
  1204.3000      7.9977      2.5785      0.1536      4.3334     21.9162    131.0144
  1204.4000      7.9977      2.5792      0.1413      4.2929     22.2198    125.5518
  1204.5000      7.9902      2.5585      0.0765      5.5444     22.3043    120.1416
  1204.6000      7.9902      2.5273      0.0300      7.4362     22.4252    120.7819
  1204.7000      7.9902      2.5061     -0.0375      8.7223     22.5145    124.6773
  1204.8000      7.9878      2.5027      0.0190      8.9261     22.3753    124.8378
  1204.9000      7.9878      2.5056      0.0099      8.7512     22.1277    121.0411
  1205.0000      7.9917      2.5002      0.0160      9.0780     21.8703    117.4099
  1205.1000      7.9917      2.4812      0.0228     10.2305     21.5878    117.3178
  1205.2000      7.9917      2.4619     -0.0144     11.3987     21.4992    120.7397
  1205.3000      7.9967      2.4609     -0.0009     11.4601     21.7849    122.7127
  1205.4000      7.9967      2.4714      0.0105     10.8220     22.1149    119.7453
  1205.5000      7.9964      2.4753      0.0241     10.5898     22.0222    114.3625
  1205.6000      7.9964      2.4710      0.0394     10.8512     21.4086    110.9005
  1205.7000      7.9964      2.4737      0.0171     10.6850     20.5326    111.9881
  1205.8000      7.9941      2.4971      0.0419      9.2644     19.8388    115.9689
  1205.9000      7.9941      2.5343      0.0696      7.0142     19.8011    116.0457
  1206.0000      7.9933      2.5663      0.0766      5.0754     20.4401    109.9956
  1206.1000      7.9933      2.5821      0.0965      4.1163     21.1766    105.4930
  1206.2000      7.9933      2.5827      0.0824      4.0776     21.6360    107.7473
  1206.3000      7.9907      2.5792      0.0483      4.2938     22.0429    113.3781
  1206.4000      7.9907      2.5805      0.0770      4.2100     22.4378    117.6862
  1206.5000      7.9868      2.5825      0.0736      4.0903     22.6544    119.7755
  1206.6000      7.9868      2.5776      0.0820      4.3898     23.0038    120.1816
  1206.7000      7.9868      2.5696      0.0504      4.8748     23.6721    117.6184
  1206.8000      7.9854      2.5714      0.0496      4.7618     24.1764    113.8536
  1206.9000      7.9854      2.5825      0.0920      4.0912     24.2819    113.7700
  1207.0000      7.9868      2.5802      0.0764      4.2316     24.4210    115.6904
  1207.1000      7.9868      2.5578     -0.0013      5.5859     24.7554    113.4245
  1207.2000      7.9868      2.5366      0.0194      6.8725     24.9195    107.9596
  1207.3000      7.9891      2.5296      0.0448      7.2987     24.7205    104.6906
  1207.4000      7.9891      2.5400      0.0103      6.6675     24.5117    103.2563
  1207.5000      7.9896      2.5689      0.0725      4.9178     24.5252    100.6976
  1207.6000      7.9896      2.5978      0.0761      3.1613     24.5204     98.0312
  1207.7000      7.9896      2.6047      0.0980      2.7452     24.2885     97.1043
  1207.8000      7.9886      2.5940      0.0541      3.3957     23.8029     97.5131
  1207.9000      7.9886      2.5830      0.0406      4.0602     23.2752     98.6650
  1208.0000      7.9842      2.5717      0.0642      4.7432     22.9694    101.2006
  1208.1000      7.9842      2.5579      0.0470      5.5810     23.0312    105.6205
  1208.2000      7.9842      2.5523      0.0268      5.9236     23.5616    110.3591
  1208.3000      7.9711      2.5608      0.0312      5.4064     24.2013    113.5756
  1208.4000      7.9711      2.5808      0.0225      4.1954     24.5522    114.5059
  1208.5000      7.9609      2.6085      0.0707      2.5179     24.7405    111.6180
  1208.6000      7.9609      2.6391      0.0821      0.6577     24.9743    105.3274
  1208.7000      7.9609      2.6738      0.0544     -1.4414     25.3289    101.5893
  1208.8000      7.9696      2.7078      0.0976     -3.5037     25.8078    104.2586
  1208.9000      7.9696      2.7168      0.0871     -4.0467     26.3794    108.3540
  1209.0000      7.9807      2.6878      0.0806     -2.2891     27.0288    109.4306
  1209.1000      7.9807      2.6450      0.0546      0.3030     27.6794    110.6528
  1209.2000      7.9807      2.6260      0.0099      1.4562     28.2362    112.4439
  1209.3000      7.9843      2.6410     -0.0053      0.5433     28.4695    109.8778
  1209.4000      7.9843      2.6627      0.0575     -0.7711     28.4467    103.7094
  1209.5000      7.9858      2.6603      0.0339     -0.6228     28.5476     98.0956
  1209.6000      7.9858      2.6354      0.0006      0.8863     28.6010     94.4691
  1209.7000      7.9858      2.6099      0.0341      2.4278     28.3225     95.5853
  1209.8000      7.9876      2.5926      0.0376      3.4783     27.8938    102.7086
  1209.9000      7.9876      2.5815      0.0057      4.1503     27.1855    109.3852
  1210.0000      7.9911      2.5789      0.0459      4.3085     26.0754    109.7080
  1210.1000      7.9911      2.5840      0.0269      3.9981     25.0921    107.5820
  1210.2000      7.9911      2.5926      0.0424      3.4760     24.4279    107.2361
  1210.3000      7.9952      2.6042      0.0482      2.7782     23.8785    106.7119
  1210.4000      7.9952      2.6162      0.0903      2.0503     23.4466    105.3386
  1210.5000      7.9981      2.6228      0.0299      1.6461     23.1438    105.6528
  1210.6000      7.9981      2.6217      0.0741      1.7131     23.2290    108.8071
  1210.7000      7.9981      2.6114      0.0626      2.3384     23.9634    112.5365
  1210.8000      8.0017      2.6009      0.0029      2.9735     24.8528    116.8461
  1210.9000      8.0017      2.6033      0.0459      2.8307     25.1364    122.2555
  1211.0000      8.0013      2.6134      0.0755      2.2177     24.7719    124.1684
  1211.1000      8.0013      2.6137      0.0681      2.1980     24.3263    121.6006
  1211.2000      8.0013      2.5934      0.0739      3.4278     24.0435    118.3328
  1211.3000      7.9971      2.5582      0.0334      5.5637     23.7118    115.2983
  1211.4000      7.9971      2.5268      0.0026      7.4690     23.4583    112.7551
  1211.5000      7.9917      2.5148     -0.0008      8.1967     23.4368    112.0731
