~Version Information
VERS.                      2.0: CWLS Log ASCII Standard - VERSION 2.0
WRAP.                       NO: One line per depth step
~Well Information Block
STRT.FT               650.0000: 
STOP.FT              2000.5000: 
STEP.FT                 0.1000: 
NULL.                -999.2500: 
COMP.          Pioneer Natural Resources: COMPANY
WELL.           Firehawk 34-26: WELL
FLD.           Purgatoire River: FIELD
LOC.           1196' FSL & 1595' FEL--: LOCATION
STAT.                 Colorado: State
CNTY.               Las Animas: COUNTY
CTRY. USA : Country
SECT. 26 : Section
TOWN. 32S : Township
RANG. 66W : Range
SRVC.                Patterson: SERVICE COMPANY
DATE.          Mon Oct 17 07:23:34 2005: LOG DATE
API.           05 071 08389 00: UNIQUE WELL ID
~Curve Information Block
DEPT.FT            0 000 00 00: Depth
DCAL.in                       : CDL Caliper
RHOB.g/cc                     : CDL Bulk Density
RHOC.g/cc                     : CDL Density Correction
DPOR.pu                       : CDL Density Porosity
NPOR.pu                       : Neutron Porosity
GR.GAPI                       : Gamma Ray
~Parameter Information Block
~A  Depth       DCAL        RHOB        RHOC        DPOR        NPOR         GR     
# ...
  1792.4000      7.9826      2.4620      0.0577     11.3931     27.7938    130.4359
  1792.5000      7.9837      2.4773      0.0608     10.4654     28.2780    132.8589
  1792.6000      7.9837      2.4930      0.0251      9.5124     28.5465    126.8046
  1792.7000      7.9837      2.5054      0.0702      8.7621     28.7597    116.7979
  1792.8000      7.9825      2.5144      0.0627      8.2177     28.5783    109.3032
  1792.9000      7.9825      2.5281      0.0627      7.3866     28.1218    106.4656
  1793.0000      7.9806      2.5435      0.0784      6.4562     27.8723    105.3945
  1793.1000      7.9806      2.5417      0.0720      6.5624     27.9363    106.1504
  1793.2000      7.9806      2.5192      0.0341      7.9248     28.1718    106.0509
  1793.3000      7.9806      2.4947      0.0346      9.4145     28.4487    103.8533
  1793.4000      7.9806      2.4867      0.0312      9.8969     28.6742    101.2010
  1793.5000      7.9833      2.4944      0.0683      9.4318     28.6639     97.7766
  1793.6000      7.9833      2.4984      0.0486      9.1852     28.2793     98.7972
  1793.7000      7.9833      2.4892      0.0335      9.7448     28.0151    105.4275
  1793.8000      7.9861      2.4785     -0.0023     10.3910     28.2620    110.5453
  1793.9000      7.9861      2.4756      0.0433     10.5682     28.7753    114.2834
  1794.0000      7.9873      2.4728      0.0503     10.7395     29.2662    121.7608
  1794.1000      7.9873      2.4675      0.0367     11.0579     29.6498    130.0945
  1794.2000      7.9873      2.4626      0.0529     11.3561     29.9451    133.6562
  1794.3000      7.9876      2.4469      0.0693     12.3110     30.1182    131.2188
  1794.4000      7.9876      2.4131      0.0365     14.3547     30.0956    123.6521
  1794.5000      7.9872      2.3777      0.0018     16.5031     29.7927    114.1138
  1794.6000      7.9872      2.3554      0.0145     17.8570     29.4469    108.8782
  1794.7000      7.9872      2.3450      0.0036     18.4860     29.4933    109.2419
  1794.8000      7.9878      2.3505     -0.0181     18.1508     29.8780    110.6247
  1794.9000      7.9878      2.3791      0.0277     16.4166     30.0515    111.7571
  1795.0000      7.9923      2.4186      0.0660     14.0228     29.6625    112.1772
  1795.1000      7.9923      2.4460      0.0950     12.3627     28.9709    108.8476
  1795.2000      7.9923      2.4499      0.1236     12.1298     28.4474    103.9271
  1795.3000      7.9958      2.4375      0.0741     12.8814     28.3161    102.9666
  1795.4000      7.9958      2.4284      0.0561     13.4327     28.3978    105.0932
  1795.5000      7.9898      2.4406      0.0273     12.6929     28.3537    107.1254
  1795.6000      7.9898      2.4725      0.0749     10.7578     28.2359    109.4347
  1795.7000      7.9898      2.5021      0.0737      8.9634     28.0452    108.9630
  1795.8000      7.9827      2.5137      0.0665      8.2609     27.7070    103.8085
  1795.9000      7.9827      2.5097      0.0750      8.5047     27.5865     99.8107
  1796.0000      7.9798      2.4995      0.0505      9.1237     27.9178     98.4430
  1796.1000      7.9798      2.4923      0.0342      9.5550     28.4409     97.1936
  1796.2000      7.9798      2.4886      0.0571      9.7801     28.7627     98.9694
  1796.3000      7.9794      2.4813      0.0474     10.2271     28.4964    103.3507
  1796.4000      7.9794      2.4773      0.0004     10.4639     27.6913    107.5055
  1796.5000      7.9826      2.4875      0.0477      9.8474     26.8776    110.7082
  1796.6000      7.9826      2.5020      0.0586      8.9701     26.3996    110.1613
  1796.7000      7.9826      2.5120      0.0446      8.3617     25.9505    104.5787
  1796.8000      7.9859      2.5223      0.0495      7.7400     25.4660     97.0522
  1796.9000      7.9859      2.5358      0.0481      6.9241     25.8149     90.3623
  1797.0000      7.9882      2.5500      0.0645      6.0618     27.1982     87.5610
  1797.1000      7.9882      2.5559      0.0839      5.7057     28.5627     90.9649
  1797.2000      7.9882      2.5396      0.0564      6.6902     29.4767     97.2817
  1797.3000      7.9934      2.4973      0.0541      9.2575     30.3455    101.8527
  1797.4000      7.9934      2.4411     -0.0149     12.6596     30.9919    105.4579
  1797.5000      8.0028      2.3873     -0.0184     15.9221     31.2683    107.8171
  1797.6000      8.0028      2.3291     -0.0165     19.4461     31.6184    105.6322
  1797.7000      8.0028      2.2465     -0.0145     24.4524     32.5492    103.2315
  1797.8000      8.0092      2.1435     -0.1101     30.6943     34.0233    105.8670
  1797.9000      8.0092      2.0473     -0.1069     36.5247     35.4093    107.3519
  1798.0000      8.0141      1.9677     -0.1007     41.3492     36.3324    102.8875
  1798.1000      8.0141      1.8899     -0.0943     46.0648     36.9258     98.2154
  1798.2000      8.0141      1.8039     -0.1053     51.2778     37.2397     96.9225
  1798.3000      8.0481      1.7190     -0.0844     56.4213     37.3605     95.5731
  1798.4000      8.0481      1.6521     -0.0364     60.4772     37.5348     91.6560
  1798.5000      8.1660      1.6176      0.0071     62.5713     37.7079     85.5399
  1798.6000      8.1660      1.6229      0.0852     62.2482     37.4869     81.1321
  1798.7000      8.1660      1.6584      0.1457     60.0992     36.7477     85.3205
  1798.8000      8.3283      1.7065      0.1597     57.1830     35.9954     94.9630
  1798.9000      8.3283      1.7608      0.1985     53.8922     35.5596     99.2492
  1799.0000      8.3419      1.8193      0.2326     50.3458     35.2481     98.7497
  1799.1000      8.3419      1.8769      0.2024     46.8518     35.0314     99.0811
  1799.2000      8.3419      1.9295      0.1913     43.6639     34.9401     98.9628
  1799.3000      8.1884      1.9734      0.1952     41.0053     34.5666    100.0484
  1799.4000      8.1884      2.0029      0.1625     39.2181     34.0530    105.2223
  1799.5000      8.0712      2.0066      0.1265     38.9956     34.2597    109.5898
  1799.6000      8.0712      1.9746      0.0513     40.9362     35.4974    109.5125
  1799.7000      8.0712      1.9101      0.0037     44.8428     37.0680    103.8837
  1799.8000      8.0427      1.8239     -0.0266     50.0680     38.0540     94.1975
  1799.9000      8.0427      1.7352     -0.1150     55.4415     38.4358     84.7037
  1800.0000      8.0544      1.6643     -0.0663     59.7369     38.8306     76.3871
  1800.1000      8.0544      1.6054     -0.0214     63.3115     39.2352     66.8123
  1800.2000      8.0544      1.5427     -0.0026     67.1086     39.2142     54.9830
  1800.3000      8.1132      1.4824      0.0331     70.7657     38.8339     43.4965
  1800.4000      8.1132      1.4380      0.0430     73.4541     38.6211     36.7712
  1800.5000      8.2385      1.4085      0.0830     75.2424     38.9493     36.8895
  1800.6000      8.2385      1.3840      0.0532     76.7260     39.4581     39.4741
  1800.7000      8.2385      1.3637      0.0468     77.9552     39.3609     39.6629
  1800.8000      8.4077      1.3536      0.0828     78.5700     38.6301     39.4890
  1800.9000      8.4077      1.3599      0.0781     78.1875     38.0466     41.9187
  1801.0000      8.5368      1.3931      0.0816     76.1771     37.7993     44.8827
  1801.1000      8.5368      1.4599      0.1143     72.1300     37.2897     47.6800
  1801.2000      8.5368      1.5543      0.1279     66.4035     36.4154     52.5334
  1801.3000      8.5273      1.6611      0.1726     59.9362     35.6180     57.6282
  1801.4000      8.5273      1.7578      0.2134     54.0738     35.2138     60.0203
  1801.5000      8.4177      1.8238      0.2401     50.0727     34.9544     62.2142
  1801.6000      8.4177      1.8546      0.2028     48.2043     34.4675     68.9579
  1801.7000      8.4177      1.8657      0.1532     47.5312     33.9019     79.6763
  1801.8000      8.2846      1.8802      0.1152     46.6569     33.5814     88.2948
  1801.9000      8.2846      1.9184      0.0464     44.3382     33.4978     92.0743
