~Version Information
VERS.                      2.0: CWLS Log ASCII Standard - VERSION 2.0
WRAP.                       NO: One line per depth step
~Well Information Block
STRT.FT               521.6000: 
STOP.FT              1490.2000: 
STEP.FT                 0.1000: 
NULL.                -999.2500: 
COMP.          Petrogulf Corporation: COMPANY
WELL.          Robinson 15-11R: WELL
FLD.           Purgatorie River: FIELD
LOC.           324' FNL & 570' FWL: LOCATION
CNTY.               Las Animas: COUNTY
SRVC.                         : SERVICE COMPANY
DATE.          Sat Nov 06 22:43:15 2004: LOG DATE
UWI.           05 071 08029 00: UNIQUE WELL ID
STAT.                 Colorado: STATE
~Curve Information Block
DEPT.FT            0 000 00 00: Depth
DCAL.in                       : CDL Caliper
RHOB.g/cc                     : CDL Bulk Density
RHOC.g/cc                     : CDL Density Correction
DPOR.pu                       : CDL Density Porosity
GR.GAPI                       : Gamma Ray
NPOR.pu                       : Neutron Porosity
~Parameter Information Block
~A  Depth       DCAL        RHOB        RHOC        DPOR         GR         NPOR    
# ...
  1414.4000      7.8618      2.5092      0.0510      8.5342    134.3778     23.6253
  1414.5000      7.8536      2.4950      0.0111      9.3952    134.6457     23.0310
  1414.6000      7.8536      2.4961      0.0201      9.3260    128.3853     22.4906
  1414.7000      7.8536      2.4991      0.0112      9.1444    122.3359     22.7274
  1414.8000      7.8497      2.4935      0.0409      9.4837    118.8225     23.6741
  1414.9000      7.8497      2.4692      0.0550     10.9574    117.4522     24.4287
  1415.0000      7.8797      2.4334      0.0346     13.1282    119.8908     24.6188
  1415.1000      7.8797      2.4146     -0.0182     14.2695    123.0541     24.6478
  1415.2000      7.8797      2.4263      0.0269     13.5599    123.3844     25.0948
  1415.3000      7.8632      2.4596      0.0177     11.5364    121.7759     26.0093
  1415.4000      7.8632      2.4977      0.0926      9.2303    121.1365     26.7919
  1415.5000      7.8810      2.5167      0.0874      8.0775    125.1831     27.0140
  1415.6000      7.8810      2.5074      0.0949      8.6450    133.3153     26.7641
  1415.7000      7.8810      2.4866      0.0415      9.9053    141.7189     26.2592
  1415.8000      7.8451      2.4716      0.0524     10.8129    144.2787     25.5980
  1415.9000      7.8451      2.4654      0.0720     11.1886    137.6276     25.0161
  1416.0000      7.8816      2.4703      0.0295     10.8915    130.5698     25.0113
  1416.1000      7.8816      2.4851      0.0679      9.9967    131.5845     25.4773
  1416.2000      7.8816      2.4944      0.0751      9.4311    136.1052     25.6932
  1416.3000      7.8671      2.4886      0.0385      9.7804    135.9562     25.4039
  1416.4000      7.8671      2.4730      0.0405     10.7245    133.2606     25.1846
  1416.5000      7.8260      2.4550      0.0503     11.8201    132.0123     25.1205
  1416.6000      7.8260      2.4418      0.0290     12.6161    128.2001     24.9182
  1416.7000      7.8260      2.4419      0.0383     12.6134    121.3394     24.4796
  1416.8000      7.8343      2.4567      0.0268     11.7179    118.1721     23.6246
  1416.9000      7.8343      2.4854      0.0081      9.9763    121.9885     23.0782
  1417.0000      7.8289      2.5188      0.0870      7.9543    127.3977     23.7211
  1417.1000      7.8289      2.5328      0.1109      7.1054    129.3666     24.6600
  1417.2000      7.8289      2.5192      0.0734      7.9246    129.3398     24.7360
  1417.3000      7.8825      2.4991      0.0567      9.1429    129.6578     24.3416
  1417.4000      7.8825      2.4887      0.0571      9.7771    129.5957     24.1842
  1417.5000      7.9005      2.4832      0.0765     10.1105    125.9237     24.3276
  1417.6000      7.9005      2.4797      0.1156     10.3193    118.8446     24.4656
  1417.7000      7.9005      2.4825      0.0753     10.1541    112.3616     24.3531
  1417.8000      7.8968      2.4857      0.0808      9.9561    109.4229     24.4673
  1417.9000      7.8968      2.4770      0.0593     10.4864    108.5528     24.9780
  1418.0000      7.8515      2.4642      0.0196     11.2610    107.2672     25.1569
  1418.1000      7.8515      2.4765     -0.0170     10.5138    107.0852     24.9836
  1418.2000      7.8515      2.5284      0.0483      7.3680    109.3794     24.7959
  1418.3000      7.8381      2.5970      0.1336      3.2143    114.5640     24.0619
  1418.4000      7.8381      2.6433      0.1507      0.4033    119.3726     22.7854
  1418.5000      7.7999      2.6549      0.1305     -0.2974    116.8348     22.0282
  1418.6000      7.7999      2.6467      0.1387      0.2028    106.8218     22.0645
  1418.7000      7.7999      2.6295      0.1778      1.2435    100.0556     22.1844
  1418.8000      7.7647      2.6062      0.1075      2.6523    103.8011     22.0960
  1418.9000      7.7647      2.5815      0.0947      4.1491    110.7983     22.1695
  1419.0000      7.6484      2.5497      0.1253      6.0813    116.2058     22.7611
  1419.1000      7.6484      2.5079      0.0529      8.6113    122.2965     23.6124
  1419.2000      7.6484      2.4709      0.0642     10.8531    127.0311     24.0378
  1419.3000      7.7221      2.4434      0.0332     12.5209    128.3769     24.0483
  1419.4000      7.7221      2.4184      0.0256     14.0360    128.2041     24.3546
  1419.5000      7.8185      2.3935      0.0382     15.5450    130.0851     25.2250
  1419.6000      7.8185      2.3739      0.0176     16.7314    135.6837     26.1280
  1419.7000      7.8185      2.3728      0.0215     16.7999    143.2867     26.1298
  1419.8000      7.8632      2.3977      0.0492     15.2939    148.5598     25.2464
  1419.9000      7.8632      2.4435      0.0678     12.5157    148.3058     24.5063
  1420.0000      7.8702      2.4979      0.1350      9.2189    141.9499     24.5541
  1420.1000      7.8702      2.5388      0.1687      6.7395    131.6715     25.2439
  1420.2000      7.8702      2.5481      0.1220      6.1746    123.7166     26.4665
  1420.3000      7.8814      2.5315      0.0888      7.1799    123.8188     28.0336
  1420.4000      7.8814      2.5126      0.0237      8.3270    133.1919     28.9206
  1420.5000      7.8811      2.5132      0.0398      8.2889    147.3020     28.4936
  1420.6000      7.8811      2.5291      0.0590      7.3283    155.8537     27.7780
  1420.7000      7.8811      2.5404      0.0537      6.6447    153.6843     27.7229
  1420.8000      7.8672      2.5441      0.0800      6.4165    150.2829     27.4969
  1420.9000      7.8672      2.5450      0.0707      6.3665    152.7486     26.7924
  1421.0000      7.8617      2.5443      0.0566      6.4033    151.6585     26.4702
  1421.1000      7.8617      2.5482      0.0732      6.1677    140.8790     26.5727
  1421.2000      7.8617      2.5624      0.0539      5.3064    129.6080     26.8319
  1421.3000      7.8581      2.5893      0.0750      3.6809    123.5000     27.3061
  1421.4000      7.8581      2.6234      0.1230      1.6118    121.8074     27.7376
  1421.5000      7.8514      2.6530      0.1402     -0.1791    125.9902     28.0945
  1421.6000      7.8514      2.6727      0.1047     -1.3729    133.5849     28.5728
  1421.7000      7.8514      2.6829      0.1571     -1.9928    139.8136     28.6511
  1421.8000      7.8480      2.6817      0.1399     -1.9229    146.7603     28.1525
  1421.9000      7.8480      2.6764      0.1232     -1.6009    155.5566     27.8480
  1422.0000      7.8870      2.6753      0.1331     -1.5344    157.6778     28.0233
  1422.1000      7.8870      2.6689      0.1784     -1.1452    152.7339     27.9036
  1422.2000      7.8870      2.6397      0.1390      0.6219    152.3908     27.3318
  1422.3000      7.8832      2.5922      0.0345      3.5009    156.4249     26.9698
  1422.4000      7.8832      2.5530      0.0348      5.8806    156.8762     26.9434
  1422.5000      7.7996      2.5403      0.0292      6.6487    151.7943     26.9556
  1422.6000      7.7996      2.5433      0.1660      6.4665    140.5551     26.9528
  1422.7000      7.7996      2.5344      0.0754      7.0091    129.4189     27.1571
  1422.8000      7.8288      2.5031      0.0505      8.9034    128.0199     27.5877
  1422.9000      7.8288      2.4511      0.0510     12.0574    135.5792     28.0578
  1423.0000      7.8303      2.3834      0.0113     16.1584    146.6120     28.4959
  1423.1000      7.8303      2.3067      0.0346     20.8057    156.1260     28.5347
  1423.2000      7.8303      2.2218      0.0200     25.9493    158.6059     27.9420
  1423.3000      7.8464      2.1421     -0.0134     30.7814    155.3376     27.3373
  1423.4000      7.8464      2.0918     -0.0128     33.8280    154.1132     27.3569
  1423.5000      7.8616      2.0780     -0.0018     34.6663    150.5435     27.8195
  1423.6000      7.8616      2.0882      0.0586     34.0502    137.2313     28.2088
  1423.7000      7.8616      2.1133      0.0353     32.5283    124.0145     28.4846
  1423.8000      7.8478      2.1585      0.1214     29.7854    120.3725     29.0764
  1423.9000      7.8478      2.2263      0.1499     25.6769    121.5816     29.8671
