~Version Information
VERS.                      2.0: CWLS Log ASCII Standard - VERSION 2.0
WRAP.                       NO: One line per depth step
~Well Information Block
STRT.FT                30.0000: 
STOP.FT              2789.0000: 
STEP.FT                 0.1000: 
NULL.                -999.2500: 
COMP.          Pioneer Natural Resources: COMPANY
WELL.          Rabbit Bush Federal 44-19: WELL
FLD.           Purgatorie River: FIELD
LOC.           826' FSL & 1127' FEL: LOCATION
CNTY.               Las Animas: COUNTY
SRVC.                Patterson: SERVICE COMPANY
DATE.          Mon Aug 28 10:56:57 2006: LOG DATE
UWI.           05-071-08149-00: UNIQUE WELL ID
STAT.                 Colorado: STATE
~Curve Information Block
DEPT.FT            0 000 00 00: Depth
DCAL.in                       : CDL Caliper
RHOB.g/cc                     : CDL Bulk Density
RHOC.g/cc                     : CDL Density Correction
DPOR.pu                       : CDL Density Porosity
GR.GAPI                       : Gamma Ray
NPOR.pu                       : Neutron Porosity
~Parameter Information Block
~A  Depth       DCAL        RHOB        RHOC        DPOR         GR         NPOR    
# ...
  2391.6000      7.9713      2.2281      0.2451     25.5723    139.9760     19.3635
  2391.7000      7.9713      2.3884      0.2643     15.8530    149.1864     20.0203
  2391.8000      7.9073      2.5360      0.2909      6.9099    154.4162     20.9490
  2391.9000      7.9073      2.6261      0.2985      1.4481    154.2521     21.7694
  2392.0000      7.8608      2.6497      0.2794      0.0177    152.4101     22.2153
  2392.1000      7.8608      2.6383      0.2382      0.7071    152.9848     22.4384
  2392.2000      7.8608      2.6208      0.2241      1.7693    155.7260     22.6678
  2392.3000      7.8677      2.6035      0.1424      2.8184    157.1893     22.7134
  2392.4000      7.8677      2.5932      0.1152      3.4405    157.4258     22.2113
  2392.5000      7.8968      2.5897      0.1545      3.6545    156.2329     21.6342
  2392.6000      7.8968      2.5835      0.1305      4.0319    151.0979     21.7097
  2392.7000      7.8968      2.5751      0.0947      4.5395    146.7194     22.2015
  2392.8000      7.9247      2.5626      0.1201      5.2941    149.1960     22.4288
  2392.9000      7.9247      2.5398      0.0842      6.6773    156.1711     22.3485
  2393.0000      7.9484      2.5165      0.0471      8.0883    162.1385     22.2387
  2393.1000      7.9484      2.5142      0.0319      8.2304    163.9593     22.0734
  2393.2000      7.9484      2.5485      0.0440      6.1538    161.6043     21.9079
  2393.3000      7.9559      2.6099      0.1002      2.4295    159.1041     21.9551
  2393.4000      7.9559      2.6597      0.1906     -0.5870    160.0175     22.2564
  2393.5000      7.9456      2.6671      0.1576     -1.0369    161.2482     22.7183
  2393.6000      7.9456      2.6468      0.0696      0.1954    158.6796     23.1779
  2393.7000      7.9456      2.6280      0.1641      1.3332    155.3454     23.4837
  2393.8000      7.9337      2.6124      0.1440      2.2814    157.3793     23.5729
  2393.9000      7.9337      2.5907      0.1694      3.5911    162.4743     23.4213
  2394.0000      7.9306      2.5720      0.1040      4.7303    162.5852     23.2155
  2394.1000      7.9306      2.5698      0.0478      4.8619    157.2044     23.1737
  2394.2000      7.9306      2.5696      0.1428      4.8728    153.9855     23.2408
  2394.3000      7.9373      2.5610      0.0690      5.3950    155.3864     23.1835
  2394.4000      7.9373      2.5658      0.1143      5.1037    158.6541     22.9189
  2394.5000      7.9545      2.5870      0.0881      3.8170    163.2069     22.6083
  2394.6000      7.9545      2.5962      0.1106      3.2635    167.4014     22.2890
  2394.7000      7.9545      2.5741      0.1110      4.5996    169.0000     21.9219
  2394.8000      7.9810      2.5353      0.0873      6.9543    168.4320     21.5147
  2394.9000      7.9810      2.5128      0.0495      8.3179    167.7330     21.1896
  2395.0000      7.9962      2.5203      0.1154      7.8604    167.6588     21.1977
  2395.1000      7.9962      2.5378      0.1613      6.8004    166.8535     21.3944
  2395.2000      7.9962      2.5534      0.0959      5.8568    164.3702     21.3554
  2395.3000      8.0066      2.5816      0.0922      4.1469    162.2679     21.1321
  2395.4000      8.0066      2.6182      0.1586      1.9268    162.8866     21.1626
  2395.5000      8.0299      2.6330      0.1980      1.0284    164.9175     21.5871
  2395.6000      8.0299      2.6133      0.2005      2.2238    165.8525     22.2622
  2395.7000      8.0299      2.5764      0.1957      4.4615    164.8125     22.9075
  2395.8000      8.0430      2.5504      0.0743      6.0388    160.6506     23.3323
  2395.9000      8.0430      2.5465      0.0842      6.2738    153.3567     23.7573
  2396.0000      8.0341      2.5475      0.0760      6.2127    147.7226     24.4431
  2396.1000      8.0341      2.5390      0.0827      6.7243    147.0403     25.1182
  2396.2000      8.0341      2.5346      0.0423      6.9942    148.4602     25.3983
  2396.3000      8.0140      2.5536      0.0293      5.8425    148.9816     25.2856
  2396.4000      8.0140      2.5888      0.0911      3.7070    148.1274     25.0293
  2396.5000      7.9897      2.6159      0.0853      2.0689    147.8508     24.9617
  2396.6000      7.9897      2.6259      0.0828      1.4630    150.4656     25.0725
  2396.7000      7.9897      2.6228      0.0965      1.6503    154.0436     25.0794
  2396.8000      7.9764      2.6112      0.0705      2.3527    154.6762     24.9787
  2396.9000      7.9764      2.6008      0.0605      2.9808    151.7899     24.9318
  2397.0000      7.9771      2.5985      0.0661      3.1216    147.5900     24.9648
  2397.1000      7.9771      2.5958      0.0802      3.2840    146.6826     24.8666
  2397.2000      7.9771      2.5803      0.0273      4.2254    149.5714     24.5363
  2397.3000      7.9847      2.5543      0.0234      5.7992    150.7853     24.2600
  2397.4000      7.9847      2.5369     -0.0019      6.8555    149.5716     24.2542
  2397.5000      7.9859      2.5435      0.0214      6.4548    149.5120     24.3164
  2397.6000      7.9859      2.5597      0.1379      5.4705    151.7775     24.0898
  2397.7000      7.9859      2.5560      0.1072      5.6973    156.0006     23.6789
  2397.8000      7.9746      2.5371      0.0446      6.8427    160.7290     23.4872
  2397.9000      7.9746      2.5356      0.0911      6.9351    162.5266     23.5720
  2398.0000      7.9614      2.5608      0.1089      5.4035    159.1806     23.6571
  2398.1000      7.9614      2.5970      0.1526      3.2151    154.7255     23.5844
  2398.2000      7.9614      2.6228      0.2437      1.6492    153.3168     23.4715
  2398.3000      7.9522      2.6256      0.1820      1.4814    152.2437     23.3107
  2398.4000      7.9522      2.6063      0.2105      2.6483    150.8588     23.0293
  2398.5000      7.9421      2.5723      0.1698      4.7097    152.0511     22.7409
  2398.6000      7.9421      2.5391      0.1287      6.7241    154.6493     22.6300
  2398.7000      7.9421      2.5205      0.0720      7.8496    154.2320     22.9564
  2398.8000      7.9408      2.5200      0.0727      7.8817    150.4545     23.6627
  2398.9000      7.9408      2.5372      0.0338      6.8358    149.1765     24.2237
  2399.0000      7.9526      2.5673      0.0901      5.0147    153.4551     24.2511
  2399.1000      7.9526      2.5939      0.1047      3.4027    159.2974     23.7978
  2399.2000      7.9526      2.6027      0.1443      2.8662    162.0974     23.1394
  2399.3000      7.9578      2.5943      0.1367      3.3734    159.2085     22.5504
  2399.4000      7.9578      2.5776      0.1271      4.3856    152.1316     22.2711
  2399.5000      7.9523      2.5569      0.1428      5.6444    147.7875     22.2569
  2399.6000      7.9523      2.5338      0.0966      7.0443    149.3966     22.1252
  2399.7000      7.9523      2.5058      0.1370      8.7389    153.8972     21.7066
  2399.8000      7.9538      2.4630      0.0887     11.3317    155.2042     21.2365
  2399.9000      7.9538      2.4178      0.0487     14.0706    148.7690     21.0237
  2400.0000      7.9640      2.3976      0.0640     15.2966    139.5349     21.1531
  2400.1000      7.9640      2.3968      0.1072     15.3442    135.7755     21.2442
  2400.2000      7.9640      2.3940      0.0915     15.5152    137.1198     21.0696
  2400.3000      7.9727      2.3939      0.0921     15.5223    137.9109     20.9450
  2400.4000      7.9727      2.4093      0.1414     14.5901    135.8490     20.9272
  2400.5000      7.9801      2.4327      0.1692     13.1714    133.2953     20.9252
  2400.6000      7.9801      2.4540      0.0686     11.8777    132.4017     21.1261
  2400.7000      7.9801      2.4740      0.0713     10.6686    132.6904     21.6074
  2400.8000      7.9906      2.4916      0.0595      9.5992    133.1867     22.0674
  2400.9000      7.9906      2.5022      0.1185      8.9575    133.2204     22.2145
  2401.0000      8.0015      2.5038      0.0585      8.8636    133.3698     22.1202
  2401.1000      8.0015      2.5033      0.0551      8.8893    133.3653     22.1731
