~Version Information
VERS.                      2.0: CWLS Log ASCII Standard - VERSION 2.0
WRAP.                       NO: One line per depth step
~Well Information Block
STRT.FT               395.0000: 
STOP.FT              1998.0000: 
STEP.FT                 0.1000: 
NULL.                -999.2500: 
COMP.          Pioneer Natural Resources: COMPANY
WELL.          Easton 12-30 Tr: WELL
FLD.           Purgatoire River: FIELD
LOC.           549' FWL & 2416' FNL--: LOCATION
PROV.                 Colorado: PROVINCE
CNTY.               Las Animas: COUNTRY
SRVC.                Patterson: SERVICE COMPANY
DATE.          Thu Jun 02 09:14:44 2005: LOG DATE
UWI.           05 071 08379 00: UNIQUE WELL ID
~Curve Information Block
DEPT.FT            0 000 00 00: Depth
DCAL.in                       : CDL Caliper
RHOB.g/cc                     : CDL Bulk Density
RHOC.g/cc                     : CDL Density Correction
DPOR.pu                       : CDL Density Porosity
NPOR.pu                       : Neutron Porosity
GR.GAPI                       : Gamma Ray
~Parameter Information Block
~A  Depth       DCAL        RHOB        RHOC        DPOR        NPOR         GR     
# ...
   817.4000      8.1431      2.7673      0.0262     -7.1085     30.6623     88.3749
   817.5000      8.1481      2.7556      0.0408     -6.3983     31.4631     90.4489
   817.6000      8.1481      2.7313      0.0292     -4.9252     31.9349     91.6516
   817.7000      8.1481      2.6853     -0.0051     -2.1406     31.8876     94.3482
   817.8000      8.1560      2.6346     -0.0259      0.9311     31.6037    101.1307
   817.9000      8.1560      2.5988     -0.0532      3.1050     31.4379    108.9812
   818.0000      8.1639      2.5893     -0.0265      3.6796     31.4821    114.6182
   818.1000      8.1639      2.6034     -0.0030      2.8251     31.3596    118.3135
   818.2000      8.1639      2.6220      0.0567      1.6946     30.8344    119.3880
   818.3000      8.1679      2.6291      0.0559      1.2659     30.2485    116.9724
   818.4000      8.1679      2.6305      0.0520      1.1847     29.9485    112.8656
   818.5000      8.1696      2.6400      0.0725      0.6049     29.6963    110.3374
   818.6000      8.1696      2.6490      0.0819      0.0589     29.2652    110.0633
   818.7000      8.1696      2.6381      0.0671      0.7226     29.0214    110.8009
   818.8000      8.1717      2.6177      0.0306      1.9594     29.3050    113.5576
   818.9000      8.1717      2.6105      0.0537      2.3959     29.8234    118.5925
   819.0000      8.1758      2.6100      0.1024      2.4269     30.1491    123.4715
   819.1000      8.1758      2.6025      0.0405      2.8766     29.9936    125.2217
   819.2000      8.1758      2.5913      0.0714      3.5577     29.2424    123.0933
   819.3000      8.1825      2.5823      0.0254      4.1011     28.2839    120.6919
   819.4000      8.1825      2.5826      0.0341      4.0850     27.6821    121.1284
   819.5000      8.1891      2.5954      0.0519      3.3101     27.5734    123.4731
   819.6000      8.1891      2.6160      0.0424      2.0590     27.6943    127.7956
   819.7000      8.1891      2.6353      0.0685      0.8923     28.0590    131.4789
   819.8000      8.1930      2.6465      0.0591      0.2141     28.8464    129.9309
   819.9000      8.1930      2.6549      0.0655     -0.2979     29.8385    125.4405
   820.0000      8.1945      2.6672      0.0568     -1.0398     30.5372    121.9644
   820.1000      8.1945      2.6718      0.0848     -1.3201     30.7840    120.0659
   820.2000      8.1945      2.6581      0.0257     -0.4928     30.8031    119.8521
   820.3000      8.1984      2.6422      0.0366      0.4735     30.8418    120.9731
   820.4000      8.1984      2.6443     -0.0119      0.3432     31.0106    123.2937
   820.5000      8.2052      2.6659      0.0223     -0.9663     31.1363    125.4966
   820.6000      8.2052      2.6940     -0.0370     -2.6673     31.1418    126.2730
   820.7000      8.2052      2.7151      0.0220     -3.9462     31.2391    124.5337
   820.8000      8.2090      2.7194      0.0029     -4.2045     31.4263    119.9721
   820.9000      8.2090      2.7106      0.0496     -3.6749     31.4833    116.1861
   821.0000      8.2102      2.7024      0.0227     -3.1743     31.2819    116.4122
   821.1000      8.2102      2.6900      0.0513     -2.4265     31.0236    120.4990
   821.2000      8.2102      2.6525      0.0339     -0.1535     30.8265    126.0405
   821.3000      8.2130      2.6004     -0.0802      3.0078     30.5771    130.6829
   821.4000      8.2130      2.5685     -0.0002      4.9415     30.5811    133.9419
   821.5000      8.2182      2.5645     -0.0076      5.1838     30.9198    134.7135
   821.6000      8.2182      2.5733      0.0166      4.6508     31.0969    133.2591
   821.7000      8.2182      2.5829      0.0091      4.0667     31.0635    132.9405
   821.8000      8.2219      2.6036     -0.0700      2.8133     31.0838    134.3014
   821.9000      8.2219      2.6400      0.0587      0.6054     30.9742    132.8226
   822.0000      8.2225      2.6573      0.0970     -0.4452     30.8253    128.0551
   822.1000      8.2225      2.6347      0.0373      0.9266     31.3791    125.2500
   822.2000      8.2225      2.6007      0.0079      2.9901     32.5654    125.4869
   822.3000      8.2228      2.5861      0.0122      3.8720     33.1086    126.9213
   822.4000      8.2228      2.5866      0.0108      3.8412     32.4797    129.0131
   822.5000      8.2234      2.5790      0.0340      4.3031     31.6355    131.9319
   822.6000      8.2234      2.5553     -0.0149      5.7423     31.5004    135.8490
   822.7000      8.2234      2.5287     -0.0009      7.3528     31.9008    141.0299
   822.8000      8.2224      2.5183     -0.0662      7.9817     32.0285    147.6391
   822.9000      8.2224      2.5358      0.0139      6.9195     31.5924    153.4145
   823.0000      8.2210      2.5685      0.0458      4.9403     31.0595    156.3452
   823.1000      8.2210      2.5847      0.0838      3.9605     30.8359    155.4189
   823.2000      8.2210      2.5637      0.0797      5.2318     30.8044    147.6573
   823.3000      8.2215      2.5203      0.0148      7.8593     30.5896    135.8746
   823.4000      8.2215      2.4903     -0.0059      9.6787     30.0365    129.1615
   823.5000      8.2252      2.4829      0.0372     10.1246     29.4284    130.5623
   823.6000      8.2252      2.4713      0.1100     10.8287     28.8616    134.0665
   823.7000      8.2252      2.4341      0.0699     13.0876     27.9805    134.3341
   823.8000      8.2329      2.3780     -0.0028     16.4873     26.4542    133.2408
   823.9000      8.2329      2.3038      0.0401     20.9840     24.2788    130.7237
   824.0000      8.2494      2.2001     -0.0104     27.2665     21.8540    123.2455
   824.1000      8.2494      2.0779     -0.1033     34.6722     19.6795    114.6446
   824.2000      8.2494      1.9556     -0.0359     42.0831     17.5469    110.7669
   824.3000      8.2742      1.8343     -0.0691     49.4372     14.8443    109.7209
   824.4000      8.2742      1.7107     -0.0705     56.9253     11.9777    106.1101
   824.5000      8.3026      1.5921     -0.0762     64.1137      9.9224     99.9240
   824.6000      8.3026      1.4964     -0.0851     69.9127      8.7061     94.5181
   824.7000      8.3026      1.4340     -0.0136     73.6941      7.9111     88.4884
   824.8000      8.3428      1.4034      0.0121     75.5533      7.4864     81.1450
   824.9000      8.3428      1.4104      0.0789     75.1275      7.4302     76.7517
   825.0000      8.3905      1.4598      0.1745     72.1329      7.7599     77.1832
   825.1000      8.3905      1.5435      0.2223     67.0594      8.5111     80.8335
   825.2000      8.3905      1.6502      0.2782     60.5938      9.4399     86.8954
   825.3000      8.3939      1.7622      0.3565     53.8078     10.3870     94.9433
   825.4000      8.3939      1.8541      0.3744     48.2365     11.4406    100.3567
   825.5000      8.3380      1.9127      0.3391     44.6856     12.6336    101.6688
   825.6000      8.3380      1.9486      0.2332     42.5106     13.6411    106.1556
   825.7000      8.3380      1.9756      0.2488     40.8708     14.2359    115.0541
   825.8000      8.2868      1.9915      0.1844     39.9091     14.6818    121.5283
   825.9000      8.2868      1.9936      0.1272     39.7847     15.1129    124.2960
   826.0000      8.2684      1.9893      0.0268     40.0424     15.1031    126.0358
   826.1000      8.2684      1.9871      0.0011     40.1772     14.4046    128.3088
   826.2000      8.2684      1.9816      0.0292     40.5121     13.4153    129.3898
   826.3000      8.2670      1.9584      0.0371     41.9172     12.4181    126.8668
   826.4000      8.2670      1.9160      0.0435     44.4847     11.4220    124.3963
   826.5000      8.2731      1.8739     -0.0036     47.0363     10.5100    126.8461
   826.6000      8.2731      1.8561      0.0135     48.1179      9.9009    132.0128
   826.7000      8.2731      1.8601      0.0555     47.8725      9.6382    134.6273
   826.8000      8.2866      1.8600      0.0594     47.8795      9.6866    134.6135
   826.9000      8.2866      1.8515      0.0128     48.3928     10.2660    137.7439
