~Version Information
VERS.                      2.0: CWLS Log ASCII Standard - VERSION 2.0
WRAP.                       NO: One line per depth step
~Well Information Block
STRT.FT               970.5000: 
STOP.FT              2720.0000: 
STEP.FT                 0.1000: 
NULL.                -999.2500: 
COMP.          Petrogulf Corporation: COMPANY
WELL.             Burson 8-31V: WELL
FLD.           Purgatorie River: FIELD
LOC.           1113' FNL & 2152' FEL: LOCATION
CNTY.               Las Animas: COUNTY
SRVC.                         : SERVICE COMPANY
DATE.          Wed Nov 12 14:59:14 2003: LOG DATE
UWI.                          : UNIQUE WELL ID
STAT.                 Colorado: STATE
~Curve Information Block
DEPT.FT            0 000 00 00: Depth
DCAL.in                       : CDL Caliper
DPOR.pu                       : CDL Density Porosity
NEU.NAPI                      : Neutron
NPOR.pu                       : Neutron Porosity
RHOB.g/cc                     : CDL Bulk Density
RHOC.g/cc                     : CDL Density Correction
GR.GAPI                       : Gamma Ray
~Parameter Information Block
~A  Depth       DCAL        DPOR        NEU         NPOR        RHOB        RHOC         GR     
# ...
  1793.7000      7.9892      7.3815   1245.2928     18.2159      2.5282      0.0002     86.6242
  1793.8000      7.9892      6.0806   1242.2623     18.3590      2.5497      0.0502     66.5465
  1793.9000      7.9892      5.4023   1234.2555     18.7393      2.5609      0.1012     66.5465
  1794.0000      7.9835      5.8807   1221.1602     19.3680      2.5530      0.0720     76.2066
  1794.1000      7.9835      6.7855   1209.5330     19.9330      2.5380      0.0961     76.2066
  1794.2000      7.9835      7.8013   1200.8353     20.3598      2.5213      0.0320     76.2066
  1794.3000      7.9810      9.0424   1188.0684     20.9924      2.5008      0.0380     88.7039
  1794.4000      7.9810     10.0639   1170.6184     21.8683      2.4839      0.0234     88.7039
  1794.5000      7.9821     10.3576   1158.3972     22.4892      2.4791      0.0616     79.5482
  1794.6000      7.9821      9.9210   1146.0208     23.1239      2.4863      0.0277     79.5482
  1794.7000      7.9821      8.9437   1121.0295     24.4227      2.5024      0.0576     79.5482
  1794.8000      7.9850      7.5765   1096.0789     25.7405      2.5250      0.0409     92.9714
  1794.9000      7.9850      6.3025   1083.3617     26.4196      2.5460      0.1149     92.9714
  1795.0000      7.9852      5.8375   1073.8199     26.9322      2.5537      0.0634    108.1911
  1795.1000      7.9852      6.2176   1065.1783     27.3986      2.5474      0.0213    108.1911
  1795.2000      7.9852      6.8589   1063.8535     27.4703      2.5368      0.0781    108.1911
  1795.3000      7.9853      7.0725   1065.9701     27.3558      2.5333      0.0362    119.1526
  1795.4000      7.9853      6.3995   1069.3124     27.1752      2.5444      0.0137    119.1526
  1795.5000      7.9907      5.1116   1082.0264     26.4912      2.5657      0.0825    139.0863
  1795.6000      7.9907      3.9270   1102.6240     25.3929      2.5852      0.0792    139.0863
  1795.7000      7.9907      3.2245   1121.6787     24.3887      2.5968      0.0550    139.0863
  1795.8000      7.9760      3.1807   1131.8131     23.8596      2.5975      0.0978    153.3091
  1795.9000      7.9760      4.1969   1127.2404     24.0979      2.5808      0.0572    153.3091
  1796.0000      7.9607      5.9133   1116.8657     24.6412      2.5524      0.0380    132.8599
  1796.1000      7.9607      7.1184   1118.3584     24.5628      2.5325     -0.0063    132.8599
  1796.2000      7.9607      7.1792   1132.8010     23.8082      2.5315     -0.0335    132.8599
  1796.3000      7.9048      6.7034   1144.4564     23.2046      2.5394      0.0066    140.9527
  1796.4000      7.9048      6.4576   1144.7843     23.1877      2.5434     -0.0027    140.9527
  1796.5000      7.9577      6.3493   1139.5962     23.4557      2.5452     -0.0102    134.4884
  1796.6000      7.9577      5.9629   1133.3362     23.7804      2.5516      0.0061    134.4884
  1796.7000      7.9577      5.1276   1126.1115     24.1568      2.5654      0.0301    134.4884
  1796.8000      7.9622      3.9201   1123.7490     24.2803      2.5853      0.0285    122.4362
  1796.9000      7.9622      2.7587   1128.3052     24.0423      2.6045      0.0739    122.4362
  1797.0000      7.9468      2.2337   1125.3301     24.1977      2.6131      0.0959    142.5467
  1797.1000      7.9468      2.7599   1110.3571     24.9839      2.6045      0.1232    142.5467
  1797.2000      7.9468      4.2493   1099.1034     25.5797      2.5799      0.0814    142.5467
  1797.3000      7.9444      6.0567   1099.3990     25.5640      2.5501      0.0864    160.5064
  1797.4000      7.9444      7.6034   1108.2783     25.0937      2.5245      0.1366    160.5064
  1797.5000      7.9487      8.6029   1128.2537     24.0450      2.5081      0.0629    174.3236
  1797.6000      7.9487      9.1547   1160.2079     22.3969      2.4989      0.0658    174.3236
  1797.7000      7.9487      9.7383   1193.1184     20.7413      2.4893      0.0130    174.3236
  1797.8000      7.9543     10.3709   1215.2528     19.6543      2.4789      0.0446    168.0977
  1797.9000      7.9543     10.5344   1228.4535     19.0168      2.4762     -0.0031    168.0977
  1798.0000      7.9514     10.4093   1243.2572     18.3120      2.4782      0.0315    176.2874
  1798.1000      7.9514     11.4343   1260.9977     17.4821      2.4613      0.0835    176.2874
  1798.2000      7.9514     13.3982   1270.7640     17.0323      2.4289     -0.0281    176.2874
  1798.3000      7.9516     14.2642   1265.1942     17.2881      2.4146      0.0640    194.1459
  1798.4000      7.9516     14.5084   1246.7941     18.1452      2.4106      0.1472    194.1459
  1798.5000      7.9610     15.6681   1224.5638     19.2038      2.3915      0.0522    187.1489
  1798.6000      7.9610     17.4866   1204.4189     20.1836      2.3615      0.0409    187.1489
  1798.7000      7.9610     20.7068   1176.8186     21.5556      2.3083      0.1502    187.1489
  1798.8000      7.9901     26.2866   1141.4449     23.3601      2.2163      0.0937    172.1280
  1798.9000      7.9901     31.7673   1118.9203     24.5333      2.1258     -0.0244    172.1280
  1799.0000      8.0139     34.1575   1111.2600     24.9363      2.0864      0.0214    170.5447
  1799.1000      8.0139     33.8431   1096.5118     25.7175      2.0916      0.1182    170.5447
  1799.2000      8.0139     32.6810   1069.2598     27.1781      2.1108      0.1142    170.5447
  1799.3000      8.1527     31.2072   1045.3147     28.4779      2.1351      0.1243    150.4438
  1799.4000      8.1527     29.2908   1035.7863     28.9990      2.1667      0.2019    150.4438
  1799.5000      8.1359     27.1025   1038.7549     28.8364      2.2028      0.2462    151.1337
  1799.6000      8.1359     24.2269   1045.2100     28.4836      2.2503      0.2201    151.1337
  1799.7000      8.1359     19.9497   1050.2222     28.2103      2.3208      0.2431    151.1337
  1799.8000      8.0095     14.9503   1054.2097     27.9934      2.4033      0.2617    143.6272
  1799.9000      8.0095     10.7944   1056.1509     27.8879      2.4719      0.1485    143.6272
  1800.0000      7.9842      7.8212   1060.8409     27.6334      2.5210      0.1469    148.6693
  1800.1000      7.9842      5.7530   1074.1908     26.9122      2.5551      0.1826    148.6693
  1800.2000      7.9842      4.6650   1086.3712     26.2585      2.5730      0.1613    148.6693
  1800.3000      8.0675      3.8927   1086.1011     26.2729      2.5858      0.1539    162.7563
  1800.4000      8.0675      2.6019   1080.0916     26.5950      2.6071      0.1768    162.7563
  1800.5000      7.9823      1.3522   1079.4769     26.6280      2.6277      0.2482    156.3873
  1800.6000      7.9823      1.2088   1087.7069     26.1870      2.6301      0.2274    156.3873
  1800.7000      7.9823      2.2330   1097.7224     25.6531      2.6132      0.2255    156.3873
  1800.8000      7.9986      3.9894   1100.9728     25.4805      2.5842      0.1468    153.0353
  1800.9000      7.9986      5.7305   1097.0902     25.6867      2.5554      0.0980    153.0353
  1801.0000      8.0308      6.6342   1093.1326     25.8974      2.5405      0.0956    118.8573
  1801.1000      8.0308      6.9893   1099.9805     25.5331      2.5347      0.0784    118.8573
  1801.2000      8.0308      7.5441   1119.1399     24.5218      2.5255      0.1022    118.8573
  1801.3000      7.9283      7.9615   1139.1520     23.4787      2.5186      0.0438    127.2415
  1801.4000      7.9283      7.2538   1151.2399     22.8556      2.5303      0.0427    127.2415
  1801.5000      7.8867      5.7577   1155.4834     22.6381      2.5550      0.0759    123.7398
  1801.6000      7.8867      5.1133   1160.1454     22.4000      2.5656      0.0905    123.7398
  1801.7000      7.8867      5.8124   1171.5549     21.8210      2.5541      0.0203    123.7398
  1801.8000      7.8661      5.9996   1189.0327     20.9444      2.5510      0.0540     92.2634
  1801.9000      7.8661      4.1895   1207.3230     20.0411      2.5809      0.1384     92.2634
  1802.0000      7.8538      1.1859   1217.7468     19.5332      2.6304      0.1067     90.6831
