~Version Information
VERS.                      2.0: CWLS Log ASCII Standard - VERSION 2.0
WRAP.                       NO: One line per depth step
~Well Information Block
STRT.FT               748.2500: 
STOP.FT              2498.5000: 
STEP.FT                 0.2500: 
NULL.                -999.2500: 
COMP.          Petrogulf Corporation: COMPANY
WELL.           Montoya 13-41V: WELL
FLD.           Purgatorie River: FIELD
LOC.           449' FNL & 891' FEL: LOCATION
CNTY.               Las Animas: COUNTY
SRVC.                         : SERVICE COMPANY
DATE.          Tue Aug 17 13:22:31 2004: LOG DATE
UWI.           05 071 08021 00: UNIQUE WELL ID
STAT.                 Colorado: STATE
~Curve Information Block
DEPT.FT            0 000 00 00: Depth
SP.mV                         : DIL Spontaneous Potential
RILD.Ohm-m                    : DIL Deep Resistivity
RILM.Ohm-m                    : DIL Medium Resistivity
RLL3.Ohm-m                    : DIL Shallow Resistivity
GR.GAPI                       : Gamma Ray
~Parameter Information Block
~A  Depth        SP         RILD        RILM        RLL3         GR     
# ...
  2232.2500     64.6107     24.4550     26.0828     41.3408     48.7538
  2232.5000     64.8961     25.2442     27.2875     42.9800     46.7301
  2232.7500     65.1738     26.0524     28.3222     43.1143     45.8786
  2233.0000     65.4383     26.8416     29.1608     41.9966     44.8300
  2233.2500     65.6901     27.5533     29.7974     40.1793     43.9719
  2233.5000     65.9342     28.1227     30.2403     38.2641     42.2160
  2233.7500     66.1773     28.5004     30.5043     36.6802     40.8785
  2234.0000     66.4261     28.6714     30.6050     35.5853     39.2981
  2234.2500     66.6842     28.6619     30.5576     34.8960     38.9647
  2234.5000     66.9515     28.5288     30.3775     34.3908     39.8579
  2234.7500     67.2241     28.3402     30.0837     33.8317     41.1339
  2235.0000     67.4952     28.1586     29.7008     33.0587     43.0669
  2235.2500     67.7564     28.0310     29.2597     32.0348     43.8189
  2235.5000     67.9994     27.9844     28.7965     30.8337     43.9297
  2235.7500     68.2169     28.0245     28.3492     29.5864     43.6343
  2236.0000     68.4034     28.1367     27.9548     28.4220     43.3359
  2236.2500     68.5553     28.2925     27.6455     27.4383     43.4619
  2236.5000     68.6720     28.4581     27.4449     26.7150     44.0830
  2236.7500     68.7555     28.6049     27.3647     26.3514     44.5820
  2237.0000     68.8108     28.7129     27.4013     26.4887     45.1748
  2237.2500     68.8457     28.7672     27.5318     27.2872     45.4533
  2237.5000     68.8699     28.7511     27.7119     28.8604     45.6843
  2237.7500     68.8941     28.6429     27.8755     31.1927     45.5601
  2238.0000     68.9280     28.4181     27.9400     34.0821     44.7199
  2238.2500     68.9794     28.0579     27.8191     37.1381     43.8623
  2238.5000     69.0534     27.5563     27.4415     39.8468     42.7943
  2238.7500     69.1523     26.9229     26.7724     41.6849     42.5806
  2239.0000     69.2751     26.1804     25.8259     42.2437     43.2351
  2239.2500     69.4187     25.3574     24.6620     41.3192     44.3781
  2239.5000     69.5779     24.4797     23.3695     38.9467     47.5096
  2239.7500     69.7455     23.5673     22.0421     35.3902     50.8460
  2240.0000     69.9138     22.6355     20.7588     31.1024     57.9306
  2240.2500     70.0744     21.6983     19.5737     26.6525     63.8519
  2240.5000     70.2197     20.7721     18.5152     22.6093     73.7577
  2240.7500     70.3444     19.8745     17.5905     19.3997     80.3262
  2241.0000     70.4461     19.0219     16.7922     17.2040     88.5120
  2241.2500     70.5267     18.2254     16.1048     15.9464     92.0437
  2241.5000     70.5916     17.4901     15.5096     15.3810     94.1959
  2241.7500     70.6492     16.8168     14.9884     15.2159     94.2233
  2242.0000     70.7084     16.2053     14.5254     15.2144     94.0167
  2242.2500     70.7773     15.6584     14.1081     15.2437     94.4874
  2242.5000     70.8609     15.1813     13.7277     15.2725     96.0793
  2242.7500     70.9608     14.7803     13.3786     15.3272     97.1113
  2243.0000     71.0751     14.4582     13.0587     15.4246     97.6228
  2243.2500     71.1983     14.2119     12.7688     15.5150     97.2663
  2243.5000     71.3220     14.0333     12.5125     15.4781     96.7820
  2243.7500     71.4359     13.9120     12.2954     15.1842     97.2640
  2244.0000     71.5280     13.8396     12.1241     14.5861     99.4638
  2244.2500     71.5859     13.8120     12.0057     13.7724    101.3338
  2244.5000     71.5976     13.8291     11.9463     12.9397    103.4805
  2244.7500     71.5539     13.8925     11.9510     12.3034    104.1066
  2245.0000     71.4496     14.0034     12.0239     12.0087    103.9443
  2245.2500     71.2849     14.1630     12.1684     12.0936    103.3379
  2245.5000     71.0657     14.3743     12.3877     12.5133    101.8213
  2245.7500     70.8024     14.6446     12.6859     13.1896    100.1603
  2246.0000     70.5078     14.9863     13.0675     14.0500     96.2047
  2246.2500     70.1936     15.4137     13.5384     15.0374     92.8278
  2246.5000     69.8687     15.9388     14.1037     16.1008     88.2113
  2246.7500     69.5376     16.5656     14.7672     17.1807     86.4801
  2247.0000     69.2011     17.2869     15.5284     18.2020     86.6603
  2247.2500     68.8580     18.0829     16.3798     19.0759     88.1112
  2247.5000     68.5072     18.9212     17.3036     19.7174     90.1444
  2247.7500     68.1500     19.7582     18.2690     20.0747     90.2623
  2248.0000     67.7907     20.5401     19.2301     20.1540     88.4577
  2248.2500     67.4363     21.2060     20.1268     20.0187     86.9462
  2248.5000     67.0955     21.6954     20.8889     19.7602     86.1392
  2248.7500     66.7770     21.9593     21.4456     19.4569     86.9287
  2249.0000     66.4886     21.9726     21.7376     19.1473     89.2829
  2249.2500     66.2366     21.7417     21.7318     18.8324     90.9520
  2249.5000     66.0262     21.3043     21.4309     18.4947     93.3387
  2249.7500     65.8622     20.7212     20.8748     18.1162     95.3058
  2250.0000     65.7498     20.0650     20.1319     17.6802     99.5494
  2250.2500     65.6944     19.4073     19.2844     17.1655    102.9930
  2250.5000     65.7014     18.8086     18.4121     16.5537    107.7339
  2250.7500     65.7739     18.3097     17.5813     15.8574    109.9922
  2251.0000     65.9117     17.9291     16.8397     15.1498    111.8698
  2251.2500     66.1085     17.6644     16.2168     14.5627    112.1991
  2251.5000     66.3518     17.4981     15.7273     14.2425    111.1288
  2251.7500     66.6236     17.4069     15.3746     14.2853    109.1725
  2252.0000     66.9024     17.3702     15.1551     14.6917    104.3952
  2252.2500     67.1666     17.3756     15.0609     15.3684    100.4206
  2252.5000     67.3985     17.4195     15.0820     16.1721     94.6533
  2252.7500     67.5858     17.5033     15.2075     16.9685     91.6346
  2253.0000     67.7239     17.6291     15.4265     17.6768     88.4985
  2253.2500     67.8147     17.7969     15.7287     18.2801     87.0017
  2253.5000     67.8660     18.0054     16.1038     18.8083     85.3166
  2253.7500     67.8890     18.2535     16.5410     19.3116     84.6513
  2254.0000     67.8966     18.5417     17.0280     19.8389     84.5214
  2254.2500     67.9008     18.8689     17.5503     20.4248     85.0010
  2254.5000     67.9110     19.2292     18.0900     21.0800     86.2351
  2254.7500     67.9332     19.6076     18.6262     21.7833     86.9609
  2255.0000     67.9693     19.9787     19.1363     22.4801     87.0073
  2255.2500     68.0178     20.3096     19.5979     23.0921     86.1370
  2255.5000     68.0745     20.5662     19.9922     23.5409     84.1438
  2255.7500     68.1331     20.7233     20.3061     23.7762     83.0737
  2256.0000     68.1853     20.7739     20.5352     23.7957     82.4592
  2256.2500     68.2212     20.7337     20.6834     23.6420     82.3547
  2256.5000     68.2282     20.6378     20.7623     23.3759     81.6057
  2256.7500     68.1913     20.5292     20.7884     23.0455     80.5336
  2257.0000     68.0937     20.4443     20.7803     22.6755     78.7752
  2257.2500     67.9193     20.4025     20.7558     22.2835     78.0319
  2257.5000     67.6562     20.4042     20.7297     21.9072     77.7032
  2257.7500     67.3005     20.4361     20.7131     21.6119     77.5404
  2258.0000     66.8603     20.4828     20.7123     21.4738     76.2658
  2258.2500     66.3568     20.5377     20.7301     21.5515     74.4002
  2258.5000     65.8227     20.6050     20.7664     21.8650     70.4379
  2258.7500     65.2967     20.6945     20.8189     22.3840     67.4732
  2259.0000     64.8164     20.8116     20.8848     23.0278     62.9304
  2259.2500     64.4105     20.9516     20.9616     23.6808     59.8180
  2259.5000     64.0932     21.1012     21.0475     24.2278     55.2598
  2259.7500     63.8620     21.2470     21.1417     24.5951     52.7739
  2260.0000     63.6996     21.3828     21.2443     24.7736     50.6640
