~Version Information
 VERS.                                  2.0 : CWLS LAS VERSION
 WRAP.                                   NO : WRAPING MODE
 SWARE .                 MController 2.5.0J : SOFTWARE VERSION
~Well Information
 WELL.                          Quack 22-24 : WELL
 COMP.    PIONEER NATURAL RESOURCES USA INC : COMPANY
 FLD.                      PURGATOIRE RIVER : FIELD
 LOC.                 SE/NW Sec 24 32S  67W : LOCATION
 DATE.                                  N/A : DATE(S) LOGGED
 SRVC.       Blanco Geological Services LLC : SERVICE COMPANY
 STAT.                                   CO : STATE
 CNTY.                           LAS ANIMAS : COUNTY
 CTRY.                                  USA : COUNTRY
 API.                       05-071-08402-00 : API NUMBER
 STRT.FT                             201.00 : START DEPTH
 STOP.FT                            2610.00 : STOP DEPTH
 STEP.FT                               1.00 : DEPTH INCREMENT
 NULL.                                -9999 : NULL VALUE
~Curve information
 DEPTH.FT                                   :
 ROP.MIN/FT                                 :
 GAS.UNITS                                  :
~ASCII Log data
# ...
       601.0         0.17          4.0 
       602.0         0.17          4.0 
       603.0         0.17          4.0 
       604.0         0.20          3.8 
       605.0         0.17          3.9 
       606.0         0.20          3.9 
       607.0         0.20          4.0 
       608.0         0.20          4.0 
       609.0         0.20          4.4 
       610.0         0.20          4.3 
       611.0         0.23          4.2 
       612.0         0.17          4.3 
       613.0         0.23          4.6 
       614.0         0.17          4.5 
       615.0         0.20          4.2 
       616.0         0.22          4.5 
       617.0         0.17          4.0 
       618.0         0.20          3.5 
       619.0         0.17          2.9 
       620.0         0.20          3.2 
       621.0         0.20          3.2 
       622.0         0.17          3.3 
       623.0         0.20          3.5 
       624.0         0.20          4.0 
       625.0         0.20          3.9 
       626.0         1.65          8.2 
       627.0         0.37          8.0 
       628.0         0.30          8.0 
       629.0         0.23          7.4 
       630.0         0.23          7.8 
       631.0         0.20          7.6 
       632.0         0.23          7.9 
       633.0         0.20          8.1 
       634.0         0.20          7.9 
       635.0         0.27          7.8 
       636.0         0.23          7.6 
       637.0         0.17          7.4 
       638.0         0.33          7.3 
       639.0         0.32          7.1 
       640.0         0.23          7.2 
       641.0         0.20          7.1 
       642.0         0.27          7.0 
       643.0         0.23          6.9 
       644.0         0.20          6.8 
       645.0         0.20          7.1 
       646.0         0.23          7.2 
       647.0         0.20          6.5 
       648.0         0.20          6.9 
       649.0         0.17          8.2 
       650.0         0.27         10.4 
       651.0         0.33         21.9 
       652.0         0.17         31.5 
       653.0         0.17         32.1 
       654.0         0.15         30.6 
       655.0         0.17         26.5 
       656.0         1.63         20.5 
       657.0         0.33          7.1 
       658.0         0.30          7.5 
       659.0         0.30          8.2 
       660.0         0.30          7.9 
       661.0         0.20          7.7 
       662.0         0.22          6.9 
       663.0         0.20          6.9 
       664.0         0.20          7.1 
       665.0         0.20          6.8 
       666.0         0.13          6.7 
       667.0         0.13          6.8 
       668.0         0.17          6.8 
       669.0         0.17          6.6 
       670.0         0.17          6.3 
       671.0         0.20          6.2 
       672.0         0.17          6.1 
       673.0         0.20          6.1 
       674.0         0.20          5.7 
       675.0         0.17          5.4 
       676.0         0.20          4.9 
       677.0         0.20          5.9 
       678.0         0.17          7.5 
       679.0         0.17          9.6 
       680.0         0.17         11.2 
       681.0         0.25         17.4 
       682.0         0.20         30.7 
       683.0         0.20         32.2 
       684.0         0.20         30.7 
       685.0         0.27         23.7 
       686.0         1.83         33.9 
       687.0         0.20         10.5 
       688.0         0.22          9.0 
       689.0         0.23          7.9 
       690.0         0.20          7.5 
       691.0         0.27          6.8 
       692.0         0.33          6.2 
       693.0         0.23          6.1 
       694.0         0.17          5.7 
       695.0         0.17          5.6 
       696.0         0.17          6.0 
       697.0         0.17          5.7 
       698.0         0.17          5.5 
       699.0         0.17          5.7 
       700.0         0.17          5.5 
       701.0         0.17          5.1 
       702.0         0.17          4.6 
       703.0         0.17          4.5 
       704.0         0.17          4.2 
       705.0         0.18          5.4 
       706.0         0.17          7.1 
       707.0         0.17          8.9 
       708.0         0.17         10.3 
       709.0         0.17         12.4 
       710.0         0.17         17.8 
       711.0         0.17         28.3 
       712.0         0.17         31.9 
       713.0         0.13         31.7 
       714.0         0.13         30.5 
       715.0         0.20         26.0 
       716.0         1.20         19.2 
       717.0         0.23          5.3 
       718.0         0.18          5.1 
       719.0         0.20          4.9 
       720.0         0.23          4.9 
       721.0         0.23          4.7 
       722.0         0.20          4.9 
       723.0         0.13          4.8 
       724.0         0.20          4.7 
       725.0         0.23          4.5 
       726.0         0.17          4.7 
       727.0         0.17          4.7 
       728.0         0.17          4.5 
       729.0         0.20          4.7 
       730.0         0.20          4.7 
       731.0         0.17          5.6 
       732.0         0.20          6.7 
       733.0         0.20          7.3 
       734.0         0.20          7.8 
       735.0         0.17          7.7 
       736.0         0.18          7.2 
       737.0         0.17          6.8 
       738.0         0.17          6.7 
       739.0         0.20          7.0 
       740.0         0.17          7.8 
       741.0         0.17          8.8 
       742.0         0.17         11.0 
       743.0         0.17         14.4 
       744.0         0.17         17.2 
       745.0         0.17         18.7 
       746.0         1.82         23.9 
       747.0         0.37         14.7 
       748.0         0.27         13.0 
       749.0         0.17         11.5 
       750.0         0.17         11.3 
       751.0         0.17         11.1 
       752.0         0.20         10.9 
       753.0         0.23         10.2 
       754.0         0.23          9.8 
       755.0         0.23          9.4 
       756.0         0.20          8.9 
       757.0         0.23          8.8 
       758.0         0.23          9.3 
       759.0         0.23          9.1 
       760.0         0.28          8.5 
       761.0         0.20          8.0 
       762.0         0.23          8.1 
       763.0         0.30          8.5 
       764.0         0.20          9.2 
       765.0         0.13          9.2 
       766.0         0.17          9.0 
       767.0         0.13          8.3 
       768.0         0.10          8.2 
       769.0         0.13          7.6 
       770.0         0.17          7.3 
       771.0         0.23          6.8 
       772.0         0.20          6.3 
       773.0         0.20          6.3 
       774.0         0.20          6.0 
       775.0         0.23          6.3 
       776.0         5.97          9.3 
       777.0         0.30          3.4 
       778.0         0.30          3.5 
       779.0         0.27          3.1 
       780.0         0.28          3.1 
       781.0         0.23          3.5 
       782.0         0.23          3.6 
       783.0         0.23          3.5 
       784.0         0.20          3.7 
       785.0         0.23          3.5 
       786.0         0.17          3.2 
       787.0         0.20          3.3 
       788.0         0.20          3.0 
       789.0         0.17          3.2 
       790.0         0.13          3.6 
       791.0         0.13          4.1 
       792.0         0.17          4.8 
       793.0         0.17          4.7 
       794.0         0.23          4.4 
       795.0         0.20          3.6 
       796.0         0.20          3.9 
       797.0         0.25          5.5 
       798.0         0.17          7.0 
       799.0         0.20          9.3 
       800.0         0.13         11.1 
