~Version Information
VERS.                      2.0: CWLS Log ASCII Standard - VERSION 2.0
WRAP.                       NO: One line per depth step
~Well Information Block
STRT.FT                -8.8000: 
STOP.FT              2006.2000: 
STEP.FT                 0.1000: 
NULL.                -999.2500: 
COMP.          Petrogulf Corporation: COMPANY
WELL.             J & P 12-33V: WELL
FLD.           Purgatorie River: FIELD
LOC.           2005' FSL & 1928' FEL: LOCATION
CNTY.               Las Animas: COUNTY
SRVC.                         : SERVICE COMPANY
DATE.          Fri Jul 29 13:37:28 2005: LOG DATE
UWI.                          : UNIQUE WELL ID
STAT.                 Colorado: STATE
~Curve Information Block
DEPT.FT            0 000 00 00: Depth
GR.GAPI                       : Gamma Ray
CCL.                          : Casing Collar Locator
TT3.usec                      : CBL 3' Travel Time
AMP3.mV                       : CBL 3' Amplitude
~Parameter Information Block
~A  Depth        GR         CCL         TT3         AMP3    
    -8.8000   -999.2500   -999.2500   -999.2500   -999.2500
    -8.7000   -999.2500   -999.2500   -999.2500   -999.2500
    -8.6000   -999.2500   -999.2500   -999.2500   -999.2500
    -8.5000   -999.2500   -999.2500   -999.2500   -999.2500
    -8.4000   -999.2500   -999.2500   -999.2500   -999.2500
    -8.3000   -999.2500   -999.2500   -999.2500   -999.2500
    -8.2000   -999.2500   -999.2500   -999.2500   -999.2500
    -8.1000   -999.2500   -999.2500   -999.2500   -999.2500
    -8.0000   -999.2500   -999.2500   -999.2500   -999.2500
    -7.9000   -999.2500   -999.2500   -999.2500   -999.2500
    -7.8000   -999.2500   -999.2500   -999.2500   -999.2500
    -7.7000   -999.2500   -999.2500   -999.2500   -999.2500
    -7.6000   -999.2500   -999.2500   -999.2500   -999.2500
    -7.5000   -999.2500   -999.2500   -999.2500   -999.2500
    -7.4000   -999.2500   -999.2500   -999.2500   -999.2500
    -7.3000   -999.2500   -999.2500   -999.2500   -999.2500
    -7.2000   -999.2500   -999.2500   -999.2500   -999.2500
    -7.1000   -999.2500   -999.2500   -999.2500   -999.2500
    -7.0000   -999.2500   -999.2500   -999.2500   -999.2500
    -6.9000   -999.2500   -999.2500   -999.2500   -999.2500
    -6.8000   -999.2500   -999.2500   -999.2500   -999.2500
    -6.7000   -999.2500   -999.2500   1200.0000      0.6766
    -6.6000   -999.2500   -999.2500   1200.0000      0.6766
    -6.5000   -999.2500   -999.2500   1200.0000      0.6766
    -6.4000   -999.2500   -999.2500   1200.0000      0.6997
    -6.3000   -999.2500   -999.2500   1200.0000      0.6997
    -6.2000   -999.2500   -999.2500   1200.0000      0.7310
    -6.1000   -999.2500   -999.2500   1200.0000      0.7310
    -6.0000   -999.2500   -999.2500   1200.0000      0.7310
    -5.9000   -999.2500   -999.2500   1200.0000      0.7548
    -5.8000   -999.2500   -999.2500   1200.0000      0.7548
    -5.7000   -999.2500   -999.2500   1200.0000      0.7630
    -5.6000   -999.2500   -999.2500   1200.0000      0.7630
    -5.5000   -999.2500   -999.2500   1200.0000      0.7630
    -5.4000   -999.2500   -999.2500   1200.0000      0.7607
    -5.3000   -999.2500   -999.2500   1200.0000      0.7607
    -5.2000   -999.2500   -999.2500   1200.0000      0.7611
    -5.1000   -999.2500   -999.2500   1200.0000      0.7611
    -5.0000   -999.2500   -999.2500   1200.0000      0.7611
    -4.9000   -999.2500   -999.2500   1200.0000      0.7706
    -4.8000   -999.2500   -999.2500   1200.0000      0.7706
    -4.7000   -999.2500   -999.2500   1200.0000      0.7812
    -4.6000   -999.2500   -999.2500   1200.0000      0.7812
    -4.5000   -999.2500   -999.2500   1200.0000      0.7812
    -4.4000   -999.2500   -999.2500   1200.0000      0.7886
    -4.3000   -999.2500   -999.2500   1200.0000      0.7886
    -4.2000   -999.2500   -999.2500   1200.0000      0.7966
    -4.1000   -999.2500   -999.2500   1200.0000      0.7966
    -4.0000   -999.2500   -999.2500   1200.0000      0.7966
    -3.9000   -999.2500   -999.2500   1200.0000      0.8006
    -3.8000   -999.2500   -999.2500   1200.0000      0.8006
    -3.7000   -999.2500   -999.2500   1200.0000      0.7959
    -3.6000   -999.2500   -999.2500   1200.0000      0.7959
    -3.5000   -999.2500   -999.2500   1200.0000      0.7959
    -3.4000   -999.2500   -999.2500   1200.0000      0.7873
    -3.3000   -999.2500   -999.2500   1200.0000      0.7873
    -3.2000   -999.2500   -999.2500   1200.0000      0.7814
    -3.1000   -999.2500   -999.2500   1200.0000      0.7814
    -3.0000   -999.2500   -999.2500   1200.0000      0.7814
    -2.9000   -999.2500   -999.2500   1200.0000      0.7790
    -2.8000   -999.2500   -999.2500   1200.0000      0.7790
    -2.7000   -999.2500   -999.2500   1200.0000      0.7730
    -2.6000   -999.2500   -999.2500   1200.0000      0.7730
    -2.5000   -999.2500   -999.2500   1200.0000      0.7730
    -2.4000   -999.2500   -999.2500   1200.0000      0.7627
    -2.3000   -999.2500   -999.2500   1200.0000      0.7627
    -2.2000   -999.2500   -999.2500   1200.0000      0.7564
    -2.1000   -999.2500   -999.2500   1200.0000      0.7564
    -2.0000   -999.2500   -999.2500   1200.0000      0.7564
    -1.9000   -999.2500   -999.2500   1200.0000      0.7535
    -1.8000   -999.2500   -999.2500   1200.0000      0.7535
    -1.7000   -999.2500   -999.2500   1200.0000      0.7430
    -1.6000   -999.2500   -999.2500   1200.0000      0.7430
    -1.5000   -999.2500   -999.2500   1200.0000      0.7430
    -1.4000   -999.2500   -999.2500   1200.0000      0.7208
    -1.3000   -999.2500   -999.2500   1200.0000      0.7208
    -1.2000   -999.2500   -999.2500   1200.0000      0.7009
    -1.1000   -999.2500   -999.2500   1200.0000      0.7009
    -1.0000   -999.2500   -999.2500   1200.0000      0.7009
    -0.9000   -999.2500   -999.2500   1200.0000      0.6978
    -0.8000   -999.2500   -999.2500   1200.0000      0.6978
    -0.7000   -999.2500   -999.2500   1200.0000      0.7109
    -0.6000   -999.2500   -999.2500   1200.0000      0.7109
    -0.5000   -999.2500   -999.2500   1200.0000      0.7109
    -0.4000   -999.2500      0.0000   1200.0000      0.7274
    -0.3000   -999.2500      0.0000   1200.0000      0.7274
    -0.2000   -999.2500      0.0000   1200.0000      0.7335
    -0.1000   -999.2500      0.0000   1200.0000      0.7335
     0.0000   -999.2500      0.0000   1200.0000      0.7335
     0.1000   -999.2500      0.0000   1200.0000      0.7335
     0.2000   -999.2500      0.0000   1200.0000      0.7335
     0.3000   -999.2500      0.0000   1200.0000      0.7285
     0.4000   -999.2500      0.0000   1200.0000      0.7285
     0.5000   -999.2500      0.0000   1200.0000      0.7333
     0.6000   -999.2500      0.0000   1200.0000      0.7333
     0.7000   -999.2500      0.0000   1200.0000      0.7333
     0.8000   -999.2500      0.0000   1200.0000      0.7345
     0.9000   -999.2500      0.0000   1200.0000      0.7345
     1.0000   -999.2500      0.0000   1200.0000      0.7351
     1.1000   -999.2500      0.0000   1200.0000      0.7351
     1.2000   -999.2500      0.0000   1200.0000      0.7351
     1.3000   -999.2500      0.0000   1200.0000      0.7464
     1.4000   -999.2500      0.0000   1200.0000      0.7464
     1.5000   -999.2500      0.0000   1200.0000      0.7665
     1.6000   -999.2500      0.0000   1200.0000      0.7665
     1.7000   -999.2500      0.0000   1200.0000      0.7665
     1.8000   -999.2500      0.0000   1200.0000      0.7821
     1.9000   -999.2500      0.0000   1200.0000      0.7821
     2.0000   -999.2500      0.0000   1200.0000      0.7802
     2.1000   -999.2500      0.0000   1200.0000      0.7802
     2.2000   -999.2500      0.0000   1200.0000      0.7802
     2.3000   -999.2500      0.0000   1200.0000      0.7663
     2.4000   -999.2500      0.0000   1200.0000      0.7663
     2.5000   -999.2500      0.0000   1200.0000      0.7619
     2.6000   -999.2500      0.0000   1200.0000      0.7619
     2.7000   -999.2500      0.0000   1200.0000      0.7619
     2.8000   -999.2500      0.0000   1200.0000      0.7717
     2.9000   -999.2500      0.0000   1200.0000      0.7717
     3.0000   -999.2500      0.0000   1200.0000      0.7799
     3.1000   -999.2500      0.0000   1200.0000      0.7799
     3.2000   -999.2500      0.0000   1200.0000      0.7799
     3.3000   -999.2500      0.0000   1200.0000      0.7736
     3.4000   -999.2500      0.0000   1200.0000      0.7736
     3.5000   -999.2500      0.0000   1200.0000      0.7518
     3.6000   -999.2500      0.0000   1200.0000      0.7518
     3.7000   -999.2500      0.0000   1200.0000      0.7518
     3.8000   -999.2500      0.0000   1200.0000      0.7288
     3.9000   -999.2500      0.0000   1200.0000      0.7288
     4.0000   -999.2500      0.0000   1200.0000      0.7245
     4.1000   -999.2500      0.0000   1200.0000      0.7245
     4.2000   -999.2500      0.0000   1200.0000      0.7245
     4.3000     61.3260      0.0000   1200.0000      0.7344
     4.4000     61.3260      0.0000   1200.0000      0.7344
     4.5000     60.6311      0.0000   1200.0000      0.7352
