~Version Information
VERS.                      2.0: CWLS Log ASCII Standard - VERSION 2.0
WRAP.                       NO: One line per depth step
~Well Information Block
STRT.FT               318.1000: 
STOP.FT              2688.0000: 
STEP.FT                 0.1000: 
NULL.                -999.2500: 
COMP.          Petrogulf Corporation: COMPANY
WELL.            Montoya 1-24V: WELL
FLD.           Purgatorie River: FIELD
LOC.           605' FSL & 2557' FWL: LOCATION
CNTY.               Las Animas: COUNTY
SRVC.                         : SERVICE COMPANY
DATE.          Wed Oct 20 14:56:37 2004: LOG DATE
UWI.           05 071 08194 00: UNIQUE WELL ID
STAT.                 Colorado: STATE
~Curve Information Block
DEPT.FT            0 000 00 00: Depth
DCAL.in                       : CDL Caliper
RHOB.g/cc                     : CDL Bulk Density
RHOC.g/cc                     : CDL Density Correction
DPOR.pu                       : CDL Density Porosity
GR.GAPI                       : Gamma Ray
NPOR.pu                       : Neutron Porosity
~Parameter Information Block
~A  Depth       DCAL        RHOB        RHOC        DPOR         GR         NPOR    
# ...
  1278.1000      7.9317      2.6589      0.1186     -0.5411    143.2890     24.3138
  1278.2000      7.9317      2.6296      0.1230      1.2340    128.5133     24.1394
  1278.3000      7.9482      2.6016      0.0756      2.9311    116.6732     23.6811
  1278.4000      7.9482      2.5811      0.0924      4.1746    115.3629     23.2761
  1278.5000      7.9140      2.5725      0.0314      4.6965    121.1313     23.3655
  1278.6000      7.9140      2.5787      0.0653      4.3197    127.8929     23.5085
  1278.7000      7.9140      2.6012      0.1125      2.9603    128.2546     23.2213
  1278.8000      7.8854      2.6328      0.1378      1.0400    120.1498     22.8378
  1278.9000      7.8854      2.6590      0.1040     -0.5443    110.9420     22.6123
  1279.0000      7.9153      2.6743      0.1301     -1.4713    103.7885     22.2252
  1279.1000      7.9153      2.6794      0.1505     -1.7842     97.2331     21.7502
  1279.2000      7.9153      2.6693      0.1480     -1.1727     94.5395     21.4751
  1279.3000      7.8861      2.6490      0.1015      0.0635     95.4435     21.4308
  1279.4000      7.8861      2.6304      0.1379      1.1877     95.6384     21.7834
  1279.5000      7.8789      2.6058      0.1538      2.6785     95.4380     22.1757
  1279.6000      7.8789      2.5699      0.0102      4.8554     96.7546     21.7145
  1279.7000      7.8789      2.5423      0.0258      6.5283     98.2981     20.6214
  1279.8000      7.9210      2.5363      0.0262      6.8911     97.6427     19.9538
  1279.9000      7.9210      2.5516      0.0291      5.9654     94.3103     19.9210
  1280.0000      7.8765      2.5780      0.0932      4.3609     90.1343     19.8373
  1280.1000      7.8765      2.5984      0.1089      3.1248     88.2220     19.5205
  1280.2000      7.8765      2.6054      0.1246      2.7022     90.0217     19.5997
  1280.3000      7.8672      2.6043      0.0958      2.7694     92.0522     19.9883
  1280.4000      7.8672      2.6087      0.1063      2.5035     91.0221     20.0710
  1280.5000      7.8718      2.6244      0.1624      1.5485     88.3425     19.8641
  1280.6000      7.8718      2.6471      0.1200      0.1779     85.4722     19.4967
  1280.7000      7.8718      2.6685      0.1856     -1.1183     85.0397     19.1014
  1280.8000      7.8586      2.6765      0.1918     -1.6035     89.2400     18.9395
  1280.9000      7.8586      2.6727      0.1841     -1.3727     96.1907     18.9056
  1281.0000      7.8449      2.6721      0.1427     -1.3424    103.0325     18.8613
  1281.1000      7.8449      2.6756      0.1993     -1.5540    107.7350     18.8864
  1281.2000      7.8449      2.6619      0.2030     -0.7204    109.7816     19.1201
  1281.3000      7.8798      2.6218      0.1412      1.7093    112.6119     19.7854
  1281.4000      7.8798      2.5811      0.0641      4.1740    118.9014     20.8348
  1281.5000      7.9311      2.5684      0.0125      4.9465    124.3684     22.0787
  1281.6000      7.9311      2.5748      0.0439      4.5590    124.5912     23.3440
  1281.7000      7.9311      2.5753      0.0646      4.5302    124.3032     24.1156
  1281.8000      7.9594      2.5702      0.0568      4.8339    130.4084     24.0933
  1281.9000      7.9594      2.5700      0.0620      4.8508    138.6946     23.8089
  1282.0000      7.9655      2.5728      0.0621      4.6759    141.2666     24.0603
  1282.1000      7.9655      2.5775      0.0557      4.3942    137.4731     24.7760
  1282.2000      7.9655      2.5822      0.0727      4.1100    130.5401     25.0688
  1282.3000      7.9485      2.5805      0.0752      4.2143    125.7655     24.5278
  1282.4000      7.9485      2.5754      0.0778      4.5206    125.0693     23.4246
  1282.5000      7.9373      2.5767      0.0224      4.4430    122.9663     22.4389
  1282.6000      7.9373      2.5771      0.0664      4.4190    116.0021     22.2429
  1282.7000      7.9373      2.5639     -0.0037      5.2177    109.4827     22.3639
  1282.8000      7.9905      2.5558     -0.0482      5.7089    109.9271     22.1981
  1282.9000      7.9905      2.5768      0.0129      4.4337    113.8073     22.0549
  1283.0000      7.9367      2.6077      0.0520      2.5664    114.1736     21.9506
  1283.1000      7.9367      2.6114      0.0947      2.3409    112.0789     21.4213
  1283.2000      7.9367      2.5930      0.0069      3.4555    109.4571     20.5066
  1283.3000      7.9165      2.5943      0.0220      3.3781    105.4587     19.7949
  1283.4000      7.9165      2.6222      0.0759      1.6865    101.4542     19.7301
  1283.5000      7.9346      2.6364      0.0760      0.8255     99.2712     20.1375
  1283.6000      7.9346      2.6161      0.0899      2.0521     98.4129     20.4539
  1283.7000      7.9346      2.5883      0.0106      3.7411     98.6524     20.2267
  1283.8000      7.9557      2.5795      0.0651      4.2742    100.1371     19.5797
  1283.9000      7.9557      2.5774      0.0498      4.4026    101.2653     18.9810
  1284.0000      7.9454      2.5593      0.0621      5.4952     99.1760     18.6168
  1284.1000      7.9454      2.5301      0.0078      7.2645     93.4553     18.4582
  1284.2000      7.9454      2.5092      0.0089      8.5305     90.0516     18.3969
  1284.3000      7.9293      2.5023     -0.0015      8.9487     92.7904     18.1833
  1284.4000      7.9293      2.5086     -0.0056      8.5679     97.2686     17.8329
  1284.5000      7.9768      2.5292      0.0011      7.3231     97.0033     17.7847
  1284.6000      7.9768      2.5514      0.0492      5.9739     91.5976     18.0955
  1284.7000      7.9768      2.5571     -0.0053      5.6329     88.3289     18.3263
  1284.8000      7.9621      2.5453      0.0707      6.3442     89.1829     18.2010
  1284.9000      7.9621      2.5321      0.0036      7.1459     89.3183     17.9956
  1285.0000      7.9933      2.5340      0.0546      7.0321     85.6182     17.8604
  1285.1000      7.9933      2.5456      0.0686      6.3273     78.5868     17.5918
  1285.2000      7.9933      2.5574      0.0106      5.6095     72.7697     17.2952
  1285.3000      7.9695      2.5706      0.0432      4.8133     72.4211     17.2115
  1285.4000      7.9695      2.5785      0.1000      4.3342     73.6355     17.4735
  1285.5000      7.9901      2.5789      0.0348      4.3092     71.5989     18.0879
  1285.6000      7.9901      2.5806      0.0364      4.2059     68.6980     18.6897
  1285.7000      7.9901      2.5816      0.0310      4.1430     70.5511     18.8991
  1285.8000      7.9598      2.5742      0.0414      4.5934     76.0366     18.9047
  1285.9000      7.9598      2.5666     -0.0002      5.0537     77.5037     18.9942
  1286.0000      7.9327      2.5721      0.0564      4.7224     74.7845     19.1509
  1286.1000      7.9327      2.5840      0.0392      3.9979     74.5090     19.3848
  1286.2000      7.9327      2.5859      0.0949      3.8873     79.4701     19.6112
  1286.3000      7.9521      2.5801      0.0201      4.2356     85.6008     19.5140
  1286.4000      7.9521      2.5776      0.0861      4.3873     85.9300     19.1177
  1286.5000      7.9331      2.5731      0.0414      4.6593     80.8429     18.6029
  1286.6000      7.9331      2.5642     -0.0169      5.2017     75.9821     17.8762
  1286.7000      7.9331      2.5517      0.0112      5.9594     73.2845     17.1334
  1286.8000      7.8962      2.5365     -0.0086      6.8784     73.7805     16.7101
  1286.9000      7.8962      2.5369      0.0050      6.8556     76.6766     16.5327
  1287.0000      7.8940      2.5521      0.0745      5.9342     77.7765     16.4306
  1287.1000      7.8940      2.5485      0.0640      6.1508     77.9906     16.3817
  1287.2000      7.8940      2.5281     -0.0605      7.3882     79.5418     16.2924
  1287.3000      7.9056      2.5280      0.0030      7.3917     80.6057     16.0748
  1287.4000      7.9056      2.5514      0.0461      5.9752     80.4346     16.1399
  1287.5000      7.8900      2.5783      0.0912      4.3459     82.4327     16.8424
  1287.6000      7.8900      2.6005      0.1287      2.9985     91.1416     17.8683
