~Version Information
VERS.                      2.0: CWLS Log ASCII Standard - VERSION 2.0
WRAP.                       NO: One line per depth step
~Well Information Block
STRT.FT                -9.7500: 
STOP.FT              2374.2500: 
STEP.FT                 0.2500: 
NULL.                -999.2500: 
COMP.          Pioneer Natural Resources: COMPANY
WELL.            Chevron 13-13: WELL
FLD.           Purgatorie River: FIELD
LOC.           1560' FSL & 711' FWL--: LOCATION
CNTY.               Las Animas: COUNTY
SRVC.          Superior Well Services: SERVICE COMPANY
DATE.          Wed Apr 11 08:47:55 2007: LOG DATE
UWI.           05 071 08319 00: UNIQUE WELL ID
STAT.                       CO: STATE
~Curve Information Block
DEPT.FT            0 000 00 00: Depth
CCL.                          : Casing Collar Locator
TT3.usec                      : CBL 3' Travel Time
AMP3.mV                       : CBL 3' Amplitude
GR.GAPI                       : Gamma Ray
~Parameter Information Block
~A  Depth       CCL         TT3         AMP3         GR     
    -9.7500   -999.2500   -999.2500   -999.2500     70.8504
    -9.5000   -999.2500   -999.2500   -999.2500     71.4874
    -9.2500   -999.2500   -999.2500   -999.2500     71.9867
    -9.0000   -999.2500   -999.2500   -999.2500     72.5323
    -8.7500   -999.2500   -999.2500   -999.2500     73.4246
    -8.5000   -999.2500   -999.2500   -999.2500     74.3763
    -8.2500   -999.2500   -999.2500   -999.2500     74.7576
    -8.0000   -999.2500   -999.2500   -999.2500     74.5904
    -7.7500   -999.2500   -999.2500   -999.2500     74.7031
    -7.5000   -999.2500   -999.2500   -999.2500     75.5340
    -7.2500   -999.2500   -999.2500   -999.2500     76.1997
    -7.0000   -999.2500   -999.2500   -999.2500     75.3869
    -6.7500   -999.2500   -999.2500   -999.2500     73.0171
    -6.5000   -999.2500   -999.2500   -999.2500     70.4603
    -6.2500   -999.2500   -999.2500   -999.2500     69.2225
    -6.0000   -999.2500   -999.2500   -999.2500     69.9105
    -5.7500   -999.2500   -999.2500   -999.2500     72.1057
    -5.5000   -999.2500   -999.2500   -999.2500     74.5244
    -5.2500   -999.2500   -999.2500   -999.2500     75.5147
    -5.0000   -999.2500   -999.2500   -999.2500     74.3083
    -4.7500   -999.2500   1134.0000      2.0936     72.0834
    -4.5000   -999.2500   1134.0000      2.0924     71.2449
    -4.2500   -999.2500   1134.0000      2.0913     73.2068
    -4.0000   -999.2500   1134.0000      2.0900     76.8980
    -3.7500   -999.2500   1134.0000      2.0899     79.5128
    -3.5000   -999.2500   1134.0000      2.0909     78.7889
    -3.2500   -999.2500   1134.0000      2.0909     74.5939
    -3.0000   -999.2500   1134.0000      2.0890     68.3777
    -2.7500   -999.2500   1134.0000      2.0874     61.4054
    -2.5000   -999.2500   1134.0000      2.0886     53.9184
    -2.2500   -999.2500   1134.0000      2.0922     45.8478
    -2.0000   -999.2500   1134.0000      2.0963     37.7380
    -1.7500   -999.2500   1134.0000      2.1006     30.7420
    -1.5000   -999.2500   1134.0000      2.1067     25.9777
    -1.2500   -999.2500   1134.0000      2.1160     23.8952
    -1.0000   -999.2500   1134.0000      2.1275     24.0127
    -0.7500   -999.2500   1134.0000      2.1390     25.2143
    -0.5000   -999.2500   1134.0000      2.1502     26.4061
    -0.2500   -999.2500   1134.0000      2.1622     27.0740
     0.0000   -999.2500   1134.0000      2.1746     27.5172
     0.2500   -999.2500   1134.0000      2.1832     28.5766
     0.5000   -999.2500   1134.0000      2.1694     34.2114
     0.7500      0.0000   1134.0000      2.1492     37.7842
     1.0000      0.0000   1134.0000      2.1305     40.8421
     1.2500      0.0000   1134.0000      2.1204     43.1346
     1.5000      0.0000   1134.0000      2.1190     44.9857
     1.7500      0.0000   1134.0000      2.1198     47.0644
     2.0000      0.0000   1134.0000      2.1172     49.7967
     2.2500      0.0000   1134.0000      2.1112     52.7576
     2.5000      0.0000   1134.0000      2.1060     54.7355
     2.7500      0.0000   1134.0000      2.1036     54.6349
     3.0000      0.0000   1134.0000      2.1017     52.4131
     3.2500      0.0000   1134.0000      2.0976     49.0560
     3.5000      0.0000   1134.0000      2.0920     45.6719
     3.7500      0.0000   1134.0000      2.0875     42.7954
     4.0000      0.0000   1134.0000      2.0853     40.5129
     4.2500      0.0000   1134.0000      2.0857     38.9162
     4.5000      0.0000   1134.0000      2.0903     38.2937
     4.7500     -2.0000   1134.0000      2.1007     38.9283
     5.0000      0.0000   1134.0000      2.1155     40.7504
     5.2500      0.0000   1134.0000      2.1308     43.2470
     5.5000      0.0000   1134.0000      2.1423     45.6953
     5.7500      0.0000   1134.0000      2.1480     47.3907
     6.0000      0.0000   1134.0000      2.1485     47.7675
     6.2500      0.0000   1134.0000      2.1466     46.6110
     6.5000      0.0000   1134.0000      2.1445     44.3556
     6.7500      0.0000   1134.0000      2.1410     42.0909
     7.0000      0.0000   1134.0000      2.1329     41.0068
     7.2500      0.0000   1134.0000      2.1192     41.6152
     7.5000      0.0000   1134.0000      2.1044     43.4603
     7.7500      0.0000   1134.0000      2.0949     45.5954
     8.0000      0.0000   1134.0000      2.0943     47.2794
     8.2500      0.0000   1134.0000      2.1022     48.1782
     8.5000      0.0000   1134.0000      2.1158     48.0895
     8.7500      0.0000   1134.0000      2.1309     46.7953
     9.0000      0.0000   1134.0000      2.1419     44.4112
     9.2500      0.0000   1134.0000      2.1426     41.6933
     9.5000      0.0000   1133.9418      2.1327     39.6140
     9.7500      0.0000   1133.5623      2.1261     38.5791
    10.0000      0.0000   1131.6350      2.1741     38.3008
    10.2500      0.0000   1124.0117      2.4254     38.3227
    10.5000      0.0000   1100.5291      3.2376     38.3783
    10.7500      0.0000   1044.1918      5.2370     38.4219
    11.0000      0.0000    938.9268      9.0953     38.6847
    11.2500      0.0000    785.7427     14.9666     39.5779
    11.5000      0.0000    612.1499     22.0405     41.2333
    11.7500      0.0000    459.0506     28.8013     43.2668
    12.0000      0.0000    354.2478     33.8389     45.2151
    12.2500      0.0000    299.1640     36.4608     47.0715
    12.5000      0.0000    277.8443     36.7939     49.1219
    12.7500      0.0000    272.7176     35.6340     51.2707
    13.0000      0.0000    272.5539     34.1149     52.7965
    13.2500      0.0000    272.5092     33.1480     52.9174
    13.5000      0.0000    271.6187     33.0039     51.4983
    13.7500      0.0000    270.4528     33.4446     49.1381
    14.0000      0.0000    269.5708     34.1773     46.7049
    14.2500     -2.0000    269.0771     35.1042     44.8479
    14.5000      2.0000    268.7881     36.2399     43.7726
    14.7500      0.0000    268.4999     37.5414     43.4519
    15.0000      0.0000    268.0735     38.9260     44.1183
    15.2500      0.0000    267.4191     40.4877     46.1954
    15.5000      0.0000    266.4928     42.5976     49.4251
    15.7500      0.0000    265.3378     45.6269     52.4594
    16.0000      0.0000    264.1118     49.5396     53.8887
    16.2500      0.0000    263.0234     53.8720     53.6464
    16.5000      0.0000    262.2169     58.1126     53.0081
    16.7500      0.0000    261.7154     61.9851     53.1425
    17.0000      0.0000    261.4552     65.3800     53.9401
    17.2500      0.0000    261.3474     68.1955     54.3536
    17.5000      0.0000    261.3198     70.3468     53.6168
    17.7500      0.0000    261.3279     71.8637     51.9214
    18.0000      0.0000    261.3502     72.8983     50.0552
    18.2500      0.0000    261.3777     73.6377     48.7237
    18.5000      0.0000    261.4060     74.2276     48.3440
    18.7500      0.0000    261.4312     74.7479     49.2061
    19.0000      0.0000    261.4491     75.2177     51.4261
    19.2500      0.0000    261.4574     75.6188     54.6876
    19.5000      0.0000    261.4566     75.9393     58.2107
    19.7500      0.0000    261.4506     76.2075     61.0305
    20.0000      0.0000    261.4448     76.4743     62.4354
    20.2500      0.0000    261.4448     76.7677     62.4509
    20.5000      0.0000    261.4540     77.0781     62.0432
    20.7500      0.0000    261.4729     77.3865     62.6363
    21.0000      0.0000    261.4987     77.6901     65.0801
    21.2500      0.0000    261.5258     77.9992     69.0322
    21.5000      0.0000    261.5469     78.3159     73.4607
    21.7500      0.0000    261.5563     78.6234     77.4459
    22.0000      0.0000    261.5536     78.8990     80.1827
    22.2500      0.0000    261.5445     79.1431     80.6662
    22.5000      0.0000    261.5372     79.3886     78.1732
    22.7500      0.0000    261.5371     79.6749     73.1728
    23.0000      0.0000    261.5451     80.0123     67.3410
    23.2500      0.0000    261.5585     80.3761     62.5915
    23.5000      0.0000    261.5724     80.7327     60.2826
