~Version Information
VERS.                      2.0: CWLS Log ASCII Standard - VERSION 2.0
WRAP.                       NO: One line per depth step
~Well Information Block
STRT.FT               500.0000: 
STOP.FT              2760.5000: 
STEP.FT                 0.1000: 
NULL.                -999.2500: 
COMP.          Petrogulf Corporation: COMPANY
WELL.              Silva 1-43V: WELL
FLD.           Purgatorie River: FIELD
LOC.           2010' FSL & 614' FEL: LOCATION
PROV.                 Colorado: PROVINCE
CNTY.               Las Animas: COUNTRY
SRVC.                Patterson: SERVICE COMPANY
DATE.          Mon Aug 29 08:02:37 2005: LOG DATE
UWI.                          : UNIQUE WELL ID
~Curve Information Block
DEPT.FT            0 000 00 00: Depth
DCAL.in                       : CDL Caliper
RHOB.g/cc                     : CDL Bulk Density
RHOC.g/cc                     : CDL Density Correction
DPOR.pu                       : CDL Density Porosity
GR.GAPI                       : Gamma Ray
NPOR.pu                       : Neutron Porosity
~Parameter Information Block
~A  Depth       DCAL        RHOB        RHOC        DPOR         GR         NPOR    
# ...
  1402.4000      8.3095      2.5959      0.0449      3.2816    170.6406     27.7712
  1402.5000      8.2917      2.6044      0.0028      2.7611    169.0928     27.8742
  1402.6000      8.2917      2.6211      0.0723      1.7543    164.4546     28.4180
  1402.7000      8.2917      2.6268      0.0665      1.4037    159.8472     28.7643
  1402.8000      8.3209      2.6195      0.0369      1.8509    157.0235     28.6923
  1402.9000      8.3209      2.6137      0.0532      2.2009    157.5150     28.5440
  1403.0000      8.2927      2.6225      0.0583      1.6651    159.8467     28.5412
  1403.1000      8.2927      2.6505      0.0293     -0.0291    161.0962     28.6017
  1403.2000      8.2927      2.6880      0.0745     -2.3007    160.6902     28.5568
  1403.3000      8.2860      2.7130      0.0904     -3.8160    159.3425     28.2800
  1403.4000      8.2860      2.7143      0.0934     -3.8971    160.0653     27.8511
  1403.5000      8.2869      2.6958      0.1006     -2.7778    162.4634     27.4632
  1403.6000      8.2869      2.6654      0.0549     -0.9314    160.0816     27.1448
  1403.7000      8.2869      2.6316      0.0216      1.1176    152.3728     26.8041
  1403.8000      8.2766      2.6027      0.0169      2.8690    146.0748     26.5296
  1403.9000      8.2766      2.5873     -0.0336      3.8018    143.5524     26.4279
  1404.0000      8.2758      2.5837      0.0278      4.0157    142.1800     26.5018
  1404.1000      8.2758      2.5807     -0.0100      4.2006    142.1946     26.7206
  1404.2000      8.2758      2.5786      0.0201      4.3262    145.4389     27.2068
  1404.3000      8.2890      2.5766      0.0828      4.4458    149.7824     27.8920
  1404.4000      8.2890      2.5727     -0.0031      4.6855    150.7917     28.1968
  1404.5000      8.2799      2.5799      0.0445      4.2490    148.1463     27.7255
  1404.6000      8.2799      2.5962      0.1044      3.2604    145.8769     26.7449
  1404.7000      8.2799      2.5969      0.0802      3.2162    147.4159     25.9443
  1404.8000      8.2571      2.5761      0.0638      4.4813    151.3259     25.8045
  1404.9000      8.2571      2.5577      0.0126      5.5949    153.8230     26.0939
  1405.0000      8.2657      2.5577      0.0531      5.5950    154.8290     26.1174
  1405.1000      8.2657      2.5637      0.0483      5.2293    155.4729     25.6975
  1405.2000      8.2657      2.5605      0.0485      5.4234    155.4479     25.3869
  1405.3000      8.2464      2.5514      0.0203      5.9757    154.8760     25.3937
  1405.4000      8.2464      2.5481      0.0181      6.1749    155.2862     25.4819
  1405.5000      8.2348      2.5409      0.0728      6.6113    156.2783     25.4854
  1405.6000      8.2348      2.5116      0.0133      8.3885    154.7528     25.3743
  1405.7000      8.2348      2.4711      0.0227     10.8428    152.7132     25.4315
  1405.8000      8.2602      2.4469     -0.0408     12.3069    154.3373     25.7975
  1405.9000      8.2602      2.4464      0.0162     12.3375    157.5366     26.2759
  1406.0000      8.3121      2.4546      0.0241     11.8428    160.2035     26.6676
  1406.1000      8.3121      2.4608      0.0191     11.4639    162.8463     26.7885
  1406.2000      8.3121      2.4617      0.0363     11.4132    163.5259     26.6439
  1406.3000      8.3525      2.4594      0.0372     11.5544    159.1372     26.5470
  1406.4000      8.3525      2.4693      0.0321     10.9489    150.9038     26.9823
  1406.5000      8.3689      2.4933      0.0769      9.4942    145.4031     27.9426
  1406.6000      8.3689      2.5066      0.0789      8.6881    145.4686     28.6664
  1406.7000      8.3689      2.5013      0.0409      9.0104    147.3863     28.7646
  1406.8000      8.3644      2.5054      0.0113      8.7661    148.7316     28.6910
  1406.9000      8.3644      2.5369      0.0676      6.8539    149.8545     28.6694
  1407.0000      8.3068      2.5741      0.0647      4.6014    151.2510     28.4687
  1407.1000      8.3068      2.5943      0.0477      3.3735    150.6775     27.9483
  1407.2000      8.3068      2.6025      0.0394      2.8758    147.1247     27.2882
  1407.3000      8.2758      2.6068      0.0771      2.6199    141.9342     26.6801
  1407.4000      8.2758      2.6034      0.0704      2.8228    135.8804     26.0011
  1407.5000      8.2431      2.5927      0.0621      3.4751    131.4179     25.2207
  1407.6000      8.2431      2.5788      0.0395      4.3130    128.7877     24.6085
  1407.7000      8.2431      2.5631      0.0611      5.2696    126.1731     24.1541
  1407.8000      8.2200      2.5556     -0.0138      5.7234    124.7698     23.6230
  1407.9000      8.2200      2.5717      0.0326      4.7439    125.3702     23.0121
  1408.0000      8.1403      2.6007      0.0724      2.9896    128.2492     22.4452
  1408.1000      8.1403      2.6179      0.1049      1.9474    133.7860     22.0759
  1408.2000      8.1403      2.6194      0.0492      1.8527    136.6702     22.1132
  1408.3000      8.1628      2.6194      0.0573      1.8549    131.4799     22.3368
  1408.4000      8.1628      2.6250      0.0684      1.5159    124.7335     22.3241
  1408.5000      8.1269      2.6302      0.0473      1.2028    124.0272     22.3103
  1408.6000      8.1269      2.6303      0.0739      1.1962    125.4088     22.5297
  1408.7000      8.1269      2.6276      0.0765      1.3553    125.1819     22.5923
  1408.8000      8.1177      2.6275      0.0482      1.3653    124.1408     22.1701
  1408.9000      8.1177      2.6360      0.0385      0.8500    122.8580     21.6140
  1409.0000      8.1220      2.6518      0.0850     -0.1065    122.2420     21.4194
  1409.1000      8.1220      2.6634      0.1064     -0.8093    120.9049     21.4786
  1409.2000      8.1220      2.6646      0.1078     -0.8878    116.9177     21.2977
  1409.3000      8.1450      2.6584      0.0658     -0.5106    111.2432     20.8651
  1409.4000      8.1450      2.6451      0.0727      0.2985    109.4218     20.5439
  1409.5000      8.1242      2.6285      0.0187      1.3003    115.0016     20.2780
  1409.6000      8.1242      2.6170      0.0526      2.0001    119.3407     19.8586
  1409.7000      8.1242      2.6082      0.0427      2.5317    115.0349     19.3666
  1409.8000      8.1267      2.6009      0.0259      2.9782    108.9159     18.8770
  1409.9000      8.1267      2.5953      0.0423      3.3128    106.5408     18.3669
  1410.0000      8.1385      2.5852      0.0141      3.9287    106.7341     17.8486
  1410.1000      8.1385      2.5713     -0.0042      4.7672    110.1722     17.5925
  1410.2000      8.1385      2.5609      0.0372      5.4009    114.2935     18.0271
  1410.3000      8.1168      2.5635      0.0066      5.2425    113.9484     18.9897
  1410.4000      8.1168      2.5858      0.0620      3.8928    110.4678     19.9164
  1410.5000      8.1118      2.6101      0.1048      2.4191    107.6477     20.6006
  1410.6000      8.1118      2.6162      0.0795      2.0514    106.3942     21.0254
  1410.7000      8.1118      2.6125      0.0568      2.2756    105.7560     20.9922
  1410.8000      8.0998      2.6123      0.0789      2.2824    107.5013     20.5027
  1410.9000      8.0998      2.6152      0.0821      2.1061    114.0660     20.0669
  1411.0000      8.1066      2.6213      0.1180      1.7383    122.0344     19.9417
  1411.1000      8.1066      2.6320      0.1172      1.0892    126.0248     20.2670
  1411.2000      8.1066      2.6441      0.1662      0.3605    126.2689     21.2579
  1411.3000      8.1140      2.6565      0.1301     -0.3911    126.7592     22.4324
  1411.4000      8.1140      2.6705      0.1526     -1.2402    131.6311     22.9892
  1411.5000      8.1224      2.6762      0.1625     -1.5873    139.5099     23.0744
  1411.6000      8.1224      2.6637      0.1523     -0.8295    142.7054     23.3940
  1411.7000      8.1224      2.6407      0.0949      0.5634    140.7389     23.9423
  1411.8000      8.1241      2.6241      0.0617      1.5698    139.6329     24.3763
  1411.9000      8.1241      2.6182      0.1050      1.9288    140.2959     24.6706
