~Version Information
VERS.                      2.0: CWLS Log ASCII Standard - VERSION 2.0
WRAP.                       NO: One line per depth step
~Well Information Block
STRT.FT               260.0000: 
STOP.FT              1200.5000: 
STEP.FT                 0.2500: 
NULL.                -999.2500: 
COMP.          Evergreen Operating Corporation: COMPANY
WELL.             Justin 32-10: WELL
FLD.           Purgatorie River: FIELD
LOC.           2994' FNL & 1449' FEL: LOCATION
PROV.                 Colorado: PROVINCE
CNTY.               Las Animas: COUNTRY
SRVC.                         : SERVICE COMPANY
DATE.          Sun Aug 29 20:47:20 2004: LOG DATE
UWI.           05 071 08053 00: UNIQUE WELL ID
~Curve Information Block
DEPT.FT            0 000 00 00: Depth
LTEN.lb                       : Surface Line Tension
SN.Ohm-m                      : IEL Short Normal
SP.mV                         : IEL Spontaneous Potential
DIR.Ohm-m                     : IEL Induction Resistivity
GR.GAPI                       : Gamma Ray
~Parameter Information Block
~A  Depth       LTEN         SN          SP         DIR          GR     
# ...
   568.0000    667.9957   2000.0000   2000.0000     26.8420    131.6751
   568.2500    672.1754   2000.0000   2000.0000     26.8363    130.8309
   568.5000    674.9384   2000.0000   2000.0000     26.9867    130.7138
   568.7500    674.0143   2000.0000   2000.0000     27.2905    131.1265
   569.0000    670.0558   2000.0000   2000.0000     27.7770    132.1138
   569.2500    666.2435   2000.0000   2000.0000     28.4991    132.9225
   569.5000    665.5649   2000.0000   2000.0000     29.4912    134.2766
   569.7500    668.4516   2000.0000   2000.0000     30.7161    135.0059
   570.0000    672.7992   2000.0000   2000.0000     32.0269    134.8083
   570.2500    675.9086   2000.0000   2000.0000     33.1544    133.2501
   570.5000    676.3409   2000.0000   2000.0000     33.7571    128.8222
   570.7500    674.3704   2000.0000   2000.0000     33.5638    125.2031
   571.0000    671.4230   2000.0000   2000.0000     32.5848    120.4641
   571.2500    669.1888   2000.0000   2000.0000     31.1938    118.3536
   571.5000    668.5780   2000.0000   2000.0000     29.9432    116.2849
   571.7500    669.0212   2000.0000   2000.0000     29.2862    114.7350
   572.0000    668.9681   2000.0000   2000.0000     29.4392    111.0942
   572.2500    667.2819   2000.0000   2000.0000     30.3880    108.0996
   572.5000    664.0007   2000.0000   2000.0000     31.9433    104.3441
   572.7500    659.9369   2000.0000   2000.0000     33.8360    102.9559
   573.0000    656.1136   2000.0000   2000.0000     35.8604    102.2330
   573.2500    653.5604   2000.0000   2000.0000     37.9735    102.1681
   573.5000    652.9643   2000.0000   2000.0000     40.2115    102.6797
   573.7500    654.3579   2000.0000   2000.0000     42.4595    103.8025
   574.0000    657.3910   2000.0000   2000.0000     44.3248    106.7018
   574.2500    661.6763   2000.0000   2000.0000     45.3564    108.8645
   574.5000    666.4734   2000.0000   2000.0000     45.4898    111.1887
   574.7500    670.3376   2000.0000   2000.0000     45.1602    111.6402
   575.0000    671.7841   2000.0000   2000.0000     44.8995    110.2817
   575.2500    670.4453   2000.0000   2000.0000     44.9080    107.8714
   575.5000    667.4571   2000.0000   2000.0000     45.0128    101.8587
   575.7500    664.7678   2000.0000   2000.0000     44.9864     96.5316
   576.0000    663.9190   2000.0000   2000.0000     44.9748     88.1515
   576.2500    665.0507   2000.0000   2000.0000     45.5925     83.5447
   576.5000    667.0408   2000.0000   2000.0000     47.6416     79.2710
   576.7500    668.9575   2000.0000   2000.0000     51.7757     77.8901
   577.0000    671.2424   2000.0000   2000.0000     58.1841     76.5777
   577.2500    675.0077   2000.0000   2000.0000     66.1365     75.4558
   577.5000    680.1645   2000.0000   2000.0000     73.6608     72.8673
   577.7500    684.7277   2000.0000   2000.0000     78.3303     70.6861
   578.0000    686.2415   2000.0000   2000.0000     78.9953     67.3813
   578.2500    683.9332   2000.0000   2000.0000     76.3219     65.4552
   578.5000    679.3297   2000.0000   2000.0000     71.7002     63.1369
   578.7500    674.6732   2000.0000   2000.0000     66.3809     62.0422
   579.0000    671.1281   2000.0000   2000.0000     61.3626     61.4328
   579.2500    668.9293   2000.0000   2000.0000     57.4314     61.9263
   579.5000    668.5833   2000.0000   2000.0000     55.1365     63.9373
   579.7500    670.6448   2000.0000   2000.0000     54.7935     65.7111
   580.0000    674.3786   2000.0000   2000.0000     56.5479     67.8880
   580.2500    677.8027   2000.0000   2000.0000     60.4146     68.4720
   580.5000    679.4560   2000.0000   2000.0000     66.2291     68.1006
   580.7500    679.5488   2000.0000   2000.0000     73.4461     67.6750
   581.0000    679.0699   2000.0000   2000.0000     80.8101     68.0034
   581.2500    678.1853   2000.0000   2000.0000     86.2486     69.0321
   581.5000    676.1093   2000.0000   2000.0000     87.7153     70.9216
   581.7500    672.6111   2000.0000   2000.0000     84.8972     71.6949
   582.0000    668.9796   2000.0000   2000.0000     79.7358     71.5958
   582.2500    667.0274   2000.0000   2000.0000     74.8627     70.9835
   582.5000    667.4146   2000.0000   2000.0000     71.9240     70.2231
   582.7500    669.2576   2000.0000   2000.0000     71.2356     70.1806
   583.0000    671.0754   2000.0000   2000.0000     72.0765     70.6823
   583.2500    671.8634   2000.0000   2000.0000     73.1949     71.1284
   583.5000    671.5544   2000.0000   2000.0000     73.6108     71.8653
   583.7500    670.5789   2000.0000   2000.0000     73.3525     72.6303
   584.0000    668.9418   2000.0000   2000.0000     73.2960     74.6030
   584.2500    666.1432   2000.0000   2000.0000     74.3518     76.4086
   584.5000    662.4159   2000.0000   2000.0000     76.8077     79.1292
   584.7500    659.4609   2000.0000   2000.0000     80.0685     80.4376
   585.0000    659.2682   2000.0000   2000.0000     82.7403     81.1681
   585.2500    662.3549   2000.0000   2000.0000     83.2387     80.8248
   585.5000    667.3030   2000.0000   2000.0000     80.8363     79.1856
   585.7500    671.6201   2000.0000   2000.0000     76.1852     77.4538
   586.0000    673.2365   2000.0000   2000.0000     70.7521     74.4400
   586.2500    672.1151   2000.0000   2000.0000     65.9056     72.7390
   586.5000    670.5547   2000.0000   2000.0000     62.4491     71.6826
   586.7500    671.1708   2000.0000   2000.0000     60.6454     72.2342
   587.0000    674.3862   2000.0000   2000.0000     60.3806     74.5028
   587.2500    678.4017   2000.0000   2000.0000     61.2823     76.2940
   587.5000    681.4121   2000.0000   2000.0000     62.8000     78.0011
   587.7500    683.0686   2000.0000   2000.0000     64.3793     77.9256
   588.0000    683.9089   2000.0000   2000.0000     65.7006     76.0427
   588.2500    684.2336   2000.0000   2000.0000     66.8193     74.1797
   588.5000    683.7897   2000.0000   2000.0000     67.9901     71.6258
   588.7500    682.1249   2000.0000   2000.0000     69.2898     70.4280
   589.0000    679.0568   2000.0000   2000.0000     70.3300     69.2507
   589.2500    675.0339   2000.0000   2000.0000     70.3552     68.6296
   589.5000    671.2431   2000.0000   2000.0000     68.8242     67.7657
   589.7500    669.1321   2000.0000   2000.0000     65.9770     67.3203
   590.0000    669.4207   2000.0000   2000.0000     62.7090     67.0145
   590.2500    671.4854   2000.0000   2000.0000     59.9518     67.0323
   590.5000    673.8564   2000.0000   2000.0000     58.3074     67.1298
   590.7500    675.5121   2000.0000   2000.0000     58.0842     67.0188
   591.0000    676.6792   2000.0000   2000.0000     59.4353     66.3577
   591.2500    678.1625   2000.0000   2000.0000     62.3580     65.7344
   591.5000    679.9471   2000.0000   2000.0000     66.5358     65.2625
   591.7500    680.9630   2000.0000   2000.0000     71.1959     65.6746
   592.0000    680.4632   2000.0000   2000.0000     75.2610     67.4224
   592.2500    679.1656   2000.0000   2000.0000     77.8793     68.8768
   592.5000    678.4914   2000.0000   2000.0000     78.9008     70.3282
   592.7500    678.9778   2000.0000   2000.0000     78.8260     70.3145
   593.0000    680.0598   2000.0000   2000.0000     78.4133     68.8549
   593.2500    681.1472   2000.0000   2000.0000     78.3619     67.4797
   593.5000    682.1279   2000.0000   2000.0000     79.0790     66.1393
   593.7500    682.9737   2000.0000   2000.0000     80.4834     66.2136
   594.0000    683.5321   2000.0000   2000.0000     81.9461     67.5071
   594.2500    683.5852   2000.0000   2000.0000     82.5769     68.5577
   594.5000    682.7697   2000.0000   2000.0000     81.8933     69.7229
   594.7500    680.8847   2000.0000   2000.0000     80.2874     70.3661
   595.0000    678.6337   2000.0000   2000.0000     78.7087     71.8802
   595.2500    677.5375   2000.0000   2000.0000     77.8401     73.5373
   595.5000    678.5905   2000.0000   2000.0000     77.5077     76.8694
   595.7500    681.0584   2000.0000   2000.0000     76.6968     79.3290
