~Version Information
VERS.                      2.0: CWLS Log ASCII Standard - VERSION 2.0
WRAP.                       NO: One line per depth step
~Well Information Block
STRT.FT                 3.0000: 
STOP.FT              1884.7500: 
STEP.FT                 0.2500: 
NULL.                -999.2500: 
COMP.          Pioneer Natural Resources: COMPANY
WELL.          Blackjack 32-11 Tr: WELL
FLD.           Purgatoire River: FIELD
LOC.           2066' FNL & 1453' FEL: LOCATION
PROV.                 Colorado: PROVINCE
CNTY.               Las Animas: COUNTRY
SRVC.                Patterson: SERVICE COMPANY
DATE.          Fri Aug 19 11:07:11 2005: LOG DATE
UWI.           05 071 08310 00: UNIQUE WELL ID
~Curve Information Block
DEPT.FT            0 000 00 00: Depth
CCL.                          : Casing Collar Locator
TT3.usec                      : CBL 3' Travel Time
AMP3.mV                       : CBL 3' Amplitude
GR.GAPI                       : Gamma Ray
~Parameter Information Block
~A  Depth       CCL         TT3         AMP3         GR     
# ...
  1611.0000      0.0000    598.5938     22.8442     89.0819
  1611.2500      0.0000    603.9266     22.5580     88.5009
  1611.5000      0.0000    594.8106     22.3199     86.4087
  1611.7500      0.0000    581.9698     22.0946     84.3949
  1612.0000      0.0000    581.1678     21.8496     83.0839
  1612.2500      0.0000    600.7410     21.5676     82.0948
  1612.5000      0.0000    633.4960     21.2588     81.0722
  1612.7500      0.0000    661.9904     20.9589     80.1778
  1613.0000      0.0000    670.7948     20.7128     79.6628
  1613.2500      0.0000    654.1881     20.5685     79.4749
  1613.5000      0.0000    616.8129     20.5747     79.5942
  1613.7500      0.0000    570.6407     20.7511     80.5871
  1614.0000      0.0000    529.1581     21.0423     83.3458
  1614.2500      0.0000    500.6777     21.3379     88.0450
  1614.5000      0.0000    485.9082     21.5717     93.6234
  1614.7500      0.0000    481.3830     21.7838     98.5574
  1615.0000      0.0000    484.3734     22.0457    101.9420
  1615.2500      0.0000    494.1916     22.3412    103.6954
  1615.5000      0.0000    508.9988     22.5626    104.1069
  1615.7500      0.0000    522.1358     22.6180    103.4980
  1616.0000      0.0000    524.1985     22.5077    102.1665
  1616.2500      0.0000    511.0861     22.2968    100.3951
  1616.5000      0.0000    488.7910     22.0540     98.4841
  1616.7500      0.0000    468.1108     21.8371     96.8490
  1617.0000      0.0000    455.7117     21.7193     96.0257
  1617.2500      0.0000    451.5721     21.7888     96.4532
  1617.5000      0.0000    452.8378     22.0880     98.2028
  1617.7500      0.0000    457.2093     22.5603    100.9602
  1618.0000      0.0000    462.8623     23.0851    104.2859
  1618.2500      0.0000    467.4171     23.5620    107.7377
  1618.5000      0.0000    468.2861     23.9419    110.5911
  1618.7500      0.0000    463.7763     24.2049    111.7923
  1619.0000      0.0000    454.0176     24.3597    110.7131
  1619.2500      0.0000    441.6040     24.4688    107.9147
  1619.5000      0.0000    431.3620     24.6275    104.8144
  1619.7500      0.0000    428.3407     24.8774    102.5558
  1620.0000      0.0000    435.2662     25.1344    101.2624
  1620.2500      0.0000    452.7103     25.2272    100.3288
  1620.5000      0.0000    481.8750     25.0252     99.4103
  1620.7500      0.0000    524.9064     24.5319     98.9605
  1621.0000      0.0000    579.9697     23.8590     99.5078
  1621.2500      0.0000    636.9573     23.1305    100.5963
  1621.5000      0.0000    681.0283     22.4319    101.0345
  1621.7500      0.0000    701.9858     21.8276    100.2757
  1622.0000      0.0000    700.8063     21.3914     99.1133
  1622.2500      0.0000    688.4639     21.2009     98.8414
  1622.5000      0.0000    678.5903     21.2922     99.8902
  1622.7500      0.0000    678.5073     21.6091    101.4716
  1623.0000      0.0000    684.9174     22.0052    102.6278
  1623.2500      0.0000    687.2195     22.3317    103.3725
  1623.5000      0.0000    674.5042     22.5472    104.4078
  1623.7500      0.0000    641.7482     22.7401    105.8512
  1624.0000      0.0000    594.5358     23.0306    106.8668
  1624.2500      0.0000    549.0713     23.4378    106.7132
  1624.5000      0.0000    522.6487     23.8450    105.6040
  1624.7500      0.0000    520.8617     24.1075    104.2944
  1625.0000      0.0000    536.0330     24.1903    103.2406
  1625.2500      0.0000    557.6390     24.1903    102.3173
  1625.5000      0.0000    579.5718     24.2242    100.9243
  1625.7500      0.0000    597.6555     24.3112     98.2785
  1626.0000      0.0000    607.3271     24.3766     94.0367
  1626.2500      0.0000    606.6724     24.3559     88.7881
  1626.5000      0.0000    597.5737     24.2675     83.7266
  1626.7500      0.0000    582.2585     24.1812     79.8246
  1627.0000      0.0000    561.8302     24.1417     77.4665
  1627.2500      0.0000    539.3372     24.1432     76.7236
  1627.5000      0.0000    521.2199     24.1580     77.6187
  1627.7500      0.0000    512.4559     24.1690     79.8863
  1628.0000      0.0000    510.3070     24.1742     82.5866
  1628.2500      0.0000    505.5373     24.1678     84.3213
  1628.5000      0.0000    491.7667     24.1268     84.1844
  1628.7500      0.0000    472.5256     24.0286     82.6184
  1629.0000      0.0000    457.4791     23.8912     81.3173
  1629.2500      0.0000    452.7034     23.7876     82.2113
  1629.5000      0.0000    456.1552     23.8034     86.2792
  1629.7500      0.0000    461.1810     23.9759     92.9209
  1630.0000      0.0000    462.4351     24.2621    100.2380
  1630.2500      0.0000    458.8304     24.5569    106.0717
  1630.5000      0.0000    452.9364     24.7512    109.2420
  1630.7500      0.0000    448.5405     24.7971    110.2507
  1631.0000      0.0000    447.9973     24.7300    110.8924
  1631.2500      0.0000    450.8513     24.6299    112.7892
  1631.5000      0.0000    454.6319     24.5701    115.8519
  1631.7500      0.0000    457.3440     24.5935    118.1744
  1632.0000      0.0000    459.2988     24.7052    117.7893
  1632.2500      0.0000    462.2424     24.8685    114.5495
  1632.5000      0.0000    466.9410     25.0196    110.0540
  1632.7500      0.0000    472.2917     25.1089    105.8917
  1633.0000      0.0000    476.8930     25.1288    102.5368
  1633.2500      0.0000    480.9424     25.0919    100.0585
  1633.5000      0.0000    486.9668     24.9846     99.0205
  1633.7500      0.0000    499.1033     24.7604     99.9697
  1634.0000      0.0000    520.8824     24.3888    102.5946
  1634.2500      0.0000    551.9595     23.8988    106.1180
  1634.5000      0.0000    586.2818     23.3584    110.1202
  1634.7500      0.0000    615.0055     22.8189    114.4911
  1635.0000      0.0000    633.8472     22.2977    119.0020
  1635.2500      0.0000    647.9417     21.8159    123.2551
  1635.5000      0.0000    666.2545     21.4298    126.7555
  1635.7500      0.0000    689.5748     21.2081    128.9669
  1636.0000      0.0000    707.9571     21.1770    129.6429
  1636.2500      0.0000    712.7408     21.2755    129.1255
  1636.5000      0.0000    707.7591     21.3676    128.0316
  1636.7500      0.0000    705.3076     21.3304    126.7024
  1637.0000      0.0000    712.6902     21.1490    125.4035
  1637.2500      0.0000    725.9871     20.9136    124.9417
  1637.5000      0.0000    736.3539     20.7230    126.2537
  1637.7500      0.0000    738.4543     20.6114    129.1047
  1638.0000      0.0000    731.9204     20.5632    131.8737
  1638.2500      0.0000    718.5530     20.5633    133.0676
  1638.5000      0.0000    701.9177     20.6118    132.7088
  1638.7500      0.0000    688.6627     20.6979    132.0511
  1639.0000      0.0000    685.2855     20.7857    132.1647
  1639.2500      0.0000    690.0610     20.8455    132.8562
  1639.5000      0.0000    689.7965     20.8961    132.8010
  1639.7500      0.0000    668.4724     21.0005    130.6467
  1640.0000      0.0000    621.1382     21.2137    125.9942
  1640.2500      0.0000    559.6844     21.5352    119.5365
  1640.5000      0.0000    505.2761     21.9056    112.6786
  1640.7500      0.0000    474.6919     22.2475    107.1766
  1641.0000      0.0000    471.5329     22.5097    104.6310
  1641.2500      0.0000    486.7475     22.6714    105.5118
  1641.5000      0.0000    505.4111     22.7173    108.3796
  1641.7500      0.0000    515.6741     22.6303    110.5613
  1642.0000      0.0000    516.2360     22.4156    110.1939
  1642.2500      0.0000    516.8312     22.1125    107.6573
  1642.5000      0.0000    528.8102     21.7714    104.9175
  1642.7500      0.0000    553.6684     21.4188    103.6416
  1643.0000      0.0000    581.4694     21.0359    104.0109
  1643.2500      0.0000    600.7510     20.5516    105.0382
  1643.5000      0.0000    608.7682     19.8533    105.6829
  1643.7500      0.0000    611.4958     18.8625    105.6011
  1644.0000      0.0000    616.0806     17.6464    105.0381
  1644.2500      0.0000    626.0211     16.3987    104.2315
