~Version Information
VERS.                      2.0: CWLS Log ASCII Standard - VERSION 2.0
WRAP.                       NO: One line per depth step
~Well Information Block
STRT.FT               -11.2500: 
STOP.FT              1597.0000: 
STEP.FT                 0.2500: 
NULL.                -999.2500: 
COMP.          Petrogulf Corporation: COMPANY
WELL.          Great Plains 22-21R: WELL
FLD.           Purgatorie River: FIELD
LOC.           73' FNL & 1992' FWL--: LOCATION
PROV.                       CO: PROVINCE
CNTY.               Las Animas: COUNTRY
SRVC.          Patterson Wireline: SERVICE COMPANY
DATE.          Fri Sep 09 09:02:35 2005: LOG DATE
UWI.           05 071 08343 00: UNIQUE WELL ID
~Curve Information Block
DEPT.FT            0 000 00 00: Depth
CCL.                          : Casing Collar Locator
TT3.usec                      : CBL 3' Travel Time
AMP3.mV                       : CBL 3' Amplitude
GR.GAPI                       : Gamma Ray
~Parameter Information Block
~A  Depth       CCL         TT3         AMP3         GR     
# ...
  1362.2500      0.0000    689.4626     10.3642     67.5184
  1362.5000      0.0000    699.5002     10.1353     67.8436
  1362.7500      0.0000    702.6377      9.9056     70.4925
  1363.0000      0.0000    698.7379      9.6789     74.9199
  1363.2500      0.0000    689.8399      9.4427     80.2361
  1363.5000      0.0000    678.1932      9.1877     85.7106
  1363.7500      0.0000    665.7863      8.9230     91.1964
  1364.0000      0.0000    655.6107      8.6752     97.1964
  1364.2500      0.0000    651.8730      8.4776    104.3943
  1364.5000      0.0000    657.5032      8.3557    112.7286
  1364.7500      0.0000    671.2151      8.3188    120.6503
  1365.0000      0.0000    687.3774      8.3584    125.7169
  1365.2500      0.0000    699.0024      8.4507    126.6587
  1365.5000      0.0000    701.7856      8.5665    125.0135
  1365.7500      0.0000    696.4400      8.6857    124.3077
  1366.0000      0.0000    687.1373      8.8067    127.4319
  1366.2500      0.0000    677.4025      8.9410    134.8450
  1366.5000      0.0000    668.2963      9.0952    145.0459
  1366.7500      0.0000    660.8831      9.2589    156.1114
  1367.0000      0.0000    658.6963      9.4096    166.3721
  1367.2500      0.0000    665.5432      9.5281    174.2028
  1367.5000      0.0000    680.5962      9.6063    178.2469
  1367.7500      0.0000    697.1359      9.6450    178.2085
  1368.0000      0.0000    707.6232      9.6471    175.1603
  1368.2500      0.0000    709.7402      9.6156    170.9333
  1368.5000      0.0000    706.3188      9.5573    167.2781
  1368.7500      0.0000    700.2133      9.4873    165.2402
  1369.0000      0.0000    691.4440      9.4288    164.7757
  1369.2500      0.0000    679.2734      9.4033    164.9964
  1369.5000      0.0000    664.9600      9.4178    165.3674
  1369.7500      0.0000    651.5962      9.4651    166.4855
  1370.0000      0.0000    642.2151      9.5350    168.9503
  1370.2500      0.0000    638.7634      9.6232    171.5494
  1370.5000      0.0000    641.9810      9.7266    171.5791
  1370.7500      0.0000    651.0916      9.8320    167.5771
  1371.0000      0.0000    663.6539      9.9069    161.2668
  1371.2500      0.0000    676.3060      9.9074    156.2525
  1371.5000      0.0000    685.9929      9.8060    154.9833
  1371.7500      0.0000    691.1757      9.6262    157.1626
  1372.0000      0.0000    692.8829      9.4444    160.5123
  1372.2500      0.0000    694.4080      9.3468    162.3936
  1372.5000      0.0000    698.7850      9.3743    160.9624
  1372.7500      0.0000    706.3448      9.5046    155.5191
  1373.0000      0.0000    715.5191      9.6808    146.4391
  1373.2500      0.0000    725.5496      9.8494    135.1228
  1373.5000      0.0000    736.5253      9.9828    123.7936
  1373.7500      0.0000    746.7504     10.0841    114.8094
  1374.0000      0.0000    752.6261     10.1809    110.0364
  1374.2500      0.0000    752.4561     10.3173    110.4102
  1374.5000      0.0000    749.0217     10.5429    115.1387
  1374.7500      0.0000    747.2744     10.8884    121.2432
  1375.0000      0.0000    750.0861     11.3340    124.9858
  1375.2500      0.0000    756.4379     11.8016    124.5240
  1375.5000      0.0000    762.1965     12.1911    121.0613
  1375.7500      0.0000    761.8726     12.4348    117.3252
  1376.0000      0.0000    751.5414     12.5237    115.2235
  1376.2500      0.0000    732.6554     12.4941    114.9472
  1376.5000      0.0000    713.0775     12.3987    115.7929
  1376.7500      0.0000    701.6756     12.2825    117.3182
  1377.0000      0.0000    698.9025     12.1710    119.8010
  1377.2500      0.0000    692.4498     12.0692    123.9638
  1377.5000      0.0000    664.9955     11.9678    130.0573
  1377.7500      0.0000    609.6749     11.8531    136.5907
  1378.0000      0.0000    538.8579     11.7177    140.3942
  1378.2500      0.0000    476.8659     11.5652    139.1500
  1378.5000      0.0000    443.5597     11.4018    133.9824
  1378.7500      0.0000    443.6355     11.2128    128.7078
  1379.0000      0.0000    468.3432     10.9457    126.4334
  1379.2500      0.0000    505.5370     10.5469    127.2345
  1379.5000      0.0000    548.3679     10.0561    128.6974
  1379.7500      0.0000    593.7661      9.6470    128.0894
  1380.0000      0.0000    633.4980      9.5005    124.2884
  1380.2500      0.0000    652.3621      9.6270    118.1016
  1380.5000      0.0000    639.5372      9.8735    110.8544
  1380.7500      0.0000    600.9786     10.0938    103.0915
  1381.0000      0.0000    558.3591     10.2434     95.0487
  1381.2500     -2.0000    534.4436     10.3291     87.6164
  1381.5000      2.0000    538.0928     10.3453     81.8764
  1381.7500      0.0000    561.1543     10.2800     78.0701
  1382.0000      0.0000    586.3130     10.1725     75.7708
  1382.2500      0.0000    598.0337     10.1516     74.7678
  1382.5000      0.0000    592.2032     10.3562     75.2394
  1382.7500      0.0000    579.8127     10.7524     77.1827
  1383.0000      0.0000    577.9007     11.0786     80.0493
  1383.2500      0.0000    593.7162     11.0648     83.0955
  1383.5000      0.0000    619.8056     10.6799     86.1358
  1383.7500      0.0000    644.4932     10.1075     89.8922
  1384.0000      0.0000    662.4612      9.5347     95.4103
  1384.2500      0.0000    674.2624      9.0225    103.0727
  1384.5000      0.0000    680.7437      8.5326    112.2783
  1384.7500      0.0000    681.6973      8.0179    121.7410
  1385.0000      0.0000    678.1793      7.4903    129.5931
  1385.2500      0.0000    673.2230      7.0201    133.6724
  1385.5000      0.0000    669.8966      6.6750    132.8179
  1385.7500      0.0000    669.3801      6.4668    128.0990
  1386.0000      0.0000    670.8672      6.3596    122.3544
  1386.2500      0.0000    673.1386      6.3053    118.5469
  1386.5000      0.0000    676.4780      6.2590    118.3962
  1386.7500      0.0000    682.9523      6.1806    121.9133
  1387.0000      0.0000    694.0964      6.0448    127.8862
  1387.2500      0.0000    708.2249      5.8546    134.8176
  1387.5000      0.0000    720.6837      5.6419    141.4305
  1387.7500      0.0000    727.1418      5.4523    146.6367
  1388.0000      0.0000    726.3730      5.3187    149.5689
  1388.2500      0.0000    720.0914      5.2349    149.6624
  1388.5000      0.0000    711.1629      5.1591    146.6089
  1388.7500      0.0000    702.1179      5.0489    140.5822
  1389.0000      0.0000    693.8116      4.8915    132.6924
  1389.2500      0.0000    683.9755      4.7022    124.6535
  1389.5000      0.0000    667.3223      4.5060    117.4624
  1389.7500      0.0000    639.4258      4.3234    110.7774
  1390.0000      0.0000    602.4350      4.1660    104.0527
  1390.2500      0.0000    565.9906      4.0390     97.8356
  1390.5000      0.0000    539.7252      3.9456     93.3987
  1390.7500      0.0000    524.8262      3.8872     91.3001
  1391.0000      0.0000    515.3042      3.8599     90.6853
  1391.2500      0.0000    507.4521      3.8542     90.1289
  1391.5000      0.0000    505.8194      3.8637     89.0773
  1391.7500      0.0000    519.1140      3.8901     88.2821
  1392.0000      0.0000    550.5003      3.9373     88.7663
  1392.2500      0.0000    592.1270      4.0015     90.5581
  1392.5000      0.0000    629.7928      4.0702     92.6365
  1392.7500      0.0000    653.2686      4.1328     94.1716
  1393.0000      0.0000    662.2325      4.1908     95.7380
  1393.2500      0.0000    663.5176      4.2567     99.0298
  1393.5000      0.0000    664.1863      4.3409    105.0328
  1393.7500      0.0000    667.2937      4.4407    112.5409
  1394.0000      0.0000    672.6991      4.5412    118.7968
  1394.2500      0.0000    680.0355      4.6258    121.6503
  1394.5000      0.0000    689.3600      4.6852    120.9034
  1394.7500      0.0000    699.1127      4.7206    117.7099
  1395.0000      0.0000    705.3456      4.7416    113.3076
  1395.2500      0.0000    704.9218      4.7646    108.6148
  1395.5000      0.0000    699.5229      4.8074    104.6040
