~Version Information
 VERS.                                  2.0 : CWLS LAS VERSION
 WRAP.                                   NO : WRAPING MODE
 SWARE .                 MController 2.5.0J : SOFTWARE VERSION
~Well Information
 WELL.                      Oink Oink 14-36 : WELL
 COMP.    Pioneer Natural Resources USA Ink : COMPANY
 FLD.                      Purgatoire River : FIELD
 LOC.                SW/SW Sec 36 T32S R37W : LOCATION
 DATE.                         6/07-08/2005 : DATE(S) LOGGED
 SRVC.       Blanco Geological Services LLC : SERVICE COMPANY
 STAT.                                   CO : STATE
 CNTY.                           Las Animas : COUNTY
 CTRY.                                  USA : COUNTRY
 API.                       05-071-08394-00 : API NUMBER
 STRT.FT                             514.00 : START DEPTH
 STOP.FT                            2457.00 : STOP DEPTH
 STEP.FT                               1.00 : DEPTH INCREMENT
 NULL.                                -9999 : NULL VALUE
~Curve information
 DEPTH.FT                                   :
 ROP.MIN/FT                                 :
 GAS.UNITS                                  :
~ASCII Log data
       514.0     -9999.00          0.4 
       515.0         3.32          2.2 
       516.0         0.20          2.4 
       517.0         0.23          2.0 
       518.0         0.27          2.6 
       519.0         0.23          3.3 
       520.0         0.23          3.8 
       521.0         0.20          4.7 
       522.0         0.20          5.4 
       523.0         0.28          6.3 
       524.0         0.20          6.7 
       525.0         0.20          7.3 
       526.0         0.20          8.3 
       527.0         0.27          8.7 
       528.0         0.17          9.3 
       529.0         0.13          8.9 
       530.0         0.20         10.0 
       531.0         0.23         10.0 
       532.0         0.27          9.5 
       533.0         0.20         10.3 
       534.0         0.30         11.2 
       535.0         0.33         11.8 
       536.0         1.35         14.1 
       537.0         0.33          5.7 
       538.0         0.23          4.3 
       539.0         0.20          4.2 
       540.0         0.13          4.6 
       541.0         0.13          4.4 
       542.0         0.23          6.0 
       543.0         0.23          8.4 
       544.0         0.23         10.4 
       545.0         0.27         13.8 
       546.0         0.23         14.5 
       547.0         0.23         16.0 
       548.0         0.22         16.2 
       549.0         0.17         15.9 
       550.0         0.13         17.1 
       551.0         0.10         16.3 
       552.0         0.10         16.0 
       553.0         0.10         16.8 
       554.0         0.13         17.2 
       555.0         0.10         16.2 
       556.0         0.13         16.0 
       557.0         0.07         17.5 
       558.0         0.10         18.2 
       559.0         0.13         18.4 
       560.0         0.17         20.6 
       561.0         0.20         21.5 
       562.0         0.23         21.9 
       563.0         0.17         18.9 
       564.0         0.13         19.1 
       565.0         0.20         17.9 
       566.0         1.38         24.1 
       567.0         0.30         14.8 
       568.0         0.30         10.8 
       569.0         0.23          7.8 
       570.0         0.20          7.2 
       571.0         0.20          7.8 
       572.0         0.20         10.9 
       573.0         0.17         12.6 
       574.0         0.20         16.1 
       575.0         0.17         19.0 
       576.0         0.17         22.1 
       577.0         0.23         24.5 
       578.0         0.30         26.6 
       579.0         0.28         27.9 
       580.0         0.23         28.0 
       581.0         0.20         26.6 
       582.0         0.10         25.7 
       583.0         0.13         25.0 
       584.0         0.10         24.4 
       585.0         0.13         24.2 
       586.0         0.13         23.8 
       587.0         0.17         24.8 
       588.0         0.20         25.4 
       589.0         0.20         25.3 
       590.0         0.20         25.0 
       591.0         0.23         25.1 
       592.0         0.20         26.2 
       593.0         0.20         28.3 
       594.0         0.20         30.9 
       595.0         0.20         29.9 
       596.0         2.05         24.7 
       597.0         0.30          5.7 
       598.0         0.30          5.1 
       599.0         0.27          4.7 
       600.0         0.20          5.1 
       601.0         0.27          5.5 
       602.0         0.25          4.9 
       603.0         0.27          4.9 
       604.0         0.27          5.5 
       605.0         0.20          5.7 
       606.0         0.23          5.6 
       607.0         0.20          5.4 
       608.0         0.20          5.7 
       609.0         0.20          6.1 
       610.0         0.20          6.1 
       611.0         0.27          5.6 
       612.0         0.23          4.9 
       613.0         0.23         17.5 
       614.0         0.17         67.6 
       615.0         0.17        129.2 
       616.0         0.17        175.4 
       617.0         0.28        218.4 
       618.0         0.23        238.6 
       619.0         0.20        249.2 
       620.0         0.20        254.8 
       621.0         0.20        257.5 
       622.0         0.23        260.2 
       623.0         0.17        262.2 
       624.0         0.20        263.8 
       625.0         0.17        264.8 
       626.0         1.75        265.1 
       627.0         0.37         89.4 
       628.0         0.27        171.5 
       629.0         0.23        276.9 
       630.0         0.20        349.0 
       631.0         0.23        395.0 
       632.0         0.20        405.5 
       633.0         0.17        405.0 
       634.0         0.27        395.4 
       635.0         0.27        369.5 
       636.0         0.23        340.1 
       637.0         0.17        317.3 
       638.0         0.20        303.9 
       639.0         0.20        291.2 
       640.0         0.17        281.8 
       641.0         0.22        275.9 
       642.0         0.20        269.8 
       643.0         0.20        265.6 
       644.0         0.20        263.1 
       645.0         0.20        260.4 
       646.0         0.17        258.0 
       647.0         0.23        256.8 
       648.0         0.23        255.2 
       649.0         0.20        253.7 
       650.0         0.20        252.1 
       651.0         0.17        251.0 
       652.0         0.20        251.2 
       653.0         0.20        251.2 
       654.0         0.17        250.8 
       655.0         0.20        251.2 
       656.0         1.52        251.6 
       657.0         0.20        161.5 
       658.0         0.23        124.2 
       659.0         0.20         88.0 
       660.0         0.20         66.2 
       661.0         0.13         67.7 
       662.0         0.10         87.3 
       663.0         0.10        120.0 
       664.0         0.13        166.5 
       665.0         0.27        245.5 
       666.0         0.30        297.9 
       667.0         0.20        312.8 
       668.0         0.13        315.2 
       669.0         0.15        315.3 
       670.0         0.13        314.3 
       671.0         0.17        310.7 
       672.0         0.20        304.0 
       673.0         0.23        294.2 
       674.0         0.23        285.8 
       675.0         0.23        280.9 
       676.0         0.20        275.5 
       677.0         0.20        272.1 
       678.0         0.20        269.5 
       679.0         0.20        266.7 
       680.0         0.20        262.7 
       681.0         0.07        259.7 
       682.0         0.13        259.0 
       683.0         0.10        257.5 
       684.0         0.13        255.6 
       685.0         0.20        254.8 
       686.0         2.65        256.4 
       687.0         0.30         25.9 
       688.0         0.23         24.2 
       689.0         0.23         50.3 
       690.0         0.55        151.3 
       691.0         0.33        216.8 
       692.0         0.10        229.5 
       693.0         0.17        238.2 
       694.0         0.23        238.6 
       695.0         0.17        231.9 
       696.0         0.10        216.2 
       697.0         0.23        201.6 
       698.0         0.20        161.3 
       699.0         0.23        128.2 
       700.0         0.17        105.4 
       701.0         0.20        101.7 
       702.0         0.20        105.1 
       703.0         0.20        108.9 
       704.0         0.17        113.1 
       705.0         0.20        120.9 
       706.0         0.25        131.2 
       707.0         0.20        140.6 
       708.0         0.23        153.4 
       709.0         0.17        160.0 
       710.0         0.20        167.6 
       711.0         0.20        174.8 
       712.0         0.20        176.5 
       713.0         0.23        175.0 
