~Version Information
VERS.                      2.0: CWLS Log ASCII Standard - VERSION 2.0
WRAP.                       NO: One line per depth step
~Well Information Block
STRT.FT               460.0000: 
STOP.FT               961.2500: 
STEP.FT                 0.2500: 
NULL.                -999.2500: 
COMP.          Pioneer Natural Resources: COMPANY
WELL.                Pug 33-19: WELL
FLD.           Purgatoire River: FIELD
LOC.           1381' FSL & 2140' FEL: LOCATION
PROV.                 Colorado: PROVINCE
CNTY.               Las Animas: COUNTRY
SRVC.                Patterson: SERVICE COMPANY
DATE.          Tue Dec 14 08:25:14 2004: LOG DATE
UWI.           05 071 08193 00: UNIQUE WELL ID
~Curve Information Block
DEPT.FT            0 000 00 00: Depth
SN.Ohm-m                      : IEL Short Normal
SP.mV                         : IEL Spontaneous Potential
DIR.Ohm-m                     : IEL Induction Resistivity
GR.GAPI                       : Gamma Ray
~Parameter Information Block
~A  Depth        SN          SP         DIR          GR     
   460.0000     -3.0463     66.1447     46.6627     84.1508
   460.2500     -3.0392     66.5763     47.1568     87.3653
   460.5000     -3.0290     67.0695     52.8184     92.1620
   460.7500     -3.0199     67.6243     64.0302     94.7909
   461.0000     -3.0146     68.2393     78.6493     98.2738
   461.2500     -3.0120     68.9129     88.8730    100.7672
   461.5000     -3.0098     69.6453     86.6030    104.7940
   461.7500     -3.0079     70.4393     74.7569    107.1983
   462.0000     -3.0084     71.2974     61.9034    109.3872
   462.2500     -3.0130     72.2176     52.4105    109.4925
   462.5000     -3.0208     73.1889     46.4907    107.7122
   462.7500     -3.0300     74.1893     42.7078    105.8696
   463.0000     -3.0398     75.1886     39.2301    103.2568
   463.2500     -3.0511     76.1558     34.9031    101.5334
   463.5000     -3.0639     77.0694     30.1117     97.6866
   463.7500     -3.0740     77.9278     26.0652     93.8174
   464.0000     -3.0751     78.7555     23.5309     86.8380
   464.2500     -3.0645     79.6037     22.6109     82.3082
   464.5000     -3.0454     80.5415     23.0272     76.6685
   464.7500     -3.0246     81.6396     24.2690     73.8232
   465.0000     -3.0101     82.9498     25.7805     71.0034
   465.2500     -3.0087     84.4860     27.4798     70.0591
   465.5000     -3.0235     86.2141     30.1354     69.5618
   465.7500     -3.0506     88.0551     35.1467     69.4612
   466.0000     -3.0802     89.9015     43.9181     69.5610
   466.2500     -3.1033     91.6426     55.4841     70.1938
   466.5000     -3.1168     93.1874     61.4361     72.8057
   466.7500     -3.1218     94.4817     53.9323     75.6675
   467.0000     -3.1185     95.5118     41.0720     80.3553
   467.2500     -3.1069     96.3004     31.1019     82.4591
   467.5000     -3.0895     96.8973     24.9513     82.2118
   467.7500     -3.0712     97.3685     21.5389     79.6065
   468.0000     -3.0561     97.7867     20.0650     73.6836
   468.2500     -3.0468     98.2216     20.3053     69.8523
   468.5000     -3.0452     98.7292     22.7576     65.8381
   468.7500     -3.0505     99.3398     29.8598     64.2946
   469.0000     -3.0573    100.0437     57.4576     62.9874
   469.2500     -3.0580    100.7737 100000.0000     62.6181
   469.5000     -3.0491    101.3845 100000.0000     62.9583
   469.7500     -3.0335    101.6308 100000.0000     63.8290
   470.0000     -3.0167    101.1540 100000.0000     65.9492
   470.2500     -3.0031     99.4926 100000.0000     67.7497
   470.5000     -2.9936     96.1368 100000.0000     70.6138
   470.7500     -2.9841     90.6365 100000.0000     72.1901
   471.0000     -2.9580     82.7459 100000.0000     73.0110
   471.2500     -2.8707     72.5538 100000.0000     72.0860
   471.5000     -2.6277     60.5324 100000.0000     68.7234
   471.7500     -2.0760     47.4631 100000.0000     65.8601
   472.0000     -1.0457     34.2539     21.1181     61.9928
   472.2500      0.5506     21.7258      7.0545     60.2157
   472.5000      2.6310     10.4608      4.1704     59.0922
   472.7500      4.9592      0.7637      3.2943     59.3476
   473.0000      7.2625     -7.2740      3.2925     60.7610
   473.2500      9.3523    -13.6709      4.1608     61.8450
   473.5000     11.1632    -18.4773      7.0948     62.7939
   473.7500     12.7191    -21.7501     24.4039     62.8731
   474.0000     14.0782    -23.5704 100000.0000     62.8506
   474.2500     15.2928    -24.0742 100000.0000     63.3485
   474.5000     16.3888    -23.4664 100000.0000     65.6768
   474.7500     17.3618    -22.0098 100000.0000     68.5516
   475.0000     18.1826    -19.9951 100000.0000     75.0877
   475.2500     18.8114    -17.7035 100000.0000     80.9249
   475.5000     19.2157    -15.3763     51.5881     91.5182
   475.7500     19.3810    -13.1962     23.6431     99.4184
   476.0000     19.3173    -11.2840     18.0345    111.8638
   476.2500     19.0642     -9.7039     16.5159    120.1557
   476.5000     18.6945     -8.4751     16.5452    131.5872
   476.7500     18.3102     -7.5839     17.3244    137.7798
   477.0000     18.0201     -6.9949     18.4168    143.7663
   477.2500     17.9016     -6.6610     19.4345    145.2480
   477.5000     17.9678     -6.5319     20.0378    144.1414
   477.7500     18.1664     -6.5609     20.1417    141.9904
   478.0000     18.4136     -6.7086     20.0337    138.3470
   478.2500     18.6338     -6.9431     20.1902    136.2787
   478.5000     18.7785     -7.2386     21.0032    133.7004
   478.7500     18.8213     -7.5741     22.5815    131.9062
   479.0000     18.7496     -7.9326     24.5153    128.4540
   479.2500     18.5677     -8.3008     25.7247    125.5559
   479.5000     18.3077     -8.6695     25.1337    120.8843
   479.7500     18.0294     -9.0325     22.8989    118.4547
   480.0000     17.7997     -9.3858     20.1646    118.0249
   480.2500     17.6644     -9.7263     17.8290    120.8791
   480.5000     17.6298    -10.0510     16.1939    129.8734
   480.7500     17.6666    -10.3568     15.2393    137.7997
   481.0000     17.7324    -10.6405     14.8467    148.8548
   481.2500     17.7972    -10.8990     14.8732    153.1247
   481.5000     17.8591    -11.1305     15.1656    151.5426
   481.7500     17.9434    -11.3354     15.5781    144.6739
   482.0000     18.0918    -11.5173     16.0085    127.8796
   482.2500     18.3480    -11.6825     16.4219    114.9504
   482.5000     18.7373    -11.8393     16.8354     97.5297
   482.7500     19.2414    -11.9956     17.2771     88.9111
   483.0000     19.7868    -12.1587     17.7516     81.0855
   483.2500     20.2624    -12.3341     18.2259     78.7167
   483.5000     20.5661    -12.5256     18.6334     78.2220
   483.7500     20.6513    -12.7353     18.8925     79.6580
   484.0000     20.5408    -12.9622     18.9398     84.8552
   484.2500     20.3021    -13.2019     18.7638     90.5512
   484.5000     20.0063    -13.4460     18.4135    101.8475
   484.7500     19.7007    -13.6816     17.9742    110.3447
   485.0000     19.4026    -13.8919     17.5308    122.5368
   485.2500     19.1075    -14.0554     17.1432    128.9422
   485.5000     18.8040    -14.1468     16.8401    133.8107
   485.7500     18.4912    -14.1390     16.6256    133.3345
   486.0000     18.1928    -14.0103     16.4914    128.1172
   486.2500     17.9561    -13.7543     16.4293    123.1816
   486.5000     17.8340    -13.3891     16.4414    116.3014
   486.7500     17.8563    -12.9588     16.5394    113.1395
   487.0000     18.0092    -12.5239     16.7318    111.5278
   487.2500     18.2363    -12.1427     17.0051    112.7284
   487.5000     18.4592    -11.8542     17.3121    117.5342
   487.7500     18.6058    -11.6693     17.5798    122.0499
   488.0000     18.6324    -11.5740     17.7368    128.8754
   488.2500     18.5334    -11.5413     17.7418    132.0986
   488.5000     18.3369    -11.5438     17.5967    133.2350
   488.7500     18.0909    -11.5638     17.3400    131.5902
   489.0000     17.8463    -11.5987     17.0279    127.6434
   489.2500     17.6407    -11.6597     16.7155    125.7315
   489.5000     17.4815    -11.7644     16.4426    126.0347
   489.7500     17.3354    -11.9231     16.2253    128.7168
   490.0000     17.1378    -12.1258     16.0538    135.7356
   490.2500     16.8224    -12.3368     15.8959    141.2178
   490.5000     16.3591    -12.5027     15.7072    147.6246
   490.7500     15.7721    -12.5708     15.4489    149.2609
   491.0000     15.1269    -12.5088     15.1048    147.9336
   491.2500     14.4986    -12.3167     14.6882    146.2298
   491.5000     13.9445    -12.0253     14.2326    145.8748
   491.7500     13.4941    -11.6843     13.7725    148.0104
   492.0000     13.1475    -11.3467     13.3295    153.7301
   492.2500     12.8766    -11.0549     12.9085    157.8578
   492.5000     12.6333    -10.8330     12.5055    162.9138
   492.7500     12.3725    -10.6844     12.1175    165.3604
   493.0000     12.0811    -10.5938     11.7492    167.6877
   493.2500     11.7855    -10.5317     11.4140    168.1253
