~Version Information
VERS.                      2.0: CWLS Log ASCII Standard - VERSION 2.0
WRAP.                       NO: One line per depth step
~Well Information Block
STRT.FT               -11.2500: 
STOP.FT              1767.0000: 
STEP.FT                 0.2500: 
NULL.                -999.2500: 
COMP.          Petrogulf Corporation: COMPANY
WELL.             McLeod 9-42R: WELL
FLD.           Purgatoire River: FIELD
LOC.           1748' FNL & 372' FEL--: LOCATION
PROV.                 Colorado: PROVINCE
CNTY.               Las Animas: COUNTRY
SRVC.                         : SERVICE COMPANY
DATE.          Thu Sep 29 13:28:07 2005: LOG DATE
UWI.                          : UNIQUE WELL ID
~Curve Information Block
DEPT.FT            0 000 00 00: Depth
GR.GAPI                       : Gamma Ray
CCL.                          : Casing Collar Locator
AMP3.mV                       : CBL 3' Amplitude
AMP5.mV                       : CBL 5' Amplitude
~Parameter Information Block
~A  Depth        GR         CCL         AMP3        AMP5    
# ...
  1395.7500    129.4685      0.0000      3.8437      0.5591
  1396.0000    128.1793      0.0000      3.8495      0.5490
  1396.2500    127.4716      0.0000      3.8554      0.5618
  1396.5000    128.5344      0.0000      3.8697      0.5900
  1396.7500    130.7028      0.0000      3.9051      0.6230
  1397.0000    131.6608      0.0000      3.9596      0.6531
  1397.2500    129.6641      0.0000      4.0037      0.6757
  1397.5000    125.2012      0.0000      4.0007      0.6875
  1397.7500    120.1104      0.0000      3.9434      0.6870
  1398.0000    115.5492      0.0000      3.8655      0.6753
  1398.2500    111.7199      0.0000      3.8113      0.6584
  1398.5000    109.3481      0.0000      3.7976      0.6432
  1398.7500    110.1283      0.0000      3.8079      0.6314
  1399.0000    115.1445      0.0000      3.8238      0.6175
  1399.2500    123.5383      0.0000      3.8508      0.5978
  1399.5000    133.3195      0.0000      3.9025      0.5778
  1399.7500    143.0042      0.0000      3.9660      0.5683
  1400.0000    151.8243      0.0000      3.9984      0.5753
  1400.2500    158.8154      0.0000      3.9635      0.5943
  1400.5000    162.8439      0.0000      3.8626      0.6150
  1400.7500    163.7156      0.0000      3.7297      0.6281
  1401.0000    162.4725      0.0000      3.6066      0.6288
  1401.2500    160.2408      0.0000      3.5212      0.6148
  1401.5000    157.2859      0.0000      3.4756      0.5869
  1401.7500    153.3941      0.0000      3.4509      0.5521
  1402.0000    148.6093      0.0000      3.4292      0.5219
  1402.2500    143.2957      0.0000      3.4109      0.5060
  1402.5000    138.0363      0.0000      3.4067      0.5054
  1402.7500    133.8695      0.0000      3.4164      0.5129
  1403.0000    132.0799      0.0000      3.4237      0.5190
  1403.2500    133.3346      0.0000      3.4118      0.5164
  1403.5000    137.2936      0.0000      3.3766      0.5035
  1403.7500    143.0326      0.0000      3.3217      0.4844
  1404.0000    149.3896      0.0000      3.2475      0.4635
  1404.2500    155.1238      0.0000      3.1544      0.4402
  1404.5000    159.3679      0.0000      3.0559      0.4124
  1404.7500    161.8728      0.0000      2.9791      0.3857
  1405.0000    162.4468      0.0000      2.9483      0.3724
  1405.2500    160.2598      0.0000      2.9724      0.3817
  1405.5000    154.0944      0.0000      3.0470      0.4120
  1405.7500    143.3742      0.0000      3.1577      0.4522
  1406.0000    128.8980      0.0000      3.2800      0.4868
  1406.2500    112.8297      0.0000      3.3832      0.5029
  1406.5000     98.1200      0.0000      3.4390      0.4991
  1406.7500     87.3536      0.0000      3.4299      0.4867
  1407.0000     81.3389      0.0000      3.3574      0.4786
  1407.2500     78.6400      0.0000      3.2484      0.4773
  1407.5000     76.7938      0.0000      3.1423      0.4750
  1407.7500     74.1339      0.0000      3.0648      0.4637
  1408.0000     70.6175      0.0000      3.0158      0.4415
  1408.2500     67.2793      0.0000      2.9843      0.4129
  1408.5000     65.1290      0.0000      2.9694      0.3833
  1408.7500     64.4925      0.0000      2.9787      0.3564
  1409.0000     65.2199      0.0000      3.0141      0.3362
  1409.2500     67.2387      0.0000      3.0629      0.3261
  1409.5000     70.5891      0.0000      3.1057      0.3265
  1409.7500     74.9204      0.0000      3.1263      0.3331
  1410.0000     79.3322      0.0000      3.1192      0.3428
  1410.2500     82.9788      0.0000      3.0930      0.3577
  1410.5000     85.6310      0.0000      3.0701      0.3814
  1410.7500     87.4681      0.0000      3.0765      0.4120
  1411.0000     88.6870      0.0000      3.1232      0.4408
  1411.2500     89.6539      0.0000      3.1968      0.4596
  1411.5000     91.2366      0.0000      3.2715      0.4692
  1411.7500     94.6005      0.0000      3.3312      0.4783
  1412.0000    100.6242      0.0000      3.3763      0.4933
  1412.2500    109.4571      0.0000      3.4128      0.5108
  1412.5000    120.2770      0.0000      3.4415      0.5215
  1412.7500    131.2831      0.0000      3.4741      0.5207
  1413.0000    140.4184      0.0000      3.5613      0.5143
  1413.2500    146.6228      0.0000      3.7752      0.5145
  1413.5000    150.3257      0.0000      4.1219      0.5293
  1413.7500    152.4579      0.0000      4.4980      0.5553
  1414.0000    152.9931      0.0000      4.7924      0.5782
  1414.2500    150.6648      0.0000      5.0113      0.5827
  1414.5000    144.2915      0.0000      5.2423      0.5643
  1414.7500    134.2904      0.0000      5.5179      0.5320
  1415.0000    122.6931      0.0000      5.7740      0.5004
  1415.2500    111.9317      1.7078      5.9222      0.4812
  1415.5000    103.9308      0.0000      5.9173      0.4804
  1415.7500     99.8262      0.0000      5.7687      0.4963
  1416.0000     99.6377      0.0000      5.5215      0.5183
  1416.2500    102.1175      0.0000      5.2240      0.5331
  1416.5000    105.5595      0.0000      4.9090      0.5347
  1416.7500    109.2253      0.0000      4.6134      0.5283
  1417.0000    113.8534      0.0000      4.3864      0.5259
  1417.2500    120.4795      0.0000      4.2471      0.5354
  1417.5000    128.7896      0.0000      4.1636      0.5519
  1417.7500    136.8174      0.0000      4.0985      0.5623
  1418.0000    142.1605      0.0000      4.0468      0.5592
  1418.2500    143.2585      0.0000      4.0179      0.5470
  1418.5000    139.7717      0.0000      4.0043      0.5358
  1418.7500    132.5287      0.0000      3.9877      0.5337
  1419.0000    123.4548      0.0000      3.9652      0.5424
  1419.2500    115.0849      0.0000      3.9551      0.5558
  1419.5000    109.4478      0.0000      3.9755      0.5643
  1419.7500    106.9584      0.0000      4.0222      0.5619
  1420.0000    106.2221      0.0000      4.0747      0.5485
  1420.2500    104.9971      0.0000      4.1162      0.5277
  1420.5000    101.4658      0.0000      4.1401      0.5063
  1420.7500     94.9433      0.0000      4.1418      0.4924
  1421.0000     86.0864      0.0000      4.1142      0.4899
  1421.2500     76.8565      0.0000      4.0542      0.4946
  1421.5000     69.7658      0.0000      3.9712      0.4983
  1421.7500     66.3189      0.0000      3.8831      0.4964
  1422.0000     66.0122      0.0000      3.8049      0.4903
  1422.2500     67.0806      0.0000      3.7433      0.4826
  1422.5000     68.1001      0.0000      3.7028      0.4741
  1422.7500     68.6595      0.0000      3.6864      0.4648
  1423.0000     68.7399      0.0000      3.6890      0.4572
  1423.2500     68.0209      0.0000      3.6965      0.4563
  1423.5000     66.1283      0.0000      3.6984      0.4659
  1423.7500     63.4270      0.0000      3.6926      0.4827
  1424.0000     61.0816      0.0000      3.6777      0.4961
  1424.2500     59.9814      0.0000      3.6460      0.4941
  1424.5000     59.8623      0.0000      3.5899      0.4726
  1424.7500     59.8576      0.0000      3.5151      0.4386
  1425.0000     59.6823      0.0000      3.4441      0.4075
  1425.2500     59.8118      0.0000      3.4040      0.3941
  1425.5000     60.5965      0.0000      3.4085      0.4020
  1425.7500     61.5834      0.0000      3.4523      0.4220
  1426.0000     61.7263      0.0000      3.5208      0.4423
  1426.2500     60.1906      0.0000      3.5989      0.4580
  1426.5000     57.2450      0.0000      3.6705      0.4718
  1426.7500     54.6842      0.0000      3.7243      0.4873
  1427.0000     55.2976      0.0000      3.7649      0.5042
  1427.2500     61.5482      0.0000      3.8048      0.5184
  1427.5000     74.3156      0.0000      3.8416      0.5248
  1427.7500     92.4434      0.0000      3.8551      0.5206
  1428.0000    112.9563      0.0000      3.8334      0.5086
  1428.2500    131.6079      0.0000      3.7911      0.4963
  1428.5000    144.0954      0.0000      3.7578      0.4901
  1428.7500    148.0033      0.0000      3.7542      0.4907
  1429.0000    144.1578      0.0000      3.7830      0.4933
