~Version Information
VERS.                      2.0: CWLS Log ASCII Standard - VERSION 2.0
WRAP.                       NO: One line per depth step
~Well Information Block
STRT.FT               400.0000: 
STOP.FT              2201.0000: 
STEP.FT                 0.2500: 
NULL.                -999.2500: 
COMP.          Evergreen Operating Corporation: COMPANY
WELL.            Triumph 13-10: WELL
FLD.           Purgatorie River: FIELD
LOC.           1551' FSL & 522' FWL: LOCATION
PROV.                 Colorado: PROVINCE
CNTY.               Las Animas: COUNTRY
SRVC.                Patterson: SERVICE COMPANY
DATE.          Fri Jul 23 20:28:37 2004: LOG DATE
UWI.           05 071 08108 00: UNIQUE WELL ID
~Curve Information Block
DEPT.FT            0 000 00 00: Depth
SN.Ohm-m                      : IEL Short Normal
SP.mV                         : IEL Spontaneous Potential
DIR.Ohm-m                     : IEL Induction Resistivity
GR.GAPI                       : Gamma Ray
~Parameter Information Block
~A  Depth        SN          SP         DIR          GR     
# ...
  1103.5000     52.2295      8.2785     53.1360     61.2953
  1103.7500     53.2630      8.1859     54.3293     60.2924
  1104.0000     54.3235      8.0841     55.6273     57.4726
  1104.2500     55.3582      7.9798     56.8773     55.0792
  1104.5000     56.3181      7.8850     57.8789     51.8140
  1104.7500     57.1146      7.8089     58.4999     50.3602
  1105.0000     57.6862      7.7492     58.7431     49.5454
  1105.2500     58.0464      7.6913     58.7076     49.7727
  1105.5000     58.2250      7.6175     58.4790     50.9231
  1105.7500     58.1991      7.5204     58.0499     52.1934
  1106.0000     57.9205      7.4105     57.3452     54.9679
  1106.2500     57.3834      7.3120     56.3532     57.2531
  1106.5000     56.6419      7.2501     55.2668     60.4708
  1106.7500     55.7820      7.2369     54.4678     61.8469
  1107.0000     54.8877      7.2659     54.3292     62.2028
  1107.2500     54.0179      7.3173     54.9697     61.5165
  1107.5000     53.1987      7.3696     56.1261     60.1543
  1107.7500     52.4315      7.4099     57.2136     59.5509
  1108.0000     51.7084      7.4357     57.5969     59.0190
  1108.2500     51.0358      7.4518     56.9390     58.3823
  1108.5000     50.4384      7.4645     55.3767     56.4963
  1108.7500     49.9428      7.4797     53.4191     55.0400
  1109.0000     49.5694      7.5009     51.6874     53.8569
  1109.2500     49.3124      7.5294     50.6538     53.9904
  1109.5000     49.1270      7.5669     50.4803     54.6651
  1109.7500     48.9495      7.6172     50.9819     54.7714
  1110.0000     48.7182      7.6843     51.7145     54.2551
  1110.2500     48.4004      7.7645     52.1898     53.7810
  1110.5000     48.0067      7.8443     52.1157     53.2349
  1110.7500     47.5547      7.9095     51.4938     53.0548
  1111.0000     47.0473      7.9573     50.5149     53.3416
  1111.2500     46.4986      7.9995     49.3929     53.9602
  1111.5000     45.9419      8.0558     48.2764     54.8309
  1111.7500     45.4092      8.1399     47.2495     54.7235
  1112.0000     44.9182      8.2497     46.3673     53.1511
  1112.2500     44.4790      8.3673     45.6728     51.6331
  1112.5000     44.0961      8.4726     45.1864     50.0544
  1112.7500     43.7720      8.5551     44.8834     50.1264
  1113.0000     43.5220      8.6170     44.6942     52.1061
  1113.2500     43.3790      8.6666     44.5384     54.1649
  1113.5000     43.3787      8.7109     44.3721     57.0013
  1113.7500     43.5210      8.7505     44.2156     58.1233
  1114.0000     43.7525      8.7793     44.1345     58.3930
  1114.2500     44.0201      8.7920     44.1901     57.8340
  1114.5000     44.3068      8.7908     44.4028     56.5333
  1114.7500     44.6017      8.7855     44.7454     55.7893
  1115.0000     44.8966      8.7862     45.1609     55.4297
  1115.2500     45.2525      8.7990     45.5704     55.8164
  1115.5000     45.8295      8.8278     45.8699     57.2578
  1115.7500     46.7753      8.8767     45.9469     58.6772
  1116.0000     48.0682      8.9455     45.7516     61.0301
  1116.2500     49.4975      9.0260     45.3814     62.1918
  1116.5000     50.7740      9.1072     45.0784     62.2930
  1116.7500     51.6816      9.1846     45.1080     61.1128
  1117.0000     52.1955      9.2668     45.6008     58.2635
  1117.2500     52.4541      9.3710     46.4600     56.3857
  1117.5000     52.6280      9.5135     47.3814     54.7611
  1117.7500     52.8099      9.7014     47.9859     55.0113
  1118.0000     52.9318      9.9284     48.0032     57.9346
  1118.2500     52.7723     10.1765     47.3829     61.4869
  1118.5000     52.0960     10.4209     46.2594     68.0382
  1118.7500     50.7999     10.6392     44.8327     71.9464
  1119.0000     48.9612     10.8213     43.2776     74.6822
  1119.2500     46.8163     10.9741     41.7118     73.6864
  1119.5000     44.6682     11.1172     40.2032     69.0756
  1119.7500     42.7282     11.2703     38.7715     65.6738
  1120.0000     41.0317     11.4406     37.3884     62.8986
  1120.2500     39.4929     11.6177     35.9931     63.1751
  1120.5000     38.0180     11.7813     34.5435     65.8576
  1120.7500     36.5982     11.9155     33.0728     68.1596
  1121.0000     35.3173     12.0196     31.6933     70.9270
  1121.2500     34.2583     12.1072     30.5312     71.8059
  1121.5000     33.4062     12.1944     29.6515     71.4931
  1121.7500     32.6809     12.2854     29.0354     70.5040
  1122.0000     32.0539     12.3686     28.6163     68.8281
  1122.2500     31.5561     12.4247     28.3328     68.1646
  1122.5000     31.1943     12.4423     28.1547     68.3190
  1122.7500     30.9267     12.4260     28.0729     68.9712
  1123.0000     30.7073     12.3939     28.0735     69.8425
  1123.2500     30.5385     12.3705     28.1249     69.9197
  1123.5000     30.4723     12.3784     28.1902     69.1841
  1123.7500     30.5211     12.4306     28.2548     68.3100
  1124.0000     30.5900     12.5247     28.3474     66.7147
  1124.2500     30.6087     12.6436     28.5278     65.5556
  1124.5000     30.6648     12.7637     28.8505     63.8607
  1124.7500     30.8719     12.8662     29.3279     62.9016
  1125.0000     31.2196     12.9443     29.9225     61.7817
  1125.2500     31.6266     13.0022     30.5661     61.0702
  1125.5000     32.0351     13.0487     31.1839     59.6261
  1125.7500     32.4317     13.0916     31.7062     58.3991
  1126.0000     32.8377     13.1371     32.0704     56.7022
  1126.2500     33.2864     13.1917     32.2342     56.0151
  1126.5000     33.7798     13.2611     32.1963     55.6767
  1126.7500     34.2519     13.3440     32.0055     55.5608
  1127.0000     34.5849     13.4295     31.7398     54.7446
  1127.2500     34.6577     13.5025     31.4695     53.4865
  1127.5000     34.3901     13.5542     31.2260     50.8335
  1127.7500     33.7823     13.5886     30.9972     49.1948
  1128.0000     32.9492     13.6202     30.7480     48.0745
  1128.2500     32.0768     13.6650     30.4526     48.4418
  1128.5000     31.2951     13.7319     30.1073     50.1996
  1128.7500     30.5987     13.8190     29.7166     51.7349
  1129.0000     29.9027     13.9153     29.2698     54.0598
  1129.2500     29.1542     14.0078     28.7378     55.5347
  1129.5000     28.3696     14.0879     28.0980     57.7589
  1129.7500     27.6050     14.1548     27.3679     59.3274
  1130.0000     26.9332     14.2143     26.6151     61.5644
  1130.2500     26.4119     14.2718     25.9284     62.6099
  1130.5000     26.0545     14.3250     25.3714     63.0420
  1130.7500     25.8426     14.3647     24.9515     62.7268
  1131.0000     25.7418     14.3828     24.6278     62.2944
  1131.2500     25.7037     14.3780     24.3485     62.5819
  1131.5000     25.6902     14.3543     24.0849     64.0789
  1131.7500     25.6740     14.3174     23.8396     65.4105
  1132.0000     25.6051     14.2754     23.6319     66.9109
  1132.2500     25.4365     14.2414     23.4873     67.1173
  1132.5000     25.1875     14.2287     23.4338     66.0249
  1132.7500     24.9456     14.2405     23.4904     64.6706
  1133.0000     24.8219     14.2671     23.6434     62.8412
  1133.2500     24.8884     14.2923     23.8283     62.4452
  1133.5000     25.1203     14.3037     23.9433     63.5296
  1133.7500     25.4200     14.2978     23.8949     65.0900
  1134.0000     25.7094     14.2805     23.6422     67.6969
  1134.2500     25.9621     14.2653     23.2052     69.0084
  1134.5000     26.1379     14.2702     22.6367     69.5471
  1134.7500     26.1278     14.3121     21.9909     68.8182
  1135.0000     25.8205     14.3996     21.3119     66.8584
  1135.2500     25.2193     14.5268     20.6359     66.0123
  1135.5000     24.4363     14.6754     19.9909     67.5041
  1135.7500     23.5823     14.8214     19.3914     71.1320
  1136.0000     22.7099     14.9458     18.8353     80.4121
  1136.2500     21.8340     15.0421     18.3086     88.2831
  1136.5000     20.9569     15.1180     17.7935    100.5918
  1136.7500     20.0763     15.1887     17.2768    108.1967
