~Version Information
VERS.                      2.0: CWLS Log ASCII Standard - VERSION 2.0
WRAP.                       NO: One line per depth step
~Well Information Block
STRT.FT              1684.7500: 
STOP.FT              2367.7500: 
STEP.FT                 0.2500: 
NULL.                -999.2500: 
COMP.          Petrogulf Corporation: COMPANY
WELL.             Norton 9-14V: WELL
FLD.           Purgatorie River: FIELD
LOC.           250' FSL & 225' FWL--: LOCATION
CNTY.               Las Animas: COUNTY
SRVC.                         : SERVICE COMPANY
DATE.          Mon Jan 10 10:00:10 2005: LOG DATE
UWI.                          : UNIQUE WELL ID
STAT.                       CO: STATE
~Curve Information Block
DEPT.FT            0 000 00 00: Depth
CCL.                          : Casing Collar Locator
TT3.usec                      : CBL 3' Travel Time
AMP3.mV                       : CBL 3' Amplitude
GR.GAPI                       : Gamma Ray
~Parameter Information Block
~A  Depth       CCL         TT3         AMP3         GR     
  1684.7500   -999.2500   -999.2500   -999.2500    152.7003
  1685.0000   -999.2500   -999.2500   -999.2500    153.1773
  1685.2500   -999.2500   -999.2500   -999.2500    151.5869
  1685.5000   -999.2500   -999.2500   -999.2500    148.5971
  1685.7500   -999.2500   -999.2500   -999.2500    145.3117
  1686.0000   -999.2500   -999.2500   -999.2500    142.4760
  1686.2500   -999.2500   -999.2500   -999.2500    140.7479
  1686.5000   -999.2500   -999.2500   -999.2500    140.7178
  1686.7500   -999.2500   -999.2500   -999.2500    141.9351
  1687.0000   -999.2500   -999.2500   -999.2500    142.7166
  1687.2500   -999.2500   -999.2500   -999.2500    141.7329
  1687.5000   -999.2500   -999.2500   -999.2500    139.3202
  1687.7500   -999.2500   -999.2500   -999.2500    136.6673
  1688.0000   -999.2500   -999.2500   -999.2500    134.2601
  1688.2500   -999.2500   -999.2500   -999.2500    131.7193
  1688.5000   -999.2500   -999.2500   -999.2500    128.8656
  1688.7500   -999.2500   -999.2500   -999.2500    126.3933
  1689.0000   -999.2500   -999.2500   -999.2500    125.4026
  1689.2500   -999.2500   -999.2500   -999.2500    126.4732
  1689.5000   -999.2500   -999.2500   -999.2500    129.2537
  1689.7500   -999.2500   -999.2500   -999.2500    132.7157
  1690.0000   -999.2500    309.2402     16.5717    135.7550
  1690.2500   -999.2500    309.0815     16.9875    137.7442
  1690.5000   -999.2500    308.9739     17.2216    138.6844
  1690.7500   -999.2500    308.9336     17.2726    139.0565
  1691.0000   -999.2500    308.9399     17.1571    139.6676
  1691.2500   -999.2500    308.9651     16.8757    141.2871
  1691.5000   -999.2500    309.0123     16.4205    143.9391
  1691.7500   -999.2500    309.1193     15.8115    146.6391
  1692.0000   -999.2500    309.3179     15.1172    148.3187
  1692.2500   -999.2500    309.5862     14.4336    149.0251
  1692.5000   -999.2500    309.8548     13.8411    149.7264
  1692.7500   -999.2500    310.0715     13.3699    150.8324
  1693.0000   -999.2500    310.2463     13.0051    151.3362
  1693.2500   -999.2500    310.4216     12.7155    149.8129
  1693.5000   -999.2500    310.6095     12.4730    146.2190
  1693.7500   -999.2500    310.7773     12.2564    142.2578
  1694.0000   -999.2500    310.8933     12.0505    139.6911
  1694.2500   -999.2500    310.9777     11.8468    138.6611
  1694.5000   -999.2500    311.0881     11.6521    138.0694
  1694.7500   -999.2500    311.2493     11.4986    137.1516
  1695.0000   -999.2500    311.4121     11.4294    136.0541
  1695.2500      0.0000    311.5001     11.4636    135.1118
  1695.5000      0.0000    311.4905     11.5790    134.4280
  1695.7500      0.0000    311.4340     11.7294    134.2792
  1696.0000      0.0000    311.3969     11.8771    135.2095
  1696.2500      0.0000    311.3982     12.0120    137.5248
  1696.5000      0.0000    311.4030     12.1478    141.1354
  1696.7500      0.0000    311.3690     12.3064    145.7116
  1697.0000      0.0000    311.2855     12.5035    150.2276
  1697.2500      0.0000    311.1675     12.7512    152.7166
  1697.5000      0.0000    311.0157     13.0741    151.7676
  1697.7500      0.0000    310.8024     13.4945    148.3780
  1698.0000      0.0000    310.5132     13.9755    145.3197
  1698.2500      0.0000    310.2085     14.3908    144.4362
  1698.5000      0.0000    310.0783     14.5697    145.2057
  1698.7500      0.0000    310.6345     14.3809    146.0548
  1699.0000      0.0000    313.1547     13.7923    146.2350
  1699.2500      0.0000    320.1548     12.8816    145.8219
  1699.5000      0.0000    334.9130     11.7916    144.8896
  1699.7500      0.0000    359.0558     10.6608    143.7949
  1700.0000      0.0000    389.3690      9.5776    143.4709
  1700.2500      0.0000    417.5498      8.5789    144.1637
  1700.5000      0.0000    434.7770      7.6849    144.4487
  1700.7500      0.0000    437.4430      6.9330    142.5235
  1701.0000      0.0000    429.1524      6.3615    138.1090
  1701.2500      0.0000    418.4938      5.9657    132.5287
  1701.5000      0.0000    415.0262      5.6989    127.2100
  1701.7500      0.0000    424.8648      5.5106    122.2534
  1702.0000      0.0000    446.5786      5.3582    116.3070
  1702.2500      0.0000    469.7177      5.2049    108.1120
  1702.5000      0.0000    479.4803      5.0340     98.3378
  1702.7500      0.0000    467.0530      4.8498     89.4622
  1703.0000      0.0000    437.1672      4.6618     83.7323
  1703.2500      0.0000    404.5939      4.4828     81.6638
  1703.5000      0.0000    383.7498      4.3274     82.3154
  1703.7500      0.0000    382.5666      4.1881     84.2363
  1704.0000      0.0000    402.9843      4.0384     86.0241
  1704.2500      0.0000    441.7008      3.8736     86.6762
  1704.5000      0.0000    488.8920      3.7193     86.1548
  1704.7500      0.0000    529.6010      3.5916     85.7080
  1705.0000      0.0000    551.1606      3.4792     87.0512
  1705.2500      0.0000    552.1379      3.3629     90.6995
  1705.5000      0.0000    544.0699      3.2325     95.0908
  1705.7500      0.0000    542.4927      3.0956     97.4689
  1706.0000      0.0000    555.2634      2.9844     95.6707
  1706.2500      0.0000    578.5181      2.9376     89.2774
  1706.5000      0.0000    601.1660      2.9742     79.5236
  1706.7500      0.0000    613.1631      3.1074     68.5763
  1707.0000      0.0000    613.4959      3.3611     58.8590
  1707.2500      0.0000    611.4841      3.7367     52.5176
  1707.5000      0.0000    617.8713      4.1841     50.8600
  1707.7500      0.0000    634.6498      4.6443     54.1583
  1708.0000      0.0000    655.2734      5.1093     62.1075
  1708.2500      0.0000    672.8467      5.6123     74.1290
  1708.5000      0.0000    684.7691      6.1766     88.6845
  1708.7500      0.0000    690.4501      6.7948    102.6592
  1709.0000      0.0000    687.8296      7.4344    112.5693
  1709.2500      0.0000    673.2576      8.0501    116.9412
  1709.5000      0.0000    644.0168      8.6171    117.1867
  1709.7500      0.0000    600.4791      9.1585    115.9194
  1710.0000      0.0000    546.0290      9.7092    114.5455
  1710.2500      0.0000    485.7838     10.2620    112.4883
  1710.5000      0.0000    426.5153     10.7891    108.5831
  1710.7500      0.0000    376.3249     11.2963    103.1272
  1711.0000      0.0000    341.2576     11.8057     98.2969
  1711.2500      0.0000    321.6758     12.3110     96.3871
  1711.5000      0.0000    313.0908     12.8031     97.9609
  1711.7500      0.0000    310.1458     13.3087    102.0744
  1712.0000      0.0000    309.3164     13.8405    107.8982
  1712.2500      0.0000    309.0746     14.3266    115.3630
  1712.5000      0.0000    308.9805     14.6514    124.1582
  1712.7500      0.0000    308.9878     14.7599    132.9389
  1713.0000      0.0000    309.0724     14.6785    140.0168
  1713.2500      0.0000    309.1966     14.4556    144.2987
  1713.5000      0.0000    309.3332     14.1522    145.1308
  1713.7500      0.0000    309.4765     13.8903    141.8914
  1714.0000      0.0000    309.6144     13.8248    134.5610
  1714.2500      0.0000    309.7209     14.0335    124.6056
  1714.5000      0.0000    309.7770     14.4816    114.8786
  1714.7500      0.0000    309.7741     15.1030    108.3588
  1715.0000      0.0000    309.6632     15.8740    106.5557
  1715.2500      0.0000    309.2503     16.8073    108.7648
  1715.5000      0.0000    308.0608     17.9323    112.9691
  1715.7500      0.0000    305.3125     19.3018    117.5982
  1716.0000      0.0000    300.2680     20.9667    122.2079
  1716.2500      0.0000    292.9695     22.9114    126.7088
  1716.5000      0.0000    284.6758     25.0421    130.7548
  1716.7500      0.0000    277.2647     27.2669    133.9362
  1717.0000      0.0000    272.0099     29.5434    135.9633
  1717.2500      0.0000    268.9763     31.8073    136.8179
  1717.5000      0.0000    267.4663     33.8868    137.0396
  1717.7500      0.0000    266.7623     35.5561    137.4599
  1718.0000      0.0000    266.4490     36.6790    138.3276
