~Version Information
VERS.                      2.0: CWLS Log ASCII Standard - VERSION 2.0
WRAP.                       NO: One line per depth step
~Well Information Block
STRT.FT               875.6000: 
STOP.FT              2510.0000: 
STEP.FT                 0.1000: 
NULL.                -999.2500: 
COMP.          Petrogulf Corporation: COMPANY
WELL.          Collister 17-31 V: WELL
FLD.           Purgatoire River: FIELD
LOC.           910' FNL & 1594' FEL: LOCATION
PROV.                 Colorado: PROVINCE
CNTY.               Las Animas: COUNTRY
SRVC.                Patterson: SERVICE COMPANY
DATE.          Fri Dec 12 13:49:30 2003: LOG DATE
UWI.                          : UNIQUE WELL ID
~Curve Information Block
DEPT.FT            0 000 00 00: Depth
DCAL.in                       : CDL Caliper
DPOR.pu                       : CDL Density Porosity
NPOR.pu                       : Neutron Porosity
RHOB.g/cc                     : CDL Bulk Density
RHOC.g/cc                     : CDL Density Correction
GR.GAPI                       : Gamma Ray
~Parameter Information Block
~A  Depth       DCAL        DPOR        NPOR        RHOB        RHOC         GR     
# ...
  1749.2000      8.1474      3.9967     27.3824      2.5841      0.0254    101.4639
  1749.3000      8.1582      4.6366     27.2464      2.5735      0.0278    115.8274
  1749.4000      8.1582      4.4828     27.5110      2.5760      0.0842    131.0361
  1749.5000      8.1981      4.0529     27.8264      2.5831      0.1258    139.6411
  1749.6000      8.1981      3.5992     27.9805      2.5906      0.1799    143.7928
  1749.7000      8.1981      3.4040     28.3288      2.5938      0.1137    144.7570
  1749.8000      8.2413      3.4591     29.0293      2.5929      0.1620    145.7021
  1749.9000      8.2413      3.5353     29.3117      2.5917      0.1214    151.9696
  1750.0000      8.2178      3.4948     28.5296      2.5923      0.1274    157.8194
  1750.1000      8.2178      3.2853     27.4284      2.5958      0.0977    154.2390
  1750.2000      8.2178      3.2375     27.0083      2.5966      0.1055    150.1998
  1750.3000      8.2248      4.0985     26.8323      2.5824      0.1225    157.6124
  1750.4000      8.2248      5.1587     26.2106      2.5649      0.0261    171.4281
  1750.5000      8.2379      4.5059     25.4461      2.5757      0.0522    177.5311
  1750.6000      8.2379      2.5449     24.9604      2.6080      0.1311    172.5372
  1750.7000      8.2379      1.2179     24.8689      2.6299      0.0745    166.9153
  1750.8000      8.2433      1.0375     24.8424      2.6329      0.1028    168.0563
  1750.9000      8.2433      1.8195     24.5614      2.6200      0.0776    174.3016
  1751.0000      8.2485      4.2112     24.3408      2.5805      0.1283    177.9194
  1751.1000      8.2485      8.4530     24.5768      2.5105      0.0399    174.5991
  1751.2000      8.2485     12.2417     25.3007      2.4480     -0.0207    170.3912
  1751.3000      8.2653     13.1228     26.2048      2.4335     -0.0061    171.6731
  1751.4000      8.2653     12.2352     26.8545      2.4481      0.0802    175.6715
  1751.5000      8.2760     11.8886     27.4187      2.4538      0.0564    176.9917
  1751.6000      8.2760     11.8840     28.0486      2.4539      0.0361    174.9743
  1751.7000      8.2760     10.2908     28.2713      2.4802      0.0315    172.5410
  1751.8000      8.2515      5.7645     27.9536      2.5549      0.0904    171.7065
  1751.9000      8.2515     -0.4368     27.3840      2.6572      0.2800    170.8563
  1752.0000      8.2548     -5.1934     26.3622      2.7357      0.3122    167.9197
  1752.1000      8.2548     -6.4251     24.7493      2.7560      0.3736    161.3877
  1752.2000      8.2548     -4.4323     22.9899      2.7231      0.3015    151.3472
  1752.3000      8.3098     -1.5020     21.4119      2.6748      0.2170    140.8504
  1752.4000      8.3098      0.5148     20.3777      2.6415      0.1527    133.4806
  1752.5000      8.3446      1.8168     19.9622      2.6200      0.0962    128.5475
  1752.6000      8.3446      3.5390     19.8395      2.5916      0.1099    122.1487
  1752.7000      8.3446      5.7419     19.6005      2.5553      0.0340    114.0787
  1752.8000      8.3056      7.3429     19.1918      2.5288      0.0323    105.4510
  1752.9000      8.3056      8.5636     19.0697      2.5087      0.0382     97.4912
  1753.0000      8.2191     10.4643     19.1020      2.4773      0.0098     92.4968
  1753.1000      8.2191     12.5389     18.8665      2.4431     -0.0198     91.0002
  1753.2000      8.2191     13.4543     18.7159      2.4280     -0.0047     92.4862
  1753.3000      8.2059     13.0112     18.8718      2.4353      0.0323     95.3062
  1753.4000      8.2059     11.9156     18.8207      2.4534      0.0479     93.1954
  1753.5000      8.1895     11.0332     18.2119      2.4680      0.0687     85.5127
  1753.6000      8.1895     10.7475     17.5746      2.4727      0.0645     81.6470
  1753.7000      8.1895     10.3722     17.6714      2.4789      0.0512     83.3646
  1753.8000      8.1726      8.8508     18.2816      2.5040      0.0697     85.9330
  1753.9000      8.1726      6.3464     18.5261      2.5453      0.0851     90.1257
  1754.0000      8.1471      4.3507     18.3056      2.5782      0.1330     93.3988
  1754.1000      8.1471      3.8240     18.0320      2.5869      0.1594     92.0131
  1754.2000      8.1471      4.4519     17.8582      2.5765      0.0865     89.8381
  1754.3000      8.1612      5.2789     17.6812      2.5629      0.0921     88.9232
  1754.4000      8.1612      5.3611     17.1878      2.5615      0.0775     87.0803
  1754.5000      8.1706      4.6925     16.4305      2.5726      0.0961     84.9331
  1754.6000      8.1706      4.6167     16.1238      2.5738      0.1677     82.0137
  1754.7000      8.1706      6.1598     16.6223      2.5484      0.0547     79.5356
  1754.8000      8.1662      8.2064     17.1642      2.5146     -0.0077     81.8007
  1754.9000      8.1662      9.2433     17.0636      2.4975      0.0464     85.6312
  1755.0000      8.1635      9.2111     16.8485      2.4980      0.0131     85.2203
  1755.1000      8.1635      8.9673     16.9830      2.5020      0.0621     83.5089
  1755.2000      8.1635      9.7039     17.2064      2.4899      0.0476     86.0208
  1755.3000      8.1626     11.8073     17.5373      2.4552      0.0608     91.2955
  1755.4000      8.1626     13.4819     17.8640      2.4275     -0.0624     93.9988
  1755.5000      8.1682     12.6122     17.6477      2.4419      0.0121     93.3894
  1755.6000      8.1682     10.4490     17.1772      2.4776      0.0378     91.4762
  1755.7000      8.1682      9.6872     17.0736      2.4902      0.0738     90.1789
  1755.8000      8.1560     10.1428     16.9927      2.4826     -0.0067     89.2852
  1755.9000      8.1560      9.8988     16.5966      2.4867      0.0185     86.7544
  1756.0000      8.1663      9.1055     16.2234      2.4998      0.0620     85.7332
  1756.1000      8.1663      9.2478     16.3682      2.4974      0.0495     88.5358
  1756.2000      8.1663     10.3345     17.2433      2.4795      0.0461     90.2019
  1756.3000      8.1669     11.0128     18.4033      2.4683      0.0396     89.1620
  1756.4000      8.1669     10.3853     19.2909      2.4786      0.0124     87.8126
  1756.5000      8.1602      9.2422     19.5938      2.4975      0.0615     85.9913
  1756.6000      8.1602      8.9440     19.1797      2.5024      0.0496     83.9912
  1756.7000      8.1602      9.3359     18.5988      2.4960      0.0413     81.4415
  1756.8000      8.1695      9.6935     18.3274      2.4901      0.0493     75.7788
  1756.9000      8.1695     10.0587     18.3302      2.4840      0.0453     69.7693
  1757.0000      8.1815     10.2313     18.6786      2.4812     -0.0199     71.3477
  1757.1000      8.1815      9.2824     19.2748      2.4968      0.0052     81.4464
  1757.2000      8.1815      7.2062     19.7830      2.5311      0.0737     89.8115
  1757.3000      8.1760      5.5226     20.1855      2.5589      0.1039     90.9064
  1757.4000      8.1760      5.5136     20.8075      2.5590      0.0868     88.0020
  1757.5000      8.1963      6.4783     21.9504      2.5431      0.0287     86.8729
  1757.6000      8.1963      6.6416     23.4237      2.5404      0.0200     92.9549
  1757.7000      8.1963      5.9529     24.8984      2.5518      0.1128    103.7038
  1757.8000      8.1792      6.0346     26.0849      2.5504      0.0597    110.7258
  1757.9000      8.1792      7.1351     26.4426      2.5323      0.0155    113.6554
  1758.0000      8.1728      8.2864     26.0334      2.5133     -0.0259    115.9496
  1758.1000      8.1728      8.9244     25.6183      2.5027      0.0178    115.2706
  1758.2000      8.1728      8.5033     25.6747      2.5097     -0.0206    111.8734
  1758.3000      8.1656      6.5694     26.0391      2.5416     -0.0191    110.0975
  1758.4000      8.1656      4.5141     26.4022      2.5755      0.1086    112.3311
  1758.5000      8.1711      4.1519     26.2394      2.5815      0.0896    117.1791
  1758.6000      8.1711      4.5928     25.3738      2.5742      0.0375    120.5575
  1758.7000      8.1711      4.1470     24.4689      2.5816      0.0203    121.1569
