~Version Information
VERS.                      2.0: CWLS Log ASCII Standard - VERSION 2.0
WRAP.                       NO: One line per depth step
~Well Information Block
STRT.FT               236.5000: 
STOP.FT              2818.2500: 
STEP.FT                 0.2500: 
NULL.                -999.2500: 
COMP.          Pioneer Natural Resources: COMPANY
WELL.            Sebring 42-29: WELL
FLD.           Purgatorie River: FIELD
LOC.           1751' FNL & 584' FEL--: LOCATION
PROV.                       CO: PROVINCE
CNTY.               Las Animas: COUNTRY
SRVC.          Patterson Wireline: SERVICE COMPANY
DATE.          Fri Aug 26 09:14:13 2005: LOG DATE
UWI.           05 071 08293 00: UNIQUE WELL ID
~Curve Information Block
DEPT.FT            0 000 00 00: Depth
CCL.                          : Casing Collar Locator
TT3.usec                      : CBL 3' Travel Time
AMP3.mV                       : CBL 3' Amplitude
GR.GAPI                       : Gamma Ray
~Parameter Information Block
~A  Depth       CCL         TT3         AMP3         GR     
# ...
  1241.5000      0.0000    743.4591      6.9322     76.3895
  1241.7500      0.0000    731.8228      7.0430     78.6819
  1242.0000      0.0000    723.9967      7.1238     81.2828
  1242.2500      0.0000    720.6421      7.1816     84.8397
  1242.5000      0.0000    718.3360      7.3134     89.8759
  1242.7500      0.0000    711.1025      7.5940     97.3629
  1243.0000      0.0000    695.1371      7.9714    107.6987
  1243.2500      0.0000    671.9461      8.3170    119.0027
  1243.5000      0.0000    646.3187      8.5487    127.5214
  1243.7500      0.0000    623.0433      8.6725    130.6404
  1244.0000      0.0000    606.3152      8.7338    129.2746
  1244.2500      0.0000    599.7286      8.7657    126.6779
  1244.5000      0.0000    604.4045      8.7787    125.1663
  1244.7500      0.0000    617.4525      8.7712    124.6405
  1245.0000      0.0000    633.2164      8.7382    123.7829
  1245.2500      0.0000    646.4286      8.6776    121.5198
  1245.5000      0.0000    654.6728      8.5978    117.4356
  1245.7500      0.0000    658.7579      8.5181    112.2385
  1246.0000      0.0000    661.1602      8.4586    108.1922
  1246.2500      0.0000    663.7969      8.4311    107.7986
  1246.5000      0.0000    666.7899      8.4372    111.3749
  1246.7500      0.0000    668.9254      8.4703    116.6310
  1247.0000      0.0000    668.6653      8.5162    120.8491
  1247.2500      0.0000    664.5442      8.5549    122.6925
  1247.5000      0.0000    655.4969      8.5680    122.0242
  1247.7500      0.0000    641.9010      8.5460    119.2676
  1248.0000      0.0000    626.3528      8.4927    115.5140
  1248.2500      0.0000    612.5683      8.4218    112.4045
  1248.5000      0.0000    603.0356      8.3491    111.1596
  1248.7500      0.0000    597.8233      8.2852    111.8030
  1249.0000      0.0000    595.4920      8.2326    113.4529
  1249.2500      0.0000    594.7178      8.1897    115.0444
  1249.5000      0.0000    595.0992      8.1565    115.6727
  1249.7500      0.0000    596.8645      8.1378    114.8239
  1250.0000      0.0000    600.0014      8.1387    112.7194
  1250.2500      0.0000    603.6234      8.1559    110.1905
  1250.5000      0.0000    606.4650      8.1738    107.9037
  1250.7500      0.0000    608.2529      8.1738    105.9448
  1251.0000      0.0000    610.2084      8.1496    104.2630
  1251.2500      0.0000    613.8161      8.1135    103.1907
  1251.5000      0.0000    619.4186      8.0847    103.3919
  1251.7500      0.0000    626.1978      8.0757    105.3700
  1252.0000      0.0000    632.9444      8.0839    109.0435
  1252.2500      0.0000    638.5999      8.0966    113.7500
  1252.5000      0.0000    642.6342      8.1033    118.5640
  1252.7500      0.0000    645.3672      8.1062    122.4668
  1253.0000      0.0000    647.8395      8.1163    124.4372
  1253.2500      0.0000    651.0996      8.1406    123.9149
  1253.5000      0.0000    655.3000      8.1717    121.4790
  1253.7500      0.0000    659.1818      8.1930    118.7154
  1254.0000      0.0000    660.4437      8.1924    117.0806
  1254.2500      0.0000    656.8748      8.1719    116.9724
  1254.5000      0.0000    647.3896      8.1456    117.6978
  1254.7500      0.0000    632.1836      8.1299    117.8579
  1255.0000      0.0000    612.3429      8.1329    116.0881
  1255.2500      0.0000    589.9620      8.1508    112.2890
  1255.5000      0.0000    568.6904      8.1736    108.0937
  1255.7500      0.0000    553.2758      8.1977    105.5290
  1256.0000      0.0000    547.7368      8.2294    105.3494
  1256.2500      0.0000    553.5890      8.2762    106.9383
  1256.5000      0.0000    569.2149      8.3357    109.3305
  1256.7500      0.0000    590.4913      8.3936    111.7804
  1257.0000      0.0000    612.4913      8.4340    113.6376
  1257.2500      0.0000    631.1978      8.4507    114.4043
  1257.5000      0.0000    643.9974      8.4514    114.2977
  1257.7500      0.0000    649.5803      8.4501    114.4731
  1258.0000      0.0000    648.5173      8.4551    116.1412
  1258.2500      0.0000    643.8253      8.4653    119.1612
  1258.5000      0.0000    639.9265      8.4776    121.8023
  1258.7500      0.0000    640.2692      8.4940    122.4041
  1259.0000      0.0000    645.4860      8.5156    121.1928
  1259.2500      0.0000    653.4729      8.5360    119.9631
  1259.5000      0.0000    661.1759      8.5447    120.0087
  1259.7500      0.0000    666.6089      8.5389    120.8275
  1260.0000      0.0000    669.6297      8.5257    120.8012
  1260.2500      0.0000    671.3950      8.5166    118.8520
  1260.5000      0.0000    673.5463      8.5200    115.5433
  1260.7500      0.0000    677.6451      8.5377    112.7046
  1261.0000      0.0000    684.3445      8.5679    111.7772
  1261.2500      0.0000    692.2087      8.6094    112.4432
  1261.5000      0.0000    697.7083      8.6613    112.9970
  1261.7500      0.0000    697.6346      8.7172    111.9690
  1262.0000      0.0000    692.0042      8.7646    109.2328
  1262.2500      0.0000    684.0378      8.7898    105.7551
  1262.5000      0.0000    677.2065      8.7849    102.7617
  1262.7500      0.0000    672.8040      8.7501    101.3090
  1263.0000      0.0000    670.1384      8.6934    102.3141
  1263.2500      0.0000    668.1748      8.6280    106.4831
  1263.5000      0.0000    666.6745      8.5689    113.9380
  1263.7500      0.0000    666.0826      8.5269    123.6679
  1264.0000      0.0000    666.6768      8.5055    133.0685
  1264.2500      0.0000    668.0523      8.5018    138.5010
  1264.5000      0.0000    669.4719      8.5052    137.5016
  1264.7500      0.0000    670.4962      8.4974    131.1234
  1265.0000      0.0000    671.1778      8.4558    123.6118
  1265.2500      0.0000    671.9377      8.3589    119.1738
  1265.5000      0.0000    673.5760      8.1952    119.0103
  1265.7500      0.0000    677.3707      7.9675    121.1133
  1266.0000      0.0000    684.7516      7.6891    122.2693
  1266.2500      0.0000    696.3350      7.3694    120.4507
  1266.5000      0.0000    711.0977      7.0003    116.1640
  1266.7500      0.0000    726.7471      6.5616    111.7631
  1267.0000      0.0000    740.9340      6.0482    109.0825
  1267.2500      0.0000    751.7778      5.4928    107.5700
  1267.5000      0.0000    757.5773      4.9568    104.9564
  1267.7500      0.0000    757.2197      4.4957     99.6034
  1268.0000      0.0000    751.5429      4.1365     91.7119
  1268.2500      0.0000    743.9551      3.8821     82.4882
  1268.5000      0.0000    739.6179      3.7305     73.1562
  1268.7500      0.0000    743.5490      3.6841     64.9652
  1269.0000      0.0000    757.4402      3.7504     59.2447
  1269.2500      0.0000    776.5595      3.9370     56.9199
  1269.5000      0.0000    791.0701      4.2458     58.2166
  1269.7500      0.0000    792.9050      4.6720     62.8125
  1270.0000      0.0000    781.6567      5.2040     69.9037
  1270.2500      0.0000    763.2791      5.8222     78.1810
  1270.5000      0.0000    744.3667      6.4972     86.3249
  1270.7500      0.0000    728.5527      7.1942     93.7606
  1271.0000      0.0000    716.2525      7.8789    100.5150
  1271.2500      0.0000    704.8920      8.5151    106.1800
  1271.5000      0.0000    689.2956      9.0578    109.6792
  1271.7500      0.0000    664.4321      9.4533    110.4994
  1272.0000      0.0000    629.9403      9.6584    109.5497
  1272.2500      0.0000    592.1076      9.6706    108.2431
  1272.5000      0.0000    561.0439      9.5383    107.2151
  1272.7500      0.0000    545.8856      9.3359    106.4190
  1273.0000      0.0000    551.3789      9.1232    105.9175
  1273.2500      0.0000    575.6863      8.9262    106.0132
  1273.5000      0.0000    609.8321      8.7482    107.0006
  1273.7500      0.0000    641.6237      8.5930    109.0887
  1274.0000      0.0000    662.8206      8.4764    112.2275
  1274.2500      0.0000    672.9995      8.4195    115.8242
  1274.5000      0.0000    677.0185      8.4328    118.9219
  1274.7500      0.0000    680.0953      8.5062    120.7809
