~Version Information
VERS.                      2.0: CWLS Log ASCII Standard - VERSION 2.0
WRAP.                       NO: One line per depth step
~Well Information Block
STRT.FT               390.0000: 
STOP.FT              2768.7000: 
STEP.FT                 0.1000: 
NULL.                -999.2500: 
COMP.          Pioneer Natural Resources: COMPANY
WELL.              Lynch 43-30: WELL
FLD.           Purgatoire River: FIELD
LOC.           1438' FSL & 429' FEL: LOCATION
PROV.                 Colorado: PROVINCE
CNTY.               Las Animas: COUNTRY
SRVC.                Patterson: SERVICE COMPANY
DATE.          Wed Oct 27 08:22:00 2004: LOG DATE
UWI.           05 071 08170 00: UNIQUE WELL ID
~Curve Information Block
DEPT.FT            0 000 00 00: Depth
DCAL.in                       : CDL Caliper
DPOR.pu                       : CDL Density Porosity
NPOR.pu                       : Neutron Porosity
RHOB.g/cc                     : CDL Bulk Density
RHOC.g/cc                     : CDL Density Correction
GR.GAPI                       : Gamma Ray
~Parameter Information Block
~A  Depth       DCAL        DPOR        NPOR        RHOB        RHOC         GR     
# ...
  2281.2000      8.0292     11.3161     28.1072      2.4633      0.0327    111.6589
  2281.3000      8.0307     11.6431     27.6342      2.4579      0.0989    107.7477
  2281.4000      8.0307     12.9121     27.4397      2.4370      0.0284    115.7493
  2281.5000      8.0365     13.6327     27.6837      2.4251     -0.0054    126.7973
  2281.6000      8.0365     13.2139     28.1194      2.4320      0.0415    133.2496
  2281.7000      8.0365     12.5332     28.6232      2.4432      0.0328    132.7976
  2281.8000      8.0477     11.8745     28.7892      2.4541      0.0250    132.8129
  2281.9000      8.0477     11.1185     28.3667      2.4665      0.0886    134.6787
  2282.0000      8.0612     10.4115     27.8434      2.4782      0.0575    133.2027
  2282.1000      8.0612      9.5939     27.6848      2.4917      0.0961    136.8796
  2282.2000      8.0612      8.9452     27.5351      2.5024      0.1168    147.3136
  2282.3000      8.0778      9.3025     27.0042      2.4965      0.1043    152.2253
  2282.4000      8.0778     10.6720     26.4498      2.4739      0.0703    149.1366
  2282.5000      8.0878     11.9193     26.2146      2.4533      0.0268    139.4657
  2282.6000      8.0878     11.9616     26.4012      2.4526      0.0476    125.9250
  2282.7000      8.0878     10.9193     26.8742      2.4698      0.0856    118.1727
  2282.8000      8.0831      9.8489     27.1707      2.4875      0.1009    118.8087
  2282.9000      8.0831      9.8805     26.9354      2.4870      0.0794    121.5122
  2283.0000      8.0729     10.8737     26.4412      2.4706      0.0302    122.6156
  2283.1000      8.0729     11.3749     26.2746      2.4623      0.0066    120.6543
  2283.2000      8.0729     11.1207     26.8104      2.4665      0.0842    120.7271
  2283.3000      8.0661     11.4657     27.7557      2.4608      0.0907    129.3895
  2283.4000      8.0661     12.4705     28.0381      2.4442      0.0613    137.7075
  2283.5000      8.0654     12.5108     27.2204      2.4436      0.0407    132.9428
  2283.6000      8.0654     11.0230     26.2466      2.4681      0.0455    121.8363
  2283.7000      8.0654      9.5092     26.0068      2.4931      0.0715    118.4965
  2283.8000      8.0544      9.4726     26.2457      2.4937      0.1159    122.6845
  2283.9000      8.0544     10.5403     26.4874      2.4761      0.0939    127.8283
  2284.0000      8.0201     11.0769     26.5505      2.4672      0.0473    129.3569
  2284.1000      8.0201      9.9779     26.4588      2.4854      0.0673    127.4128
  2284.2000      8.0201      7.4797     26.2288      2.5266      0.0498    125.0711
  2284.3000      7.9859      4.8249     25.4695      2.5704      0.1460    125.3082
  2284.4000      7.9859      3.4357     24.2815      2.5933      0.1553    126.3580
  2284.5000      7.9686      3.4847     23.5414      2.5925      0.1180    121.6475
  2284.6000      7.9686      4.0173     23.8238      2.5837      0.0613    109.7881
  2284.7000      7.9686      4.4845     24.5005      2.5760      0.1094    101.4556
  2284.8000      7.9525      4.7308     24.5214      2.5719      0.0863    105.7084
  2284.9000      7.9525      4.3526     23.9246      2.5782      0.0813    114.5400
  2285.0000      7.9310      3.6710     23.4704      2.5894      0.1025    112.9513
  2285.1000      7.9310      3.9407     23.3601      2.5850      0.1101    103.5248
  2285.2000      7.9310      5.4801     23.4186      2.5596      0.0365     98.6015
  2285.3000      7.9177      7.2756     23.6562      2.5300      0.0371     99.3425
  2285.4000      7.9177      8.7195     23.5091      2.5061      0.0063    104.5340
  2285.5000      7.9127      9.7373     22.3966      2.4893     -0.0083    116.4272
  2285.6000      7.9127      9.8864     21.0967      2.4869     -0.0243    130.8291
  2285.7000      7.9127      8.6037     20.7417      2.5080     -0.0333    137.4555
  2285.8000      7.9083      6.5527     21.2979      2.5419      0.0228    136.4123
  2285.9000      7.9083      5.3775     21.9106      2.5613      0.0129    137.8754
  2286.0000      7.9054      5.7328     21.9423      2.5554      0.0193    140.4286
  2286.1000      7.9054      6.8835     21.5647      2.5364      0.0022    135.6664
  2286.2000      7.9054      7.3576     21.4687      2.5286     -0.0314    125.8343
  2286.3000      7.9071      6.4611     21.9019      2.5434      0.0087    117.3477
  2286.4000      7.9071      5.3576     22.4153      2.5616      0.0345    109.5212
  2286.5000      7.9074      5.2215     22.6504      2.5638      0.0310    105.8469
  2286.6000      7.9074      5.5502     22.6047      2.5584      0.0202    115.5283
  2286.7000      7.9074      5.6032     22.2751      2.5575      0.0565    132.0010
  2286.8000      7.9045      5.7519     21.8730      2.5551      0.0153    140.3597
  2286.9000      7.9045      6.5915     21.7221      2.5412      0.0417    137.4077
  2287.0000      7.8956      7.7488     21.7435      2.5221     -0.0016    127.5197
  2287.1000      7.8956      7.9764     21.7785      2.5184     -0.0064    118.2938
  2287.2000      7.8956      7.2903     21.9944      2.5297      0.0583    121.1778
  2287.3000      7.8838      6.5079     22.3701      2.5426      0.0164    137.9327
  2287.4000      7.8838      5.5196     22.7840      2.5589      0.0302    146.7625
  2287.5000      7.8813      4.9502     23.2147      2.5683      0.1011    129.8091
  2287.6000      7.8813      5.6509     23.5265      2.5568      0.0475    106.6275
  2287.7000      7.8813      6.3826     23.3344      2.5447     -0.0235     97.5023
  2287.8000      7.8829      5.8698     22.8926      2.5531      0.0389     96.8098
  2287.9000      7.8829      4.9969     23.4064      2.5676      0.0702    104.4789
  2288.0000      7.8829      5.0169     24.6888      2.5672      0.0537    119.6348
  2288.1000      7.8829      6.1402     25.1433      2.5487      0.0423    126.2251
  2288.2000      7.8829      7.4612     24.5076      2.5269     -0.0102    118.4459
  2288.3000      7.8836      7.7853     23.9245      2.5215      0.0296    105.8906
  2288.4000      7.8836      7.1833     24.1912      2.5315      0.0706     96.5816
  2288.5000      7.8849      6.5338     24.8363      2.5422      0.0455     96.4939
  2288.6000      7.8849      6.3445     24.7439      2.5453      0.0692    103.5202
  2288.7000      7.8849      6.5739     23.8739      2.5415      0.0555    107.6548
  2288.8000      7.8877      6.9378     22.9407      2.5355      0.0702    104.9547
  2288.9000      7.8877      7.4036     22.4196      2.5278      0.0500    106.0555
  2289.0000      7.8892      7.6733     22.7401      2.5234      0.0076    117.4513
  2289.1000      7.8892      7.1356     23.6807      2.5323      0.0186    122.2252
  2289.2000      7.8892      6.2429     24.3617      2.5470      0.0574    109.7149
  2289.3000      7.8878      6.0140     24.2565      2.5508      0.0385     95.6667
  2289.4000      7.8878      6.3018     23.0876      2.5460     -0.0141     89.7719
  2289.5000      7.8885      6.6390     21.4170      2.5405      0.0399     87.7501
  2289.6000      7.8885      7.0881     20.4616      2.5330      0.0183     88.9476
  2289.7000      7.8885      7.5488     20.1946      2.5254      0.0378     98.2329
  2289.8000      7.8922      7.9249     20.0263      2.5192     -0.0125    109.5212
  2289.9000      7.8922      7.9986     19.9067      2.5180     -0.0037    110.5890
  2290.0000      7.8928      7.6943     19.5370      2.5230      0.0256    104.0027
  2290.1000      7.8928      6.9693     18.4521      2.5350      0.0033    101.8415
  2290.2000      7.8928      5.6892     17.3189      2.5561      0.0228    107.9079
  2290.3000      7.8893      4.6839     17.5202      2.5727      0.0700    113.5634
  2290.4000      7.8893      4.9405     19.2864      2.5685      0.0295    110.3946
  2290.5000      7.8870      6.1807     20.9857      2.5480      0.0463    101.6595
  2290.6000      7.8870      7.2154     21.4139      2.5309     -0.0004     97.4628
  2290.7000      7.8870      7.1308     21.0220      2.5323      0.0208     98.7770
