~Version Information
VERS.                      2.0: CWLS Log ASCII Standard - VERSION 2.0
WRAP.                       NO: One line per depth step
~Well Information Block
STRT.FT               563.6000: 
STOP.FT              2133.0000: 
STEP.FT                 0.1000: 
NULL.                -999.2500: 
COMP.          Petrogulf Corporation: COMPANY
WELL.             State 16-43V: WELL
FLD.           Purgatorie River: FIELD
LOC.           2437' FSL & 734' FEL: LOCATION
CNTY.               Las Animas: COUNTY
SRVC.                         : SERVICE COMPANY
DATE.          Mon Dec 06 06:01:26 2004: LOG DATE
UWI.           05 071 08015 00: UNIQUE WELL ID
STAT.                 Colorado: STATE
~Curve Information Block
DEPT.FT            0 000 00 00: Depth
DCAL.in                       : CDL Caliper
RHOB.g/cc                     : CDL Bulk Density
RHOC.g/cc                     : CDL Density Correction
DPOR.pu                       : CDL Density Porosity
GR.GAPI                       : Gamma Ray
NPOR.pu                       : Neutron Porosity
~Parameter Information Block
~A  Depth       DCAL        RHOB        RHOC        DPOR         GR         NPOR    
# ...
  1302.8000      7.8523      2.6232      0.0058      1.6271    124.6486     30.2581
  1302.9000      7.8523      2.6387      0.0448      0.6850    112.4960     29.5254
  1303.0000      7.8997      2.6480      0.0034      0.1211    105.6795     28.7649
  1303.1000      7.8997      2.6712      0.0591     -1.2839    103.9589     28.3898
  1303.2000      7.8997      2.6988      0.0968     -2.9589    102.2177     28.4291
  1303.3000      7.8650      2.7038      0.1241     -3.2613     98.5932     28.4991
  1303.4000      7.8650      2.6958      0.0317     -2.7779     95.5601     27.9988
  1303.5000      7.8101      2.6989      0.1238     -2.9663     96.1755     27.0761
  1303.6000      7.8101      2.7073      0.1082     -3.4714     96.9566     26.2415
  1303.7000      7.8101      2.7177      0.0999     -4.1014     93.4341     25.4413
  1303.8000      7.7956      2.7366      0.1243     -5.2490     88.4616     24.7720
  1303.9000      7.7956      2.7451      0.1349     -5.7607     88.4677     24.3740
  1304.0000      7.8139      2.7267      0.0863     -4.6490     96.5898     23.9737
  1304.1000      7.8139      2.7047      0.0872     -3.3127    106.4655     23.5456
  1304.2000      7.8139      2.7008      0.0621     -3.0765    105.8525     23.5463
  1304.3000      7.8129      2.7049      0.1231     -3.3300     93.0183     23.8560
  1304.4000      7.8129      2.7019      0.1146     -3.1432     80.9732     23.8341
  1304.5000      7.8172      2.6928      0.1047     -2.5941     78.6881     23.5580
  1304.6000      7.8172      2.6848      0.0718     -2.1108     84.3821     23.3203
  1304.7000      7.8172      2.6744      0.0927     -1.4778     92.1966     23.0272
  1304.8000      7.8406      2.6520      0.1162     -0.1223     96.7145     22.8305
  1304.9000      7.8406      2.6205      0.0633      1.7888     99.1677     23.0885
  1305.0000      7.8060      2.5909      0.0540      3.5825    104.4767     24.0285
  1305.1000      7.8060      2.5695      0.0058      4.8779    111.9993     25.3427
  1305.2000      7.8060      2.5613     -0.0180      5.3757    118.8356     26.3209
  1305.3000      7.8384      2.5686      0.0179      4.9333    126.2143     26.7248
  1305.4000      7.8384      2.5938      0.0038      3.4035    131.6025     26.8949
  1305.5000      7.9129      2.6264      0.1137      1.4313    128.3281     26.9849
  1305.6000      7.9129      2.6376      0.0712      0.7488    120.8888     26.5763
  1305.7000      7.9129      2.6300      0.0398      1.2121    119.5222     25.7935
  1305.8000      7.9390      2.6334      0.0260      1.0033    125.3708     25.4028
  1305.9000      7.9390      2.6522      0.1013     -0.1350    132.4734     25.4824
  1306.0000      7.9245      2.6659      0.1077     -0.9659    133.1271     25.5623
  1306.1000      7.9245      2.6622      0.0506     -0.7407    125.6365     25.3447
  1306.2000      7.9245      2.6347      0.0868      0.9285    117.5198     25.0113
  1306.3000      7.9020      2.5949     -0.0212      3.3371    115.3795     25.0786
  1306.4000      7.9020      2.5724      0.0200      4.7006    119.1215     25.3436
  1306.5000      7.9185      2.5753      0.0268      4.5296    126.7269     25.0395
  1306.6000      7.9185      2.5873      0.0644      3.8022    135.0202     24.5462
  1306.7000      7.9185      2.5916      0.0597      3.5390    142.0652     24.7028
  1306.8000      7.9274      2.5937      0.0814      3.4131    145.3847     25.1785
  1306.9000      7.9274      2.6013      0.1034      2.9489    144.4265     25.1039
  1307.0000      7.9354      2.6013      0.0805      2.9538    146.1637     24.7963
  1307.1000      7.9354      2.5881      0.0911      3.7540    152.5879     25.1141
  1307.2000      7.9354      2.5812      0.0946      4.1704    155.9940     25.6363
  1307.3000      7.9866      2.5968      0.1372      3.2249    154.5790     25.5669
  1307.4000      7.9866      2.6235      0.1464      1.6074    155.9562     25.1645
  1307.5000      8.0058      2.6356      0.1592      0.8731    162.5499     24.9212
  1307.6000      8.0058      2.6271      0.1476      1.3871    167.0557     25.0811
  1307.7000      8.0058      2.6215      0.1208      1.7284    166.6904     25.6018
  1307.8000      7.9982      2.6385      0.1355      0.6979    168.5022     26.2009
  1307.9000      7.9982      2.6644      0.1891     -0.8698    173.8140     26.6675
  1308.0000      8.0162      2.6635      0.2094     -0.8194    177.6528     26.9026
  1308.1000      8.0162      2.6283      0.1643      1.3174    179.5151     27.0228
  1308.2000      8.0162      2.5933      0.1690      3.4341    181.0704     27.2149
  1308.3000      8.0782      2.5873      0.1761      3.8018    182.6180     27.3724
  1308.4000      8.0782      2.5979      0.2033      3.1602    185.5141     27.3376
  1308.5000      8.1404      2.6001      0.1475      3.0268    187.6691     27.3726
  1308.6000      8.1404      2.5944      0.0853      3.3681    185.6829     27.8435
  1308.7000      8.1404      2.6077      0.0712      2.5665    183.1899     28.5170
  1308.8000      8.2287      2.6569      0.1813     -0.4188    185.3003     28.8212
  1308.9000      8.2287      2.7114      0.2234     -3.7214    191.6360     28.6806
  1309.0000      8.1867      2.7330      0.2105     -5.0301    194.1203     28.4233
  1309.1000      8.1867      2.7247      0.2196     -4.5260    184.1652     28.3253
  1309.2000      8.1867      2.7040      0.1799     -3.2706    167.1636     28.6519
  1309.3000      8.0711      2.6775      0.1386     -1.6645    155.2068     29.5277
  1309.4000      8.0711      2.6575      0.0793     -0.4520    150.7814     30.3525
  1309.5000      8.0492      2.6657      0.0099     -0.9517    150.6472     30.3379
  1309.6000      8.0492      2.6958      0.1009     -2.7779    152.9109     29.6771
  1309.7000      8.0492      2.7069      0.0914     -3.4487    153.2594     29.0975
  1309.8000      8.0415      2.6805      0.0734     -1.8463    149.7037     28.8500
  1309.9000      8.0415      2.6452      0.0023      0.2924    144.0978     28.7520
  1310.0000      8.0225      2.6363      0.0244      0.8292    138.9274     28.8439
  1310.1000      8.0225      2.6536      0.0654     -0.2195    137.2966     29.0798
  1310.2000      8.0225      2.6644      0.0880     -0.8730    138.3046     29.0077
  1310.3000      7.9771      2.6549      0.0092     -0.2996    138.9180     28.4888
  1310.4000      7.9771      2.6490     -0.0022      0.0633    139.4732     27.9403
  1310.5000      8.0354      2.6500      0.0555      0.0019    141.1278     27.7102
  1310.6000      8.0354      2.6378      0.0203      0.7372    141.5524     27.8573
  1310.7000      8.0354      2.6159      0.0040      2.0653    139.3319     28.3044
  1310.8000      7.9964      2.5983      0.0137      3.1303    136.7498     28.7706
  1310.9000      7.9964      2.5958     -0.0437      3.2838    134.5788     29.0364
  1311.0000      7.9833      2.6099      0.0238      2.4274    133.7948     29.2623
  1311.1000      7.9833      2.6197      0.0131      1.8377    133.9854     29.5070
  1311.2000      7.9833      2.6119      0.0006      2.3104    135.6122     29.6327
  1311.3000      8.0052      2.5956     -0.0311      3.2975    142.0771     29.5029
  1311.4000      8.0052      2.5835     -0.0611      4.0300    149.7229     29.0534
  1311.5000      7.9685      2.5763      0.0271      4.4677    152.9878     28.6430
  1311.6000      7.9685      2.5608      0.0380      5.4055    152.3937     28.3579
  1311.7000      7.9685      2.5394     -0.0162      6.7007    149.6272     27.9248
  1311.8000      7.9933      2.5326     -0.0096      7.1149    145.6046     27.5506
  1311.9000      7.9933      2.5398     -0.0051      6.6780    141.2978     27.3087
  1312.0000      7.9774      2.5374      0.0016      6.8242    140.1869     26.9158
  1312.1000      7.9774      2.5170     -0.0389      8.0589    144.0419     26.6539
  1312.2000      7.9774      2.5008     -0.0529      9.0396    147.0227     26.6719
  1312.3000      8.0223      2.5150     -0.0251      8.1809    145.7396     26.5970
