~Version Information
VERS.                      2.0: CWLS Log ASCII Standard - VERSION 2.0
WRAP.                       NO: One line per depth step
~Well Information Block
STRT.FT               840.0000: 
STOP.FT              2019.0000: 
STEP.FT                 0.2500: 
NULL.                -999.2500: 
COMP.          Petrogulf Corporation: COMPANY
WELL.           Lavedure 7-44R: WELL
FLD.           Purgatorie River: FIELD
LOC.           946' FSL & 521' FEL: LOCATION
PROV.                 Colorado: PROVINCE
CNTY.               Las Animas: COUNTRY
SRVC.                Patterson: SERVICE COMPANY
DATE.          Mon Sep 26 08:35:42 2005: LOG DATE
UWI.                          : UNIQUE WELL ID
~Curve Information Block
DEPT.FT            0 000 00 00: Depth
SP.mV                         : DIL Spontaneous Potential
RILD.Ohm-m                    : DIL Deep Resistivity
RILM.Ohm-m                    : DIL Medium Resistivity
RLL3.Ohm-m                    : DIL Shallow Resistivity
GR.GAPI                       : Gamma Ray
~Parameter Information Block
~A  Depth        SP         RILD        RILM        RLL3         GR     
# ...
  1540.0000    203.4740      8.1052      8.4959     10.3228    156.2885
  1540.2500    202.5878      7.9378      8.3236     10.1659    156.6388
  1540.5000    201.5753      7.8615      8.1022      9.8679    157.6897
  1540.7500    200.4277      7.7342      7.8415      9.4577    147.2038
  1541.0000    199.2064      7.7349      7.7631      9.4234    139.0027
  1541.2500    198.0205      7.7566      7.6229      9.3112    133.1761
  1541.5000    196.8379      7.8124      7.4197      9.5331    157.9613
  1541.7500    195.5852      7.8406      7.3452      9.3410    146.5507
  1542.0000    194.3398      7.9247      7.2695      9.0410    164.2910
  1542.2500    193.1938      8.0517      7.2548      8.9141    182.1512
  1542.5000    192.2901      8.2441      7.2986      8.5144    144.7848
  1542.7500    191.7366      8.5265      7.4578      8.3961    136.9118
  1543.0000    191.5878      8.7602      7.7580      8.4937    152.1380
  1543.2500    191.9158      9.0935      8.2244      8.7922    155.9981
  1543.5000    192.8409      9.2828      8.9008      9.4510    145.7357
  1543.7500    194.3491      9.5327      9.9373     11.9840    154.0856
  1544.0000    196.6434      9.7902     10.8217     21.7559    148.7883
  1544.2500    199.3858     10.1898     11.6839     40.8503    144.5453
  1544.5000    201.9839     10.5809     12.4157     44.5793    138.0522
  1544.7500    204.4176     10.8871     12.8046     26.9262    123.8413
  1545.0000    206.2016     11.4237     13.2321     18.5147     86.6264
  1545.2500    207.1616     12.1056     13.9606     18.7560     81.5117
  1545.5000    207.5811     12.7387     14.4315     20.6188     94.1788
  1545.7500    207.8046     13.6847     15.2498     20.4882     92.6133
  1546.0000    207.8091     14.2569     15.9504     18.5553    119.2106
  1546.2500    207.8667     14.7393     16.8908     18.2092    112.8716
  1546.5000    207.9033     14.9222     17.3568     19.7906     99.7398
  1546.7500    207.9131     14.9404     18.0642     22.5733    105.1429
  1547.0000    207.9681     14.9480     17.8949     25.1644    141.4801
  1547.2500    208.0710     14.7349     17.2751     25.5380    139.9747
  1547.5000    208.1580     14.8617     16.9706     22.9479    127.8930
  1547.7500    208.1233     14.9109     16.3482     19.9049    112.9247
  1548.0000    207.9628     14.9845     15.5974     17.4684    127.7731
  1548.2500    207.6462     15.2911     15.2011     14.3254    109.4531
  1548.5000    207.1731     15.2560     15.2801     12.8000    137.1033
  1548.7500    206.3694     15.7957     15.7019     14.5472    126.8684
  1549.0000    205.2427     15.8051     16.5796     19.4384    139.6430
  1549.2500    203.9342     15.9155     17.3729     25.4630    155.5675
  1549.5000    202.5451     16.3904     17.9100     29.5862    158.6930
  1549.7500    201.1337     16.5384     18.1057     26.3342    144.1890
  1550.0000    199.4668     16.7427     18.1820     21.1064    112.6254
  1550.2500    197.7175     16.6215     18.1759     19.4504    127.2965
  1550.5000    195.5581     16.7835     18.8018     20.7892    124.4296
  1550.7500    193.3295     17.3273     19.5059     26.2569    111.0834
  1551.0000    191.4879     17.6202     20.5937     35.5316    121.9679
  1551.2500    190.2780     17.9394     21.0173     39.2030    121.4389
  1551.5000    189.2603     18.4043     21.2135     33.3102    107.9713
  1551.7500    188.4242     18.4831     21.6627     26.0984    103.0090
  1552.0000    187.7500     18.6565     20.9797     21.7911    108.8650
  1552.2500    187.1768     18.8359     20.3415     21.5032    105.3708
  1552.5000    186.5976     19.3256     20.4725     22.8585     81.9170
  1552.7500    186.0208     19.9352     20.8880     22.8064     84.5368
  1553.0000    185.2341     20.4449     20.4640     22.2738    115.1159
  1553.2500    184.0766     20.3752     20.4825     20.9168    122.5069
  1553.5000    182.5352     20.3760     20.7166     19.8729    121.3936
  1553.7500    180.8488     20.4699     21.3003     20.0303    132.3610
  1554.0000    179.0479     21.1401     21.9185     22.8203    132.7260
  1554.2500    177.2512     21.5550     22.7729     29.1060    124.0783
  1554.5000    175.7507     22.5545     23.8048     32.8860    121.2485
  1554.7500    174.7395     23.0260     24.2731     31.6268    135.2939
  1555.0000    173.8876     23.5625     25.4046     32.4454    118.6387
  1555.2500    173.2012     24.3756     27.1790     38.1527     99.6649
  1555.5000    172.5961     25.0332     28.5541     49.7288     94.9380
  1555.7500    171.9005     25.4707     29.6733     64.3331     99.6522
  1556.0000    171.4226     26.4883     31.3502     74.7765    110.7591
  1556.2500    171.1956     27.6054     32.7992     76.1831    100.6713
  1556.5000    171.2165     27.7191     33.5666     66.4724     77.7919
  1556.7500    171.3476     29.0099     33.4193     55.5680     88.3359
  1557.0000    171.3757     29.5369     31.6875     46.6430     94.3832
  1557.2500    171.1389     29.6209     31.7612     40.9930     94.8151
  1557.5000    170.5778     30.8931     31.5550     37.9829     76.2871
  1557.7500    169.7938     30.7850     30.9907     36.1255     64.6940
  1558.0000    168.7916     29.9984     32.0140     34.5397     99.9844
  1558.2500    167.8185     29.7181     31.1684     33.2155     89.3611
  1558.5000    166.9869     29.4431     31.6496     31.7538     77.8681
  1558.7500    166.0872     29.0028     32.2119     32.7711     99.3587
  1559.0000    165.3122     29.2587     31.6660     37.2960     94.2996
  1559.2500    164.5704     29.2661     32.4687     40.2932     92.8748
  1559.5000    164.2273     28.5998     33.4396     40.9326    106.0435
  1559.7500    164.2579     29.1556     34.1217     42.5227    107.2157
  1560.0000    164.7739     28.6253     36.9183     45.9543     91.7783
  1560.2500    165.5383     29.0234     37.0992     48.0036     88.3936
  1560.5000    166.4123     28.8759     38.6354     49.2317     88.2983
  1560.7500    167.3637     28.8437     38.7901     49.4915    107.5247
  1561.0000    168.4860     28.7841     37.9512     48.8933     94.0346
  1561.2500    169.5858     29.4776     37.3357     47.6749     79.8218
  1561.5000    170.7526     29.7600     36.9981     45.6933     77.4889
  1561.7500    171.8446     30.2627     36.4591     44.0523     75.6031
  1562.0000    172.9199     30.0567     34.6753     42.1141     75.4210
  1562.2500    173.8888     30.5043     33.7357     38.4339     88.0172
  1562.5000    174.2768     31.1020     32.9883     35.3406     82.9175
  1562.7500    174.1522     30.8532     32.4150     34.3886     83.4558
  1563.0000    173.8051     30.6926     32.0004     35.0513    105.5209
  1563.2500    173.1753     31.3306     33.3923     36.0172    102.7164
  1563.5000    172.4671     31.4292     34.6529     37.1061    106.3740
  1563.7500    171.7511     31.5045     36.5613     39.1113    105.2845
  1564.0000    171.0324     31.5744     37.9223     44.7059     84.3000
  1564.2500    170.4256     31.3587     39.3315     53.9310     74.1210
  1564.5000    170.0673     32.2808     43.0825     60.4684     91.3198
  1564.7500    170.0307     32.7255     45.5300     64.2200     97.3151
  1565.0000    170.3413     34.5040     49.2547     66.1284    102.2981
  1565.2500    171.1238     34.2403     50.6086     67.9961    107.5732
  1565.5000    172.3656     34.9574     53.9071     71.8821     95.7573
  1565.7500    174.0699     35.4196     55.3515     77.9129     84.2390
  1566.0000    176.0371     35.0263     55.1047     85.7972     78.8811
  1566.2500    178.5823     34.3085     56.6527     91.9400     62.3458
  1566.5000    181.4789     32.8774     55.9318     94.3874     67.7785
  1566.7500    185.0667     30.7251     53.1740     93.4896     64.4341
  1567.0000    189.0356     27.7177     49.7184     93.4795     66.6267
  1567.2500    193.1260     25.7034     47.0391     97.9052     88.4312
  1567.5000    197.0852     23.8192     39.7952    105.7715    100.3342
  1567.7500    201.7123     22.1994     32.1721    110.2745    128.1344
