~Version Information
VERS.                      2.0: CWLS Log ASCII Standard - VERSION 2.0
WRAP.                       NO: One line per depth step
~Well Information Block
STRT.FT               575.0000: 
STOP.FT              2016.2000: 
STEP.FT                 0.1000: 
NULL.                -999.2500: 
COMP.          Pioneer Natural Resources: COMPANY
WELL.          Bucksnort 41-35: WELL
FLD.           Purgatoire River: FIELD
LOC.           117' FNL & 463' FEL--: LOCATION
PROV.                 Colorado: PROVINCE
CNTY.               Las Animas: COUNTRY
SRVC.                Patterson: SERVICE COMPANY
DATE.          Thu Jul 21 15:01:23 2005: LOG DATE
UWI.           05 071 08401 00: UNIQUE WELL ID
~Curve Information Block
DEPT.FT            0 000 00 00: Depth
DCAL.in                       : CDL Caliper
RHOB.g/cc                     : CDL Bulk Density
RHOC.g/cc                     : CDL Density Correction
DPOR.pu                       : CDL Density Porosity
NPOR.pu                       : Neutron Porosity
GR.GAPI                       : Gamma Ray
~Parameter Information Block
~A  Depth       DCAL        RHOB        RHOC        DPOR        NPOR         GR     
# ...
   853.4000      7.9387      2.4684      0.0198     11.0045     22.2831    121.7005
   853.5000      7.9352      2.4534      0.0277     11.9166     22.0002    118.3315
   853.6000      7.9352      2.4407      0.0137     12.6872     22.1599    116.1169
   853.7000      7.9352      2.4352      0.0008     13.0197     22.8981    117.3900
   853.8000      7.9381      2.4375      0.0252     12.8777     24.2589    119.9585
   853.9000      7.9381      2.4342      0.0222     13.0796     25.9085    121.7981
   854.0000      7.9471      2.4146      0.0344     14.2680     27.2785    123.4792
   854.1000      7.9471      2.3868      0.0089     15.9520     28.4963    125.7288
   854.2000      7.9471      2.3707     -0.0056     16.9264     30.6611    128.4097
   854.3000      7.9540      2.3764      0.0103     16.5832     32.9449    128.4363
   854.4000      7.9540      2.4001      0.0564     15.1463     33.3440    125.0599
   854.5000      7.9568      2.4340      0.0578     13.0920     32.0687    124.2095
   854.6000      7.9568      2.4629      0.1186     11.3399     29.9538    126.2584
   854.7000      7.9568      2.4708      0.0979     10.8612     27.5350    125.1281
   854.8000      7.9584      2.4647      0.0713     11.2293     26.5185    120.5395
   854.9000      7.9584      2.4664      0.0535     11.1265     27.5101    117.2649
   855.0000      7.9566      2.4835      0.0482     10.0884     28.5704    117.8671
   855.1000      7.9566      2.5022      0.1080      8.9591     28.7408    123.4593
   855.2000      7.9566      2.5089      0.0468      8.5540     29.4192    132.1693
   855.3000      7.9508      2.5080      0.0460      8.6070     30.7313    137.7079
   855.4000      7.9508      2.5029      0.0771      8.9163     30.4648    136.5939
   855.5000      7.9455      2.4955      0.0420      9.3636     28.3223    132.3770
   855.6000      7.9455      2.4967      0.0368      9.2906     26.8312    128.7146
   855.7000      7.9455      2.5118      0.0676      8.3768     26.9420    126.5491
   855.8000      7.9433      2.5394      0.0596      6.7010     27.3317    124.7453
   855.9000      7.9433      2.5685      0.1105      4.9380     26.9810    122.4928
   856.0000      7.9441      2.5764      0.0569      4.4622     26.2353    118.3021
   856.1000      7.9441      2.5606      0.0518      5.4165     26.4262    111.1333
   856.2000      7.9441      2.5434      0.0403      6.4632     28.4260    107.6590
   856.3000      7.9471      2.5423      0.0295      6.5283     30.8265    112.3616
   856.4000      7.9471      2.5518      0.0378      5.9531     31.8109    116.5456
   856.5000      7.9519      2.5540      0.0459      5.8198     31.1543    113.3072
   856.6000      7.9519      2.5500      0.0150      6.0582     28.4515    109.1267
   856.7000      7.9519      2.5587      0.0323      5.5314     25.2359    112.6215
   856.8000      7.9537      2.5786      0.0611      4.3281     24.8563    120.2201
   856.9000      7.9537      2.5879      0.0238      3.7607     27.0405    122.2399
   857.0000      7.9441      2.5794      0.0093      4.2783     29.2109    117.0024
   857.1000      7.9441      2.5606      0.0306      5.4166     30.2584    110.8235
   857.2000      7.9441      2.5443     -0.0317      6.4085     29.0905    108.3317
   857.3000      7.9303      2.5453      0.0149      6.3435     26.4328    107.7626
   857.4000      7.9303      2.5719     -0.0131      4.7343     25.4059    105.1718
   857.5000      7.9239      2.6190      0.0618      1.8806     26.4769    100.4446
   857.6000      7.9239      2.6558      0.1057     -0.3501     27.3287     96.4104
   857.7000      7.9239      2.6608      0.0822     -0.6544     26.7816     93.8542
   857.8000      7.9216      2.6532      0.0480     -0.1941     25.6821     92.2957
   857.9000      7.9216      2.6538      0.0443     -0.2286     25.5413     92.3979
   858.0000      7.9142      2.6535      0.0675     -0.2111     26.8876     95.2450
   858.1000      7.9142      2.6379      0.0533      0.7353     28.2884    100.4348
   858.2000      7.9142      2.6131      0.0563      2.2374     28.2118    103.3860
   858.3000      7.9021      2.5947      0.0340      3.3538     27.0226    101.1991
   858.4000      7.9021      2.5920      0.0208      3.5181     26.7342     98.6565
   858.5000      7.8934      2.6012      0.0639      2.9561     27.9222     98.0038
   858.6000      7.8934      2.6059      0.0738      2.6698     28.8659     95.0970
   858.7000      7.8934      2.5934      0.0343      3.4303     28.6770     91.9438
   858.8000      7.8877      2.5686      0.0016      4.9340     28.5094     92.3854
   858.9000      7.8877      2.5449      0.0119      6.3703     28.8678     93.6872
   859.0000      7.8810      2.5276      0.0141      7.4195     28.6714     94.6157
   859.1000      7.8810      2.5190     -0.0141      7.9373     27.8708     96.8513
   859.2000      7.8810      2.5230      0.0154      7.6978     27.7496     98.7598
   859.3000      7.8756      2.5309      0.0701      7.2168     28.5993     97.0958
   859.4000      7.8756      2.5318      0.0221      7.1645     29.3385     91.9081
   859.5000      7.8766      2.5290      0.0490      7.3330     29.0124     86.3287
   859.6000      7.8766      2.5293      0.0203      7.3126     28.1351     83.4392
   859.7000      7.8766      2.5362      0.0335      6.8968     27.6727     84.6607
   859.8000      7.8796      2.5472      0.0377      6.2298     26.6903     88.6261
   859.9000      7.8796      2.5519      0.0794      5.9442     24.2909     90.5157
   860.0000      7.8799      2.5422      0.0460      6.5353     21.9746     86.5738
   860.1000      7.8799      2.5268      0.0091      7.4675     21.1793     79.9415
   860.2000      7.8799      2.5208      0.0192      7.8310     21.5493     75.9100
   860.3000      7.8825      2.5269      0.0600      7.4607     21.5701     77.0585
   860.4000      7.8825      2.5399      0.0784      6.6751     20.5660     80.8210
   860.5000      7.8893      2.5539      0.0600      5.8270     20.0392     83.1314
   860.6000      7.8893      2.5593      0.0714      5.4979     20.4702    123.3939
   860.7000      7.8893      2.5545      0.0438      5.7897     20.5276    114.9581
   860.8000      7.8949      2.5487      0.0349      6.1378     20.0037    102.4319
   860.9000      7.8949      2.5406      0.0176      6.6280     19.1934     92.7409
   861.0000      7.8918      2.5306      0.0165      7.2391     17.9620     87.2322
   861.1000      7.8918      2.5307      0.0279      7.2309     17.2577     83.2767
   861.2000      7.8918      2.5362      0.0811      6.8994     17.5961     80.1570
   861.3000      7.8825      2.5334      0.0835      7.0665     17.8404     75.3428
   861.4000      7.8825      2.5270      0.0809      7.4527     17.1793     67.2508
   861.5000      7.8797      2.5231      0.0881      7.6909     15.7263     60.2205
   861.6000      7.8797      2.5188      0.0435      7.9542     14.4130     55.7366
   861.7000      7.8797      2.5136      0.0569      8.2683     14.6549     51.6638
   861.8000      7.8909      2.5095      0.0368      8.5179     16.1737     50.6498
   861.9000      7.8909      2.5107      0.0373      8.4428     16.8363     55.7050
   862.0000      7.9074      2.5164      0.0583      8.0954     16.4599     62.6048
   862.1000      7.9074      2.5186      0.0330      7.9620     17.2265     62.3679
   862.2000      7.9074      2.5100      0.0541      8.4832     19.0415     53.8964
   862.3000      7.9160      2.4894      0.0659      9.7330     19.6448     48.4860
   862.4000      7.9160      2.4692      0.0062     10.9596     18.6142     53.3544
   862.5000      7.9180      2.4585      0.0467     11.6071     17.1365     62.9932
   862.6000      7.9180      2.4503      0.0423     12.1056     15.3170     67.2767
   862.7000      7.9180      2.4439      0.0057     12.4879     13.7064     62.2641
   862.8000      7.9158      2.4379      0.0811     12.8575     13.8024     55.2916
   862.9000      7.9158      2.4225      0.0335     13.7876     15.9800     55.7407
