~Version Information
VERS.                      2.0: CWLS Log ASCII Standard - VERSION 2.0
WRAP.                       NO: One line per depth step
~Well Information Block
STRT.FT                -8.2500: 
STOP.FT               871.5000: 
STEP.FT                 0.2500: 
NULL.                -999.2500: 
COMP.          Pioneer Natural Resources: COMPANY
WELL.             Tomcat 32-10: WELL
FLD.           Purgatorie River: FIELD
LOC.           2286' FNL & 2463' FEL------: LOCATION
PROV.                       CO: PROVINCE
CNTY.               Las Animas: COUNTRY
SRVC.          Patterson Wireline: SERVICE COMPANY
DATE.          Mon Mar 28 09:03:25 2005: LOG DATE
UWI.           05 071 08301 00: UNIQUE WELL ID
~Curve Information Block
DEPT.FT            0 000 00 00: Depth
CCL.                          : Casing Collar Locator
TT3.usec                      : CBL 3' Travel Time
AMP3.mV                       : CBL 3' Amplitude
GR.GAPI                       : Gamma Ray
~Parameter Information Block
~A  Depth       CCL         TT3         AMP3         GR     
# ...
   762.2500      0.0000    721.2092      5.9441     99.5160
   762.5000      0.0000    707.6387      5.8695     99.2036
   762.7500      0.0000    700.0720      5.8438     96.4118
   763.0000      0.0000    697.6404      5.8714     91.3676
   763.2500      0.0000    699.9884      5.9122     85.1410
   763.5000      0.0000    707.5418      5.9238     79.3150
   763.7500      0.0000    719.5622      5.9028     75.4301
   764.0000      0.0000    732.0229      5.8842     74.2281
   764.2500      0.0000    738.6003      5.8983     75.0621
   764.5000      0.0000    735.4692      5.9329     76.2669
   764.7500      0.0000    725.3318      5.9455     76.5191
   765.0000      0.0000    715.8113      5.9125     75.8521
   765.2500      0.0000    713.9465      5.8589     75.2119
   765.5000      0.0000    722.2074      5.8293     75.2777
   765.7500      0.0000    737.8735      5.8342     76.0027
   766.0000      0.0000    754.4024      5.8378     76.9267
   766.2500      0.0000    764.2723      5.8035     77.3990
   766.5000      0.0000    762.7128      5.7374     76.8240
   766.7500      0.0000    750.1605      5.6761     75.3727
   767.0000      0.0000    731.7470      5.6414     74.3340
   767.2500      0.0000    714.2023      5.6213     75.1988
   767.5000      0.0000    702.3926      5.5972     78.3697
   767.7500      0.0000    698.0118      5.5720     82.8836
   768.0000      0.0000    700.7335      5.5606     87.1057
   768.2500      0.0000    709.7299      5.5621     89.5089
   768.5000      0.0000    723.9998      5.5591     89.1692
   768.7500      0.0000    741.9794      5.5458     86.0501
   769.0000      0.0000    761.4108      5.5364     81.0222
   769.2500      0.0000    779.6572      5.5392     75.5939
   769.5000      0.0000    794.2280      5.5369     71.3644
   769.7500      0.0000    803.5258      5.5131     69.2204
   770.0000      0.0000    807.7862      5.4841     68.8128
   770.2500      0.0000    809.1747      5.4832     69.1270
   770.5000      0.0000    809.9130      5.5196     69.7012
   770.7500      0.0000    809.7332      5.5724     70.8340
   771.0000      0.0000    805.6243      5.6202     72.5744
   771.2500      0.0000    794.8122      5.6530     74.3236
   771.5000      0.0000    778.1733      5.6620     75.7156
   771.7500      0.0000    760.5477      5.6436     77.1317
   772.0000      0.0000    747.3437      5.6121     78.8785
   772.2500      0.0000    740.4274      5.5906     80.2914
   772.5000      0.0000    737.0171      5.5905     80.1496
   772.7500      0.0000    732.7671      5.6120     77.9089
   773.0000      0.0000    726.2230      5.6528     74.2681
   773.2500      0.0000    720.2731      5.7004     70.5692
   773.5000      0.0000    719.1815      5.7271     67.7835
   773.7500      0.0000    724.4235      5.7165     65.9250
   774.0000      0.0000    733.5209      5.6860     64.3761
   774.2500      0.0000    742.6277      5.6677     62.9485
   774.5000      0.0000    749.9941      5.6725     62.3763
   774.7500      0.0000    756.5833      5.6891     63.3266
   775.0000      0.0000    763.4095      5.7047     65.2005
   775.2500      0.0000    769.3618      5.7091     66.5694
   775.5000      0.0000    772.4226      5.6894     66.7033
   775.7500      0.0000    772.8295      5.6376     66.1370
   776.0000      0.0000    774.1404      5.5591     65.7100
   776.2500      0.0000    779.9997      5.4653     65.3999
   776.5000      0.0000    789.7206      5.3717     64.2824
   776.7500      0.0000    798.3998      5.3034     61.6034
   777.0000      0.0000    801.6816      5.2849     57.7057
   777.2500      0.0000    799.2962      5.3202     53.7488
   777.5000      0.0000    793.8788      5.3926     50.6551
   777.7500      0.0000    787.7528      5.4782     48.5753
   778.0000      0.0000    781.7051      5.5517     47.3314
   778.2500      0.0000    776.2388      5.5904     47.0257
   778.5000      0.0000    772.8585      5.5857     47.9086
   778.7500      0.0000    773.4057      5.5493     49.7651
   779.0000      0.0000    778.2834      5.5081     51.8655
   779.2500      0.0000    785.7399      5.4906     53.6309
   779.5000      0.0000    793.0426      5.5107     55.0504
   779.7500      0.0000    798.6639      5.5637     56.3577
   780.0000      0.0000    803.8212      5.6409     57.5280
   780.2500      0.0000    811.3051      5.7373     58.1892
   780.5000      0.0000    821.9273      5.8428     57.9193
   780.7500      0.0000    832.8836      5.9375     56.6831
   781.0000      0.0000    840.4582      6.0021     55.2237
   781.2500      0.0000    843.1790      6.0296     54.9108
   781.5000      0.0000    841.5707      6.0240     56.7050
   781.7500      0.0000    836.4167      5.9909     60.0307
   782.0000      0.0000    828.4136      5.9282     62.9361
   782.2500      0.0000    818.1898      5.8358     63.6550
   782.5000      0.0000    805.3348      5.7316     62.0371
   782.7500      0.0000    788.1612      5.6478     59.4547
   783.0000      0.0000    765.7158      5.6073     57.4680
   783.2500      0.0000    739.9247      5.6069     56.7237
   783.5000      0.0000    715.0476      5.6248     56.9750
   783.7500      0.0000    695.2883      5.6428     57.6300
   784.0000      0.0000    683.5739      5.6577     58.0528
   784.2500      0.0000    681.8435      5.6680     57.7992
   784.5000      0.0000    690.4702      5.6592     56.9797
   784.7500      0.0000    706.2191      5.6136     56.1808
   785.0000      0.0000    721.6749      5.5310     55.7228
   785.2500      0.0000    728.9480      5.4331     55.2483
   785.5000      0.0000    725.3889      5.3472     54.3818
   785.7500      0.0000    715.1865      5.2876     53.5327
   786.0000      0.0000    705.0394      5.2558     53.6400
   786.2500      0.0000    699.2401      5.2531     55.2360
   786.5000      0.0000    699.0620      5.2799     58.0123
   786.7500      0.0000    704.9526      5.3250     61.1266
   787.0000      0.0000    717.4197      5.3673     63.5921
   787.2500      0.0000    735.5629      5.3906     64.5028
   787.5000      0.0000    755.8087      5.3904     63.4550
   787.7500      0.0000    773.3332      5.3676     61.0891
   788.0000      0.0000    785.0795      5.3231     58.9743
   788.2500      0.0000    791.0973      5.2637     58.5006
   788.5000      0.0000    793.1368      5.2064     59.8728
   788.7500      0.0000    792.5992      5.1731     62.4673
   789.0000      0.0000    790.0721      5.1794     65.8672
   789.2500      0.0000    786.6082      5.2266     69.9560
   789.5000      0.0000    784.8757      5.2976     74.0646
   789.7500      0.0000    787.9794      5.3625     76.7186
   790.0000      0.0000    796.5252      5.3970     76.6452
   790.2500      0.0000    807.5709      5.3985     73.9193
   790.5000      0.0000    817.2030      5.3809     69.9580
   790.7500      0.0000    823.6456      5.3531     66.5341
   791.0000      0.0000    827.7055      5.3084     64.9839
   791.2500      0.0000    831.1769      5.2394     66.0793
   791.5000      0.0000    835.3597      5.1555     69.9316
   791.7500      0.0000    840.4924      5.0799     75.5716
   792.0000      0.0000    845.9624      5.0267     80.9047
   792.2500      0.0000    850.8867      4.9913     83.6118
   792.5000      0.0000    854.3802      4.9734     82.5071
   792.7500      0.0000    855.4749      4.9949     78.1697
   793.0000      0.0000    853.4568      5.0723     72.2661
   793.2500      0.0000    848.8755      5.1854     66.3994
   793.5000      2.0000    844.6264      5.2907     61.6331
   793.7500      0.0000    845.5626      5.3605     58.6632
   794.0000      0.0000    854.8811      5.4026     57.9986
   794.2500      0.0000    869.2109      5.4584     59.8410
   794.5000      0.0000    879.0223      5.5765     63.7189
   794.7500      0.0000    876.2427      5.7574     68.2862
   795.0000      0.0000    860.5062      5.9271     71.8685
   795.2500      0.0000    836.7739      5.9961     73.5904
   795.5000      0.0000    809.1406      5.9386     74.0330
