~Version Information
 VERS.                                  2.0 : CWLS LAS VERSION
 WRAP.                                   NO : WRAPING MODE
 SWARE .                 MController 2.5.0E : SOFTWARE VERSION
~Well Information
 WELL.                            Eric 42-9 : WELL
 COMP.         Pioneer Natural Resources Inc: COMPANY
 FLD.                      Purgatorie River : FIELD
 LOC.                 SE/NE Sec 9 T32S R65W : LOCATION
 DATE.                            10/310/04 : DATE(S) LOGGED
 SRVC.       Blanco Geological Services LLC : SERVICE COMPANY
 STAT.                                   CO : STATE
 CNTY.                           Las Animas : COUNTY
 CTRY.                                  USA : COUNTRY
 API.                       05-071-07999-00 : API NUMBER
 STRT.FT                             346.00 : START DEPTH
 STOP.FT                            1616.00 : STOP DEPTH
 STEP.FT                               1.00 : DEPTH INCREMENT
 NULL.                                -9999 : NULL VALUE
~Curve information
 DEPTH.FT                                   :
 ROP.MIN/FT                                 :
 GAS.UNITS                                  :
~ASCII Log data
      346.00    -9999.000          4.0 
      347.00        8.917          4.1 
      348.00        0.867          3.3 
      349.00        0.167          3.3 
      350.00        1.100          3.9 
      351.00        5.100          4.5 
      352.00        2.450          2.1 
      353.00        0.233          2.1 
      354.00        0.133          1.4 
      355.00        0.067          1.5 
      356.00        2.667          2.3 
      357.00        0.183          1.8 
      358.00        0.200          1.8 
      359.00        0.100          2.0 
      360.00        0.133          2.1 
      361.00        0.100          1.7 
      362.00        0.133          2.3 
      363.00        0.133          2.4 
      364.00        0.133          2.3 
      365.00        0.133          2.4 
      366.00        0.100          2.2 
      367.00        0.100          2.3 
      368.00        0.100          2.1 
      369.00        0.067          2.3 
      370.00        0.100          2.5 
      371.00        0.100          2.3 
      372.00        0.100          2.2 
      373.00        0.100          1.8 
      374.00        0.100          2.2 
      375.00        0.100          1.6 
      376.00        0.133          2.5 
      377.00        0.100          2.3 
      378.00        0.133          1.9 
      379.00        0.133          2.2 
      380.00        0.100          2.4 
      381.00        0.133          2.8 
      382.00        0.100          2.6 
      383.00        0.100          2.9 
      384.00        0.067          2.8 
      385.00        0.133          3.3 
      386.00        3.667          3.3 
      387.00        0.167          2.8 
      388.00        0.167          3.1 
      389.00        0.133          3.2 
      390.00        0.167          3.1 
      391.00        0.167          3.1 
      392.00        0.133          3.4 
      393.00        0.167          3.1 
      394.00        0.133          2.8 
      395.00        0.167          3.4 
      396.00        0.133          2.7 
      397.00        0.133          2.8 
      398.00        0.167          3.3 
      399.00        0.267          3.1 
      400.00        0.133          2.9 
      401.00        0.200          3.4 
      402.00        0.167          3.3 
      403.00        0.133          3.0 
      404.00        0.133          2.7 
      405.00        0.133          2.8 
      406.00        0.150          3.2 
      407.00        0.133          3.3 
      408.00        0.167          3.0 
      409.00        0.133          3.1 
      410.00        0.167          3.5 
      411.00        0.167          2.3 
      412.00        0.133          2.3 
      413.00        0.167          2.1 
      414.00        0.067          2.0 
      415.00        0.200          2.5 
      416.00        2.883          2.4 
      417.00        0.200          1.7 
      418.00        0.133          1.1 
      419.00        0.200          1.8 
      420.00        0.133          1.2 
      421.00        0.133          1.7 
      422.00        0.133          1.9 
      423.00        0.133          1.8 
      424.00        0.133          1.7 
      425.00        0.167          1.1 
      426.00        0.200          1.6 
      427.00        0.167          1.2 
      428.00        0.167          1.2 
      429.00        0.167          1.6 
      430.00        0.200          1.9 
      431.00        0.217          1.9 
      432.00        0.200          1.9 
      433.00        0.167          1.5 
      434.00        0.167          1.4 
      435.00        0.167          1.6 
      436.00        0.200          1.7 
      437.00        0.200          1.8 
      438.00        0.167          1.8 
      439.00        0.200          1.3 
      440.00        0.200          1.7 
      441.00        0.167          1.7 
      442.00        0.133          1.7 
      443.00        0.133          1.9 
      444.00        0.133          2.3 
      445.00        0.233          1.7 
      446.00        2.550          2.2 
      447.00        0.267          1.7 
      448.00        0.233          1.9 
      449.00        0.167          1.3 
      450.00        0.167          1.5 
      451.00        0.133          1.7 
      452.00        0.133          1.8 
      453.00        0.100          1.4 
      454.00        0.167          1.3 
      455.00        0.133          1.5 
      456.00        0.217          1.7 
      457.00        0.133          1.2 
      458.00        0.100          1.0 
      459.00        0.133          1.8 
      460.00        0.200          1.4 
      461.00        0.133          1.3 
      462.00        0.167          1.7 
      463.00        0.133          1.7 
      464.00        0.133          1.2 
      465.00        0.100          1.6 
      466.00        0.133          1.2 
      467.00        0.133          1.6 
      468.00        0.133          1.8 
      469.00        0.133          1.8 
      470.00        0.100          1.3 
      471.00        0.167          1.5 
      472.00        0.200          1.9 
      473.00        0.200          2.3 
      474.00        0.233          1.8 
      475.00        0.233          1.5 
      476.00        2.483          2.1 
      477.00        0.333          2.2 
      478.00        0.167          2.0 
      479.00        0.133          2.1 
      480.00        0.133          1.8 
      481.00        0.200          2.5 
      482.00        0.183          2.3 
      483.00        0.167          2.3 
      484.00        0.167          2.3 
      485.00        0.133          2.4 
      486.00        0.167          2.2 
      487.00        0.133          2.1 
      488.00        0.233          1.7 
      489.00        0.167          1.4 
      490.00        0.167          1.9 
      491.00        0.167          2.0 
      492.00        0.167          1.3 
      493.00        0.167          1.3 
      494.00        0.167          1.9 
      495.00        0.133          1.9 
      496.00        0.167          1.9 
      497.00        0.133          1.7 
      498.00        0.133          1.5 
      499.00        0.200          2.0 
      500.00        0.167          1.5 
      501.00        0.167          1.9 
      502.00        0.217          1.8 
      503.00        0.167          1.3 
      504.00        0.200          1.8 
      505.00        0.200          1.5 
      506.00        3.217          1.9 
      507.00        0.233          2.2 
      508.00        0.133          1.7 
      509.00        0.100          1.5 
      510.00        0.133          2.3 
      511.00        0.067          1.9 
      512.00        0.100          1.6 
      513.00        0.100          2.3 
      514.00        0.067          2.1 
      515.00        0.133          2.1 
      516.00        0.133          2.2 
      517.00        0.167          1.5 
      518.00        0.133          1.9 
      519.00        0.133          1.8 
      520.00        0.167          1.9 
      521.00        0.233          1.3 
      522.00        0.133          1.9 
      523.00        0.133          1.6 
      524.00        0.133          1.8 
      525.00        0.100          1.4 
      526.00        0.217          1.2 
      527.00        0.167          1.4 
      528.00        0.100          1.4 
      529.00        0.167          1.6 
      530.00        0.233          1.2 
      531.00        0.167          1.0 
      532.00        0.133          1.0 
      533.00        0.167          1.6 
      534.00        0.133          1.6 
      535.00        0.100          1.4 
      536.00        3.283          1.6 
      537.00        0.167          1.1 
      538.00        0.067          0.8 
      539.00        0.100          1.3 
      540.00        0.100          1.2 
      541.00        0.167          1.5 
      542.00        0.200          1.7 
      543.00        0.200          2.6 
      544.00        0.333          2.9 
      545.00        0.267          2.8 
