~Version Information
VERS.                      2.0: CWLS Log ASCII Standard - VERSION 2.0
WRAP.                       NO: One line per depth step
~Well Information Block
STRT.FT               250.0000: 
STOP.FT              1017.5000: 
STEP.FT                 0.1000: 
NULL.                -999.2500: 
COMP.          Pioneer Natural Resources: COMPANY
WELL.              Oscar 41-31: WELL
FLD.           Purgatoire River: FIELD
LOC.           412' FNL & 1216' FEL: LOCATION
PROV.                 Colorado: PROVINCE
CNTY.               Las Animas: COUNTRY
SRVC.                Patterson: SERVICE COMPANY
DATE.          Thu Feb 24 15:11:09 2005: LOG DATE
UWI.           05 071 08290 00: UNIQUE WELL ID
~Curve Information Block
DEPT.FT            0 000 00 00: Depth
DCAL.in                       : CDL Caliper
RHOB.g/cc                     : CDL Bulk Density
RHOC.g/cc                     : CDL Density Correction
DPOR.pu                       : CDL Density Porosity
GR.GAPI                       : Gamma Ray
NPOR.pu                       : Neutron Porosity
~Parameter Information Block
~A  Depth       DCAL        RHOB        RHOC        DPOR         GR         NPOR    
# ...
   854.8000      7.8669      2.5474      0.0420      6.2162     72.4794     17.0419
   854.9000      7.8669      2.5517      0.0847      5.9579     76.3908     16.9837
   855.0000      7.8676      2.5639      0.1119      5.2186     76.3507     17.2345
   855.1000      7.8676      2.5681      0.0704      4.9620     73.6696     17.5653
   855.2000      7.8676      2.5701      0.0737      4.8424     69.7828     17.7761
   855.3000      7.8780      2.5751      0.0718      4.5374     65.0052     17.9501
   855.4000      7.8780      2.5833      0.0891      4.0449     61.5283     18.3179
   855.5000      7.8849      2.5954      0.0746      3.3114     62.2709     18.9051
   855.6000      7.8849      2.6101      0.1274      2.4158     65.8448     19.4330
   855.7000      7.8849      2.6240      0.1000      1.5765     68.6471     19.6159
   855.8000      7.8868      2.6364      0.1146      0.8257     69.5796     19.5297
   855.9000      7.8868      2.6443      0.1065      0.3425     70.0739     19.2541
   856.0000      7.8881      2.6415      0.1062      0.5134     72.6775     18.6811
   856.1000      7.8881      2.6278      0.0890      1.3456     79.1183     17.6741
   856.2000      7.8881      2.6066      0.0759      2.6279     86.5257     16.2504
   856.3000      7.8888      2.5732      0.0652      4.6538     89.5318     15.0725
   856.4000      7.8888      2.5235      0.0561      7.6646     89.3733     14.9245
   856.5000      7.8882      2.4676      0.0198     11.0549     94.3104     15.4706
   856.6000      7.8882      2.4168     -0.0176     14.1342    105.6422     15.8086
   856.7000      7.8882      2.3791     -0.0498     16.4160    115.6907     16.0237
   856.8000      7.8885      2.3696     -0.0683     16.9931    121.7266     16.7187
   856.9000      7.8885      2.3953     -0.0017     15.4351    128.2542     17.6332
   857.0000      7.8880      2.4410      0.0645     12.6641    135.3740     18.1539
   857.1000      7.8880      2.4827      0.1121     10.1419    136.8201     18.3329
   857.2000      7.8880      2.5016      0.1801      8.9934    132.4979     18.6391
   857.3000      7.8843      2.4975      0.2000      9.2403    129.7095     19.1353
   857.4000      7.8843      2.4906      0.1968      9.6593    131.3285     19.4596
   857.5000      7.8761      2.4972      0.2190      9.2636    134.5601     19.4299
   857.6000      7.8761      2.5094      0.1761      8.5204    136.1137     19.1525
   857.7000      7.8761      2.5052      0.1617      8.7785    132.8296     18.4980
   857.8000      7.8722      2.4803      0.1199     10.2844    125.5064     17.1789
   857.9000      7.8722      2.4533      0.1005     11.9190    119.2335     15.6006
   858.0000      7.8866      2.4253      0.1354     13.6202    115.9137     14.3624
   858.1000      7.8866      2.3716      0.1290     16.8749    115.6302     13.5522
   858.2000      7.8866      2.2843      0.0749     22.1658    117.5369     12.8981
   858.3000      7.9227      2.1811      0.0287     28.4182    117.4579     12.4842
   858.4000      7.9227      2.0698      0.0188     35.1656    115.7226     12.6749
   858.5000      7.9761      1.9552     -0.0920     42.1091    115.8352     13.4941
   858.6000      7.9761      1.8650     -0.1358     47.5746    116.3413     14.5026
   858.7000      7.9761      1.8179     -0.1184     50.4291    113.0973     15.3101
   858.8000      8.0108      1.8017     -0.0319     51.4139    107.4844     15.9090
   858.9000      8.0108      1.7979     -0.0002     51.6397    106.3614     15.9032
   859.0000      8.0206      1.8039      0.0182     51.2774    109.8868     14.9567
   859.1000      8.0206      1.8281      0.0491     49.8112    113.0162     13.7248
   859.2000      8.0206      1.8737      0.0839     47.0481    112.7329     12.8712
   859.3000      8.0226      1.9286      0.1469     43.7213    107.6810     12.5577
   859.4000      8.0226      1.9753      0.1737     40.8932    102.0711     12.7176
   859.5000      8.0309      2.0074      0.1732     38.9454    100.7837     13.1387
   859.6000      8.0309      2.0268      0.1939     37.7697    101.9125     13.2244
   859.7000      8.0309      2.0267      0.2011     37.7784    101.6604     12.5819
   859.8000      8.0762      1.9990      0.1657     39.4526     99.7093     11.7619
   859.9000      8.0762      1.9498      0.1740     42.4378     97.6045     11.4408
   860.0000      8.1551      1.8919      0.1857     45.9426     97.0634     11.8335
   860.1000      8.1551      1.8358      0.1668     49.3456     98.3886     12.6797
   860.2000      8.1551      1.7832      0.1883     52.5345    100.3131     13.3149
   860.3000      8.1995      1.7372      0.0642     55.3210    103.3979     13.7389
   860.4000      8.1995      1.7095      0.0417     57.0030    108.0326     14.4572
   860.5000      8.1860      1.7035      0.0465     57.3648    113.6376     14.8894
   860.6000      8.1860      1.7142      0.0302     56.7168    120.3276     14.3210
   860.7000      8.1860      1.7396      0.0405     55.1767    123.8556     13.3627
   860.8000      8.1441      1.7832      0.0631     52.5338    121.0275     12.8942
   860.9000      8.1441      1.8475      0.0911     48.6337    115.0062     13.0149
   861.0000      8.1398      1.9163      0.1504     44.4680    109.8641     13.0217
   861.1000      8.1398      1.9597      0.1533     41.8382    104.9799     12.2640
   861.2000      8.1398      1.9667      0.1517     41.4092     97.3012     10.9795
   861.3000      8.2130      1.9403      0.2443     43.0107     90.7104      9.8606
   861.4000      8.2130      1.8782      0.2462     46.7758     88.0568      9.0648
   861.5000      8.3152      1.7839      0.2130     52.4895     83.7601      8.4341
   861.6000      8.3152      1.6763      0.1117     59.0150     74.6873      8.1836
   861.7000      8.3152      1.5804      0.0863     64.8241     63.8097      8.2825
   861.8000      8.3905      1.5120      0.0669     68.9700     56.5280      8.3424
   861.9000      8.3905      1.4752      0.0806     71.1999     57.8997      8.5598
   862.0000      8.4284      1.4649      0.1336     71.8247     65.6504      9.4269
   862.1000      8.4284      1.4713      0.1721     71.4337     71.1769     10.8191
   862.2000      8.4284      1.4966      0.2176     69.9046     71.7636     12.1800
   862.3000      8.4177      1.5500      0.2911     66.6678     72.4620     13.3560
   862.4000      8.4177      1.6287      0.2908     61.8971     76.7696     14.7228
   862.5000      8.3789      1.7201      0.3085     56.3588     85.3209     16.0735
   862.6000      8.3789      1.8220      0.3112     50.1816     97.0561     16.7956
   862.7000      8.3789      1.9453      0.3375     42.7116    107.4398     17.5534
   862.8000      8.3184      2.0799      0.4092     34.5529    111.4830     19.3986
   862.9000      8.3184      2.1984      0.4147     27.3719    111.1195     21.5582
   863.0000      8.1776      2.3011      0.3832     21.1461    114.3358     22.7288
   863.1000      8.1776      2.3970      0.3871     15.3311    122.7054     23.3120
   863.2000      8.1776      2.4650      0.3644     11.2129    129.2704     24.0750
   863.3000      7.9686      2.4923      0.2410      9.5569    130.9722     24.6141
   863.4000      7.9686      2.4994      0.2000      9.1254    130.0289     24.5360
   863.5000      7.8211      2.4992      0.2110      9.1372    126.6112     24.4429
   863.6000      7.8211      2.4827      0.1913     10.1396    121.0981     24.3282
   863.7000      7.8211      2.4537      0.0810     11.8976    116.7877     23.8119
   863.8000      7.7680      2.4399      0.0423     12.7344    117.7477     23.1401
   863.9000      7.7680      2.4503      0.0924     12.1036    125.0561     22.6932
   864.0000      7.7563      2.4599      0.1313     11.5194    134.9899     22.9150
   864.1000      7.7563      2.4606      0.0703     11.4801    141.9225     23.5033
   864.2000      7.7563      2.4772      0.0883     10.4726    141.4333     23.7160
   864.3000      7.7540      2.5113      0.1812      8.4046    133.6361     23.5061
