~Version Information
VERS.                      2.0: CWLS Log ASCII Standard - VERSION 2.0
WRAP.                       NO: One line per depth step
~Well Information Block
STRT.FT                15.0000: 
STOP.FT              2265.2500: 
STEP.FT                 0.2500: 
NULL.                -999.2500: 
COMP.          Pioneer Natural Resources: COMPANY
WELL.             Vector 33-23: WELL
FLD.           Purgatoire River: FIELD
LOC.           1988' FSL & 1560' FEL: LOCATION
PROV.                 Colorado: PROVINCE
CNTY.               Las Animas: COUNTRY
SRVC.                Patterson: SERVICE COMPANY
DATE.          Fri Apr 01 13:14:24 2005: LOG DATE
UWI.           05 071 08336 00: UNIQUE WELL ID
~Curve Information Block
DEPT.FT            0 000 00 00: Depth
GR.GAPI                       : Gamma Ray
CCL.                          : Casing Collar Locator
TT3.usec                      : CBL 3' Travel Time
AMP3.mV                       : CBL 3' Amplitude
AMP5.mV                       : CBL 5' Amplitude
~Parameter Information Block
~A  Depth        GR         CCL         TT3         AMP3        AMP5    
# ...
  1331.0000     64.0149      0.0000    793.9227      9.1447      1.0240
  1331.2500     62.0552      0.0000    785.2684      9.1117      1.0246
  1331.5000     61.7786      0.0000    764.3445      9.0797      1.0281
  1331.7500     62.3893      0.0000    724.5964      9.0489      1.0293
  1332.0000     62.6030      0.0000    666.0532      9.0218      1.0233
  1332.2500     61.6902      0.0000    600.8737      8.9989      1.0090
  1332.5000     59.8774      0.0000    549.9099      8.9783      0.9906
  1332.7500     57.9278      0.0000    530.3635      8.9570      0.9737
  1333.0000     56.4253      0.0000    545.4673      8.9329      0.9624
  1333.2500     55.5084      0.0000    585.6960      8.9071      0.9584
  1333.5000     55.2399      0.0000    637.7165      8.8840      0.9605
  1333.7500     55.9096      0.0000    690.3181      8.8704      0.9652
  1334.0000     57.7583      0.0000    734.9156      8.8705      0.9690
  1334.2500     60.5907      0.0000    766.1931      8.8836      0.9715
  1334.5000     63.9765      0.0000    783.8887      8.9071      0.9758
  1334.7500     67.9152      0.0000    791.9011      8.9430      0.9862
  1335.0000     73.0031      0.0000    794.9009      9.0012      1.0028
  1335.2500     79.5571      0.0000    795.9616      9.0921      1.0218
  1335.5000     86.6460      0.0000    796.4309      9.2168      1.0387
  1335.7500     92.5212      0.0000    796.7468      9.3643      1.0518
  1336.0000     96.2238      0.0000    796.9953      9.5160      1.0613
  1336.2500     98.3448      0.0000    797.1693      9.6542      1.0692
  1336.5000    100.0382      0.0000    797.1726      9.7722      1.0780
  1336.7500    101.8099      0.0000    796.7970      9.8789      1.0899
  1337.0000    103.5995      0.0000    795.6601      9.9898      1.1057
  1337.2500    105.5891      0.0000    793.2643     10.1110      1.1255
  1337.5000    108.2520      0.0000    789.4395     10.2343      1.1479
  1337.7500    111.5528      0.0000    785.0390     10.3442      1.1700
  1338.0000    114.6055      0.0000    781.9832     10.4264      1.1873
  1338.2500    116.4380      0.0000    781.9846     10.4716      1.1968
  1338.5000    116.9471      0.0000    785.0107     10.4770      1.1988
  1338.7500    116.9520      0.0000    789.3178     10.4475      1.1959
  1339.0000    117.3138      0.0000    793.0319     10.3940      1.1902
  1339.2500    118.0766      0.0000    795.4083     10.3269      1.1803
  1339.5000    118.4663      0.0000    796.7104     10.2480      1.1634
  1339.7500    117.5693      0.0000    797.4300     10.1519      1.1390
  1340.0000    114.9053      0.0000    797.8344     10.0330      1.1115
  1340.2500    110.5737      0.0000    797.9982      9.8920      1.0868
  1340.5000    105.1042      0.0000    797.9730      9.7312      1.0673
  1340.7500     99.1879      0.0000    797.8606      9.5440      1.0509
  1341.0000     93.5248      0.0000    797.8082      9.3101      1.0346
  1341.2500     88.7490      0.0000    798.0580      9.0094      1.0195
  1341.5000     85.1678      0.0000    799.1013      8.6493      1.0099
  1341.7500     82.5032      0.0000    801.7429      8.2722      1.0077
  1342.0000     80.0625      0.0000    806.7344      7.9315      1.0094
  1342.2500     77.1715      0.0000    813.9957      7.6673      1.0085
  1342.5000     73.4787      0.0000    822.1903      7.5053      0.9996
  1342.7500     69.1767      0.0000    829.3956      7.4621      0.9824
  1343.0000     65.2204      0.0000    834.3758      7.5329      0.9629
  1343.2500     63.3003      0.0000    837.1611      7.6767      0.9474
  1343.5000     65.2380      0.0000    838.4941      7.8298      0.9369
  1343.7500     71.9060      0.0000    838.9442      7.9452      0.9246
  1344.0000     82.2861      0.0000    838.4835      8.0188      0.9003
  1344.2500     93.4364      0.0000    836.6951      8.0711      0.8579
  1344.5000    101.6405      0.0000    833.3409      8.0944      0.7993
  1344.7500    104.2554      0.0000    828.8555      8.0230      0.7327
  1345.0000    101.1598      0.0000    824.2254      7.7807      0.6673
  1345.2500     94.7154      0.0000    820.3103      7.3844      0.6122
  1345.5000     88.1325      0.0000    817.4419      6.9786      0.5769
  1345.7500     83.4637      0.0000    816.0024      6.7204      0.5663
  1346.0000     80.8574      0.0000    817.0666      6.6378      0.5758
  1346.2500     79.3359      0.0000    821.4379      6.6442      0.5953
  1346.5000     77.8986      0.0000    827.5442      6.6648      0.6169
  1346.7500     75.9737      0.0000    831.3999      6.6898      0.6368
  1347.0000     73.5339      0.0000    829.9844      6.7260      0.6528
  1347.2500     71.2192      3.0000    824.3036      6.7669      0.6632
  1347.5000     70.0076      0.0000    818.4108      6.8200      0.6694
  1347.7500     70.4500      0.0000    816.0499      6.9410      0.6753
  1348.0000     72.3144      0.0000    818.6583      7.2225      0.6840
  1348.2500     74.9831      0.0000    825.3954      7.7187      0.6950
  1348.5000     78.0041      0.0000    833.7615      8.3494      0.7071
  1348.7500     81.2545      0.0000    840.6365      8.9106      0.7254
  1349.0000     84.6633      0.0000    844.0339      9.2282      0.7628
  1349.2500     87.7631      0.0000    844.2443      9.2895      0.8275
  1349.5000     89.6819      0.0000    842.9799      9.2013      0.9070
  1349.7500     89.9198      0.0000    841.5849      9.0664      0.9713
  1350.0000     89.0728      0.0000    840.1400      8.9312      0.9968
  1350.2500     88.3266      0.0000    837.8847      8.8134      0.9867
  1350.5000     88.1654      0.0000    834.2877      8.7312      0.9640
  1350.7500     88.0640      0.0000    830.0584      8.7048      0.9483
  1351.0000     87.7867      0.0000    827.1821      8.7397      0.9423
  1351.2500     88.5369      0.0000    827.4234      8.8150      0.9374
  1351.5000     92.1368      0.0000    830.5674      8.8902      0.9268
  1351.7500     98.9881      0.0000    834.4345      8.9295      0.9122
  1352.0000    107.1667      0.0000    836.7390      8.9220      0.8992
  1352.2500    113.7341      0.0000    836.9659      8.8788      0.8902
  1352.5000    116.9210      0.0000    836.9420      8.8136      0.8839
  1352.7500    117.1148      0.0000    840.0627      8.7315      0.8793
  1353.0000    115.9364      0.0000    849.4572      8.6367      0.8781
  1353.2500    114.7146      0.0000    865.4294      8.5416      0.8824
  1353.5000    114.0122      0.0000    883.3707      8.4649      0.8914
  1353.7500    114.1075      0.0000    894.9470      8.4205      0.9000
  1354.0000    115.1453      0.0000    894.0555      8.4054      0.9025
  1354.2500    116.6975      0.0000    883.0300      8.3986      0.8958
  1354.5000    117.5466      0.0000    871.4238      8.3762      0.8809
  1354.7500    116.3412      0.0000    867.2902      8.3291      0.8600
  1355.0000    112.7588      0.0000    870.3621      8.2629      0.8352
  1355.2500    107.9826      0.0000    874.3064      8.1840      0.8099
  1355.5000    103.9482      0.0000    874.2301      8.0915      0.7896
  1355.7500    102.3471      0.0000    870.4575      7.9827      0.7790
  1356.0000    104.3272      0.0000    865.9999      7.8656      0.7788
  1356.2500    110.4551      0.0000    863.2188      7.7661      0.7863
  1356.5000    120.2669      0.0000    863.4255      7.7143      0.7976
  1356.7500    131.8914      0.0000    866.8871      7.7138      0.8117
  1357.0000    142.5171      0.0000    871.4082      7.7289      0.8293
  1357.2500    149.5659      0.0000    872.6667      7.7146      0.8495
  1357.5000    151.7487      0.0000    867.9949      7.6605      0.8668
  1357.7500    149.2495      0.0000    859.1998      7.5953      0.8738
  1358.0000    143.1012      0.0000    850.5568      7.5489      0.8679
  1358.2500    134.8037      0.0000    844.8918      7.5212      0.8533
  1358.5000    126.6238      0.0000    842.3102      7.4906      0.8361
  1358.7500    121.4274      0.0000    841.5978      7.4428      0.8197
