~Version Information
VERS.                      2.0: CWLS Log ASCII Standard - VERSION 2.0
WRAP.                       NO: One line per depth step
~Well Information Block
STRT.FT               221.2000: 
STOP.FT              2260.4000: 
STEP.FT                 0.1000: 
NULL.                -999.2500: 
COMP.          Petrogulf Corporation: COMPANY
WELL.          Anderson 18-43V: WELL
FLD.           Purgatorie River: FIELD
LOC.           1782' FSL & 887' FEL--: LOCATION
CNTY.               Las Animas: COUNTY
SRVC.                         : SERVICE COMPANY
DATE.          Mon Sep 13 14:11:09 2004: LOG DATE
UWI.                          : UNIQUE WELL ID
STAT.                       CO: STATE
~Curve Information Block
DEPT.FT            0 000 00 00: Depth
TT3.usec                      : CBL 3' Travel Time
AMP3.mV                       : CBL 3' Amplitude
GR.GAPI                       : Gamma Ray
CCL.                          : Casing Collar Locator
~Parameter Information Block
~A  Depth       TT3         AMP3         GR         CCL     
# ...
  1574.6000    632.4222      2.0993     39.4644      0.0000
  1574.7000    632.4222      2.0993     39.4644      0.0000
  1574.8000    636.9610      1.9622     34.9101      0.0000
  1574.9000    636.9610      1.9622     34.9101      0.0000
  1575.0000    641.1646      1.8819     31.5577      0.0000
  1575.1000    641.1646      1.8819     31.5577      0.0000
  1575.2000    641.1646      1.8819     31.5577      0.0000
  1575.3000    644.2681      1.8547     30.1378      0.0000
  1575.4000    644.2681      1.8547     30.1378      0.0000
  1575.5000    646.6824      1.8700     30.7764      0.0000
  1575.6000    646.6824      1.8700     30.7764      0.0000
  1575.7000    646.6824      1.8700     30.7764      0.0000
  1575.8000    649.6482      1.9160     32.8860      0.0000
  1575.9000    649.6482      1.9160     32.8860      0.0000
  1576.0000    654.8056      1.9801     35.1704      0.0000
  1576.1000    654.8056      1.9801     35.1704      0.0000
  1576.2000    654.8056      1.9801     35.1704      0.0000
  1576.3000    663.4788      2.0498     36.1197      0.0000
  1576.4000    663.4788      2.0498     36.1197      0.0000
  1576.5000    675.4711      2.1193     35.0104      0.0000
  1576.6000    675.4711      2.1193     35.0104      0.0000
  1576.7000    675.4711      2.1193     35.0104      0.0000
  1576.8000    688.1895      2.1945     32.5518      0.0000
  1576.9000    688.1895      2.1945     32.5518      0.0000
  1577.0000    697.4503      2.2873     30.3107      0.0000
  1577.1000    697.4503      2.2873     30.3107      0.0000
  1577.2000    697.4503      2.2873     30.3107      0.0000
  1577.3000    699.9156      2.4009     29.4339      0.0000
  1577.4000    699.9156      2.4009     29.4339      0.0000
  1577.5000    695.2548      2.5207     30.0553      0.0000
  1577.6000    695.2548      2.5207     30.0553      0.0000
  1577.7000    695.2548      2.5207     30.0553      0.0000
  1577.8000    686.3784      2.6223     31.6596      0.0000
  1577.9000    686.3784      2.6223     31.6596      0.0000
  1578.0000    677.5829      2.6884     33.5425      0.0000
  1578.1000    677.5829      2.6884     33.5425      0.0000
  1578.2000    677.5829      2.6884     33.5425      0.0000
  1578.3000    671.6509      2.7167     35.0732      0.0000
  1578.4000    671.6509      2.7167     35.0732      0.0000
  1578.5000    668.1908      2.7151     35.9830      0.0000
  1578.6000    668.1908      2.7151     35.9830      0.0000
  1578.7000    668.1908      2.7151     35.9830      0.0000
  1578.8000    665.0566      2.6911     36.5281      0.0000
  1578.9000    665.0566      2.6911     36.5281      0.0000
  1579.0000    661.1882      2.6460     37.1933      0.0000
  1579.1000    661.1882      2.6460     37.1933      0.0000
  1579.2000    661.1882      2.6460     37.1933      0.0000
  1579.3000    657.1013      2.5786     38.1447      0.0000
  1579.4000    657.1013      2.5786     38.1447      0.0000
  1579.5000    652.7500      2.4962     39.0909      0.0000
  1579.6000    652.7500      2.4962     39.0909      0.0000
  1579.7000    652.7500      2.4962     39.0909      0.0000
  1579.8000    646.5377      2.4214     39.7928      0.0000
  1579.9000    646.5377      2.4214     39.7928      0.0000
  1580.0000    637.0992      2.3840     40.4878      0.0000
  1580.1000    637.0992      2.3840     40.4878      0.0000
  1580.2000    637.0992      2.3840     40.4878      0.0000
  1580.3000    624.6490      2.4027     41.6483      0.0000
  1580.4000    624.6490      2.4027     41.6483      0.0000
  1580.5000    609.8580      2.4698     43.6095      0.0000
  1580.6000    609.8580      2.4698     43.6095      0.0000
  1580.7000    609.8580      2.4698     43.6095      0.0000
  1580.8000    593.3795      2.5511     46.6787      0.0000
  1580.9000    593.3795      2.5511     46.6787      0.0000
  1581.0000    578.0415      2.6027     51.1947      0.0000
  1581.1000    578.0415      2.6027     51.1947      0.0000
  1581.2000    578.0415      2.6027     51.1947      0.0000
  1581.3000    569.6609      2.5943     56.9621      0.0000
  1581.4000    569.6609      2.5943     56.9621      0.0000
  1581.5000    573.2556      2.5256     62.7604      0.0000
  1581.6000    573.2556      2.5256     62.7604      0.0000
  1581.7000    573.2556      2.5256     62.7604      0.0000
  1581.8000    588.3943      2.4259     66.8402      0.0000
  1581.9000    588.3943      2.4259     66.8402      0.0000
  1582.0000    609.1711      2.3387     68.1402      0.0000
  1582.1000    609.1711      2.3387     68.1402      0.0000
  1582.2000    609.1711      2.3387     68.1402      0.0000
  1582.3000    628.8260      2.3014     67.2284      0.0000
  1582.4000    628.8260      2.3014     67.2284      0.0000
  1582.5000    644.2985      2.3287     66.2805      0.0000
  1582.6000    644.2985      2.3287     66.2805      0.0000
  1582.7000    644.2985      2.3287     66.2805      0.0000
  1582.8000    656.6225      2.4067     67.9734      0.0000
  1582.9000    656.6225      2.4067     67.9734      0.0000
  1583.0000    667.6770      2.5017     73.7824      0.0000
  1583.1000    667.6770      2.5017     73.7824      0.0000
  1583.2000    667.6770      2.5017     73.7824      0.0000
  1583.3000    677.3306      2.5865     83.1122      0.0000
  1583.4000    677.3306      2.5865     83.1122      0.0000
  1583.5000    684.0737      2.6639     94.2838      0.0000
  1583.6000    684.0737      2.6639     94.2838      0.0000
  1583.7000    684.0737      2.6639     94.2838      0.0000
  1583.8000    687.6439      2.7623    106.0393      0.0000
  1583.9000    687.6439      2.7623    106.0393      0.0000
  1584.0000    689.7776      2.9023    117.3821      0.0000
  1584.1000    689.7776      2.9023    117.3821      0.0000
  1584.2000    689.7776      2.9023    117.3821      0.0000
  1584.3000    692.5893      3.0705    126.5670      0.0000
  1584.4000    692.5893      3.0705    126.5670      0.0000
  1584.5000    697.2735      3.2307    131.6719      0.0000
  1584.6000    697.2735      3.2307    131.6719      0.0000
  1584.7000    697.2735      3.2307    131.6719      0.0000
  1584.8000    704.0581      3.3577    132.1673      0.0000
  1584.9000    704.0581      3.3577    132.1673      0.0000
  1585.0000    712.0182      3.4606    129.1384      0.0000
  1585.1000    712.0182      3.4606    129.1384      0.0000
  1585.2000    712.0182      3.4606    129.1384      0.0000
  1585.3000    718.7587      3.5670    124.3962      0.0000
  1585.4000    718.7587      3.5670    124.3962      2.0000
  1585.5000    721.2736      3.6812    119.9188     -2.0000
  1585.6000    721.2736      3.6812    119.9188      0.0000
  1585.7000    721.2736      3.6812    119.9188      0.0000
  1585.8000    717.9718      3.7604    117.3196      0.0000
  1585.9000    717.9718      3.7604    117.3196      0.0000
  1586.0000    710.2667      3.7522    116.9904      0.0000
  1586.1000    710.2667      3.7522    116.9904      0.0000
  1586.2000    710.2667      3.7522    116.9904      0.0000
  1586.3000    702.0546      3.6593    118.0031      0.0000
  1586.4000    702.0546      3.6593    118.0031      0.0000
  1586.5000    697.1288      3.5504    119.2366      0.0000
  1586.6000    697.1288      3.5504    119.2366      0.0000
  1586.7000    697.1288      3.5504    119.2366      0.0000
  1586.8000    696.4702      3.4929    120.4747      0.0000
  1586.9000    696.4702      3.4929    120.4747      0.0000
  1587.0000    697.6443      3.4846    122.2898      0.0000
  1587.1000    697.6443      3.4846    122.2898      0.0000
  1587.2000    697.6443      3.4846    122.2898      0.0000
  1587.3000    696.8809      3.4669    124.9104      0.0000
  1587.4000    696.8809      3.4669    124.9104      0.0000
  1587.5000    692.1803      3.3918    127.3850      0.0000
  1587.6000    692.1803      3.3918    127.3850      0.0000
  1587.7000    692.1803      3.3918    127.3850      0.0000
  1587.8000    684.6252      3.2601    128.2040      0.0000
  1587.9000    684.6252      3.2601    128.2040      0.0000
