~Version Information
VERS.                      2.0: CWLS Log ASCII Standard - VERSION 2.0
WRAP.                       NO: One line per depth step
~Well Information Block
STRT.FT                -7.7500: 
STOP.FT              1383.2500: 
STEP.FT                 0.2500: 
NULL.                -999.2500: 
COMP.          Petrogulf Corporation: COMPANY
WELL.          Great Plains 22-22R: WELL
FLD.           Purgatoire River: FIELD
LOC.           2042' FNL & 1657' FWL SENW 22 33S 67W ----: LOCATION
PROV.                 Colorado: PROVINCE
CNTY.               Las Animas: COUNTRY
SRVC.                         : SERVICE COMPANY
DATE.          Thu Sep 22 14:55:58 2005: LOG DATE
UWI.             07108028     : UNIQUE WELL ID
~Curve Information Block
DEPT.FT            0 000 00 00: Depth
CCL.                          : Casing Collar Locator
TT3.usec                      : CBL 3' Travel Time
AMP3.mV                       : CBL 3' Amplitude
GR.GAPI                       : Gamma Ray
~Parameter Information Block
~A  Depth       CCL         TT3         AMP3         GR     
# ...
   159.7500      0.0000    346.9391      8.2908    113.9260
   160.0000      0.0000    353.9343      8.8052    112.2505
   160.2500      0.0000    361.0787      9.3144    108.5267
   160.5000      0.0000    367.6256      9.6918    102.8811
   160.7500      0.0000    373.0037      9.9240     95.5555
   161.0000      0.0000    376.8915     10.0717     87.5041
   161.2500      0.0000    379.4865     10.1818     80.7757
   161.5000      0.0000    381.6437     10.2427     77.8184
   161.7500      0.0000    384.7187     10.2192     79.9195
   162.0000      0.0000    389.8689     10.1212     86.1361
   162.2500      0.0000    396.5431     10.0258     94.0392
   162.5000      0.0000    401.2578     10.0204    101.6847
   162.7500      0.0000    399.1380     10.1294    108.4594
   163.0000      0.0000    388.2274     10.3110    113.8076
   163.2500      0.0000    371.9603     10.5240    116.0960
   163.5000      0.0000    356.4115     10.7772    113.9288
   163.7500      0.0000    345.5500     11.0991    108.4116
   164.0000      0.0000    339.6124     11.4790    102.9618
   164.2500      0.0000    336.8625     11.8650    100.3561
   164.5000      0.0000    335.6526     12.2277    100.4313
   164.7500      0.0000    335.1108     12.6170    100.9808
   165.0000      0.0000    334.9217     13.1438    100.4030
   165.2500      0.0000    334.9954     13.8814     98.9119
   165.5000      0.0000    335.2682     14.7627     97.5697
   165.7500      0.0000    335.6487     15.5835     97.0707
   166.0000      0.0000    336.0292     16.1352     97.5721
   166.2500      0.0000    336.3285     16.3408     98.9341
   166.5000      0.0000    336.5041     16.2615    100.6626
   166.7500      0.0000    336.5259     15.9997    101.9025
   167.0000      0.0000    336.3725     15.6307    101.8901
   167.2500      0.0000    336.0770     15.2136    100.5393
   167.5000      0.0000    335.7531     14.8181     98.6338
   167.7500      0.0000    335.5407     14.5068     97.4676
   168.0000      0.0000    335.5133     14.2897     97.9638
   168.2500      0.0000    335.6389     14.1067     99.7004
   168.5000      0.0000    335.8196     13.8675    100.8884
   168.7500      0.0000    335.9679     13.5199     99.6961
   169.0000      0.0000    336.0602     13.0898     95.6816
   169.2500      0.0000    336.1320     12.6553     90.0226
   169.5000      0.0000    336.2602     12.2765     84.8389
   169.7500      0.0000    336.6263     11.9519     82.2785
   170.0000      0.0000    337.6497     11.6431     83.3366
   170.2500      0.0000    339.9908     11.3383     87.0055
   170.5000      0.0000    344.1063     11.0838     90.9142
   170.7500      0.0000    349.4955     10.9595     93.0647
   171.0000      0.0000    354.4793     11.0300     93.0297
   171.2500      0.0000    357.1283     11.3137     91.7854
   171.5000      0.0000    356.5491     11.7825     90.6610
   171.7500      0.0000    353.2588     12.3739     90.4371
   172.0000      0.0000    348.6619     12.9932     91.2857
   172.2500      0.0000    344.4265     13.5203     93.1111
   172.5000      0.0000    342.0544     13.8534     95.5668
   172.7500      0.0000    342.5705     13.9714     98.0241
   173.0000      0.0000    346.2145     13.9496     99.8565
   173.2500      0.0000    351.9781     13.9128    100.5767
   173.5000      0.0000    357.4373     13.9761     99.7724
   173.7500      0.0000    359.7612     14.2028     97.4194
   174.0000      0.0000    357.6161     14.5791     94.3149
   174.2500      0.0000    352.2195     15.0151     91.7945
   174.5000      0.0000    346.4229     15.3874     90.7070
   174.7500      0.0000    342.8878     15.5974     90.5745
   175.0000      0.0000    343.0595     15.6076     89.9518
   175.2500      0.0000    347.1460     15.4557     87.9207
   175.5000      0.0000    354.1914     15.2522     85.1129
   175.7500      0.0000    362.0742     15.1384     82.9928
   176.0000      0.0000    368.2854     15.2002     82.2338
   176.2500      0.0000    371.6000     15.4096     81.9656
   176.5000      0.0000    373.4018     15.6479     80.5449
   176.7500      0.0000    377.2733     15.7793     77.0873
   177.0000      0.0000    386.6475     15.7095     72.4615
   177.2500      0.0000    401.9077     15.4181     68.8186
   177.5000      0.0000    419.4659     14.9767     67.9636
   177.7500      0.0000    434.2154     14.5255     70.0245
   178.0000      0.0000    442.9757     14.1963     73.6933
   178.2500      0.0000    445.0988     14.0377     77.7128
   178.5000      0.0000    440.6307     14.0014     81.8164
   178.7500      0.0000    429.8738     13.9812     86.1064
   179.0000      0.0000    414.8811     13.8715     90.0260
   179.2500      0.0000    399.4644     13.6275     92.4781
   179.5000      0.0000    386.8896     13.2978     92.7923
   179.7500      0.0000    378.3431     12.9927     91.3161
   180.0000      0.0000    373.7775     12.8152     89.1247
   180.2500      0.0000    372.8705     12.8186     87.2219
   180.5000      0.0000    374.3289     13.0078     85.8695
   180.7500      0.0000    375.3508     13.3458     84.6080
   181.0000      0.0000    373.6707     13.7513     82.9195
   181.2500      0.0000    370.6709     14.1086     80.8161
   181.5000      0.0000    371.2342     14.3030     78.7650
   181.7500      0.0000    379.2477     14.2728     77.1592
   182.0000      0.0000    393.0748     14.0596     75.9852
   182.2500      0.0000    405.8868     13.8075     74.9647
   182.5000      0.0000    410.6758     13.6780     73.9517
   182.7500      0.0000    405.1002     13.7443     73.1681
   183.0000      0.0000    392.1823     13.9743     73.0646
   183.2500      0.0000    377.3972     14.2918     73.9967
   183.5000      0.0000    365.2703     14.6247     76.1194
   183.7500      0.0000    357.6600     14.9126     79.5950
   184.0000      0.0000    354.2691     15.1059     84.6848
   184.2500      0.0000    354.5524     15.1582     91.4363
   184.5000      0.0000    358.6986     15.0294     99.2144
   184.7500      0.0000    366.1215     14.7270    106.5769
   185.0000      0.0000    373.6467     14.3353    111.8285
   185.2500      0.0000    377.0130     13.9615    114.0942
   185.5000      0.0000    374.6903     13.6472    113.9328
   185.7500      0.0000    368.8920     13.3637    112.6985
   186.0000      0.0000    362.4565     13.0866    111.4213
   186.2500      0.0000    356.3322     12.8315    110.5728
   186.5000      0.0000    350.7017     12.6144    110.4482
   186.7500      0.0000    347.0210     12.4087    110.9102
   187.0000      0.0000    348.0025     12.1434    110.8216
   187.2500      0.0000    355.7894     11.7386    108.6891
   187.5000      0.0000    369.7015     11.1681    104.2707
   187.7500      0.0000    385.1110     10.5090     99.1343
   188.0000      0.0000    395.5021      9.9203     95.5796
   188.2500      0.0000    397.1446      9.5462     95.2972
   188.5000      0.0000    391.5789      9.4234     98.7362
   188.7500      0.0000    383.1690      9.4648    104.9246
   189.0000      0.0000    375.4395      9.5152    111.6363
   189.2500      0.0000    370.5835      9.4244    116.4065
   189.5000      0.0000    371.2708      9.0868    118.1002
   189.7500      0.0000    380.8311      8.4447    117.5716
   190.0000      0.0000    399.9766      7.4912    116.5385
   190.2500      0.0000    422.8429      6.3029    115.8650
   190.5000      0.0000    438.2583      5.0592    115.0687
   190.7500      0.0000    437.9117      3.9808    113.2322
   191.0000      0.0000    423.5312      3.2145    110.0674
   191.2500      0.0000    404.5458      2.7753    106.2177
   191.5000      0.0000    389.4659      2.5807    102.8394
   191.7500      2.0000    380.8354      2.5201    100.8941
   192.0000     -2.0000    376.8578      2.5070    100.6379
   192.2500      0.0000    375.1326      2.5067    101.6715
   192.5000      0.0000    374.4337      2.5406    103.6257
   192.7500      0.0000    374.3927      2.6618    106.7363
   193.0000      0.0000    374.5941      2.9086    111.2069
