~Version Information
VERS.                      2.0: CWLS Log ASCII Standard - VERSION 2.0
WRAP.                       NO: One line per depth step
~Well Information Block
STRT.FT               800.0000: 
STOP.FT              1933.5000: 
STEP.FT                 0.2500: 
NULL.                -999.2500: 
COMP.          Pioneer Natural Resources: COMPANY
WELL.            Nova 11-14 Tr: WELL
FLD.           Purgatoire River: FIELD
LOC.           706' FNL & 1109' FWL: LOCATION
PROV.                 Colorado: PROVINCE
CNTY.               Las Animas: COUNTRY
SRVC.                Patterson: SERVICE COMPANY
DATE.          Wed Jul 20 23:28:11 2005: LOG DATE
UWI.           05 071 08434 00: UNIQUE WELL ID
~Curve Information Block
DEPT.FT            0 000 00 00: Depth
SN.Ohm-m                      : IEL Short Normal
SP.mV                         : IEL Spontaneous Potential
DIR.Ohm-m                     : IEL Induction Resistivity
GR.GAPI                       : Gamma Ray
~Parameter Information Block
~A  Depth        SN          SP         DIR          GR     
# ...
   867.0000   2000.0000   2000.0000     28.8118    143.1029
   867.2500   2000.0000   2000.0000     28.4659    139.7058
   867.5000   2000.0000   2000.0000     27.8936    128.2947
   867.7500   2000.0000   2000.0000     27.1977    118.8143
   868.0000   2000.0000   2000.0000     26.5221    107.1284
   868.2500   2000.0000   2000.0000     25.9899    103.1545
   868.5000   2000.0000   2000.0000     25.6721    103.1059
   868.7500   2000.0000   2000.0000     25.5892    105.6326
   869.0000   2000.0000   2000.0000     25.7277    110.5758
   869.2500   2000.0000   2000.0000     26.0550    113.6522
   869.5000   2000.0000   2000.0000     26.5275    117.3210
   869.7500   2000.0000   2000.0000     27.0908    119.1818
   870.0000   2000.0000   2000.0000     27.6785    121.4079
   870.2500   2000.0000   2000.0000     28.2115    122.5476
   870.5000   2000.0000   2000.0000     28.6081    123.4607
   870.7500   2000.0000   2000.0000     28.8043    123.5619
   871.0000   2000.0000   2000.0000     28.7750    123.8065
   871.2500   2000.0000   2000.0000     28.5366    124.5936
   871.5000   2000.0000   2000.0000     28.1363    126.6090
   871.7500   2000.0000   2000.0000     27.6382    127.8644
   872.0000   2000.0000   2000.0000     27.1122    128.8601
   872.2500   2000.0000   2000.0000     26.6157    129.1737
   872.5000   2000.0000   2000.0000     26.1729    129.9964
   872.7500   2000.0000   2000.0000     25.7699    130.8839
   873.0000   2000.0000   2000.0000     25.3744    132.0921
   873.2500   2000.0000   2000.0000     24.9683    132.5165
   873.5000   2000.0000   2000.0000     24.5664    132.8210
   873.7500   2000.0000   2000.0000     24.2046    133.1174
   874.0000   2000.0000   2000.0000     23.9121    133.8326
   874.2500   2000.0000   2000.0000     23.6909    134.3289
   874.5000   2000.0000   2000.0000     23.5201    134.9167
   874.7500   2000.0000   2000.0000     23.3765    135.2250
   875.0000   2000.0000   2000.0000     23.2498    135.5072
   875.2500   2000.0000   2000.0000     23.1371    135.4182
   875.5000   2000.0000   2000.0000     23.0289    134.6639
   875.7500   2000.0000   2000.0000     22.9048    133.8320
   876.0000   2000.0000   2000.0000     22.7443    132.5652
   876.2500   2000.0000   2000.0000     22.5376    132.0199
   876.5000   2000.0000   2000.0000     22.2843    131.9859
   876.7500   2000.0000   2000.0000     21.9841    132.5536
   877.0000   2000.0000   2000.0000     21.6315    134.3276
   877.2500   2000.0000   2000.0000     21.2192    136.0934
   877.5000   2000.0000   2000.0000     20.7466    139.2488
   877.7500   2000.0000   2000.0000     20.2305    141.3203
   878.0000   2000.0000   2000.0000     19.7095    143.9035
   878.2500   2000.0000   2000.0000     19.2368    145.2256
   878.5000   2000.0000   2000.0000     18.8587    146.7350
   878.7500   2000.0000   2000.0000     18.5925    147.6239
   879.0000   2000.0000   2000.0000     18.4163    149.4689
   879.2500   2000.0000   2000.0000     18.2843    151.3533
   879.5000   2000.0000   2000.0000     18.1569    154.7719
   879.7500   2000.0000   2000.0000     18.0241    156.8518
   880.0000   2000.0000   2000.0000     17.9014    159.1431
   880.2500   2000.0000   2000.0000     17.8103    160.2265
   880.5000   2000.0000   2000.0000     17.7623    161.2072
   880.7500   2000.0000   2000.0000     17.7573    161.0308
   881.0000   2000.0000   2000.0000     17.7895    158.7216
   881.2500   2000.0000   2000.0000     17.8538    155.8797
   881.5000   2000.0000   2000.0000     17.9498    150.9398
   881.7500   2000.0000   2000.0000     18.0822    148.0336
   882.0000   2000.0000   2000.0000     18.2602    144.4696
   882.2500   2000.0000   2000.0000     18.4944    142.0168
   882.5000   2000.0000   2000.0000     18.7925    137.3351
   882.7500   2000.0000   2000.0000     19.1489    133.7861
   883.0000   2000.0000   2000.0000     19.5362    129.3432
   883.2500   2000.0000   2000.0000     19.9132    127.8931
   883.5000   2000.0000   2000.0000     20.2542    128.7863
   883.7500   2000.0000   2000.0000     20.5772    131.3724
   884.0000   2000.0000   2000.0000     20.9363    137.2664
   884.2500   2000.0000   2000.0000     21.3773    141.2962
   884.5000   2000.0000   2000.0000     21.8967    144.3172
   884.7500   2000.0000   2000.0000     22.4355    142.6227
   885.0000   2000.0000   2000.0000     22.9150    134.0358
   885.2500   2000.0000   2000.0000     23.2871    125.9296
   885.5000   2000.0000   2000.0000     23.5619    114.7270
   885.7500   2000.0000   2000.0000     23.7972    109.8428
   886.0000   2000.0000   2000.0000     24.0655    106.6964
   886.2500   2000.0000   2000.0000     24.4215    106.2162
   886.5000   2000.0000   2000.0000     24.8825    105.5880
   886.7500   2000.0000   2000.0000     25.4268    104.3561
   887.0000   2000.0000   2000.0000     26.0172    100.7948
   887.2500   2000.0000   2000.0000     26.6388     97.4756
   887.5000   2000.0000   2000.0000     27.3188     92.1552
   887.7500   2000.0000   2000.0000     28.1000     89.3113
   888.0000   2000.0000   2000.0000     28.9902     87.5367
   888.2500   2000.0000   2000.0000     29.9306     88.2880
   888.5000   2000.0000   2000.0000     30.8234     91.4795
   888.7500   2000.0000   2000.0000     31.5986     94.0424
   889.0000   2000.0000   2000.0000     32.2597     97.2155
   889.2500   2000.0000   2000.0000     32.8605     98.6564
   889.5000   2000.0000   2000.0000     33.4177    100.1128
   889.7500   2000.0000   2000.0000     33.8165    100.7231
   890.0000   2000.0000   2000.0000     33.7975    100.5926
   890.2500   2000.0000   2000.0000     33.0951     99.3126
   890.5000   2000.0000   2000.0000     31.6580     95.4308
   890.7500   2000.0000   2000.0000     29.7295     92.2470
   891.0000   2000.0000   2000.0000     27.6928     89.0812
   891.2500   2000.0000   2000.0000     25.8626     89.7160
   891.5000   2000.0000   2000.0000     24.4021     96.5716
   891.7500   2000.0000   2000.0000     23.3498    104.7669
   892.0000   2000.0000   2000.0000     22.6734    119.3795
   892.2500   2000.0000   2000.0000     22.3061    128.1157
   892.5000   2000.0000   2000.0000     22.1607    136.4368
   892.7500   2000.0000   2000.0000     22.1349    138.3341
   893.0000   2000.0000   2000.0000     22.1193    136.9771
   893.2500   2000.0000   2000.0000     22.0186    134.3304
   893.5000   2000.0000   2000.0000     21.7821    128.7996
   893.7500   2000.0000   2000.0000     21.4183    124.2322
   894.0000   2000.0000   2000.0000     20.9788    116.4198
   894.2500   2000.0000   2000.0000     20.5212    111.1438
   894.5000   2000.0000   2000.0000     20.0839    104.5256
   894.7500   2000.0000   2000.0000     19.6865    101.7355
   895.0000   2000.0000   2000.0000     19.3441    100.7819
   895.2500   2000.0000   2000.0000     19.0721    102.3325
   895.5000   2000.0000   2000.0000     18.8760    107.2031
   895.7500   2000.0000   2000.0000     18.7363    111.4191
   896.0000   2000.0000   2000.0000     18.6091    117.8946
   896.2500   2000.0000   2000.0000     18.4461    121.7443
   896.5000   2000.0000   2000.0000     18.2257    126.5676
   896.7500   2000.0000   2000.0000     17.9658    129.4685
   897.0000   2000.0000   2000.0000     17.7068    133.8682
   897.2500   2000.0000   2000.0000     17.4777    136.5157
   897.5000   2000.0000   2000.0000     17.2781    138.5623
   897.7500   2000.0000   2000.0000     17.0901    137.9462
   898.0000   2000.0000   2000.0000     16.9045    134.0290
   898.2500   2000.0000   2000.0000     16.7337    129.8899
   898.5000   2000.0000   2000.0000     16.6042    122.3522
   898.7500   2000.0000   2000.0000     16.5405    117.0701
   899.0000   2000.0000   2000.0000     16.5577    110.1423
   899.2500   2000.0000   2000.0000     16.6626    107.0426
   899.5000   2000.0000   2000.0000     16.8551    105.5700
   899.7500   2000.0000   2000.0000     17.1238    106.7251
   900.0000   2000.0000   2000.0000     17.4383    111.0628
   900.2500   2000.0000   2000.0000     17.7429    115.1457
