~Version Information
VERS.                      2.0: CWLS Log ASCII Standard - VERSION 2.0
WRAP.                       NO: One line per depth step
~Well Information Block
STRT.FT               -12.5000: 
STOP.FT              1613.0000: 
STEP.FT                 0.2500: 
NULL.                -999.2500: 
COMP.          Pioneer Natural Resources: COMPANY
WELL.          Peregrine 12-20: WELL
FLD.           Purgatorie River: FIELD
LOC.           1722' FNL & 999' FWL--: LOCATION
PROV.                       CO: PROVINCE
CNTY.               Las Animas: COUNTRY
SRVC.          Patterson Wireline: SERVICE COMPANY
DATE.          Fri Jul 22 12:50:00 2005: LOG DATE
UWI.           05 071 08428 00: UNIQUE WELL ID
~Curve Information Block
DEPT.FT            0 000 00 00: Depth
CCL.                          : Casing Collar Locator
TT3.usec                      : CBL 3' Travel Time
AMP3.mV                       : CBL 3' Amplitude
GR.GAPI                       : Gamma Ray
~Parameter Information Block
~A  Depth       CCL         TT3         AMP3         GR     
# ...
   523.5000      0.0000    829.0759      5.8677    117.7273
   523.7500      0.0000    833.2088      5.8913    120.1861
   524.0000      0.0000    834.7134      5.8914    119.8499
   524.2500      0.0000    834.3315      5.8892    117.5043
   524.5000      0.0000    831.9709      5.8949    113.6979
   524.7500      0.0000    827.6745      5.9068    108.8929
   525.0000      0.0000    821.7018      5.9213    103.7244
   525.2500      0.0000    814.3250      5.9333     98.8016
   525.5000      0.0000    806.3087      5.9335     94.5082
   525.7500      0.0000    799.0645      5.9162     91.1654
   526.0000      0.0000    793.4306      5.8885     89.1761
   526.2500      0.0000    788.5443      5.8644     88.8346
   526.5000      0.0000    782.8690      5.8508     90.0633
   526.7500      0.0000    776.1821      5.8450     92.4150
   527.0000      0.0000    769.8872      5.8417     95.4675
   527.2500      0.0000    765.9197      5.8388     99.2345
   527.5000      0.0000    766.2098      5.8377    104.1093
   527.7500      0.0000    772.2609      5.8445    110.3135
   528.0000      0.0000    783.6498      5.8692    117.3046
   528.2500      0.0000    797.1039      5.9147    123.5256
   528.5000      0.0000    808.1868      5.9686    126.8084
   528.7500      0.0000    814.3111      6.0133    125.5666
   529.0000      0.0000    815.8794      6.0456    120.0844
   529.2500      0.0000    814.8700      6.0759    112.5305
   529.5000      0.0000    813.3426      6.1078    105.4168
   529.7500      0.0000    813.4423      6.1284     99.9921
   530.0000      0.0000    816.9941      6.1271     95.9969
   530.2500      0.0000    823.1887      6.1149     92.6672
   530.5000      0.0000    827.6806      6.1125     89.8439
   530.7500      0.0000    826.2412      6.1219     88.0986
   531.0000      0.0000    819.2919      6.1193     87.7699
   531.2500      0.0000    811.2392      6.0725     87.9883
   531.5000      0.0000    805.4449      5.9558     87.0503
   531.7500      0.0000    801.5560      5.7544     83.9622
   532.0000      0.0000    798.2207      5.4815     79.3172
   532.2500      0.0000    796.3611      5.1930     74.4579
   532.5000      0.0000    797.7738      4.9565     70.1589
   532.7500      0.0000    801.5322      4.7939     66.3406
   533.0000      0.0000    804.1492      4.6768     62.5606
   533.2500      0.0000    803.5294      4.5769     58.3935
   533.5000      0.0000    801.1932      4.4959     53.7362
   533.7500      0.0000    800.5300      4.4502     49.1682
   534.0000     -2.0000    803.0192      4.4491     46.0024
   534.2500      0.0000    805.2135      4.4909     45.7834
   534.5000      0.0000    799.5455      4.5750     49.3779
   534.7500      0.0000    780.4248      4.7209     56.1874
   535.0000      0.0000    751.5649      4.9584     64.2913
   535.2500      0.0000    727.3326      5.2771     71.4802
   535.5000      0.0000    724.1266      5.5969     76.1937
   535.7500      0.0000    746.9985      5.8209     77.8965
   536.0000      0.0000    784.6935      5.9155     77.1205
   536.2500      0.0000    819.4374      5.9221     75.0902
   536.5000      0.0000    840.7390      5.9014     73.0315
   536.7500      0.0000    849.4001      5.8848     71.7476
   537.0000      0.0000    851.4105      5.8691     71.5679
   537.2500      0.0000    850.5239      5.8444     72.2619
   537.5000      0.0000    845.6617      5.8170     73.0253
   537.7500      0.0000    833.6039      5.8039     72.9395
   538.0000      0.0000    813.6198      5.8090     71.6747
   538.2500      0.0000    789.6893      5.8132     69.6915
   538.5000      0.0000    768.2220      5.7929     67.8144
   538.7500      0.0000    753.9267      5.7452     66.6680
   539.0000      0.0000    747.9965      5.6962     66.3920
   539.2500      0.0000    749.2314      5.6818     66.7354
   539.5000      0.0000    755.1693      5.7198     67.4500
   539.7500      0.0000    762.0493      5.7936     68.5417
   540.0000      0.0000    765.8753      5.8603     69.8987
   540.2500      0.0000    765.5458      5.8762     70.8633
   540.5000      0.0000    764.3400      5.8274     70.7896
   540.7500      0.0000    766.5383      5.7422     70.2526
   541.0000      0.0000    772.3525      5.6729     71.3652
   541.2500      0.0000    777.4594      5.6580     76.2797
   541.5000      0.0000    778.2499      5.6940     84.9794
   541.7500      0.0000    776.4350      5.7387     94.7996
   542.0000      0.0000    777.1172      5.7473    102.5655
   542.2500      0.0000    783.0639      5.7113    106.9750
   542.5000      0.0000    792.3418      5.6639    108.6085
   542.7500      0.0000    800.5001      5.6413    108.2417
   543.0000      0.0000    803.4062      5.6458    105.9420
   543.2500      0.0000    799.2207      5.6502    101.5904
   543.5000      0.0000    789.5776      5.6327     95.5769
   543.7500      0.0000    778.2230      5.5975     88.7610
   544.0000      0.0000    767.7897      5.5641     81.8445
   544.2500      0.0000    758.7357      5.5485     74.9526
   544.5000      0.0000    751.0175      5.5542     67.9520
   544.7500      0.0000    745.1597      5.5718     61.1100
   545.0000      0.0000    741.6477      5.5843     55.2842
   545.2500      0.0000    740.5181      5.5786     51.5284
   545.5000      0.0000    741.9264      5.5573     50.5173
   545.7500      0.0000    746.5565      5.5405     52.0695
   546.0000      0.0000    754.7294      5.5527     55.1637
   546.2500      0.0000    764.6874      5.6015     58.7629
   546.5000      0.0000    772.4587      5.6703     62.8069
   546.7500      0.0000    774.9070      5.7360     68.0975
   547.0000      0.0000    773.1744      5.7930     75.0376
   547.2500      0.0000    771.6191      5.8552     82.6971
   547.5000      0.0000    772.5497      5.9324     89.1580
   547.7500      0.0000    773.0192      6.0142     92.6421
   548.0000      0.0000    767.7600      6.0822     92.3883
   548.2500      0.0000    754.7133      6.1310     88.7652
   548.5000      0.0000    736.9402      6.1677     82.8452
   548.7500      0.0000    719.7504      6.1981     75.9311
   549.0000      0.0000    706.9274      6.2225     69.2315
   549.2500      0.0000    699.3005      6.2394     63.6628
   549.5000      0.0000    695.6491      6.2443     59.7753
   549.7500      0.0000    694.3184      6.2290     57.7421
   550.0000      0.0000    694.3165      6.1885     57.2211
   550.2500      0.0000    695.6311      6.1234     57.2895
   550.5000      0.0000    698.9228      6.0342     56.8892
   550.7500      0.0000    704.7353      5.9238     55.5053
   551.0000      0.0000    712.5103      5.8066     53.3213
   551.2500      0.0000    720.3135      5.7014     50.8690
   551.5000      0.0000    726.0994      5.6101     48.7613
   551.7500      0.0000    729.6638      5.5179     47.6162
   552.0000      0.0000    733.1518      5.4177     47.8913
   552.2500      0.0000    739.2771      5.3240     49.8276
   552.5000      0.0000    748.7622      5.2562     53.7911
   552.7500      0.0000    759.1657      5.2144     60.4713
   553.0000      0.0000    766.4642      5.1814     70.3363
   553.2500      0.0000    768.7437      5.1464     82.8294
   553.5000      0.0000    768.4836      5.1216     96.3062
   553.7500      0.0000    770.2986      5.1295    108.7089
   554.0000      0.0000    776.5607      5.1766    118.2894
   554.2500      0.0000    785.8110      5.2421    124.1963
   554.5000      0.0000    794.5563      5.2934    126.7453
   554.7500      0.0000    799.6899      5.3127    126.8796
   555.0000      0.0000    799.9106      5.3082    125.3226
   555.2500      0.0000    795.8403      5.3022    122.6324
   555.5000      0.0000    789.1276      5.3084    119.8119
   555.7500      0.0000    781.4381      5.3203    118.1586
   556.0000      0.0000    773.6459      5.3212    118.4351
   556.2500      0.0000    765.3948      5.3039    120.4898
   556.5000      0.0000    755.9777      5.2803    123.5409
   556.7500      0.0000    746.0185      5.2727    126.5685
