~Version Information
VERS.                      2.0: CWLS Log ASCII Standard - VERSION 2.0
WRAP.                       NO: One line per depth step
~Well Information Block
STRT.FT                -8.2500: 
STOP.FT              2356.2500: 
STEP.FT                 0.2500: 
NULL.                -999.2500: 
COMP.          Petrogulf Corporation: COMPANY
WELL.             State 16-12V: WELL
FLD.           Purgatorie River: FIELD
LOC.           1992' FNL & 1237' FWL: LOCATION
PROV.                 Colorado: PROVINCE
CNTY.               Las Animas: COUNTRY
SRVC.                Patterson: SERVICE COMPANY
DATE.          Thu Aug 11 14:44:06 2005: LOG DATE
UWI.                          : UNIQUE WELL ID
~Curve Information Block
DEPT.FT            0 000 00 00: Depth
GR.GAPI                       : Gamma Ray
CCL.                          : Casing Collar Locator
TT3.usec                      : CBL 3' Travel Time
AMP3.mV                       : CBL 3' Amplitude
~Parameter Information Block
~A  Depth        GR         CCL         TT3         AMP3    
# ...
   929.7500    130.1057      0.0000    294.3170     52.6838
   930.0000    133.2544      0.0000    294.4963     53.2162
   930.2500    133.1922      0.0000    294.7464     53.4690
   930.5000    130.8168      0.0000    295.0184     53.3278
   930.7500    127.6829      0.0000    295.3193     52.7927
   931.0000    124.9753      0.0000    295.6555     51.9879
   931.2500    123.0411      0.0000    296.0454     50.9668
   931.5000    121.7935      0.0000    296.6699     49.5335
   931.7500    121.3097      0.0000    298.5503     47.3285
   932.0000    121.9654      0.0000    305.6606     44.0510
   932.2500    124.1414      0.0000    327.4012     39.7008
   932.5000    127.8669      0.0000    375.8010     34.7190
   932.7500    132.7358      0.0000    456.4030     29.7574
   933.0000    138.2122      0.0000    560.6137     25.3075
   933.2500    143.7382      0.0000    663.6032     21.6544
   933.5000    148.2077      0.0000    736.9028     18.9726
   933.7500    149.7888      0.0000    772.3418     17.2812
   934.0000    147.0033      0.0000    783.5596     16.3738
   934.2500    139.9714      0.0000    785.8513     15.9034
   934.5000    130.2845      0.0000    785.7369     15.5952
   934.7500    119.8416      0.0000    782.7965     15.3702
   935.0000    109.7987      0.0000    772.0787     15.3439
   935.2500    100.1528      0.0000    749.7443     15.7905
   935.5000     90.2519      0.0000    727.0812     16.9732
   935.7500     80.0193      0.0000    729.3090     18.8476
   936.0000     70.5292      0.0000    758.5745     20.9581
   936.2500     63.1190      0.0000    776.0265     22.7102
   936.5000     58.3164      0.0000    745.1238     23.7355
   936.7500     55.9654      0.0000    679.7618     23.9277
   937.0000     56.0465      0.0000    645.7567     23.2566
   937.2500     59.0335      0.0000    695.7930     21.7687
   937.5000     65.3769      0.0000    797.9279     19.6742
   937.7500     74.4212      0.0000    876.2596     17.2639
   938.0000     83.6919      0.0000    894.1315     14.8235
   938.2500     89.7871      0.0000    861.3983     12.6064
   938.5000     90.6425      0.0000    810.5297     10.7672
   938.7500     87.0833      0.0000    774.9933      9.3311
   939.0000     82.0949      0.0000    774.0895      8.2682
   939.2500     78.5905      0.0000    808.9529      7.5800
   939.5000     77.7196      0.0000    859.7798      7.3175
   939.7500     78.9239      0.0000    904.5488      7.5380
   940.0000     81.2552      0.0000    948.3599      8.2493
   940.2500     84.5512      0.0000   1003.0148      9.4299
   940.5000     89.4158      0.0000   1048.7198     11.1199
   940.7500     96.1171      0.0000   1052.4978     13.3792
   941.0000    103.6403      0.0000   1007.1335     16.0697
   941.2500    110.0223      0.0000    937.2922     18.8760
   941.5000    113.6832      0.0000    876.0162     21.7062
   941.7500    114.4063      0.0000    834.2714     24.8186
   942.0000    113.0001      0.0000    796.3001     28.3111
   942.2500    110.1969      0.0000    739.5421     31.7400
   942.5000    106.2224      0.0000    654.5980     34.5404
   942.7500    101.4992      0.0000    561.6060     36.5609
   943.0000     97.2209      0.0000    503.6021     37.8862
   943.2500     94.7256      0.0000    509.4900     38.4757
   943.5000     94.4664      0.0000    567.7464     38.2826
   943.7500     95.9119      0.0000    633.5424     37.5268
   944.0000     98.1661      0.0000    667.5594     36.6114
   944.2500    100.3055      0.0000    670.8564     35.6607
   944.5000    101.4425      0.0000    656.3941     34.1504
   944.7500    100.9831      0.0000    619.8839     31.4302
   945.0000     98.7892      0.0000    576.0554     28.0011
   945.2500     95.1059      0.0000    558.2943     25.2823
   945.5000     90.7667      0.0000    574.0951     23.4714
   945.7500     87.3891      0.0000    617.1505     21.5589
   946.0000     86.5896      0.0000    681.5856     19.4158
   946.2500     88.6397      0.0000    743.5487     17.6319
   946.5000     92.2959      0.0000    780.6862     16.3431
   946.7500     96.2075      0.0000    800.3560     15.3719
   947.0000    100.1390      2.0000    822.7697     14.5900
   947.2500    104.5915      0.0000    854.5428     13.9726
   947.5000    109.5495      0.0000    882.1801     13.6438
   947.7500    113.9497      0.0000    882.9225     13.8276
   948.0000    116.3909      0.0000    853.4260     14.5054
   948.2500    116.3424      0.0000    815.2599     15.1292
   948.5000    114.7006      0.0000    785.6686     15.2074
   948.7500    113.1593      0.0000    766.2825     14.9322
   949.0000    112.9596      0.0000    754.7675     14.7155
   949.2500    114.1487      0.0000    749.3752     14.7211
   949.5000    115.8561      0.0000    747.6115     14.9203
   949.7500    117.0597      0.0000    747.4303     15.1646
   950.0000    117.1773      0.0000    748.5640     15.2990
   950.2500    116.2743      0.0000    752.1087     15.2374
   950.5000    114.9106      0.0000    758.4719     14.9593
   950.7500    113.6749      0.0000    766.0643     14.5976
   951.0000    112.7871      0.0000    773.6029     14.4166
   951.2500    112.1516      0.0000    781.0865     14.5245
   951.5000    111.7063      0.0000    787.3814     14.7448
   951.7500    111.4875      0.0000    791.4601     14.8811
   952.0000    111.3108      0.0000    795.4619     14.9324
   952.2500    110.7167      0.0000    803.6354     15.0106
   952.5000    109.4791      0.0000    816.3778     15.2155
   952.7500    108.0880      0.0000    823.7667     15.6065
   953.0000    107.4419      0.0000    811.6735     16.1884
   953.2500    107.8787      0.0000    776.1567     16.9109
   953.5000    108.6515      0.0000    720.1944     17.7471
   953.7500    108.6781      0.0000    644.8290     18.7663
   954.0000    107.8180      0.0000    562.9122     20.0351
   954.2500    106.9927      0.0000    503.0902     21.4223
   954.5000    106.9843      0.0000    483.5199     22.6179
   954.7500    107.5821      0.0000    500.6024     23.3750
   955.0000    108.0766      0.0000    540.2795     23.6345
   955.2500    108.1509      0.0000    585.9990     23.4187
   955.5000    108.0822      0.0000    630.5817     22.7148
   955.7500    108.2913      0.0000    676.9249     21.5192
   956.0000    108.9676      0.0000    720.5881     19.9369
   956.2500    110.0200      0.0000    753.1739     18.1932
   956.5000    111.0367      0.0000    774.1454     16.5402
   956.7500    111.3529      0.0000    786.3001     15.1127
   957.0000    110.5976      0.0000    791.9167     13.8548
   957.2500    109.1148      0.0000    793.7968     12.6143
   957.5000    107.4182      0.0000    794.2844     11.3432
   957.7500    105.5195      0.0000    794.3757     10.1453
   958.0000    103.3665      0.0000    794.2023      9.1250
   958.2500    101.5825      0.0000    793.5894      8.2975
   958.5000    101.1013      0.0000    792.3346      7.5911
   958.7500    102.2290      0.0000    790.5872      6.8595
   959.0000    104.2817      0.0000    790.2325      6.0001
   959.2500    105.7173      0.0000    799.4325      5.0770
   959.5000    104.5353      0.0000    836.2788      4.2350
   959.7500     99.3887      0.0000    911.1299      3.5568
   960.0000     90.9755      0.0000    992.3951      3.0624
   960.2500     81.9897      0.0000   1022.5222      2.7518
   960.5000     75.2623      0.0000    985.0650      2.6159
   960.7500     72.2014      0.0000    916.8190      2.6373
   961.0000     73.0201      0.0000    860.6966      2.7899
   961.2500     77.5424      0.0000    839.9994      3.0627
   961.5000     85.1332      0.0000    853.9984      3.4827
   961.7500     94.3647      0.0000    876.5643      4.0895
   962.0000    103.6553      0.0000    874.4822      4.9237
   962.2500    112.2149      0.0000    838.9082      6.0393
   962.5000    119.8435      0.0000    790.3248      7.4435
   962.7500    126.0210      0.0000    752.1654      9.0041
   963.0000    129.7901      0.0000    735.3760     10.4853
