~Version Information
VERS.                      2.0: CWLS Log ASCII Standard - VERSION 2.0
WRAP.                       NO: One line per depth step
~Well Information Block
STRT.FT               704.0000: 
STOP.FT              2530.0000: 
STEP.FT                 0.2500: 
NULL.                -999.2500: 
COMP.          Pioneer Natural Resources: COMPANY
WELL.          Aztec Federal 41-15: WELL
FLD.           Purgatorie River: FIELD
LOC.           706' FNL & 1253' FEL: LOCATION
CNTY.               Las Animas: COUNTY
SRVC.          Superior Well Services: SERVICE COMPANY
DATE.          Tue Mar 18 09-04-19 2008: LOG DATE
UWI.           05-071-08342-00: UNIQUE WELL ID
STAT.                       CO: STATE
~Curve Information Block
DEPT.FT            0 000 00 00: Depth
DIR.Ohm-m                     : IEL Induction Resistivity
SN.Ohm-m                      : IEL Short Normal
SP.mV                         : IEL Spontaneous Potential
GR.GAPI                       : Gamma Ray
~Parameter Information Block
~A  Depth       DIR          SN          SP          GR     
# ...
  2513.0000     15.0436     14.7132    273.1799    145.3009
  2513.2500     15.1061     15.0499    272.4319    143.4178
  2513.5000     15.3038     15.8070    271.4156    139.4114
  2513.7500     15.6581     16.8855    270.2169    129.2492
  2514.0000     16.1863     18.0534    268.9324    120.6086
  2514.2500     16.8908     19.4102    267.6611    107.7070
  2514.5000     17.7430     21.3285    266.4973    100.5622
  2514.7500     18.6644     23.5816    265.5229     92.6943
  2515.0000     19.5129     25.2415    264.8024     88.5199
  2515.2500     20.1045     25.6917    264.3784     80.5363
  2515.5000     20.2849     25.0808    264.2700     71.8481
  2515.7500     20.0163     23.9213    264.4730     52.7208
  2516.0000     19.3981     22.7554    264.9617     37.9613
  2516.2500     18.6001     21.8952    265.6931     18.6128
  2516.5000     17.7750     21.2018    266.6121      9.8494
  2516.7500     17.0158     20.4101    267.6559      2.9274
  2517.0000     16.0190     19.4888    268.7599      1.0899
  2517.2500     15.4902     18.4526    269.8610      0.1865
  2517.5000     15.0484     17.3245    270.9009      0.0467
  2517.7500     14.6752     16.1869    271.8279      0.0025
  2518.0000     14.3574     15.2447    272.5974   -999.2500
  2518.2500     14.0943     14.7096    273.1733   -999.2500
  2518.5000     13.9025     14.5832    273.5282   -999.2500
  2518.7500     13.8109     14.6474    273.6452   -999.2500
  2519.0000     13.8527     14.7851    273.5194   -999.2500
  2519.2500     14.0576     15.1088    273.1599   -999.2500
  2519.5000     14.4521     15.6718    272.5909   -999.2500
  2519.7500     15.0689     16.3813    271.8514   -999.2500
  2520.0000     15.9655     17.0483    270.9934   -999.2500
  2520.2500     17.2394     17.6303    270.0758   -999.2500
  2520.5000     19.5969     18.2506    269.1616   -999.2500
  2520.7500     22.1542     18.9026    268.3081   -999.2500
  2521.0000     25.3927     19.6506    267.5600   -999.2500
  2521.2500     29.0520     20.6072    266.9428   -999.2500
  2521.5000     32.5772     21.5739    266.4575   -999.2500
  2521.7500     35.3837     22.2700    266.0782   -999.2500
  2522.0000     37.2454     22.5221    265.7521   -999.2500
  2522.2500     38.3601     22.3883    265.4017   -999.2500
  2522.5000     39.0813     22.0345    264.9294   -999.2500
  2522.7500     39.6836     21.4631    264.2238   -999.2500
  2523.0000     40.3133     20.6791    263.1686   -999.2500
  2523.2500     41.0315     19.9303    261.6519   -999.2500
  2523.5000   6039.9614     19.5573    259.5782   -999.2500
  2523.7500 100000.0000     19.7039    256.8804   -999.2500
  2524.0000 100000.0000     20.1859    253.5314   -999.2500
  2524.2500 100000.0000     20.4501    249.5536   -999.2500
  2524.5000 100000.0000     20.1585    245.0233   -999.2500
  2524.7500 100000.0000     19.5902    240.0691   -999.2500
  2525.0000 100000.0000     18.9125    234.8621   -999.2500
  2525.2500 100000.0000     17.1799    229.5996   -999.2500
  2525.5000 100000.0000     11.5071    224.4843   -999.2500
  2525.7500 100000.0000      2.6205    219.7014   -999.2500
  2526.0000 100000.0000     -2.7130    215.4001   -999.2500
  2526.2500 100000.0000     -3.8997    211.6796   -999.2500
  2526.5000 100000.0000     -3.9971    208.5850   -999.2500
  2526.7500 100000.0000   -999.2500    206.1099   -999.2500
  2527.0000 100000.0000   -999.2500    204.2066   -999.2500
  2527.2500 100000.0000   -999.2500    202.7996   -999.2500
  2527.5000 100000.0000   -999.2500    201.7998   -999.2500
  2527.7500 100000.0000   -999.2500    201.1169   -999.2500
  2528.0000 100000.0000   -999.2500    200.6686   -999.2500
  2528.2500 100000.0000   -999.2500    200.3858   -999.2500
  2528.5000 100000.0000   -999.2500    200.2144   -999.2500
  2528.7500 100000.0000   -999.2500    200.1145   -999.2500
  2529.0000 100000.0000   -999.2500    200.0586   -999.2500
  2529.2500 100000.0000   -999.2500    200.0286   -999.2500
  2529.5000 100000.0000   -999.2500    200.0131   -999.2500
  2529.7500 100000.0000   -999.2500    200.0054   -999.2500
  2530.0000 100000.0000   -999.2500    200.0017   -999.2500
