~Version Information
VERS.                      2.0: CWLS Log ASCII Standard - VERSION 2.0
WRAP.                       NO: One line per depth step
~Well Information Block
STRT.FT               510.0000: 
STOP.FT              1845.5000: 
STEP.FT                 0.1000: 
NULL.                -999.2500: 
COMP.          Pioneer Natural Resources: COMPANY
WELL.           Stampede 42-18: WELL
FLD.           Purgatoire River: FIELD
LOC.           2479' FNL & 160' FEL--: LOCATION
CNTY.               Las Animas: COUNTY
SRVC.          Superior Well Services: SERVICE COMPANY
DATE.          Sat Jun 09 02:39:23 2007: LOG DATE
UWI.           05 071 08237 00: UNIQUE WELL ID
STAT.                 Colorado: STATE
~Curve Information Block
DEPT.FT            0 000 00 00: Depth
DCAL.in                       : CDL Caliper
RHOB.g/cc                     : CDL Bulk Density
RHOC.g/cc                     : CDL Density Correction
DPOR.pu                       : CDL Density Porosity
GR.GAPI                       : Gamma Ray
~Parameter Information Block
~A  Depth       DCAL        RHOB        RHOC        DPOR         GR     
# ...
  1831.6000      7.7882      2.5097      0.0714      8.5005   -999.2500
  1831.7000      7.7882      2.5016      0.0818      8.9917   -999.2500
  1831.8000      7.7942      2.4969      0.0684      9.2781   -999.2500
  1831.9000      7.7942      2.4996      0.0680      9.1146   -999.2500
  1832.0000      7.7975      2.5114      0.0722      8.4011   -999.2500
  1832.1000      7.7975      2.5341      0.1063      7.0251   -999.2500
  1832.2000      7.7975      2.5621      0.1455      5.3276   -999.2500
  1832.3000      7.8053      2.5811      0.1550      4.1742   -999.2500
  1832.4000      7.8053      2.5867      0.1655      3.8364   -999.2500
  1832.5000      7.8210      2.5870      0.1375      3.8160   -999.2500
  1832.6000      7.8210      2.5827      0.1595      4.0770   -999.2500
  1832.7000      7.8210      2.5677      0.1132      4.9893   -999.2500
  1832.8000      7.8370      2.5434      0.0979      6.4582   -999.2500
  1832.9000      7.8370      2.5108      0.1080      8.4362   -999.2500
  1833.0000      7.8472      2.4812      0.0260     10.2333   -999.2500
  1833.1000      7.8472      2.4794      0.0519     10.3401   -999.2500
  1833.2000      7.8472      2.5046      0.0967      8.8147   -999.2500
  1833.3000      7.8533      2.5311      0.1120      7.2042   -999.2500
  1833.4000      7.8533      2.5451      0.0986      6.3582   -999.2500
  1833.5000      7.8572      2.5501      0.1103      6.0533   -999.2500
  1833.6000      7.8572      2.5526      0.1541      5.9002   -999.2500
  1833.7000      7.8572      2.5501      0.1801      6.0523   -999.2500
  1833.8000      7.8603      2.5399      0.1186      6.6723   -999.2500
  1833.9000      7.8603      2.5290      0.1261      7.3352   -999.2500
  1834.0000      7.8614      2.5203      0.1134      7.8607   -999.2500
  1834.1000      7.8614      2.5088      0.1155      8.5569   -999.2500
  1834.2000      7.8614      2.4963      0.0549      9.3163   -999.2500
  1834.3000      7.8497      2.4922      0.0880      9.5618   -999.2500
  1834.4000      7.8497      2.4950      0.0702      9.3943   -999.2500
  1834.5000      7.8231      2.5039      0.0425      8.8515   -999.2500
  1834.6000      7.8231      2.5217      0.0879      7.7739   -999.2500
  1834.7000      7.8231      2.5318      0.1133      7.1611   -999.2500
  1834.8000      7.8047      2.5216      0.0731      7.7848   -999.2500
  1834.9000      7.8047      2.5063      0.0634      8.7088   -999.2500
  1835.0000      7.8003      2.4994      0.0699      9.1295   -999.2500
  1835.1000      7.8003      2.4967      0.0348      9.2883   -999.2500
  1835.2000      7.8003      2.4945      0.0415      9.4229   -999.2500
  1835.3000      7.8003      2.4951      0.0363      9.3886   -999.2500
  1835.4000      7.8003      2.5039      0.0431      8.8521   -999.2500
  1835.5000      7.7982      2.5189      0.0616      7.9449   -999.2500
  1835.6000      7.7982      2.5324      0.0831      7.1267   -999.2500
  1835.7000      7.7982      2.5398      0.1116      6.6813   -999.2500
  1835.8000      7.7907      2.5357      0.1054      6.9296   -999.2500
  1835.9000      7.7907      2.5247      0.0673      7.5909   -999.2500
  1836.0000      7.7796      2.5226      0.0703      7.7211   -999.2500
  1836.1000      7.7796      2.5283      0.0693      7.3744   -999.2500
  1836.2000      7.7796      2.5252      0.0696      7.5643   -999.2500
  1836.3000      7.7707      2.5084      0.1060      8.5836   -999.2500
  1836.4000      7.7707      2.4924      0.0268      9.5517   -999.2500
  1836.5000      7.7656      2.4843      0.1126     10.0435   -999.2500
  1836.6000      7.7656      2.4786      0.0397     10.3909   -999.2500
  1836.7000      7.7656      2.4843      0.0227     10.0423   -999.2500
  1836.8000      7.7584      2.5026      0.0730      8.9334   -999.2500
  1836.9000      7.7584      2.5168      0.0722      8.0725   -999.2500
  1837.0000      7.7514      2.5223      0.0997      7.7403   -999.2500
  1837.1000      7.7514      2.5275      0.0645      7.4229   -999.2500
  1837.2000      7.7514      2.5370      0.1262      6.8487   -999.2500
  1837.3000      7.7530      2.5388      0.1309      6.7371   -999.2500
  1837.4000      7.7530      2.5262      0.1046      7.5008   -999.2500
  1837.5000      7.7650      2.5141      0.0921      8.2335   -999.2500
  1837.6000      7.7650      2.5183      0.0714      7.9797   -999.2500
  1837.7000      7.7650      2.5353      0.0894      6.9504   -999.2500
  1837.8000      7.7776      2.5416      0.1003      6.5688   -999.2500
  1837.9000      7.7776      2.5198      0.0883      7.8907   -999.2500
  1838.0000      7.7790      2.4814      0.0620     10.2195   -999.2500
  1838.1000      7.7790      2.4481      0.0688     12.2345   -999.2500
  1838.2000      7.7790      2.4214      0.0677     13.8521   -999.2500
  1838.3000      7.7652      2.3916      0.0518     15.6623   -999.2500
  1838.4000      7.7652      2.3664     -0.0014     17.1879   -999.2500
  1838.5000      7.7468      2.3707      0.0030     16.9285   -999.2500
  1838.6000      7.7468      2.4148      0.0366     14.2548   -999.2500
  1838.7000      7.7468      2.4780      0.1247     10.4231   -999.2500
  1838.8000      7.7381      2.5329      0.1726      7.0990   -999.2500
  1838.9000      7.7381      2.5688      0.2034      4.9186   -999.2500
  1839.0000      7.7441      2.5838      0.2217      4.0115   -999.2500
  1839.1000      7.7441      2.5827      0.1782      4.0799   -999.2500
  1839.2000      7.7441      2.5750      0.1657      4.5459   -999.2500
  1839.3000      7.7648      2.5573      0.1633      5.6157   -999.2500
  1839.4000      7.7648      2.5225      0.1333      7.7257   -999.2500
  1839.5000      7.7914      2.4847      0.0493     10.0156   -999.2500
  1839.6000      7.7914      2.4688      0.0119     10.9825   -999.2500
  1839.7000      7.7914      2.4742      0.0600     10.6567   -999.2500
  1839.8000      7.8086      2.4801      0.0571     10.2944   -999.2500
  1839.9000      7.8086      2.4809      0.0390     10.2489   -999.2500
  1840.0000      7.8198      2.4844      0.0481     10.0388   -999.2500
  1840.1000      7.8198      2.4910      0.0379      9.6380   -999.2500
  1840.2000      7.8198      2.4977      0.0561      9.2292   -999.2500
  1840.3000      7.8413      2.5081      0.0562      8.5977   -999.2500
  1840.4000      7.8413      2.5285      0.0326      7.3611   -999.2500
  1840.5000      7.8673      2.5533      0.0548      5.8584   -999.2500
  1840.6000      7.8673      2.5644      0.0915      5.1858   -999.2500
  1840.7000      7.8673      2.5558      0.0462      5.7109   -999.2500
  1840.8000      7.8913      2.5429      0.0397      6.4914   -999.2500
  1840.9000      7.8913      2.5404      0.0337      6.6419   -999.2500
  1841.0000      7.9136      2.5463      0.0347      6.2868   -999.2500
  1841.1000      7.9136      2.5474      0.0771      6.2180   -999.2500
  1841.2000      7.9136      2.5351      0.0339      6.9665   -999.2500
  1841.3000      7.9288      2.5165      0.0247      8.0937   -999.2500
  1841.4000      7.9288      2.5011      0.0159      9.0229   -999.2500
  1841.5000      7.9354      2.4914      0.0292      9.6092   -999.2500
  1841.6000      7.9354      2.4926     -0.0214      9.5373   -999.2500
  1841.7000      7.9354      2.5086      0.0151      8.5720   -999.2500
  1841.8000      7.9368      2.5293      0.0698      7.3154   -999.2500
  1841.9000      7.9368      2.5426      0.0736      6.5077   -999.2500
  1842.0000      7.9311      2.5479      0.0364      6.1878   -999.2500
  1842.1000      7.9311      2.5485      0.0591      6.1500   -999.2500
  1842.2000      7.9311      2.5520      0.0378      5.9409   -999.2500
  1842.3000      7.9204      2.5651      0.0861      5.1434   -999.2500
  1842.4000      7.9204      2.5704      0.0807      4.8261   -999.2500
  1842.5000      7.9123      2.5440      0.0570      6.4268   -999.2500
  1842.6000      7.9123      2.4954      0.0240      9.3669   -999.2500
  1842.7000      7.9123      2.4566     -0.0101     11.7207   -999.2500
