~Version Information
VERS.                      2.0: CWLS Log ASCII Standard - VERSION 2.0
WRAP.                       NO: One line per depth step
~Well Information Block
STRT.FT               451.7500: 
STOP.FT              1387.0000: 
STEP.FT                 0.2500: 
NULL.                -999.2500: 
COMP.          Petrogulf Corporation: COMPANY
WELL.          Great Plains 22-22R: WELL
FLD.           Purgatoire River: FIELD
LOC.           2042' FNL & 1657' FWL--: LOCATION
PROV.                 Colorado: PROVINCE
CNTY.               Las Animas: COUNTRY
SRVC.                Patterson: SERVICE COMPANY
DATE.          Fri Sep 09 10:42:01 2005: LOG DATE
UWI.           05 071 08028 00: UNIQUE WELL ID
~Curve Information Block
DEPT.FT            0 000 00 00: Depth
SP.mV                         : DIL Spontaneous Potential
RILD.Ohm-m                    : DIL Deep Resistivity
RILM.Ohm-m                    : DIL Medium Resistivity
RLL3.Ohm-m                    : DIL Shallow Resistivity
GR.GAPI                       : Gamma Ray
~Parameter Information Block
~A  Depth        SP         RILD        RILM        RLL3         GR     
# ...
   507.7500   1892.0000     12.3112     15.0165   2000.0000     98.6649
   508.0000   1892.0000     12.7102     15.4029   2000.0000     99.0342
   508.2500   1892.0000     13.1899     15.6213   2000.0000    100.6725
   508.5000   1892.0000     13.7414     15.7215   2000.0000    104.3689
   508.7500   1892.0000     14.3423     15.7834   2000.0000    107.1335
   509.0000   1892.0000     14.9616     15.8902   2000.0000    110.8857
   509.2500   1892.0000     15.5676     16.1078   2000.0000    112.6224
   509.5000   1892.0000     16.1358     16.4773   2000.0000    113.1082
   509.7500   1892.0000     16.6550     17.0146   2000.0000    111.5088
   510.0000   1892.0000     17.1303     17.7155   2000.0000    106.0727
   510.2500   1892.0000     17.5824     18.5644   2000.0000    100.9914
   510.5000   1892.0000     18.0450     19.5434   2000.0000     92.9624
   510.7500   1892.0000     18.5612     20.6400   2000.0000     88.3446
   511.0000   1892.0000     19.1785     21.8527   2000.0000     83.3057
   511.2500   1892.0000     19.9435     23.1961   2000.0000     80.9573
   511.5000   1892.0000     20.8968     24.7087   2000.0000     77.8247
   511.7500   1892.0000     22.0694     26.4581   2000.0000     75.4907
   512.0000   1892.0000     23.4815     28.5376   2000.0000     71.6985
   512.2500   1892.0000     25.1384     31.0523   2000.0000     69.3803
   512.5000   1892.0000     27.0238     34.0948   2000.0000     66.6015
   512.7500   1892.0000     29.0909     37.7195   2000.0000     65.0682
   513.0000   1892.0000     31.2608     41.9207   2000.0000     62.8853
   513.2500   1892.0000     33.4356     46.6233   2000.0000     61.5390
   513.5000   1892.0000     35.5244     51.6840   2000.0000     60.0252
   513.7500   1892.0000     37.4661     56.8958   2000.0000     59.4300
   514.0000   1892.0000     39.2353     61.9877   2000.0000     58.8318
   514.2500   1892.0000     40.8277     66.6280   2000.0000     58.3302
   514.5000   1892.0000     42.2426     70.4553   2000.0000     57.2831
   514.7500   1892.0000     43.4706     73.1563   2000.0000     56.6789
   515.0000   1892.0000     44.4934     74.5710   2000.0000     56.6667
   515.2500   1892.0000     45.2919     74.7721   2000.0000     57.4650
   515.5000   1892.0000     45.8572     74.0598   2000.0000     59.6327
   515.7500   1892.0000     46.2023     72.8625   2000.0000     61.4612
   516.0000   1892.0000     46.3711     71.5940   2000.0000     64.4199
   516.2500   1892.0000     46.4377     70.5473   2000.0000     66.3043
   516.5000   1892.0000     46.4902     69.8640   2000.0000     68.5133
   516.7500   1892.0000     46.6053     69.5699   2000.0000     69.3641
   517.0000   1892.0000     46.8253     69.6385   2000.0000     69.6013
   517.2500   1892.0000     47.1450     70.0411   2000.0000     69.1206
   517.5000   1892.0000     47.5002     70.7454   2000.0000     67.7230
   517.7500   1892.0000     47.7612     71.6625   2000.0000     66.6211
   518.0000   1892.0000     47.7503     72.5848   2000.0000     65.2456
   518.2500   1892.0000     47.3080     73.1711   2000.0000     64.7404
   518.5000   1892.0000     46.3821     73.0134   2000.0000     64.8075
   518.7500   1892.0000     45.0650     71.7654   2000.0000     65.4778
   519.0000   1892.0000     43.5294     69.2641   2000.0000     67.6121
   519.2500   1892.0000     41.9187     65.5815   2000.0000     69.9536
   519.5000   1892.0000     40.2952     61.0035   2000.0000     75.1165
   519.7500   1892.0000     38.6740     55.9650   2000.0000     79.6169
   520.0000   1892.0000     37.0836     50.9462   2000.0000     87.1787
   520.2500   1892.0000     35.5814     46.3559   2000.0000     91.9828
   520.5000   1892.0000     34.2143     42.4482   2000.0000     97.6601
   520.7500   1892.0000     32.9831     39.3104   2000.0000    100.1347
   521.0000   1892.0000     31.8512     36.9030   2000.0000    102.0071
   521.2500   1892.0000     30.7860     35.1095   2000.0000    102.3323
   521.5000   1892.0000     29.7920     33.7793   2000.0000    102.1617
   521.7500   1892.0000     28.9085     32.7622   2000.0000    101.9390
   522.0000   1892.0000     28.1823     31.9441   2000.0000    101.4676
   522.2500   1892.0000     27.6418     31.2768   2000.0000    100.8999
   522.5000   1892.0000     27.2850     30.7770   2000.0000     99.7836
   522.7500   1892.0000     27.0850     30.4890   2000.0000     99.2674
   523.0000   1892.0000     27.0038     30.4318   2000.0000     99.4156
   523.2500   1892.0000     27.0092     30.5716   2000.0000     99.9759
   523.5000   1892.0000     27.0856     30.8373   2000.0000    100.3644
   523.7500   1892.0000     27.2331     31.1653   2000.0000     99.5271
   524.0000   1892.0000     27.4603     31.5305   2000.0000     95.8372
   524.2500   1892.0000     27.7782     31.9381   2000.0000     91.9228
   524.5000   1892.0000     28.1974     32.3971   2000.0000     85.4857
   524.7500   1892.0000     28.7245     32.9130   2000.0000     82.2885
   525.0000   1892.0000     29.3556     33.5078   2000.0000     81.1216
   525.2500   1892.0000     30.0731     34.2375   2000.0000     82.8238
   525.5000   1892.0000     30.8533     35.1832   2000.0000     87.2415
   525.7500   1892.0000     31.6842     36.4216   2000.0000     89.9436
   526.0000   1892.0000     32.5794     37.9963   2000.0000     91.8519
   526.2500   1892.0000     33.5701     39.9002   2000.0000     91.3968
   526.5000   1892.0000     34.6773     42.0669   2000.0000     88.6160
   526.7500   1892.0000     35.8796     44.3738   2000.0000     85.9309
   527.0000   1892.0000     37.1062     46.6722   2000.0000     81.6469
   527.2500   1892.0000     38.2729     48.8411   2000.0000     79.1102
   527.5000   1892.0000     39.3450     50.8335   2000.0000     76.5262
   527.7500   1892.0000     40.3703     52.6794   2000.0000     75.9101
   528.0000   1892.0000     41.4388     54.4471   2000.0000     76.4324
   528.2500   1892.0000     42.5996     56.1955   2000.0000     77.0890
   528.5000   1892.0000     43.8133     57.9422   2000.0000     77.1543
   528.7500   1892.0000     44.9856     59.6572   2000.0000     76.2051
   529.0000   1892.0000     46.0502     61.2876   2000.0000     73.8436
   529.2500   1892.0000     47.0199     62.8022   2000.0000     72.3278
   529.5000   1892.0000     47.9599     64.2344   2000.0000     70.8171
   529.7500   1892.0000     48.9220     65.6945   2000.0000     70.1586
   530.0000   1892.0000     49.8986     67.3341   2000.0000     69.1656
   530.2500   1892.0000     50.8290     69.2746   2000.0000     68.5752
   530.5000   1892.0000     51.6398     71.5203   2000.0000     68.5486
   530.7500   1892.0000     52.2878     73.9163   2000.0000     69.4295
   531.0000   1892.0000     52.7722     76.2214   2000.0000     71.9404
   531.2500   1892.0000     53.1084     78.2703   2000.0000     74.0743
   531.5000   1892.0000     53.2876     80.0462   2000.0000     77.4372
   531.7500   1892.0000     53.2556     81.5206   2000.0000     79.5308
   532.0000   1892.0000     52.9279     82.4077   2000.0000     82.0221
   532.2500   1892.0000     52.2327     82.1746   2000.0000     83.1153
   532.5000   1892.0000     51.1573     80.4267   2000.0000     84.0663
   532.7500   1892.0000     49.7782     77.2907   2000.0000     84.4948
   533.0000   1892.0000     48.2544     73.3375   2000.0000     85.3512
   533.2500   1892.0000     46.7834     69.1744   2000.0000     86.4296
   533.5000   1892.0000     45.5351     65.1781   2000.0000     89.4163
   533.7500   1892.0000     44.5865     61.5096   2000.0000     92.3876
   534.0000   1892.0000     43.8845     58.2442   2000.0000     97.5091
   534.2500   1892.0000     43.2573     55.4559   2000.0000    100.5410
   534.5000   1892.0000     42.4798     53.2239   2000.0000    103.3517
   534.7500   1892.0000     41.3681     51.5912   2000.0000    103.8364
   535.0000   1892.0000     39.8471     50.5103   2000.0000    102.7683
   535.2500   1892.0000     37.9556     49.8008   2000.0000    101.1875
   535.5000   1892.0000     35.8060     49.1364   2000.0000     98.0453
