~Version Information               
VERS.     2.0     :     CWLS LAS VERSION
WRAP.                         NO     :     WRAPING MODE
~Well Information   
API.                      :            
WELL.               Egan 9-11V     :     WELL
COMP.                    N/A     :     COMPANY
FLD.                    N/A     :     FIELD
LOC.                    N/A     :     LOCATION
CNTY.                    N/A     :     COUNTY
STATE.              N/A     :     STATE
CTRY.                    N/A     :     COUNTRY
DATE.                N/A     :     DATE (LOGGED)
UWI.                    N/A     :     UNIQUE WELL ID
SRVC.                N/A     :     SERVICE COMPANY
STAT.                           :
STRT.FT              612.00     :     START DEPTH
STOP.FT             2500.00     :     STOP DEPTH
STEP.FT                1.00     :     DEPTH INCREMENT
NULL.             -9999           :     NULL VALUE
~Curve information               
 DEPTH.FT                                   :
 ROP.MIN/FT                                 :
 GAS.UNITS                                  :     
C1.PPM          :     
C2.PPM          :
~ASCII Log data               
# ...
1058.00        0.23     3          0.4          -49995
1059.00        0.26     7          0.9          -49995
1060.00        0.26     7          0.4          -49995
1061.00        0.23     3          0.6          -49995
1062.00        0.20     0          0.3          -49995
1063.00        0.16     7          0.3          -49995
1064.00        0.20     0          0.2          -49995
1065.00        0.23     3          0.1          -49995
1066.00        0.20     0         -0.3          -49995
1067.00        0.20     0         -0.2          -49995
1068.00        0.25     0         -0.4          -49995
1069.00        0.23     3         -0.6          -49995
1070.00        0.26     7         -0.5          -49995
1071.00        0.20     0         -0.9          -49995
1072.00        0.53     3          0.4          -49995
1073.00        0.35     0          0.5          -49995
1074.00        0.33     3          1.1          -49995
1075.00        0.40     0          1.8          -49995
1076.00        0.33     3          2.2          -49995
1077.00        0.23     3          1.6          -49995
1078.00        0.23     3          1.3          -49995
1079.00        0.23     3          1.1          -49995
1080.00        0.23     3          0.8          -49995
1081.00        0.20     0          0.7          -49995
1082.00        0.23     3          0.7          -49995
1083.00        0.33     3          1.0          -49995
1084.00        0.26     7          0.4          -49995
1085.00        0.26     7          0.3          -49995
1086.00        0.21     7          0.4          -49995
1087.00        0.26     7         -0.1          -49995
1088.00        0.26     7          0.0          -49995
1089.00        0.30     0          0.1          -49995
1090.00        0.23     3          0.0          -49995
1091.00        0.20     0         -0.1          -49995
1092.00        0.23     3         -0.2          -49995
1093.00        0.26     7          0.1          -49995
1094.00        0.20     0          0.0          -49995
1095.00        0.13     3         -0.3          -49995
1096.00        0.13     3         -0.2          -49995
1097.00        0.20     0         -0.2          -49995
1098.00        0.26     7         -0.1          -49995
1099.00        0.26     7         -0.3          -49995
1100.00        0.16     7         -0.3          -49995
1101.00        0.21     7          1.8          -49995
1102.00        0.20     0          2.1          -49995
1103.00        0.33     3          2.4          -49995
1104.00        0.30     0          3.1          -49995
1105.00        0.25     0          4.1          -49995
1106.00        0.23     3          4.9          -49995
1107.00        0.26     7          5.2          -49995
1108.00        0.23     3          6.2          -49995
1109.00        0.26     7          6.1          -49995
1110.00        0.16     7          6.0          -49995
1111.00        0.20     0          5.9          -49995
1112.00        0.16     7          5.3          -49995
1113.00        0.20     0          5.3          -49995
1114.00        0.26     7          4.9          -49995
1115.00        0.16     7          4.4          -49995
1116.00        0.23     3          4.5          -49995
1117.00        0.26     7          4.2          -49995
1118.00        0.20     0          4.0          -49995
1119.00        0.16     7          3.6          -49995
1120.00        0.20     0          3.6          -49995
1121.00        0.31     7          4.1          -49995
1122.00        0.16     7          3.9          -49995
1123.00        0.16     7          4.0          -49995
1124.00        0.20     0          4.0          -49995
1125.00        0.20     0          4.4          -49995
1126.00        0.16     7          3.8          -49995
1127.00        0.10     0          3.8          -49995
1128.00        0.06     7          3.8          -49995
1129.00        0.16     7          3.8          -49995
1130.00        0.23     3          3.9          -49995
1131.00        0.16     7          5.2          -49995
1132.00        0.26     7          5.2          -49995
1133.00        0.56     7          9.1          -49995
1134.00        0.50     0         10.4          -49995
1135.00        0.30     0         10.5          -49995
1136.00        0.46     7          8.6          -49995
1137.00        0.26     7          7.1          -49995
1138.00        0.25     0          5.4          -49995
1139.00        0.36     7          4.4          -49995
1140.00        0.30     0          4.5          -49995
1141.00        0.26     7          3.9          -49995
1142.00        0.23     3          3.5          -49995
1143.00        0.26     7          3.3          -49995
1144.00        0.26     7          3.0          -49995
1145.00        0.26     7          2.7          -49995
1146.00        0.23     3          2.4          -49995
1147.00        0.26     7          2.3          -49995
1148.00        0.26     7          2.2          -49995
1149.00        0.23     3          2.1          -49995
1150.00        0.16     7          2.0          -49995
1151.00        0.15     0          1.5          -49995
1152.00        0.23     3          1.5          -49995
1153.00        0.26     7          1.6          -49995
1154.00        0.20     0          1.7          -49995
1155.00        0.20     0          1.7          -49995
1156.00        0.26     7          1.4          -49995
1157.00        0.20     0          1.3          -49995
1158.00        0.16     7          1.3          -49995
1159.00        0.26     7          1.1          -49995
1160.00        0.26     7          1.0          -49995
1161.00        0.23     3          0.9          -49995
1162.00        0.30     0          2.3          -49995
1163.00        0.76     7          4.4          -49995
1164.00        0.33     3          5.7          -49995
1165.00        0.30     0          5.4          -49995
1166.00        0.40     0          5.3          -49995
1167.00        0.28     3          5.6          -49995
1168.00        0.23     3          5.0          -49995
1169.00        0.26     7          5.0          -49995
1170.00        0.23     3          5.0          -49995
1171.00        0.26     7          5.0          -49995
1172.00        0.20     0          5.0          -49995
1173.00        0.20     0          4.9          -49995
1174.00        0.23     3          4.9          -49995
1175.00        0.26     7          5.6          -49995
1176.00        0.20     0          5.0          -49995
1177.00        0.23     3          5.0          -49995
1178.00        0.23     3          4.9          -49995
1179.00        0.23     3          5.0          -49995
1180.00        0.20     0          5.0          -49995
1181.00        0.25     0          5.2          -49995
1182.00        0.23     3          5.0          -49995
1183.00        0.26     7          5.4          -49995
1184.00        0.23     3          5.4          -49995
1185.00        0.26     7          6.2          -49995
1186.00        0.23     3          5.9          -49995
1187.00        0.23     3          5.8          -49995
1188.00        0.26     7          5.7          -49995
1189.00        0.26     7          6.4          -49995
1190.00        0.23     3          6.3          -49995
1191.00        0.23     3          9.0          -49995
1192.00        0.26     7          9.0          -49995
1193.00        0.43     3         10.1          -49995
1194.00        0.33     3         11.4          -49995
1195.00        0.20     0         10.9          -49995
1196.00        0.13     3         10.5          -49995
1197.00        0.20     0         11.1          -49995
1198.00        0.16     7         10.7          -49995
1199.00        0.21     7         10.8          -49995
1200.00        0.13     3         10.3          -49995
1201.00        0.13     3          9.4          -49995
1202.00        0.10     0          9.4          -49995
1203.00        0.13     3          9.0          -49995
