~Version Information
VERS.                      2.0: CWLS Log ASCII Standard - VERSION 2.0
WRAP.                       NO: One line per depth step
~Well Information Block
STRT.FT               259.0000: 
STOP.FT              2379.0000: 
STEP.FT                 0.2500: 
NULL.                -999.2500: 
COMP.          Pioneer Natural Resources: COMPANY
WELL.          Foothills 12-36: WELL
FLD.           Purgatoire River: FIELD
LOC.           2450' FNL & 201' FWL: LOCATION
PROV.                 Colorado: PROVINCE
CNTY.               Las Animas: COUNTRY
SRVC.                Patterson: SERVICE COMPANY
DATE.          Thu Apr 21 09:19:57 2005: LOG DATE
UWI.           05 071 08339 00: UNIQUE WELL ID
~Curve Information Block
DEPT.FT            0 000 00 00: Depth
DCAL.in                       : CDL Caliper
RHOB.g/cc                     : CDL Bulk Density
RHOC.g/cc                     : CDL Density Correction
DPOR.pu                       : CDL Density Porosity
GR.GAPI                       : Gamma Ray
NPOR.pu                       : Neutron Porosity
~Parameter Information Block
~A  Depth       DCAL        RHOB        RHOC        DPOR         GR         NPOR    
# ...
   811.0000      7.9986      2.4554      0.0777     11.7925     51.3525     15.5719
   811.2500      7.9984      2.4302      0.0529     13.3239     51.8052     14.6781
   811.5000      7.9981      2.4431      0.0373     12.5382     49.9426     16.7142
   811.7500      7.9977      2.4874      0.0605      9.8562     49.8925     16.2754
   812.0000      7.9975      2.5009      0.0794      9.0380     47.7944     15.4443
   812.2500      7.9959      2.4702      0.0894     10.8999     53.9108     17.0979
   812.5000      7.9904      2.4422      0.0458     12.5924     57.1373     18.8640
   812.7500      7.9817      2.4670      0.0477     11.0920     55.4657     17.4049
   813.0000      7.9768      2.4639      0.0700     11.2816     52.7132     16.4919
   813.2500      7.9765      2.4572      0.0764     11.6859     49.5367     16.8367
   813.5000      7.9775      2.4850      0.1060     10.0023     50.4105     16.4616
   813.7500      7.9774      2.4578      0.0628     11.6491     48.7573     16.6196
   814.0000      7.9768      2.4849      0.1359     10.0076     49.5586     15.8850
   814.2500      7.9744      2.4977      0.1198      9.2310     51.1577     15.3506
   814.5000      7.9668      2.5072      0.0789      8.6565     50.8647     15.9088
   814.7500      7.9573      2.5730      0.1520      4.6650     47.3771     15.4404
   815.0000      7.9566      2.6619      0.2012     -0.7236     49.1840     13.3358
   815.2500      7.9695      2.7055      0.1736     -3.3617     61.4605     15.1310
   815.5000      7.9970      2.7387      0.1681     -5.3777     72.4093     18.1809
   815.7500      8.0251      2.6748      0.1124     -1.5041     94.8693     19.7071
   816.0000      8.0395      2.6002      0.1536      3.0180    110.7389     24.1447
   816.2500      8.0463      2.5811      0.0859      4.1743    113.9270     26.1262
   816.5000      8.0502      2.5615      0.0767      5.3626    116.7074     28.4334
   816.7500      8.0467      2.5455      0.0869      6.3355    117.5275     29.2492
   817.0000      8.0419      2.5340      0.0355      7.0281    118.6400     26.9766
   817.2500      8.0412      2.5309     -0.0709      7.2172    113.1820     26.6646
   817.5000      8.0416      2.5078      0.0327      8.6186     98.9073     26.5310
   817.7500      8.0415      2.5319      0.0399      7.1597     96.5047     27.4409
   818.0000      8.0397      2.5979      0.0716      3.1555     99.4723     27.3454
   818.2500      8.0373      2.6163      0.1436      2.0401    110.9894     26.8927
   818.5000      8.0384      2.5730      0.1203      4.6652    102.1222     26.1139
   818.7500      8.0411      2.5478      0.0622      6.1954    112.5037     26.3575
   819.0000      8.0431      2.5929      0.1212      3.4634    120.7215     26.6329
   819.2500      8.0441      2.6291      0.1727      1.2696    125.6430     27.5306
   819.5000      8.0442      2.5743      0.1339      4.5882    136.8127     28.2836
   819.7500      8.0449      2.5413      0.0429      6.5867    135.8655     29.2194
   820.0000      8.0457      2.5406      0.0853      6.6326    133.9157     30.4208
   820.2500      8.0446      2.5067      0.0711      8.6841    134.7622     29.1074
   820.5000      8.0431      2.5511      0.1406      5.9914    139.2532     29.6652
   820.7500      8.0426      2.5645      0.1430      5.1815    133.5919     29.1150
   821.0000      8.0427      2.5356      0.0972      6.9362    147.2046     29.5386
   821.2500      8.0428      2.5585      0.1600      5.5437    143.1997     31.5954
   821.5000      8.0430      2.5188      0.1037      7.9505    134.1302     29.9857
   821.7500      8.0428      2.5151      0.1357      8.1759    130.5960     30.1660
   822.0000      8.0424      2.4904      0.1168      9.6735    134.4707     28.4456
   822.2500      8.0422      2.4754      0.1130     10.5789    136.8649     27.7768
   822.5000      8.0419      2.4791      0.1649     10.3571    121.2056     30.0837
   822.7500      8.0410      2.5103      0.2148      8.4670    106.4109     29.6216
   823.0000      8.0378      2.4717      0.1743     10.8062     92.1369     28.6245
   823.2500      8.0359      2.3286      0.0655     19.4777     77.5329     27.3600
   823.5000      8.0409      2.0722      0.0661     35.0190     51.1873     26.5204
   823.7500      8.0456      1.8940      0.0146     45.8182     42.1894     26.1358
   824.0000      8.0489      1.7842      0.0535     52.4741     37.7763     27.1045
   824.2500      8.0514      1.8433      0.1261     48.8913     39.2266     29.9748
   824.5000      8.0504      2.1595      0.2294     29.7248     51.6984     25.7774
   824.7500      8.0484      2.3763      0.2181     16.5849     55.4050     26.2785
   825.0000      8.0401      2.6663      0.1865     -0.9858     59.0627     23.7170
   825.2500      8.0213      2.7226      0.1176     -4.4023     57.7699     23.0568
   825.5000      8.0045      2.7543      0.1575     -6.3201     63.9563     16.6988
   825.7500      7.9949      2.7356      0.1227     -5.1888     59.9870     13.8756
   826.0000      7.9979      2.7650      0.1196     -6.9684     60.3868     14.7821
   826.2500      8.0171      2.8329      0.1069    -11.0850     62.1339     12.3418
   826.5000      8.0375      2.8387      0.1329    -11.4335     64.3226     11.9413
   826.7500      8.0462      2.8452      0.1014    -11.8332     63.6851     13.7140
   827.0000      8.0518      2.8206      0.0319    -10.3424     58.2592     10.4517
   827.2500      8.0567      2.8000      0.0742     -9.0899     60.7912     10.7451
   827.5000      8.0585      2.8062      0.0711     -9.4672     60.8823     10.8680
   827.7500      8.0578      2.7595      0.0556     -6.6353     66.1288     11.0137
   828.0000      8.0567      2.6108      0.0226      2.3764     71.8446     14.9059
   828.2500      8.0578      2.4952      0.0473      9.3815     85.4081     19.7099
   828.5000      8.0610      2.3109     -0.0199     20.5535    102.1515     24.0121
   828.7500      8.0665      2.3278      0.0695     19.5280    112.6701     25.8646
   829.0000      8.0740      2.4672      0.1576     11.0780    123.4732     27.6914
   829.2500      8.0822      2.5333      0.1877      7.0698    124.0541     28.5253
   829.5000      8.0904      2.5540      0.1452      5.8212    125.8860     29.0030
   829.7500      8.1009      2.5510      0.1037      6.0028    123.7323     30.7218
   830.0000      8.1143      2.4763      0.0420     10.5245    121.1315     32.2981
   830.2500      8.1236      2.4793      0.0945     10.3470    115.5418     32.3632
   830.5000      8.1270      2.5418      0.1621      6.5589    101.9156     32.9785
   830.7500      8.1274      2.6211      0.1865      1.7494     99.0849     30.7640
   831.0000      8.1267      2.7311      0.2130     -4.9171     86.0784     27.8751
   831.2500      8.1260      2.7742      0.2399     -7.5249     89.0850     26.9384
   831.5000      8.1261      2.6301      0.1125      1.2035     97.8032     27.4654
   831.7500      8.1264      2.5534      0.0175      5.8569    110.1499     25.6805
   832.0000      8.1261      2.5940      0.1506      3.3944     98.2580     25.3094
   832.2500      8.1246      2.5787      0.1285      4.3223     89.5134     25.2139
   832.5000      8.1223      2.6227      0.0755      1.6564     78.4511     26.8132
   832.7500      8.1188      2.7057      0.1421     -3.3743     84.0074     26.3274
   833.0000      8.1150      2.7493      0.1444     -6.0188     81.3277     24.6953
   833.2500      8.1254      2.7138      0.0392     -3.8696     86.0385     28.4656
   833.5000      8.1662      2.5965     -0.0359      3.2444    106.4480     25.4252
   833.7500      8.2235      2.5745      0.0637      4.5736    115.1673     24.2323
   834.0000      8.2657      2.5696      0.0736      4.8747    111.7528     25.0211
   834.2500      8.1116      2.5898      0.1132      3.6456    111.8065     25.9120
   834.5000      8.1332      2.5242      0.0717      7.6258    120.3023     28.3461
   834.7500      8.1518      2.4825      0.0795     10.1532    106.4876     28.6945
