~Version Information
VERS.                      2.0: CWLS Log ASCII Standard - VERSION 2.0
WRAP.                       NO: One line per depth step
~Well Information Block
STRT.FT               819.0000: 
STOP.FT              2499.5000: 
STEP.FT                 0.2500: 
NULL.                -999.2500: 
COMP.          Petrogulf Corporation: COMPANY
WELL.             State 16-21V: WELL
FLD.           Purgatorie River: FIELD
LOC.           1738' FWL & 332' FWL: LOCATION
PROV.                 Colorado: PROVINCE
CNTY.               Las Animas: COUNTRY
SRVC.          Patterson Wireline: SERVICE COMPANY
DATE.          Sun Jul 13 13:34:36 2003: LOG DATE
UWI.           05 071 08829 00: UNIQUE WELL ID
~Curve Information Block
DEPT.FT            0 000 00 00: Depth
SP.mV                         : DIL Spontaneous Potential
RILD.Ohm-m                    : DIL Deep Resistivity
RILM.Ohm-m                    : DIL Medium Resistivity
RLL3.Ohm-m                    : DIL Shallow Resistivity
GR.GAPI                       : Gamma Ray
~Parameter Information Block
~A  Depth        SP         RILD        RILM        RLL3         GR     
# ...
  2359.0000     -4.8716     14.1610     15.4915     17.3986     73.7807
  2359.2500     -4.8161     14.2031     15.5720     16.9509     75.3548
  2359.5000     -4.7477     14.2809     15.6714     16.7552     77.0140
  2359.7500     -4.6962     14.3980     15.7909     16.7976     77.9132
  2360.0000     -4.6868     14.5551     15.9323     17.0194     79.3281
  2360.2500     -4.7292     14.7506     16.0978     17.3972     80.2956
  2360.5000     -4.8084     14.9809     16.2897     17.9687     81.7038
  2360.7500     -4.8882     15.2414     16.5102     18.7597     82.7253
  2361.0000     -4.9272     15.5271     16.7610     19.6897     84.5964
  2361.2500     -4.8991     15.8323     17.0430     20.5756     85.9965
  2361.5000     -4.8031     16.1500     17.3562     21.2496     87.6321
  2361.7500     -4.6628     16.4714     17.6995     21.6785     87.6462
  2362.0000     -4.5154     16.7876     18.0705     21.9791     84.5861
  2362.2500     -4.3967     17.0936     18.4657     22.3453     80.1928
  2362.5000     -4.3272     17.3906     18.8805     22.9695     71.4549
  2362.7500     -4.3040     17.6839     19.3094     23.9752     65.7383
  2363.0000     -4.3040     17.9786     19.7464     25.3308     59.2920
  2363.2500     -4.2993     18.2747     20.1854     26.7914     56.5199
  2363.5000     -4.2739     18.5666     20.6204     27.9874     53.7221
  2363.7500     -4.2331     18.8459     21.0462     28.6524     52.3264
  2364.0000     -4.1993     19.1073     21.4587     28.7928     50.8519
  2364.2500     -4.2014     19.3527     21.8543     28.6364     50.4141
  2364.5000     -4.2633     19.5910     22.2301     28.4504     50.6747
  2364.7500     -4.3925     19.8311     22.5831     28.4186     51.3264
  2365.0000     -4.5775     20.0742     22.9095     28.6216     52.4337
  2365.2500     -4.7968     20.3104     23.2034     29.0325     52.8377
  2365.5000     -5.0352     20.5211     23.4565     29.5051     52.5781
  2365.7500     -5.2939     20.6852     23.6570     29.8252     51.9901
  2366.0000     -5.5872     20.7839     23.7902     29.8340     51.2357
  2366.2500     -5.9290     20.8024     23.8388     29.5301     51.2820
  2366.5000     -6.3165     20.7293     23.7854     29.0721     52.5216
  2366.7500     -6.7219     20.5566     23.6148     28.7002     53.8653
  2367.0000     -7.0988     20.2815     23.3185     28.6472     55.4877
  2367.2500     -7.3998     19.9111     22.8976     29.0767     55.5954
  2367.5000     -7.5965     19.4684     22.3660     30.0443     53.9426
  2367.7500     -7.6893     18.9940     21.7505     31.4671     52.1630
  2368.0000     -7.7021     18.5425     21.0884     33.0802     50.2134
  2368.2500     -7.6678     18.1715     20.4237     34.3841     50.2864
  2368.5000     -7.6127     17.9301     19.8017     34.6787     52.9070
  2368.7500     -7.5455     17.8505     19.2652     33.3423     56.1178
  2369.0000     -7.4546     17.9447     18.8519     30.3023     62.9978
  2369.2500     -7.3132     18.2048     18.5936     26.3021     69.2919
  2369.5000     -7.0878     18.6047     18.5176     22.6311     81.7201
  2369.7500     -6.7451     19.1049     18.6476     20.6046     91.3082
  2370.0000     -6.2573     19.6604     19.0061     21.5328    104.2234
  2370.2500     -5.6059     20.2320     19.6158     27.6115    109.3945
  2370.5000     -4.7863     20.7971     20.5001     43.4238    109.5885
  2370.7500     -3.8110     21.3568     21.6825     77.0779    104.9013
  2371.0000     -2.7089     21.9348     23.1839    139.5143     92.7592
  2371.2500     -1.5160     22.5695     25.0168    240.5977     82.8128
  2371.5000     -0.2563     23.3015     27.1761    382.0438     67.8794
  2371.7500      1.0699     24.1616     29.6251    550.1454     59.3349
  2372.0000      2.4786     25.1601     32.2782    714.2126     49.9678
  2372.2500      3.9801     26.2779     34.9857    836.1441     45.9834
  2372.5000      5.5647     27.4565     37.5296    888.9286     42.3366
  2372.7500      7.2041     28.5923     39.6446    870.8021     40.6523
  2373.0000      8.8622     29.5408     41.0691    801.4517     38.3419
  2373.2500     10.5050     30.1470     41.6179    703.7313     36.9755
  2373.5000     12.1087     30.2965     41.2408    590.2185     36.1560
  2373.7500     13.6668     29.9606     40.0364    466.3197     37.3393
  2374.0000     15.1895     29.1995     38.2117    340.5722     43.6962
  2374.2500     16.6862     28.1249     36.0145    227.0931     52.2131
  2374.5000     18.1376     26.8572     33.6738    138.6580     72.1266
  2374.7500     19.4801     25.5025     31.3651     79.8600     88.7451
  2375.0000     20.6252     24.1461     29.2035     46.7290    113.2487
  2375.2500     21.5021     22.8510     27.2525     31.1431    125.9818
  2375.5000     22.0898     21.6573     25.5373     25.3480    136.8744
  2375.7500     22.4160     20.5863     24.0590     24.0342    139.0294
  2376.0000     22.5326     19.6470     22.8049     24.2759    137.1991
  2376.2500     22.4928     18.8433     21.7557     24.7094    134.3847
  2376.5000     22.3426     18.1771     20.8896     24.8455    130.1512
  2376.7500     22.1198     17.6489     20.1853     24.6645    128.0160
  2377.0000     21.8549     17.2554     19.6229     24.3549    125.9880
  2377.2500     21.5729     16.9876     19.1842     24.1093    125.0868
  2377.5000     21.2941     16.8294     18.8526     24.0041    123.2925
  2377.7500     21.0335     16.7583     18.6128     24.0023    121.1404
  2378.0000     20.8040     16.7473     18.4499     24.0365    116.3868
  2378.2500     20.6206     16.7682     18.3491     24.0758    112.9216
  2378.5000     20.5014     16.7955     18.2951     24.1283    108.8986
  2378.7500     20.4569     16.8101     18.2715     24.2128    107.5333
  2379.0000     20.4768     16.7999     18.2610     24.3439    107.4135
  2379.2500     20.5245     16.7580     18.2455     24.5391    108.3027
  2379.5000     20.5470     16.6802     18.2070     24.8286    110.4760
  2379.7500     20.4923     16.5643     18.1286     25.2428    112.0760
  2380.0000     20.3271     16.4103     17.9969     25.7616    114.0207
  2380.2500     20.0479     16.2215     17.8027     26.2521    114.9231
  2380.5000     19.6785     16.0036     17.5435     26.4714    116.4990
  2380.7500     19.2531     15.7633     17.2230     26.1859    118.5565
  2381.0000     18.7961     15.5065     16.8518     25.3371    124.4651
  2381.2500     18.3111     15.2385     16.4451     24.1030    130.5592
  2381.5000     17.7855     14.9650     16.0211     22.7891    142.0686
  2381.7500     17.2053     14.6937     15.5987     21.6484    150.0831
  2382.0000     16.5694     14.4361     15.1958     20.7678    160.2294
  2382.2500     15.8939     14.2060     14.8276     20.0727    164.9550
  2382.5000     15.2041     14.0171     14.5062     19.4269    169.2771
  2382.7500     14.5201     13.8782     14.2401     18.7677    171.1164
  2383.0000     13.8475     13.7899     14.0340     18.1700    173.4732
  2383.2500     13.1783     13.7432     13.8894     17.7785    174.8522
  2383.5000     12.5048     13.7223     13.8042     17.6916    176.0028
  2383.7500     11.8392     13.7083     13.7730     17.9363    175.8310
  2384.0000     11.2270     13.6845     13.7871     18.5601    174.0041
  2384.2500     10.7447     13.6386     13.8343     19.7353    171.7255
  2384.5000     10.4818     13.5638     13.8991     21.7549    166.4988
  2384.7500     10.5186     13.4584     13.9636     24.8402    161.4016
  2385.0000     10.9079     13.3245     14.0081     28.7850    150.2946
  2385.2500     11.6685     13.1673     14.0135     32.6705    140.3663
  2385.5000     12.7874     12.9929     13.9630     35.0573    123.3036
  2385.7500     14.2171     12.8066     13.8452     34.7865    112.4642
  2386.0000     15.8612     12.6111     13.6553     31.8446    100.0622
  2386.2500     17.5631     12.4053     13.3962     27.4621     94.8470
  2386.5000     19.1303     12.1835     13.0779     23.2679     90.4625
  2386.7500     20.3997     11.9375     12.7154     20.2729     89.1109
