~Version Information
VERS.                      2.0: CWLS Log ASCII Standard - VERSION 2.0
WRAP.                       NO: One line per depth step
~Well Information Block
STRT.FT               846.6000: 
STOP.FT              2609.1000: 
STEP.FT                 0.1000: 
NULL.                -999.2500: 
COMP.          Petrogulf Corporation: COMPANY
WELL.            Lavedure 7-44: WELL
FLD.           Purgatoire River: FIELD
LOC.           969' FSL & 501' FEL: LOCATION
PROV.                 Colorado: PROVINCE
CNTY.               Las Animas: COUNTRY
SRVC.                Patterson: SERVICE COMPANY
DATE.          Sun Dec 07 14:55:17 2003: LOG DATE
UWI.                          : UNIQUE WELL ID
~Curve Information Block
DEPT.FT            0 000 00 00: Depth
DCAL.in                       : CDL Caliper
RHOB.g/cc                     : CDL Bulk Density
RHOC.g/cc                     : CDL Density Correction
DPOR.pu                       : CDL Density Porosity
GR.GAPI                       : Gamma Ray
NPOR.pu                       : Neutron Porosity
~Parameter Information Block
~A  Depth       DCAL        RHOB        RHOC        DPOR         GR         NPOR    
# ...
  2027.4000      8.1882      2.5356      0.0347      6.9332    150.6684     24.7592
  2027.5000      8.1819      2.5299      0.0363      7.2780    150.3573     24.8540
  2027.6000      8.1819      2.5249      0.0391      7.5826    150.0463     24.8845
  2027.7000      8.1819      2.5207      0.0432      7.8374    149.7239     24.8448
  2027.8000      8.1643      2.5174      0.0488      8.0351    149.3710     24.7324
  2027.9000      8.1643      2.5152      0.0557      8.1704    148.9576     24.5480
  2028.0000      8.1453      2.5140      0.0637      8.2413    148.4453     24.2957
  2028.1000      8.1453      2.5139      0.0723      8.2488    147.7843     23.9830
  2028.2000      8.1453      2.5147      0.0810      8.1971    146.9178     23.6198
  2028.3000      8.1353      2.5165      0.0891      8.0932    145.7848     23.2184
  2028.4000      8.1353      2.5189      0.0961      7.9465    144.3242     22.7929
  2028.5000      8.1632      2.5218      0.1013      7.7677    142.4824     22.3584
  2028.6000      8.1632      2.5251      0.1046      7.5681    140.2223     21.9303
  2028.7000      8.1632      2.5286      0.1056      7.3587    137.5331     21.5238
  2028.8000      8.2434      2.5320      0.1045      7.1494    134.4372     21.1521
  2028.9000      8.2434      2.5354      0.1015      6.9482    130.9917     20.8267
  2029.0000      8.3025      2.5384      0.0970      6.7610    127.2877     20.5558
  2029.1000      8.3025      2.5412      0.0914      6.5913    123.4371     20.3439
  2029.2000      8.3025      2.5437      0.0851      6.4401    119.5586     20.1916
  2029.3000      8.2757      2.5459      0.0787      6.3068    115.7594     20.0955
  2029.4000      8.2757      2.5479      0.0725      6.1888    112.1196     20.0486
  2029.5000      8.2010      2.5496      0.0668      6.0828    108.6896     20.0410
  2029.6000      8.2010      2.5512      0.0618      5.9850    105.4889     20.0617
  2029.7000      8.2010      2.5528      0.0578      5.8917    102.5174     20.0997
  2029.8000      8.1420      2.5543      0.0548      5.8002     99.7697     20.1457
  2029.9000      8.1420      2.5558      0.0529      5.7086     97.2486     20.1935
  2030.0000      8.1305      2.5573      0.0522      5.6164     94.9743     20.2414
  2030.1000      8.1305      2.5588      0.0526      5.5247     92.9899     20.2914
  2030.2000      8.1305      2.5603      0.0538      5.4359     91.3495     20.3498
  2030.3000      8.1504      2.5617      0.0557      5.3534     90.1104     20.4246
  2030.4000      8.1504      2.5629      0.0578      5.2815     89.3202     20.5250
  2030.5000      8.1520      2.5638      0.0598      5.2247     89.0050     20.6589
  2030.6000      8.1520      2.5644      0.0614      5.1871     89.1673     20.8313
  2030.7000      8.1520      2.5647      0.0623      5.1723     89.7847     21.0439
  2030.8000      8.1192      2.5645      0.0623      5.1824     90.8253     21.2939
  2030.9000      8.1192      2.5639      0.0615      5.2179     92.2474     21.5748
  2031.0000      8.0855      2.5629      0.0600      5.2777     94.0189     21.8771
  2031.1000      8.0855      2.5616      0.0580      5.3588     96.1155     22.1890
  2031.2000      8.0855      2.5600      0.0560      5.4563     98.5219     22.4987
  2031.3000      8.0686      2.5582      0.0543      5.5642    101.2294     22.7946
  2031.4000      8.0686      2.5564      0.0531      5.6751    104.2236     23.0671
  2031.5000      8.0688      2.5546      0.0526      5.7812    107.4809     23.3086
  2031.6000      8.0688      2.5531      0.0529      5.8745    110.9593     23.5137
  2031.7000      8.0688      2.5519      0.0541      5.9473    114.5955     23.6791
  2031.8000      8.0662      2.5511      0.0560      5.9927    118.3070     23.8030
  2031.9000      8.0662      2.5509      0.0584      6.0047    121.9948     23.8847
  2032.0000      8.0606      2.5513      0.0613      5.9789    125.5488     23.9247
  2032.1000      8.0606      2.5524      0.0643      5.9124    128.8564     23.9239
  2032.2000      8.0606      2.5542      0.0674      5.8040    131.8063     23.8846
  2032.3000      8.0738      2.5567      0.0705      5.6545    134.3001     23.8105
  2032.4000      8.0738      2.5598      0.0734      5.4663    136.2542     23.7072
  2032.5000      8.0939      2.5635      0.0759      5.2435    137.6114     23.5821
  2032.6000      8.0939      2.5676      0.0781      4.9921    138.3408     23.4446
  2032.7000      8.0939      2.5721      0.0798      4.7194    138.4461     23.3052
  2032.8000      8.1159      2.5768      0.0809      4.4339    137.9680     23.1752
  2032.9000      8.1159      2.5816      0.0814      4.1453    136.9834     23.0660
  2033.0000      8.1269      2.5863      0.0813      3.8633    135.6008     22.9875
  2033.1000      8.1269      2.5906      0.0805      3.5984    133.9559     22.9481
  2033.2000      8.1269      2.5946      0.0793      3.3601    132.1970     22.9538
  2033.3000      8.1169      2.5979      0.0776      3.1576    130.4730     23.0080
  2033.4000      8.1169      2.6005      0.0757      2.9985    128.9175     23.1118
  2033.5000      8.1199      2.6023      0.0737      2.8886    127.6346     23.2634
  2033.6000      8.1199      2.6033      0.0719      2.8319    126.6907     23.4589
  2033.7000      8.1199      2.6033      0.0705      2.8296    126.1085     23.6919
  2033.8000      8.1392      2.6025      0.0695      2.8811    125.8730     23.9541
  2033.9000      8.1392      2.6008      0.0691      2.9831    125.9414     24.2353
  2034.0000      8.1381      2.5984      0.0693      3.1303    126.2551     24.5237
  2034.1000      8.1381      2.5953      0.0700      3.3157    126.7573     24.8062
  2034.2000      8.1381      2.5917      0.0712      3.5312    127.4026     25.0697
  2034.3000      8.1174      2.5878      0.0726      3.7678    128.1645     25.3016
  2034.4000      8.1174      2.5837      0.0740      4.0160    129.0371     25.4910
  2034.5000      8.1063      2.5796      0.0751      4.2666    130.0259     25.6290
  2034.6000      8.1063      2.5756      0.0758      4.5107    131.1388     25.7099
  2034.7000      8.1063      2.5718      0.0760      4.7404    132.3734     25.7309
  2034.8000      8.1022      2.5684      0.0758      4.9484    133.7062     25.6921
  2034.9000      8.1022      2.5654      0.0754      5.1288    135.0837     25.5960
  2035.0000      8.1007      2.5629      0.0749      5.2768    136.4305     25.4466
  2035.1000      8.1007      2.5611      0.0748      5.3889    137.6470     25.2493
  2035.2000      8.1007      2.5599      0.0751      5.4630    138.6327     25.0104
  2035.3000      8.1016      2.5593      0.0763      5.4983    139.2943     24.7367
  2035.4000      8.1016      2.5593      0.0782      5.4953    139.5634     24.4361
  2035.5000      8.1145      2.5600      0.0808      5.4559    139.4064     24.1173
  2035.6000      8.1145      2.5612      0.0840      5.3829    138.8237     23.7903
  2035.7000      8.1145      2.5629      0.0874      5.2802    137.8537     23.4662
  2035.8000      8.1439      2.5650      0.0908      5.1526    136.5584     23.1572
  2035.9000      8.1439      2.5674      0.0939      5.0055    135.0125     22.8755
  2036.0000      8.1604      2.5701      0.0965      4.8448    133.2928     22.6330
  2036.1000      8.1604      2.5728      0.0985      4.6764    131.4681     22.4394
  2036.2000      8.1604      2.5756      0.0999      4.5067    129.5934     22.3020
  2036.3000      8.1511      2.5784      0.1006      4.3419    127.7095     22.2234
  2036.4000      8.1511      2.5809      0.1008      4.1879    125.8474     22.2018
  2036.5000      8.1379      2.5832      0.1003      4.0503    124.0346     22.2302
  2036.6000      8.1379      2.5851      0.0994      3.9337    122.3032     22.2973
  2036.7000      8.1379      2.5866      0.0979      3.8420    120.6964     22.3879
  2036.8000      8.1250      2.5877      0.0960      3.7775    119.2726     22.4852
  2036.9000      8.1250      2.5883      0.0937      3.7409    118.1033     22.5723
