~Version Information
VERS.                      2.0: CWLS Log ASCII Standard - VERSION 2.0
WRAP.                       NO: One line per depth step
~Well Information Block
STRT.FT               651.5000: 
STOP.FT              2190.5000: 
STEP.FT                 0.2500: 
NULL.                -999.2500: 
COMP.          Pioneer Natural Resources: COMPANY
WELL.               King 22-13: WELL
FLD.           Purgatoire River: FIELD
LOC.           2419' FNL & 1806' FWL----: LOCATION
PROV.                 Colorado: PROVINCE
CNTY.               Las Animas: COUNTRY
SRVC.                Patterson: SERVICE COMPANY
DATE.          Thu Mar 31 14:33:28 2005: LOG DATE
UWI.           05 071 08318 00: UNIQUE WELL ID
~Curve Information Block
DEPT.FT            0 000 00 00: Depth
SN.Ohm-m                      : IEL Short Normal
SP.mV                         : IEL Spontaneous Potential
DIR.Ohm-m                     : IEL Induction Resistivity
GR.GAPI                       : Gamma Ray
~Parameter Information Block
~A  Depth        SN          SP         DIR          GR     
# ...
  2058.5000     31.1120    195.7682     27.7725    104.3722
  2058.7500     31.0596    196.3559     27.5424    104.7913
  2059.0000     30.9631    197.1836     27.3186    106.3228
  2059.2500     30.7166    198.1951     27.1327    107.8188
  2059.5000     30.3305    199.3181     27.0210    109.7683
  2059.7500     29.9297    200.4806     27.0061    110.2163
  2060.0000     29.5946    201.6216     27.0881    109.4664
  2060.2500     29.2694    202.7017     27.2438    108.7390
  2060.5000     28.8903    203.7095     27.4331    108.9071
  2060.7500     28.5422    204.6602     27.6104    110.2101
  2061.0000     28.3984    205.5820     27.7378    113.3377
  2061.2500     28.5317    206.4944     27.7943    115.6027
  2061.5000     28.8770    207.3929     27.7773    118.0339
  2061.7500     29.3719    208.2542     27.6993    117.9671
  2062.0000     30.0107    209.0517     27.5840    113.9194
  2062.2500     30.7124    209.7615     27.4608    109.1801
  2062.5000     31.2760    210.3549     27.3588    102.5660
  2062.7500     31.5401    210.7984     27.2962    100.2147
  2063.0000     31.5000    211.0697     27.2711     98.8438
  2063.2500     31.2584    211.1745     27.2583     97.2029
  2063.5000     30.9097    211.1489     27.2186     91.8776
  2063.7500     30.4662    211.0473     27.1172     87.9771
  2064.0000     29.9111    210.9283     26.9399     86.1546
  2064.2500     29.2924    210.8465     26.6969     88.8856
  2064.5000     28.7082    210.8497     26.4142     97.0796
  2064.7500     28.2197    210.9714     26.1217    103.0370
  2065.0000     27.8241    211.2142     25.8440    109.5334
  2065.2500     27.4861    211.5396     25.5981    111.3688
  2065.5000     27.1716    211.8780     25.3939    110.4548
  2065.7500     26.8737    212.1577     25.2370    108.1479
  2066.0000     26.6198    212.3375     25.1310    104.1097
  2066.2500     26.4403    212.4189     25.0822    102.1088
  2066.5000     26.3393    212.4272     25.1027    100.9331
  2066.7500     26.3089    212.3785     25.2126    100.9160
  2067.0000     26.3521    212.2682     25.4354    100.3321
  2067.2500     26.4817    212.0900     25.7904     98.9135
  2067.5000     26.7112    211.8625     26.2874     95.7317
  2067.7500     27.0700    211.6315     26.9271     93.8849
  2068.0000     27.6211    211.4488     27.7051     93.2956
  2068.2500     28.4446    211.3489     28.6153     95.0245
  2068.5000     29.5948    211.3381     29.6464    100.4257
  2068.7500     31.0676    211.4004     30.7758    104.4633
  2069.0000     32.8307    211.5182     31.9703    107.8341
  2069.2500     34.9157    211.6940     33.2001    107.2009
  2069.5000     37.4645    211.9559     34.4606    102.9729
  2069.7500     40.6346    212.3415     35.7842     99.5071
  2070.0000     44.3837    212.8685     37.2288     95.0051
  2070.2500     48.3155    213.5095     38.8449     92.5095
  2070.5000     51.7847    214.1915     40.6350     89.6683
  2070.7500     54.2163    214.8294     42.5214     89.0877
  2071.0000     55.3818    215.3710     44.3385     91.0211
  2071.2500     55.4423    215.8188     45.8669     93.4753
  2071.5000     54.7715    216.2150     46.9069     96.3665
  2071.7500     53.7199    216.6000     47.3555     96.8104
  2072.0000     52.4956    216.9786     47.2297     95.6821
  2072.2500     51.1971    217.3183     46.6245     94.5986
  2072.5000     49.8785    217.5830     45.6563     93.3504
  2072.7500     48.5728    217.7703     44.4382     92.7110
  2073.0000     47.2969    217.9194     43.0841     91.6262
  2073.2500     46.0362    218.0827     41.7093     90.6318
  2073.5000     44.7406    218.2849     40.4122     88.4748
  2073.7500     43.3829    218.4967     39.2545     86.7942
  2074.0000     42.0071    218.6423     38.2560     85.6119
  2074.2500     40.6937    218.6446     37.4057     86.9985
  2074.5000     39.4989    218.4758     36.6734     92.5419
  2074.7500     38.4293    218.1758     36.0185     97.0577
  2075.0000     37.4578    217.8221     35.3976    102.0939
  2075.2500     36.5507    217.4742     34.7769    103.7858
  2075.5000     35.6770    217.1368     34.1431    104.9642
  2075.7500     34.8272    216.7674     33.5048    105.5746
  2076.0000     34.0555    216.3252     32.8839    106.3783
  2076.2500     33.4662    215.8215     32.3046    106.6754
  2076.5000     33.1157    215.3330     31.7888    106.9883
  2076.7500     32.9351    214.9668     31.3524    107.3684
  2077.0000     32.7640    214.8018     31.0009    107.7821
  2077.2500     32.4666    214.8505     30.7275    107.0315
  2077.5000     32.0281    215.0630     30.5181    102.8087
  2077.7500     31.5438    215.3677     30.3582     98.1900
  2078.0000     31.1210    215.7166     30.2363     91.9293
  2078.2500     30.7984    216.0967     30.1417     90.6412
  2078.5000     30.5448    216.5026     30.0615     94.2526
  2078.7500     30.3149    216.9061     29.9826     98.6122
  2079.0000     30.0937    217.2612     29.8979    103.4567
  2079.2500     29.8882    217.5392     29.8083    103.9111
  2079.5000     29.6980    217.7539     29.7195    101.0158
  2079.7500     29.5151    217.9545     29.6347     98.2380
  2080.0000     29.3446    218.1942     29.5487     94.6670
  2080.2500     29.2003    218.4960     29.4489     92.5938
  2080.5000     29.0867    218.8331     29.3185     89.1899
  2080.7500     28.9990    219.1363     29.1442     87.0245
  2081.0000     28.9323    219.3289     28.9210     85.5214
  2081.2500     28.8910    219.3765     28.6545     86.2268
  2081.5000     28.8850    219.3212     28.3572     89.3321
  2081.7500     28.9007    219.2744     28.0456     92.0315
  2082.0000     28.8837    219.3642     27.7391     95.6645
  2082.2500     28.7771    219.6665     27.4571     97.1055
  2082.5000     28.5742    220.1700     27.2134     97.5854
  2082.7500     28.3103    220.7995     27.0078     97.5816
  2083.0000     28.0136    221.4738     26.8234     98.6878
  2083.2500     27.6870    222.1514     26.6323    100.0896
  2083.5000     27.3254    222.8400     26.4093    101.4389
  2083.7500     26.9276    223.5756     26.1426    101.2544
  2084.0000     26.5090    224.3827     25.8384    100.6781
  2084.2500     26.1189    225.2372     25.5162    101.3611
  2084.5000     25.8168    226.0639     25.2023    104.3612
  2084.7500     25.6317    226.7840     24.9262    106.6484
  2085.0000     25.5638    227.3781     24.7168    108.7794
  2085.2500     25.5957    227.9114     24.5947    109.3528
  2085.5000     25.6914    228.4946     24.5610    110.3217
  2085.7500     25.8165    229.2103     24.5951    111.6866
  2086.0000     25.9669    230.0595     24.6649    114.6742
  2086.2500     26.1618    230.9649     24.7469    116.6644
  2086.5000     26.4158    231.8230     24.8426    118.4574
  2086.7500     26.7344    232.5626     24.9765    118.5853
  2087.0000     27.1272    233.1660     25.1823    118.0142
  2087.2500     27.6058    233.6470     25.4855    118.1163
  2087.5000     28.1855    234.0087     25.8938    120.0298
  2087.7500     28.8958    234.2182     26.3981    122.1131
  2088.0000     29.7838    234.2170     26.9787    124.7187
  2088.2500     30.8995    233.9584     27.6153    125.2438
  2088.5000     32.2783    233.4448     28.2935    123.7270
  2088.7500     33.9439    232.7463     29.0033    121.3989
  2089.0000     35.9170    231.9827     29.7319    116.8916
  2089.2500     38.2298    231.2676     30.4588    113.9182
  2089.5000     40.9791    230.6454     31.1581    110.0975
  2089.7500     44.3316    230.0757     31.8050    107.6843
  2090.0000     48.3499    229.4854     32.3800    103.4977
  2090.2500     52.7555    228.8444     32.8650    100.3156
  2090.5000     56.9247    228.2025     33.2379     95.3372
  2090.7500     60.1687    227.6622     33.4704     91.7976
  2091.0000     62.0382    227.3100     33.5325     85.9348
  2091.2500     62.3982    227.1532     33.4068     82.2194
  2091.5000     61.3010    227.1092     33.1013     78.8134
  2091.7500     58.8958    227.0664     32.6543     78.5340
