~Version Information
VERS.                      2.0: CWLS Log ASCII Standard - VERSION 2.0
WRAP.                       NO: One line per depth step
~Well Information Block
STRT.FT                -8.2500: 
STOP.FT              1175.7500: 
STEP.FT                 0.2500: 
NULL.                -999.2500: 
COMP.          Evergreen Operating Corporation: COMPANY
WELL.             Justin 32-10: WELL
FLD.           Purgatorie River: FIELD
LOC.           2994' FNL & 1449' FEL: LOCATION
PROV.                 Colorado: PROVINCE
CNTY.               Las Animas: COUNTRY
SRVC.                         : SERVICE COMPANY
DATE.          Wed Sep 29 10:00:10 2004: LOG DATE
UWI.           05 071 08053 00: UNIQUE WELL ID
~Curve Information Block
DEPT.FT            0 000 00 00: Depth
GR.GAPI                       : Gamma Ray
CCL.                          : Casing Collar Locator
TT3.usec                      : CBL 3' Travel Time
AMP3.mV                       : CBL 3' Amplitude
~Parameter Information Block
~A  Depth        GR         CCL         TT3         AMP3    
# ...
   661.7500    117.5368      0.0000    770.6666      4.6397
   662.0000    110.1577      0.0000    725.2665      4.6490
   662.2500    103.1482      0.0000    684.9841      4.6384
   662.5000     97.1344      0.0000    666.7747      4.6038
   662.7500     92.7579      0.0000    674.2343      4.5518
   663.0000     90.5017      0.0000    695.5232      4.4994
   663.2500     90.6337      0.0000    713.5125      4.4602
   663.5000     93.1654      0.0000    718.4428      4.4359
   663.7500     97.6243      0.0000    712.7681      4.4192
   664.0000    102.8782      0.0000    706.9243      4.4037
   664.2500    107.2636      0.0000    710.5666      4.3914
   664.5000    109.1383      0.0000    725.5613      4.3993
   664.7500    107.8884      0.0000    745.5880      4.4607
   665.0000    104.5844      0.0000    761.3071      4.6077
   665.2500    101.2338      0.0000    765.2587      4.8436
   665.5000     99.2746      0.0000    753.9237      5.1324
   665.7500     99.0564      0.0000    729.9223      5.4185
   666.0000    100.4580      0.0000    704.0349      5.6591
   666.2500    103.2853      0.0000    690.0250      5.8417
   666.5000    106.9691      0.0000    691.4568      5.9804
   666.7500    110.4455      0.0000    694.9754      6.1015
   667.0000    112.6339      0.0000    682.7052      6.2283
   667.2500    113.0026      0.0000    652.9360      6.3718
   667.5000    111.8328      0.0000    624.0533      6.5256
   667.7500    110.1097      0.0000    615.4291      6.6687
   668.0000    109.1239      0.0000    628.9933      6.7806
   668.2500    110.0274      0.0000    654.2562      6.8592
   668.5000    113.3710      0.0000    685.2458      6.9288
   668.7500    118.5099      0.0000    722.8660      7.0236
   669.0000    123.5874      0.0000    763.8246      7.1537
   669.2500    126.8779      0.0000    796.5380      7.2856
   669.5000    128.4048      0.0000    808.4199      7.3726
   669.7500    129.8747      0.0000    792.5912      7.4071
   670.0000    132.8449      0.0000    748.7001      7.4252
   670.2500    137.1200      0.0000    681.5239      7.4526
   670.5000    141.0105      0.0000    600.2318      7.4730
   670.7500    143.0489      0.0000    517.4147      7.4603
   671.0000    143.3012      0.0000    445.6627      7.4177
   671.2500    143.0390      0.0000    392.5165      7.3722
   671.5000    143.4505      0.0000    358.2551      7.3481
   671.7500    144.9143      0.0000    339.0173      7.3561
   672.0000    147.0692      0.0000    331.7923      7.3935
   672.2500    149.0155      0.0000    337.6100      7.4414
   672.5000    149.8360      0.0000    360.8037      7.4683
   672.7500    149.5832      0.0000    403.9121      7.4431
   673.0000    149.5560      0.0000    461.8747      7.3483
   673.2500    151.0402      0.0000    523.5634      7.1789
   673.5000    153.8374      0.0000    581.8452      6.9368
   673.7500    156.3919      0.0000    639.5749      6.6329
   674.0000    157.3385      0.0000    702.2213      6.2943
   674.2500    156.6881      0.0000    766.1018      5.9596
   674.5000    155.5147      0.0000    817.4150      5.6622
   674.7500    154.7549      0.0000    843.0639      5.4137
   675.0000    154.3218      0.0000    841.0637      5.2056
   675.2500    153.0662      0.0000    821.3917      5.0287
   675.5000    149.5037      0.0000    799.1342      4.8928
   675.7500    142.9494      0.0000    786.5424      4.8222
   676.0000    134.3182      0.0000    787.9852      4.8269
   676.2500    125.8415      0.0000    799.2307      4.8801
   676.5000    119.7729      0.0000    810.8075      4.9324
   676.7500    117.0184      0.0000    813.2909      4.9545
   677.0000    116.6316      0.0000    799.7806      4.9697
   677.2500    116.5393      0.0000    764.7707      5.0425
   677.5000    115.1845      0.0000    705.1667      5.2342
   677.7500    112.8585      0.0000    627.2260      5.5643
   678.0000    111.4047      0.0000    551.5006      6.0054
   678.2500    112.4828      0.0000    504.3940      6.4916
   678.5000    116.0916      0.0000    498.8767      6.9245
   678.7500    120.6701      0.0000    521.5895      7.2009
   679.0000    124.3565      0.0000    541.0566      7.2780
   679.2500    126.0396      0.0000    532.9358      7.2189
   679.5000    125.4712      0.0000    499.0269      7.1502
   679.7500    122.9191      0.0000    460.3583      7.1671
   680.0000    119.0304      0.0000    434.1769      7.2769
   680.2500    114.7945      0.0000    422.5216      7.4144
   680.5000    111.3935      0.0000    421.4755      7.4841
   680.7500    110.2487      0.0000    433.7225      7.3970
   681.0000    112.9249      0.0000    467.3900      7.1069
   681.2500    120.0826      0.0000    524.4637      6.6406
   681.5000    130.3610      0.0000    594.4908      6.0913
   681.7500    140.8846      0.0000    661.0696      5.5681
   682.0000    148.9999      0.0000    712.0320      5.1286
   682.2500    153.3310      0.0000    742.6254      4.7445
   682.5000    153.6502      0.0000    753.8910      4.3397
   682.7500    150.5211      0.0000    752.4999      3.8822
   683.0000    145.1761      0.0000    750.0825      3.4317
   683.2500    139.2034      0.0000    758.1293      3.0798
   683.5000    133.9198      0.0000    781.6187      2.8628
   683.7500    129.8795      2.7621    816.2789      2.7536
   684.0000    126.8045      2.4426    849.6393      2.7137
   684.2500    123.8839      0.0000    864.7374      2.7315
   684.5000    120.3707      0.0000    848.5643      2.8210
   684.7500    116.2287      0.0000    802.8806      2.9975
   685.0000    112.1363      0.0000    746.5200      3.2520
   685.2500    108.6114      0.0000    703.2615      3.5478
   685.5000    105.4004      0.0000    685.6152      3.8468
   685.7500    102.2165      0.0000    690.0057      4.1304
   686.0000     99.8593      0.0000    705.3307      4.3882
   686.2500     99.7593      0.0000    723.6592      4.6029
   686.5000    102.2378      0.0000    743.2584      4.7573
   686.7500    105.8927      0.0000    764.0554      4.8504
   687.0000    109.0799      0.0000    782.4254      4.9056
   687.2500    111.5099      0.0000    791.2310      4.9727
   687.5000    114.1362      0.0000    783.7012      5.1194
   687.7500    118.0374      0.0000    755.3155      5.4060
   688.0000    123.8055      0.0000    703.1516      5.8541
   688.2500    131.4196      0.0000    627.8137      6.4329
   688.5000    139.9983      0.0000    538.3707      7.0730
   688.7500    147.8649      0.0000    452.1757      7.6959
   689.0000    153.5313      0.0000    385.6689      8.2404
   689.2500    156.7332      0.0000    344.8583      8.6788
   689.5000    158.3270      0.0000    324.9529      9.0213
   689.7500    159.2782      0.0000    317.1916      9.3027
   690.0000    159.7998      0.0000    314.7647      9.5550
   690.2500    159.4797      0.0000    314.3373      9.7785
   690.5000    158.3841      0.0000    315.3846      9.9279
   690.7500    157.5648      0.0000    320.1473      9.9254
   691.0000    157.8436      0.0000    334.8916      9.6995
   691.2500    158.4935      0.0000    370.1936      9.2262
   691.5000    157.9068      0.0000    436.0411      8.5470
   691.7500    155.3723      0.0000    531.8358      7.7567
   692.0000    151.6506      0.0000    640.6783      6.9694
   692.2500    148.0100      0.0000    737.6523      6.2773
   692.5000    145.2011      0.0000    806.0739      5.7234
   692.7500    143.2962      0.0000    845.0685      5.3032
   693.0000    142.0922      0.0000    863.6810      4.9844
   693.2500    141.2534      0.0000    872.0637      4.7312
   693.5000    140.2353      0.0000    877.2400      4.5247
   693.7500    138.6072      0.0000    881.2697      4.3730
   694.0000    136.7114      0.0000    881.3386      4.2999
   694.2500    135.7592      0.0000    874.9155      4.3137
   694.5000    136.9373      0.0000    866.3061      4.3839
   694.7500    140.1553      0.0000    865.1223      4.4532
   695.0000    143.8262      0.0000    876.6865      4.4779
