~Version Information
VERS.                      2.0: CWLS Log ASCII Standard - VERSION 2.0
WRAP.                       NO: One line per depth step
~Well Information Block
STRT.FT               472.0000: 
STOP.FT              2430.5000: 
STEP.FT                 0.2500: 
NULL.                -999.2500: 
COMP.          Pioneer Natural Resources: COMPANY
WELL.          Flying Horse 12-11: WELL
FLD.           Purgatoire River: FIELD
LOC.           2428' FNL & 308' FWL: LOCATION
PROV.                 Colorado: PROVINCE
CNTY.               Las Animas: COUNTRY
SRVC.                Patterson: SERVICE COMPANY
DATE.          Sun May 29 11:58:35 2005: LOG DATE
UWI.           05 071 08378 00: UNIQUE WELL ID
~Curve Information Block
DEPT.FT            0 000 00 00: Depth
SN.Ohm-m                      : IEL Short Normal
SP.mV                         : IEL Spontaneous Potential
DIR.Ohm-m                     : IEL Induction Resistivity
GR.GAPI                       : Gamma Ray
~Parameter Information Block
~A  Depth        SN          SP         DIR          GR     
# ...
  2013.0000     10.2665    -27.7926     10.6660    105.9472
  2013.2500     10.1454    -27.8505     10.6473    105.8924
  2013.5000      9.9836    -27.8943     10.6067    106.7558
  2013.7500      9.8575    -27.9039     10.5546    107.5829
  2014.0000      9.8030    -27.8505     10.5049    108.3432
  2014.2500      9.8284    -27.7074     10.4682    108.3340
  2014.5000      9.9139    -27.4652     10.4488    108.0236
  2014.7500     10.0116    -27.1356     10.4470    108.0955
  2015.0000     10.0630    -26.7415     10.4619    108.9966
  2015.2500     10.0144    -26.3044     10.4909    109.9471
  2015.5000      9.8269    -25.8384     10.5296    111.3507
  2015.7500      9.5084    -25.3504     10.5721    112.0978
  2016.0000      9.1414    -24.8431     10.6142    113.0195
  2016.2500      8.8589    -24.3203     10.6563    113.6591
  2016.5000      8.8061    -23.7949     10.7014    114.7726
  2016.7500      9.0942    -23.2901     10.7505    115.4725
  2017.0000      9.6853    -22.8316     10.7972    115.9785
  2017.2500     10.3471    -22.4362     10.8280    115.7193
  2017.5000     10.8238    -22.1079     10.8284    114.3385
  2017.7500     10.9950    -21.8417     10.7888    112.9476
  2018.0000     10.8737    -21.6281     10.7083    110.9248
  2018.2500     10.5668    -21.4516     10.5918    110.1170
  2018.5000     10.2191    -21.2855     10.4458    110.1032
  2018.7500      9.9212    -21.0966     10.2762    110.7337
  2019.0000      9.6795    -20.8602     10.0872    111.9695
  2019.2500      9.4639    -20.5701      9.8827    112.6381
  2019.5000      9.2428    -20.2317      9.6677    113.2909
  2019.7500      8.9977    -19.8496      9.4494    113.6875
  2020.0000      8.7397    -19.4260      9.2365    114.5947
  2020.2500      8.5066    -18.9653      9.0382    115.4908
  2020.5000      8.3298    -18.4766      8.8631    117.2558
  2020.7500      8.2094    -17.9761      8.7183    118.6640
  2021.0000      8.1254    -17.4915      8.6076    120.8216
  2021.2500      8.0610    -17.0604      8.5312    121.8536
  2021.5000      8.0125    -16.7192      8.4864    121.8379
  2021.7500      7.9773    -16.4889      8.4701    120.5639
  2022.0000      7.9491    -16.3752      8.4801    117.5808
  2022.2500      7.9257    -16.3843      8.5165    115.8800
  2022.5000      7.9128    -16.5358      8.5805    115.3459
  2022.7500      7.9226    -16.8549      8.6747    116.6821
  2023.0000      7.9774    -17.3504      8.8028    120.4971
  2023.2500      8.0998    -18.0063      8.9701    123.2767
  2023.5000      8.2933    -18.7895      9.1821    126.0446
  2023.7500      8.5486    -19.6589      9.4429    126.2767
  2024.0000      8.8750    -20.5714      9.7540    123.9790
  2024.2500      9.2973    -21.4933     10.1159    121.1634
  2024.5000      9.8070    -22.4146     10.5306    116.6217
  2024.7500     10.3657    -23.3515     11.0030    114.2512
  2025.0000     10.9702    -24.3372     11.5398    111.9162
  2025.2500     11.6528    -25.4041     12.1462    110.5196
  2025.5000     12.4282    -26.5660     12.8248    107.3122
  2025.7500     13.2880    -27.8008     13.5781    104.1367
  2026.0000     14.2415    -29.0500     14.4124     98.2774
  2026.2500     15.3357    -30.2422     15.3399     94.1035
  2026.5000     16.6182    -31.3231     16.3737     87.8829
  2026.7500     18.0930    -32.2700     17.5198     83.7223
  2027.0000     19.7320    -33.0899     18.7684     77.2138
  2027.2500     21.5026    -33.8118     20.0921     72.6503
  2027.5000     23.3444    -34.4750     21.4521     65.6299
  2027.7500     25.1430    -35.1097     22.8111     61.0208
  2028.0000     26.7762    -35.7206     24.1418     54.7443
  2028.2500     28.2005    -36.2835     25.4243     51.4132
  2028.5000     29.4550    -36.7582     26.6346     48.3780
  2028.7500     30.5770    -37.1058     27.7359     47.8569
  2029.0000     31.5710    -37.3041     28.6894     49.1155
  2029.2500     32.4645    -37.3566     29.4833     50.8045
  2029.5000     33.3203    -37.2958     30.1543     53.2036
  2029.7500     34.1901    -37.1782     30.7746     53.9219
  2030.0000     35.0947    -37.0664     31.4147     53.1374
  2030.2500     36.0518    -37.0018     32.1133     51.6124
  2030.5000     37.1166    -36.9891     32.8766     48.6377
  2030.7500     38.3714    -37.0033     33.6901     46.5904
  2031.0000     39.8423    -37.0131     34.5242     43.7987
  2031.2500     41.4303    -37.0012     35.3290     42.2564
  2031.5000     42.9582    -36.9694     36.0421     40.5823
  2031.7500     44.2881    -36.9310     36.6179     39.8577
  2032.0000     45.3859    -36.9028     37.0577     38.9953
  2032.2500     46.2869    -36.9033     37.4061     38.3769
  2032.5000     47.0278    -36.9546     37.7078     37.5323
  2032.7500     47.6235    -37.0783     37.9629     37.2980
  2033.0000     48.0763    -37.2872     38.1242     37.4776
  2033.2500     48.3654    -37.5756     38.1398     37.5004
  2033.5000     48.4336    -37.9192     37.9977     36.3868
  2033.7500     48.2075    -38.2885     37.7286     34.6886
  2034.0000     47.6474    -38.6674     37.3692     31.3545
  2034.2500     46.8007    -39.0605     36.9265     29.2589
  2034.5000     45.7981    -39.4826     36.3800     27.2198
  2034.7500     44.7725    -39.9377     35.7144     26.8397
  2035.0000     43.7635    -40.4072     34.9498     27.6842
  2035.2500     42.6970    -40.8492     34.1405     29.0049
  2035.5000     41.4706    -41.2113     33.3544     31.7153
  2035.7500     40.0636    -41.4532     32.6476     33.6996
  2036.0000     38.5588    -41.5678     32.0470     36.3073
  2036.2500     37.0736    -41.5884     31.5423     37.5183
  2036.5000     35.7028    -41.5733     31.0974     38.4761
  2036.7500     34.5044    -41.5763     30.6810     38.6965
  2037.0000     33.5079    -41.6225     30.2934     38.6677
  2037.2500     32.7400    -41.7045     29.9668     38.4364
  2037.5000     32.2367    -41.7982     29.7384     37.6309
  2037.7500     32.0071    -41.8774     29.6294     36.7623
  2038.0000     31.9913    -41.9150     29.6435     35.2854
  2038.2500     32.0888    -41.8736     29.7848     34.5411
  2038.5000     32.2343    -41.7017     30.0712     34.2749
  2038.7500     32.4071    -41.3432     30.5320     34.7200
  2039.0000     32.6082    -40.7569     31.1960     36.1417
  2039.2500     32.9062    -39.9327     32.0709     37.4789
  2039.5000     33.3828    -38.8991     33.1171     39.8957
  2039.7500     33.9673    -37.7181     34.2146     41.5615
  2040.0000     34.5113    -36.4709     35.1645     43.4713
  2040.2500     34.9923    -35.2368     35.7683     43.9558
  2040.5000     35.5054    -34.0710     35.9554     43.2684
  2040.7500     36.1236    -32.9895     35.8284     42.1163
  2041.0000     36.8328    -31.9670     35.5656     40.3091
  2041.2500     37.5578    -30.9531     35.2930     39.6879
  2041.5000     38.2079    -29.8982     35.0503     40.2680
  2041.7500     38.7106    -28.7758     34.8354     41.6277
  2042.0000     39.0256    -27.5886     34.6455     44.7404
  2042.2500     39.1175    -26.3612     34.4632     47.4224
  2042.5000     38.9271    -25.1309     34.2207     52.4765
  2042.7500     38.4147    -23.9411     33.8014     56.5996
  2043.0000     37.6186    -22.8323     33.1026     63.6769
  2043.2500     36.6146    -21.8327     32.1117     68.5780
  2043.5000     35.4512    -20.9506     30.9181     75.1508
  2043.7500     34.1714    -20.1741     29.6499     78.4771
  2044.0000     32.8322    -19.4769     28.3986     81.7606
  2044.2500     31.4561    -18.8299     27.1940     83.2692
  2044.5000     30.0102    -18.2136     26.0337     85.6045
  2044.7500     28.4502    -17.6239     24.9207     87.7364
  2045.0000     26.7778    -17.0690     23.8753     92.3642
  2045.2500     25.0770    -16.5616     22.9180     96.4452
  2045.5000     23.4914    -16.1120     22.0515    103.4394
  2045.7500     22.1307    -15.7240     21.2596    107.9613
  2046.0000     21.0004    -15.3952     20.5212    113.1565
  2046.2500     20.0372    -15.1165     19.8240    115.0596
