~Version Information
 VERS.                                  2.0 : CWLS LAS VERSION
 WRAP.                                   NO : WRAPING MODE
 SWARE .                 MController 2.5.0E : SOFTWARE VERSION
~Well Information
 WELL.                         Burson 8-31r : WELL
 COMP.                      Petrogulf CORP. : COMPANY
 FLD.                       Purgatory River : FIELD
 LOC.                        NWNE 8 33S 67W : LOCATION
 DATE.                         4/28-4/29/04 : DATE(S) LOGGED
 SRVC.                                  BGS : SERVICE COMPANY
 STAT.                             Colorado : STATE
 CNTY.                           Las Animas : COUNTY
 CTRY.                        United States : COUNTRY
 API.                       05-071-08039-00 : API NUMBER
 STRT.FT                              41.00 : START DEPTH
 STOP.FT                            2225.00 : STOP DEPTH
 STEP.FT                               1.00 : DEPTH INCREMENT
 NULL.                                -9999 : NULL VALUE
~Curve information
 DEPTH.FT                                   :
 ROP.MIN/FT                                 :
 GAS.UNITS                                  :
~ASCII Log data
# ...
      641.00        0.367          7.3 
      642.00        0.333          7.5 
      643.00        0.383          7.2 
      644.00        0.300          7.1 
      645.00        0.200          7.0 
      646.00        0.200          7.1 
      647.00        0.167          7.3 
      648.00        0.200          7.0 
      649.00        0.233          7.0 
      650.00        0.333          7.2 
      651.00        0.333          7.1 
      652.00        0.367          7.7 
      653.00        0.367          7.6 
      654.00        0.367          7.2 
      655.00        0.383          7.5 
      656.00        3.250          7.6 
      657.00        0.100          7.0 
      658.00        0.333          7.4 
      659.00        0.433          7.5 
      660.00        0.400          7.7 
      661.00        0.433          7.5 
      662.00        0.433          7.5 
      663.00        0.367          7.6 
      664.00        0.333          7.8 
      665.00        0.283          7.2 
      666.00        0.333          7.6 
      667.00        0.333          7.5 
      668.00        0.267          7.1 
      669.00        0.267          7.8 
      670.00        0.233          7.5 
      671.00        0.200          7.2 
      672.00        0.167          7.4 
      673.00        0.133          6.7 
      674.00        0.200          7.0 
      675.00        0.133          6.8 
      676.00        0.167          7.0 
      677.00        0.200          7.4 
      678.00        0.233          7.5 
      679.00        0.267          9.2 
      680.00        0.317         16.9 
      681.00        0.300         23.8 
      682.00        0.200         24.4 
      683.00        0.167         23.3 
      684.00        0.133         22.2 
      685.00        0.200         20.9 
      686.00       14.833         27.4 
      687.00        0.300         12.7 
      688.00        0.233         11.2 
      689.00        0.517          9.5 
      690.00        0.633          8.6 
      691.00        0.500          8.4 
      692.00        0.400          8.4 
      693.00        0.600          9.0 
      694.00        0.200          9.2 
      695.00        0.400          8.4 
      696.00        0.717          7.6 
      697.00        0.533          8.3 
      698.00        0.333          7.9 
      699.00        0.333          8.3 
      700.00        0.333          7.8 
      701.00        0.300          7.8 
      702.00        0.367          7.9 
      703.00        0.333          7.9 
      704.00        0.300          8.1 
      705.00        0.250          7.5 
      706.00        0.200          8.1 
      707.00        0.200          7.8 
      708.00        0.233          7.5 
      709.00        0.233          7.2 
      710.00        0.200          8.0 
      711.00        0.200          8.4 
      712.00        0.233          8.1 
      713.00        0.233          7.6 
      714.00        0.400          8.4 
      715.00        0.367          8.0 
      716.00        4.733          9.5 
      717.00        0.333          8.5 
      718.00        0.100          8.0 
      719.00        0.300          8.1 
      720.00        0.300          7.7 
      721.00        0.300          7.7 
      722.00        0.267          8.3 
      723.00        0.267          8.4 
      724.00        0.300          8.0 
      725.00        0.300          7.8 
      726.00        0.350          8.3 
      727.00        0.367          8.4 
      728.00        0.367          8.3 
      729.00        0.433          8.1 
      730.00        0.433          8.3 
      731.00        0.300          8.2 
      732.00        0.300          7.7 
      733.00        0.267          7.9 
      734.00        0.233          7.6 
      735.00        0.300          8.1 
      736.00        0.350          8.1 
      737.00        0.300          8.6 
      738.00        0.400          8.3 
      739.00        0.400          7.9 
      740.00        0.433          8.2 
      741.00        0.333          8.0 
      742.00        0.300          8.1 
      743.00        0.300          8.1 
      744.00        0.333          8.3 
      745.00        0.367          8.1 
      746.00        3.433        171.1 
      747.00        0.667        250.1 
      748.00        0.467        162.3 
      749.00        0.367        125.9 
      750.00        0.400        115.1 
      751.00        0.367         76.2 
      752.00        0.367         47.8 
      753.00        0.400         31.1 
      754.00        0.383         14.0 
      755.00        0.367          9.0 
      756.00        0.433          7.9 
      757.00        0.400          7.0 
      758.00        0.333          6.1 
      759.00        0.400          6.8 
      760.00        0.367          6.3 
      761.00        0.400          6.7 
      762.00        0.400          6.4 
      763.00        0.417          6.3 
      764.00        0.367          6.9 
      765.00        0.400          6.8 
      766.00        0.433          6.9 
      767.00        0.433          6.4 
      768.00        0.367          6.9 
      769.00        0.367          6.2 
      770.00        0.300          6.7 
      771.00        0.317          6.6 
      772.00        0.233          6.1 
      773.00        0.200          6.6 
      774.00        0.200          6.3 
      775.00        0.167          6.5 
      776.00        3.383        206.0 
      777.00        0.500        293.7 
      778.00        0.467        251.1 
      779.00        0.433        135.1 
      780.00        0.433        122.0 
      781.00        0.400         93.2 
      782.00        0.550         49.6 
      783.00        0.300         22.5 
      784.00        0.400         14.0 
      785.00        0.400          7.7 
      786.00        0.367          7.1 
      787.00        0.367          6.3 
      788.00        0.433          6.1 
      789.00        0.400          6.1 
      790.00        0.367          5.9 
      791.00        0.383          6.4 
      792.00        0.333          5.7 
      793.00        0.400          5.9 
      794.00        0.300          5.7 
      795.00        0.200          5.8 
      796.00        0.200          5.6 
      797.00        0.167          6.0 
      798.00        0.333          6.0 
      799.00        0.333          6.7 
      800.00        0.300          8.1 
      801.00        0.367          8.2 
      802.00        0.417          6.9 
      803.00        0.400          6.5 
      804.00        0.400          6.4 
      805.00        0.367          6.3 
      806.00        3.717        239.9 
      807.00        0.700        270.5 
      808.00        0.467        161.9 
      809.00        0.483        133.0 
      810.00        0.467        106.3 
      811.00        0.533         66.7 
      812.00        0.433         35.9 
      813.00        0.467         28.8 
      814.00        0.467         28.4 
      815.00        0.467         18.9 
      816.00        0.517          8.3 
      817.00        0.400          6.0 
      818.00        0.400          5.4 
      819.00        0.400          5.4 
      820.00        0.433          5.1 
      821.00        0.367          5.4 
      822.00        0.367          5.4 
      823.00        0.367          5.2 
      824.00        0.367          5.6 
      825.00        0.483          5.8 
      826.00        0.367          5.9 
      827.00        0.333          5.8 
      828.00        0.367          5.9 
      829.00        0.367          5.8 
      830.00        0.333          5.8 
      831.00        0.300          5.6 
      832.00        0.367          5.4 
      833.00        0.367          5.6 
      834.00        0.350          5.5 
      835.00        0.333          5.6 
      836.00        3.083        152.1 
      837.00        0.367        245.0 
      838.00        0.100        229.3 
      839.00        0.067        229.3 
      840.00        0.333        216.0 
