~Version Information
VERS.                      2.0: CWLS Log ASCII Standard - VERSION 2.0
WRAP.                       NO: One line per depth step
~Well Information Block
STRT.FT               294.0000: 
STOP.FT              1961.5000: 
STEP.FT                 0.2500: 
NULL.                -999.2500: 
COMP.          Pioneer Natural Resources: COMPANY
WELL.          Commander 43-26 Tr: WELL
FLD.           Purgatoire River: FIELD
LOC.           2439' FSL & 446' FEL: LOCATION
PROV.                 Colorado: PROVINCE
CNTY.               Las Animas: COUNTRY
SRVC.                Patterson: SERVICE COMPANY
DATE.          Thu Apr 14 18:26:07 2005: LOG DATE
UWI.           05 071 08341 00: UNIQUE WELL ID
~Curve Information Block
DEPT.FT            0 000 00 00: Depth
SN.Ohm-m                      : IEL Short Normal
SP.mV                         : IEL Spontaneous Potential
DIR.Ohm-m                     : IEL Induction Resistivity
GR.GAPI                       : Gamma Ray
~Parameter Information Block
~A  Depth        SN          SP         DIR          GR     
# ...
  1500.0000     15.6302      0.4559      9.4834    120.8874
  1500.2500     15.9587      0.4096      9.5555    119.4732
  1500.5000     16.0695      0.3751      9.6023    119.2288
  1500.7500     15.8693      0.3253      9.6479    120.4363
  1501.0000     15.2085      0.2280      9.7153    124.0993
  1501.2500     14.0613      0.0624      9.8191    127.3031
  1501.5000     12.7754     -0.1747      9.9617    132.0642
  1501.7500     11.8657     -0.4689     10.1320    134.4539
  1502.0000     11.5034     -0.7880     10.3084    135.6445
  1502.2500     11.4823     -1.0857     10.4649    134.3411
  1502.5000     11.6284     -1.3170     10.5807    129.0999
  1502.7500     11.9379     -1.4561     10.6496    123.8452
  1503.0000     12.3760     -1.5052     10.6845    114.8988
  1503.2500     12.8099     -1.4944     10.7147    109.4435
  1503.5000     13.1991     -1.4717     10.7785    103.8449
  1503.7500     13.7496     -1.4832     10.9154    102.3237
  1504.0000     14.7071     -1.5473     11.1614    103.1019
  1504.2500     15.9924     -1.6452     11.5430    105.1339
  1504.5000     17.2078     -1.7411     12.0705    109.3066
  1504.7500     17.9658     -1.8108     12.7306    112.0795
  1505.0000     18.1626     -1.8481     13.4828    115.0019
  1505.2500     18.0701     -1.8506     14.2656    115.7373
  1505.5000     18.1228     -1.8125     15.0138    115.1102
  1505.7500     18.5808     -1.7358     15.6794    113.8222
  1506.0000     19.4001     -1.6422     16.2430    111.0903
  1506.2500     20.2823     -1.5652     16.7048    109.0501
  1506.5000     20.9182     -1.5265     17.0707    106.2950
  1506.7500     21.3134     -1.5192     17.3490    105.0113
  1507.0000     21.6962     -1.5144     17.5605    104.3084
  1507.2500     22.1057     -1.4832     17.7424    104.6714
  1507.5000     22.3696     -1.4133     17.9354    105.9419
  1507.7500     22.4029     -1.3108     18.1653    106.7208
  1508.0000     22.2617     -1.1954     18.4379    107.1381
  1508.2500     22.0035     -1.0947     18.7485    107.1211
  1508.5000     21.6932     -1.0348     19.0900    107.8167
  1508.7500     21.4589     -1.0282     19.4493    109.3085
  1509.0000     21.4088     -1.0705     19.7966    112.9646
  1509.2500     21.5391     -1.1555     20.0884    115.7045
  1509.5000     21.7195     -1.2891     20.2879    118.6701
  1509.7500     21.7867     -1.4816     20.3876    118.9852
  1510.0000     21.7291     -1.7252     20.4142    116.3057
  1510.2500     21.7337     -1.9826     20.4114    112.8053
  1510.5000     21.9674     -2.1963     20.4184    106.4762
  1510.7500     22.3713     -2.3155     20.4599    102.4445
  1511.0000     22.7530     -2.3265     20.5494     97.9407
  1511.2500     23.0030     -2.2669     20.6936     96.4421
  1511.5000     23.1641     -2.2066     20.8885     96.4674
  1511.7500     23.3166     -2.2020     21.1146     97.5019
  1512.0000     23.4232     -2.2566     21.3453     99.3999
  1512.2500     23.3926     -2.3226     21.5657    100.3965
  1512.5000     23.2721     -2.3377     21.7819    101.2160
  1512.7500     23.2154     -2.2661     22.0054    101.3719
  1513.0000     23.3064     -2.1144     22.2250    101.1382
  1513.2500     23.5511     -1.9158     22.3968    100.6999
  1513.5000     23.9704     -1.7071     22.4680     99.7518
  1513.7500     24.5456     -1.5174     22.4224     99.0529
  1514.0000     25.1184     -1.3706     22.3082     98.0507
  1514.2500     25.4849     -1.2842     22.2232     97.4610
  1514.5000     25.5757     -1.2605     22.2647     96.9184
  1514.7500     25.4986     -1.2845     22.4806     97.0519
  1515.0000     25.4207     -1.3369     22.8471     98.4566
  1515.2500     25.4096     -1.4114     23.2804    100.2578
  1515.5000     25.4040     -1.5150     23.6799    103.8725
  1515.7500     25.3053     -1.6504     23.9776    106.4643
  1516.0000     25.0736     -1.8029     24.1657    109.6707
  1516.2500     24.7746     -1.9478     24.2788    110.7572
  1516.5000     24.5206     -2.0692     24.3551    110.3612
  1516.7500     24.3483     -2.1687     24.4059    109.1843
  1517.0000     24.2309     -2.2615     24.4165    107.5229
  1517.2500     24.2227     -2.3677     24.3678    107.0084
  1517.5000     24.3584     -2.5052     24.2585    106.7212
  1517.7500     24.4204     -2.6821     24.1126    106.1119
  1518.0000     24.2222     -2.8914     23.9718    103.3702
  1518.2500     23.9754     -3.1104     23.8847    100.1602
  1518.5000     23.9873     -3.3095     23.8958     94.4427
  1518.7500     24.2412     -3.4633     24.0323     91.1685
  1519.0000     24.5003     -3.5605     24.2904     87.9122
  1519.2500     24.6512     -3.6073     24.6270     86.1194
  1519.5000     24.7772     -3.6241     24.9646     81.9704
  1519.7500     24.9616     -3.6311     25.2181     77.8852
  1520.0000     25.1925     -3.6314     25.3348     71.4925
  1520.2500     25.4046     -3.6064     25.3237     68.7434
  1520.5000     25.5513     -3.5307     25.2480     69.1573
  1520.7500     25.6870     -3.3936     25.1814     72.7624
  1521.0000     25.8893     -3.2072     25.1612     81.4886
  1521.2500     26.0849     -2.9972     25.1705     87.5101
  1521.5000     26.1322     -2.7904     25.1599     93.2106
  1521.7500     26.0277     -2.6106     25.0915     93.5545
  1522.0000     25.8732     -2.4777     24.9669     89.0474
  1522.2500     25.7674     -2.4039     24.8170     83.7888
  1522.5000     25.8121     -2.3845     24.6666     75.0419
  1522.7500     26.0905     -2.3950     24.5104     69.9674
  1523.0000     26.5642     -2.4017     24.3156     64.7636
  1523.2500     27.0634     -2.3797     24.0404     62.8567
  1523.5000     27.4379     -2.3232     23.6504     61.3490
  1523.7500     27.6636     -2.2441     23.1224     60.6720
  1524.0000     27.7421     -2.1609     22.4449     59.9286
  1524.2500     27.5865     -2.0891     21.6232     59.9421
  1524.5000     27.0793     -2.0352     20.6849     61.7223
  1524.7500     26.1935     -2.0000     19.6759     64.8043
  1525.0000     25.0066     -1.9891     18.6494     73.5943
  1525.2500     23.5980     -2.0209     17.6550     82.7505
  1525.5000     22.0245     -2.1196     16.7324    100.9144
  1525.7500     20.3857     -2.2974     15.9060    114.5822
  1526.0000     18.7769     -2.5380     15.1821    133.9020
  1526.2500     17.2280     -2.7970     14.5501    144.1572
  1526.5000     15.8147     -3.0178     13.9904    154.0266
  1526.7500     14.7184     -3.1557     13.4851    157.1359
  1527.0000     14.0187     -3.1980     13.0251    158.5665
  1527.2500     13.5826     -3.1707     12.6106    158.8505
  1527.5000     13.2481     -3.1231     12.2466    159.7961
  1527.7500     12.9637     -3.0971     11.9368    160.6883
  1528.0000     12.7571     -3.1007     11.6792    161.4058
  1528.2500     12.6592     -3.1044     11.4685    161.0348
  1528.5000     12.6456     -3.0616     11.2979    159.3092
  1528.7500     12.6462     -2.9382     11.1602    157.8078
  1529.0000     12.6179     -2.7319     11.0463    155.7468
  1529.2500     12.5719     -2.4734     10.9482    154.6717
  1529.5000     12.5345     -2.2116     10.8633    153.4885
  1529.7500     12.5323     -1.9927     10.7968    152.9479
  1530.0000     12.5970     -1.8427     10.7565    152.5081
  1530.2500     12.7450     -1.7598     10.7436    152.4473
  1530.5000     12.9484     -1.7189     10.7473    152.6222
  1530.7500     13.1079     -1.6872     10.7469    152.9181
  1531.0000     13.0964     -1.6420     10.7203    153.9594
  1531.2500     12.8879     -1.5813     10.6540    155.3798
  1531.5000     12.5858     -1.5192     10.5487    158.9991
  1531.7500     12.2746     -1.4717     10.4184    162.3318
  1532.0000     11.9720     -1.4457     10.2827    167.8088
  1532.2500     11.7288     -1.4383     10.1581    170.9124
  1532.5000     11.5907     -1.4445     10.0533    173.5131
  1532.7500     11.5208     -1.4662      9.9696    173.6895
  1533.0000     11.4514     -1.5158      9.9061    172.0748
  1533.2500     11.3552     -1.6093      9.8628    170.2271
