~Version Information
VERS.                      2.0: CWLS Log ASCII Standard - VERSION 2.0
WRAP.                       NO: One line per depth step
~Well Information Block
STRT.FT                -7.0000: 
STOP.FT              2389.2500: 
STEP.FT                 0.2500: 
NULL.                -999.2500: 
COMP.          Pioneer Natural Resources: COMPANY
WELL.            Victory 12-14: WELL
FLD.           Purgatorie River: FIELD
LOC.           2434' FNL & 188' FWL------: LOCATION
PROV.                       CO: PROVINCE
CNTY.               Las Animas: COUNTRY
SRVC.          Patterson Wireline: SERVICE COMPANY
DATE.          Fri Apr 22 14:29:17 2005: LOG DATE
UWI.           05 071 08332 00: UNIQUE WELL ID
~Curve Information Block
DEPT.FT            0 000 00 00: Depth
CCL.                          : Casing Collar Locator
TT3.usec                      : CBL 3' Travel Time
AMP3.mV                       : CBL 3' Amplitude
GR.GAPI                       : Gamma Ray
~Parameter Information Block
~A  Depth       CCL         TT3         AMP3         GR     
    -7.0000   -999.2500   -999.2500   -999.2500     67.3610
    -6.7500   -999.2500   -999.2500   -999.2500     63.8574
    -6.5000   -999.2500   -999.2500   -999.2500     61.9463
    -6.2500   -999.2500   -999.2500   -999.2500     62.0510
    -6.0000   -999.2500   -999.2500   -999.2500     63.4458
    -5.7500   -999.2500   -999.2500   -999.2500     64.9049
    -5.5000   -999.2500   -999.2500   -999.2500     65.5087
    -5.2500   -999.2500   -999.2500   -999.2500     65.1870
    -5.0000   -999.2500   -999.2500   -999.2500     64.7610
    -4.7500   -999.2500   -999.2500   -999.2500     65.2541
    -4.5000   -999.2500   -999.2500   -999.2500     66.8806
    -4.2500   -999.2500   -999.2500   -999.2500     68.7316
    -4.0000   -999.2500   -999.2500   -999.2500     69.4590
    -3.7500   -999.2500   -999.2500   -999.2500     68.3382
    -3.5000   -999.2500   -999.2500   -999.2500     65.9578
    -3.2500   -999.2500   -999.2500   -999.2500     63.8249
    -3.0000   -999.2500   -999.2500   -999.2500     62.9027
    -2.7500   -999.2500   -999.2500   -999.2500     62.5715
    -2.5000   -999.2500   -999.2500   -999.2500     61.4850
    -2.2500   -999.2500   -999.2500   -999.2500     59.4700
    -2.0000   -999.2500   1167.0000      0.6742     57.9583
    -1.7500   -999.2500   1167.0000      0.6681     58.2814
    -1.5000   -999.2500   1167.0000      0.6584     59.9736
    -1.2500   -999.2500   1167.0000      0.6565     61.0211
    -1.0000   -999.2500   1167.0000      0.6671     59.5672
    -0.7500   -999.2500   1167.0000      0.6829     55.3125
    -0.5000   -999.2500   1167.0000      0.6912     49.4740
    -0.2500   -999.2500   1167.0000      0.6676     38.7720
     0.0000   -999.2500   1167.0000      0.6516     34.9419
     0.2500   -999.2500   1167.0000      0.6473     31.8065
     0.5000   -999.2500   1167.0000      0.6567     28.9870
     0.7500   -999.2500   1167.0000      0.6718     26.4537
     1.0000   -999.2500   1167.0000      0.6811     24.7453
     1.2500   -999.2500   1167.0000      0.6794     24.6637
     1.5000   -999.2500   1167.0000      0.6719     26.6130
     1.7500   -999.2500   1167.0000      0.6691     30.3457
     2.0000   -999.2500   1167.0000      0.6762     35.2533
     2.2500   -999.2500   1167.0000      0.6880     40.5417
     2.5000   -999.2500   1167.0000      0.6949     45.2236
     2.7500   -999.2500   1167.0000      0.6912     48.6230
     3.0000      0.0000   1167.0000      0.6801     51.1639
     3.2500      0.0000   1167.0000      0.6704     54.0661
     3.5000      0.0000   1167.0000      0.6701     57.8256
     3.7500      0.0000   1167.0000      0.6787     61.3590
     4.0000      0.0000   1167.0000      0.6875     63.0091
     4.2500      0.0000   1167.0000      0.6888     62.2599
     4.5000      0.0000   1167.0000      0.6845     60.3685
     4.7500      0.0000   1167.0000      0.6824     59.3243
     5.0000      0.0000   1167.0000      0.6865     60.0427
     5.2500      0.0000   1167.0000      0.6920     61.5760
     5.5000      0.0000   1167.0000      0.6919     62.2032
     5.7500      0.0000   1167.0000      0.6853     61.2161
     6.0000      0.0000   1167.0000      0.6773     59.5801
     6.2500      0.0000   1167.0000      0.6712     58.8973
     6.5000      0.0000   1167.0000      0.6647     59.7541
     6.7500      0.0000   1167.0000      0.6546     61.2032
     7.0000      0.0000   1167.0000      0.6431     62.0543
     7.2500      0.0000   1167.0000      0.6358     62.3485
     7.5000      0.0000   1167.0000      0.6349     63.0668
     7.7500      0.0000   1167.0000      0.6366     64.6121
     8.0000      0.0000   1167.0000      0.6359     66.1933
     8.2500      0.0000   1167.0000      0.6332     66.7599
     8.5000      2.0000   1167.0000      0.6327     66.0816
     8.7500      0.0000   1167.0000      0.6378     64.8162
     9.0000      0.0000   1167.0000      0.6478     63.8842
     9.2500      0.0000   1167.0000      0.6583     63.9569
     9.5000     -2.0000   1166.9393      0.6686     65.2153
     9.7500      0.0000   1166.5436      0.6936     67.0595
    10.0000      0.0000   1164.5341      0.8046     68.0669
    10.2500      0.0000   1156.5863      1.2313     66.7976
    10.5000      0.0000   1132.1051      2.5209     62.9611
    10.7500      0.0000   1073.3767      5.5774     57.7747
    11.0000      0.0000    963.6539     11.2537     53.2604
    11.2500      0.0000    803.9976     19.5046     51.1823
    11.5000      0.0000    623.0605     28.8924     52.2883
    11.7500      0.0000    463.3466     37.2666     56.1246
    12.0000      0.0000    353.5319     43.1444     61.4100
    12.2500      0.0000    294.7162     46.4115     66.6863
    12.5000      0.0000    270.1865     47.8652     70.8443
    12.7500      0.0000    262.2345     48.3963     73.3741
    13.0000      0.0000    260.2398     48.5727     74.2652
    13.2500      0.0000    259.8476     48.6451     73.6024
    13.5000      0.0000    259.7725     48.6848     71.4127
    13.7500      0.0000    259.7597     48.6939     68.1932
    14.0000      0.0000    259.7685     48.6710     65.3585
    14.2500      0.0000    259.7962     48.6328     64.5943
    14.5000      0.0000    259.8250     48.6019     66.6889
    14.7500      0.0000    259.8473     48.5804     71.2305
    15.0000      0.0000    259.8763     48.5474     77.1195
    15.2500      0.0000    259.9265     48.4911     83.0105
    15.5000      0.0000    259.9903     48.4343     87.6154
    15.7500      0.0000    260.0414     48.4159     90.1311
    16.0000      0.0000    260.0652     48.4335     90.3721
    16.2500      0.0000    260.0870     48.4016     88.3892
    16.5000      0.0000    260.1994     48.1537     84.2638
    16.7500      0.0000    260.6255     47.4786     78.4906
    17.0000      0.0000    261.8448     46.1725     72.2243
    17.2500      0.0000    264.6357     44.0947     66.7114
    17.5000      0.0000    269.7669     41.2161     62.4052
    17.7500      0.0000    277.3452     37.6492     58.7824
    18.0000      0.0000    286.8137     33.6423     55.2162
    18.2500      0.0000    298.6523     29.5205     52.0784
    18.5000      0.0000    317.5295     25.5790     50.6141
    18.7500      0.0000    354.0165     21.9964     51.4779
    19.0000      0.0000    420.8253     18.8258     53.7716
    19.2500      0.0000    522.8499     16.0450     55.9033
    19.5000      0.0000    647.7564     13.6146     57.0805
    19.7500      0.0000    767.3138     11.5113     57.5964
    20.0000      0.0000    851.8618      9.7344     57.8824
    20.2500      0.0000    887.8344      8.2941     57.7444
    20.5000      0.0000    884.1279      7.1918     56.7105
    20.7500      0.0000    862.4262      6.4053     55.1492
    21.0000      0.0000    841.3782      5.8902     54.8027
    21.2500      0.0000    828.4989      5.5913     57.6240
    21.5000      0.0000    822.8074      5.4539     63.8979
    21.7500      0.0000    820.9223      5.4242     72.0357
    22.0000      0.0000    820.4675      5.4482     80.3409
    22.2500      0.0000    820.4121      5.4765     88.1157
    22.5000      0.0000    820.4492      5.4768     94.7364
    22.7500      0.0000    820.4882      5.4437     98.7800
    23.0000      0.0000    820.4843      5.3965     99.0409
    23.2500      0.0000    820.4107      5.3624     96.0291
    23.5000      0.0000    820.2482      5.3541     91.8548
    23.7500      0.0000    819.9822      5.3619     88.6540
    24.0000      0.0000    819.6254      5.3636     87.2327
    24.2500      0.0000    819.2417      5.3452     87.1027
    24.5000      0.0000    818.9220      5.3138     87.6331
    24.7500      0.0000    818.7255      5.2916     88.8610
    25.0000      0.0000    818.6512      5.2958     90.9561
    25.2500      0.0000    818.6641      5.3237     93.1931
    25.5000      0.0000    818.7278      5.3563     94.0623
    25.7500      0.0000    818.8134      5.3750     92.7328
    26.0000      0.0000    818.8947      5.3761     90.1496
    26.2500      0.0000    818.9528      5.3748     88.1026
