~Version Information
VERS.                      2.0: CWLS Log ASCII Standard - VERSION 2.0
WRAP.                       NO: One line per depth step
~Well Information Block
STRT.FT               -13.0000: 
STOP.FT              1411.2500: 
STEP.FT                 0.2500: 
NULL.                -999.2500: 
COMP.                         : COMPANY
WELL.                         : WELL
FLD.                          : FIELD
LOC.                          : LOCATION
CNTY.                         : COUNTY
SRVC.                         : SERVICE COMPANY
DATE.          Sat Jan 17 07:25:27 2004: LOG DATE
UWI.                          : UNIQUE WELL ID
STAT.                         : STATE
~Curve Information Block
DEPT.FT            0 000 00 00: Depth
CCL.                          : Casing Collar Locator
TT3.usec                      : CBL 3' Travel Time
AMP3.mV                       : CBL 3' Amplitude
GR.GAPI                       : Gamma Ray
~Parameter Information Block
~A  Depth       CCL         TT3         AMP3         GR     
# ...
  1394.0000      0.0000    750.5226      8.0665     43.0779
  1394.2500      0.0000    753.1286      8.1164     45.0813
  1394.5000      0.0000    754.7012      8.1901     46.4310
  1394.7500      0.0000    755.3091      8.3062     46.3498
  1395.0000      0.0000    755.4380      8.4643     44.9016
  1395.2500      0.0000    755.4930      8.6332     42.8899
  1395.5000      0.0000    755.6013      8.7646     40.9846
  1395.7500      0.0000    755.7242      8.8231     39.3079
  1396.0000      0.0000    755.8936      8.8013     37.9499
  1396.2500      0.0000    756.3915      8.7174     37.5075
  1396.5000      0.0000    757.6640      8.6066     38.6942
  1396.7500      0.0000    759.9244      8.5057     41.3469
  1397.0000      0.0000    762.8134      8.4330     43.9416
  1397.2500      0.0000    765.6516      8.3844     44.1584
  1397.5000      0.0000    767.9328      8.3426     40.1830
  1397.7500      0.0000    769.0240      8.2719     31.9970
  1398.0000      0.0000    767.3265      8.1014     21.6915
  1398.2500      0.0000    760.8013      7.7461     12.2466
  1398.5000      0.0000    749.3644      7.1838      5.6599
  1398.7500      0.0000    736.6055      6.5222      2.1134
  1399.0000      0.0000    728.0244      5.9583      0.6313
  1399.2500      0.0000    726.5586      5.6383      0.1496
  1399.5000      0.0000    730.0283      5.5573      0.0277
  1399.7500      0.0000    733.9734      5.6038      0.0037
  1400.0000      0.0000    736.7872      5.6847      0.0000
  1400.2500      0.0000    740.6559      5.7895   -999.2500
  1400.5000     -4.0000    747.4765      5.9497   -999.2500
  1400.7500      0.0000    755.7776      6.1744   -999.2500
  1401.0000      0.0000    762.4949      6.4574   -999.2500
  1401.2500      0.0000    766.4132      6.8381   -999.2500
  1401.5000      0.0000    768.7646      7.3838   -999.2500
  1401.7500      0.0000    770.3679      8.0526   -999.2500
  1402.0000      0.0000    767.6765      8.6126   -999.2500
  1402.2500      0.0000    750.0144      8.7578   -999.2500
  1402.5000      0.0000    700.6588      8.2880   -999.2500
  1402.7500      0.0000    605.3208      7.1808   -999.2500
  1403.0000      0.0000    466.4089      5.5937   -999.2500
  1403.2500      0.0000    309.9925      3.8532   -999.2500
  1403.5000      0.0000    172.9378      2.3458   -999.2500
  1403.7500      0.0000     79.3265      1.3165   -999.2500
  1404.0000      0.0000     29.4719      0.7654   -999.2500
  1404.2500      0.0000      8.7717      0.5348   -999.2500
  1404.5000      0.0000      2.0724      0.4597   -999.2500
  1404.7500      0.0000      0.3827      0.4406   -999.2500
  1405.0000      0.0000      0.0506      0.4368   -999.2500
  1405.2500      0.0000   -999.2500   -999.2500   -999.2500
  1405.5000      0.0000   -999.2500   -999.2500   -999.2500
  1405.7500      0.0000   -999.2500   -999.2500   -999.2500
  1406.0000      0.0000   -999.2500   -999.2500   -999.2500
  1406.2500      0.0000   -999.2500   -999.2500   -999.2500
  1406.5000      0.0000   -999.2500   -999.2500   -999.2500
  1406.7500      0.0000   -999.2500   -999.2500   -999.2500
  1407.0000      0.0000   -999.2500   -999.2500   -999.2500
  1407.2500      0.0000   -999.2500   -999.2500   -999.2500
  1407.5000      0.0000   -999.2500   -999.2500   -999.2500
  1407.7500      0.0000   -999.2500   -999.2500   -999.2500
  1408.0000      0.0000   -999.2500   -999.2500   -999.2500
  1408.2500      0.0000   -999.2500   -999.2500   -999.2500
  1408.5000      0.0000   -999.2500   -999.2500   -999.2500
  1408.7500      0.0000   -999.2500   -999.2500   -999.2500
  1409.0000      0.0000   -999.2500   -999.2500   -999.2500
  1409.2500      0.0000   -999.2500   -999.2500   -999.2500
  1409.5000      0.0000   -999.2500   -999.2500   -999.2500
  1409.7500      0.0000   -999.2500   -999.2500   -999.2500
  1410.0000      0.0000   -999.2500   -999.2500   -999.2500
  1410.2500      0.0000   -999.2500   -999.2500   -999.2500
  1410.5000      0.0000   -999.2500   -999.2500   -999.2500
  1410.7500   -999.2500   -999.2500   -999.2500   -999.2500
  1411.0000   -999.2500   -999.2500   -999.2500   -999.2500
  1411.2500   -999.2500   -999.2500   -999.2500   -999.2500
