~Version Information
VERS.                      2.0: CWLS Log ASCII Standard - VERSION 2.0
WRAP.                       NO: One line per depth step
~Well Information Block
STRT.FT               698.9000: 
STOP.FT              2460.4000: 
STEP.FT                 0.1000: 
NULL.                -999.2500: 
COMP.          Petrogulf Corporation: COMPANY
WELL.             State 16-23V: WELL
FLD.           Purgatorie River: FIELD
LOC.           2414' FSL & 2215' FWL: LOCATION
PROV.                 Colorado: PROVINCE
CNTY.               Las Animas: COUNTRY
SRVC.                         : SERVICE COMPANY
DATE.          Mon Jun 09 14:24:56 2003: LOG DATE
UWI.           05 071 07865 00: UNIQUE WELL ID
~Curve Information Block
DEPT.FT            0 000 00 00: Depth
DCAL.in                       : CDL Caliper
RHOB.g/cc                     : CDL Bulk Density
RHOC.g/cc                     : CDL Density Correction
DPOR.pu                       : CDL Density Porosity
GR.GAPI                       : Gamma Ray
NPOR.pu                       : Neutron Porosity
~Parameter Information Block
~A  Depth       DCAL        RHOB        RHOC        DPOR         GR         NPOR    
# ...
  1188.5000      8.3376      2.5872      0.0440      3.8075    134.2066     28.5364
  1188.6000      8.3376      2.5938      0.0397      3.4065    131.9336     28.1483
  1188.7000      8.3376      2.6004      0.0368      3.0085    129.4238     27.7394
  1188.8000      8.3387      2.6070      0.0353      2.6081    126.7975     27.3136
  1188.9000      8.3387      2.6136      0.0350      2.2040    124.1860     26.8773
  1189.0000      8.3474      2.6203      0.0356      1.7991    121.7161     26.4397
  1189.1000      8.3474      2.6269      0.0369      1.3997    119.4983     26.0124
  1189.2000      8.3474      2.6333      0.0385      1.0146    117.6179     25.6091
  1189.3000      8.3369      2.6392      0.0405      0.6546    116.1288     25.2443
  1189.4000      8.3369      2.6445      0.0425      0.3313    115.0544     24.9327
  1189.5000      8.3128      2.6491      0.0446      0.0559    114.3951     24.6878
  1189.6000      8.3128      2.6527      0.0469     -0.1610    114.1260     24.5208
  1189.7000      8.3128      2.6551      0.0493     -0.3108    114.2066     24.4393
  1189.8000      8.2835      2.6564      0.0518     -0.3874    114.5799     24.4468
  1189.9000      8.2835      2.6564      0.0544     -0.3876    115.1772     24.5417
  1190.0000      8.2558      2.6551      0.0571     -0.3114    115.9202     24.7169
  1190.1000      8.2558      2.6527      0.0597     -0.1626    116.7281     24.9605
  1190.2000      8.2558      2.6491      0.0621      0.0522    117.5247     25.2559
  1190.3000      8.2389      2.6447      0.0642      0.3231    118.2495     25.5835
  1190.4000      8.2389      2.6395      0.0658      0.6378    118.8593     25.9225
  1190.5000      8.2337      2.6338      0.0670      0.9825    119.3366     26.2524
  1190.6000      8.2337      2.6278      0.0676      1.3425    119.6863     26.5553
  1190.7000      8.2337      2.6219      0.0679      1.7029    119.9292     26.8174
  1190.8000      8.1967      2.6162      0.0677      2.0501    120.0926     27.0300
  1190.9000      8.1967      2.6109      0.0672      2.3718    120.2031     27.1900
  1191.0000      8.1221      2.6061      0.0665      2.6583    120.2774     27.2994
  1191.1000      8.1221      2.6021      0.0655      2.9021    120.3229     27.3646
  1191.2000      8.1221      2.5989      0.0643      3.0988    120.3390     27.3949
  1191.3000      8.1051      2.5964      0.0630      3.2464    120.3226     27.4010
  1191.4000      8.1051      2.5948      0.0616      3.3455    120.2752     27.3939
  1191.5000      8.1612      2.5939      0.0602      3.3986    120.2088     27.3836
  1191.6000      8.1612      2.5937      0.0589      3.4098    120.1477     27.3780
  1191.7000      8.1612      2.5942      0.0577      3.3843    120.1240     27.3829
  1191.8000      8.2118      2.5951      0.0568      3.3282    120.1770     27.4017
  1191.9000      8.2118      2.5964      0.0564      3.2476    120.3388     27.4353
  1192.0000      8.2329      2.5980      0.0565      3.1488    120.6286     27.4824
  1192.1000      8.2329      2.5999      0.0572      3.0381    121.0477     27.5397
  1192.2000      8.2329      2.6018      0.0585      2.9213    121.5780     27.6024
  1192.3000      8.2433      2.6037      0.0603      2.8039    122.1839     27.6649
  1192.4000      8.2433      2.6056      0.0625      2.6908    122.8176     27.7211
  1192.5000      8.2535      2.6073      0.0650      2.5864    123.4286     27.7654
  1192.6000      8.2535      2.6088      0.0676      2.4948    123.9720     27.7933
  1192.7000      8.2535      2.6101      0.0701      2.4193    124.4107     27.8017
  1192.8000      8.2710      2.6110      0.0723      2.3627    124.7234     27.7897
  1192.9000      8.2710      2.6116      0.0739      2.3275    124.9013     27.7579
  1193.0000      8.2811      2.6118      0.0748      2.3154    124.9469     27.7090
  1193.1000      8.2811      2.6116      0.0749      2.3273    124.8713     27.6466
  1193.2000      8.2811      2.6110      0.0740      2.3635    124.6940     27.5754
  1193.3000      8.2748      2.6100      0.0720      2.4229    124.4371     27.5004
  1193.4000      8.2748      2.6087      0.0688      2.5031    124.1273     27.4267
  1193.5000      8.2561      2.6071      0.0644      2.6000    123.7893     27.3596
  1193.6000      8.2561      2.6053      0.0590      2.7078    123.4468     27.3040
  1193.7000      8.2561      2.6035      0.0527      2.8183    123.1199     27.2647
  1193.8000      8.2409      2.6018      0.0458      2.9219    122.8243     27.2461
  1193.9000      8.2409      2.6004      0.0388      3.0071    122.5706     27.2518
  1194.0000      8.2330      2.5995      0.0322      3.0617    122.3668     27.2845
  1194.1000      8.2330      2.5993      0.0266      3.0731    122.2129     27.3452
  1194.2000      8.2330      2.6000      0.0227      3.0298    122.1083     27.4329
  1194.3000      8.2258      2.6018      0.0209      2.9222    122.0437     27.5449
  1194.4000      8.2258      2.6047      0.0215      2.7435    122.0040     27.6756
  1194.5000      8.2305      2.6089      0.0246      2.4909    121.9673     27.8180
  1194.6000      8.2305      2.6143      0.0298      2.1659    121.9012     27.9633
  1194.7000      8.2305      2.6207      0.0368      1.7748    121.7652     28.1023
  1194.8000      8.2452      2.6281      0.0449      1.3284    121.5115     28.2265
  1194.9000      8.2452      2.6361      0.0535      0.8415    121.0894     28.3286
  1195.0000      8.2293      2.6445      0.0617      0.3322    120.4536     28.4038
  1195.1000      8.2293      2.6530      0.0691     -0.1791    119.5732     28.4502
  1195.2000      8.2293      2.6611      0.0751     -0.6713    118.4401     28.4684
  1195.3000      8.1867      2.6685      0.0794     -1.1236    117.0829     28.4614
  1195.4000      8.1867      2.6750      0.0818     -1.5170    115.5670     28.4334
  1195.5000      8.1599      2.6803      0.0823     -1.8351    113.9984     28.3888
  1195.6000      8.1599      2.6841      0.0810     -2.0654    112.5149     28.3308
  1195.7000      8.1599      2.6863      0.0781     -2.1997    111.2703     28.2614
  1195.8000      8.1659      2.6869      0.0741     -2.2344    110.4137     28.1803
  1195.9000      8.1659      2.6858      0.0693     -2.1706    110.0679     28.0853
  1196.0000      8.1794      2.6832      0.0644     -2.0138    110.3092     27.9730
  1196.1000      8.1794      2.6793      0.0597     -1.7736    111.1564     27.8399
  1196.2000      8.1794      2.6741      0.0557     -1.4623    112.5673     27.6831
  1196.3000      8.1792      2.6681      0.0525     -1.0948    114.4445     27.5015
  1196.4000      8.1792      2.6613      0.0504     -0.6870    116.6543     27.2967
  1196.5000      8.1667      2.6542      0.0493     -0.2550    119.0450     27.0734
  1196.6000      8.1667      2.6469      0.0489      0.1856    121.4686     26.8393
  1196.7000      8.1667      2.6398      0.0491      0.6207    123.7992     26.6049
  1196.8000      8.1555      2.6329      0.0497      1.0384    125.9460     26.3820
  1196.9000      8.1555      2.6264      0.0505      1.4289    127.8587     26.1828
  1197.0000      8.1600      2.6205      0.0514      1.7854    129.5318     26.0184
  1197.1000      8.1600      2.6153      0.0525      2.1034    130.9961     25.8973
  1197.2000      8.1600      2.6107      0.0539      2.3809    132.3117     25.8252
  1197.3000      8.1732      2.6068      0.0556      2.6180    133.5528     25.8037
  1197.4000      8.1732      2.6035      0.0577      2.8163    134.7957     25.8316
  1197.5000      8.1893      2.6008      0.0602      2.9789    136.1083     25.9052
  1197.6000      8.1893      2.5987      0.0630      3.1095    137.5346     26.0189
  1197.7000      8.1893      2.5970      0.0659      3.2123    139.0868     26.1668
  1197.8000      8.2044      2.5957      0.0687      3.2914    140.7447     26.3424
  1197.9000      8.2044      2.5947      0.0713      3.3509    142.4531     26.5397
  1198.0000      8.1784      2.5940      0.0734      3.3943    144.1324     26.7526
