~Version Information
VERS.                      2.0: CWLS Log ASCII Standard - VERSION 2.0
WRAP.                       NO: One line per depth step
~Well Information Block
STRT.FT                10.0000: 
STOP.FT              1066.5000: 
STEP.FT                 0.2500: 
NULL.                -999.2500: 
COMP.          Pioneer Natural Resources: COMPANY
WELL.            Redland 23-24: WELL
FLD.           Purgatoire River: FIELD
LOC.           2356' FSL & 1880' FWL----: LOCATION
PROV.                 Colorado: PROVINCE
CNTY.               Las Animas: COUNTRY
SRVC.                         : SERVICE COMPANY
DATE.          Thu Mar 24 10:01:02 2005: LOG DATE
UWI.           05 071 08221   : UNIQUE WELL ID
~Curve Information Block
DEPT.FT            0 000 00 00: Depth
CCL.                          : Casing Collar Locator
TT3.usec                      : CBL 3' Travel Time
AMP3.mV                       : CBL 3' Amplitude
AMP5.mV                       : CBL 5' Amplitude
GR.GAPI                       : Gamma Ray
~Parameter Information Block
~A  Depth       CCL         TT3         AMP3        AMP5         GR     
# ...
   626.0000      0.0000    796.3041      6.0430      2.6503    118.1547
   626.2500      0.0000    778.7693      5.8208      2.4762    120.3903
   626.5000      0.0000    774.4292      5.6554      2.5632    122.4268
   626.7500      0.0000    782.9677      5.5287      1.3446    124.1926
   627.0000      0.0000    798.9166      5.4362      2.1280    125.7057
   627.2500      0.0000    818.3613      5.3949      1.2575    126.7139
   627.5000      0.0000    840.0926      5.4265      1.5187    126.9170
   627.7500      0.0000    862.4334      5.5261      1.7798    126.1489
   628.0000      0.0000    882.0048      5.6502      2.3891    124.2439
   628.2500      0.0000    895.8771      5.7468      1.8668    121.2406
   628.5000      0.0000    903.5616      5.7974      2.1280    117.9177
   628.7500      0.0000    906.4725      5.8251      3.0855    115.6532
   629.0000      0.0000    906.1339      5.8644      2.7373    115.3529
   629.2500      0.0000    903.2008      5.9306      3.3466    116.5061
   629.5000      0.0000    897.8728      6.0186      3.1725    117.3843
   629.7500      0.0000    890.8619      6.1264      3.3466    116.1991
   630.0000      0.0000    883.7106      6.2787      3.5207    112.2532
   630.2500      0.0000    877.9884      6.5184      3.6948    106.2759
   630.5000      0.0000    874.4292      6.8626      3.0855     99.8782
   630.7500      0.0000    873.2695      7.2645      2.9114     94.6519
   631.0000      0.0000    874.7889      7.6277      3.6078     91.5996
   631.2500      0.0000    878.2838      7.8658      4.3041     91.1620
   631.5000      0.0000    881.0031      7.9567      3.6948     93.5128
   631.7500      0.0000    880.0096      7.9488      4.3912     98.6473
   632.0000      0.0000    875.3877      7.9175      4.0430    105.9167
   632.2500      0.0000    870.3490      7.9018      4.3041    113.4740
   632.5000      0.0000    868.1148      7.8839      3.8689    118.9136
   632.7500      0.0000    869.8137      7.8323      3.8689    121.0582
   633.0000      0.0000    874.9546      7.7538      4.5653    120.8440
   633.2500      0.0000    881.8815      7.6933      3.8689    120.1083
   633.5000      0.0000    887.6861      7.6934      4.3041    119.7367
   633.7500      0.0000    889.7560      7.7605      4.3912    119.1177
   634.0000      0.0000    888.1710      7.8579      3.6948    117.0856
   634.2500      0.0000    885.5751      7.9259      3.6948    113.0680
   634.5000      0.0000    884.3292      7.9203      3.7819    107.3395
   634.7500      0.0000    884.5749      7.8396      4.2171    100.5579
   635.0000      0.0000    885.1908      7.7248      4.0430     93.6870
   635.2500      0.0000    885.4230      7.6344      4.0430     88.4252
   635.5000      0.0000    884.7068      7.6059      3.7819     87.0037
   635.7500      0.0000    880.9387      7.6289      4.5653     90.9009
   636.0000      0.0000    869.3513      7.6540      3.8689     99.6181
   636.2500      0.0000    844.3382      7.6333      4.0430    110.7943
   636.5000      0.0000    804.3329      7.5522      2.6503    121.4453
   636.7500      0.0000    755.5875      7.4332      3.4337    129.2569
   637.0000      0.0000    710.2270      7.3210      4.1301    133.2089
   637.2500      0.0000    680.0513      7.2584      2.9114    133.4906
   637.5000      0.0000    671.1821      7.2602      3.3466    131.1169
   637.7500      0.0000    681.8817      7.3031      3.0855    127.5701
   638.0000      0.0000    704.1484      7.3433      3.2596    124.3919
   638.2500      0.0000    729.0866      7.3517      3.2596    122.6939
   638.5000      0.0000    751.5612      7.3315      2.4762    123.0217
   638.7500      0.0000    769.4024      7.3051      2.4762    125.6956
   639.0000      0.0000    781.0217      7.2859      2.8244    130.9083
   639.2500      0.0000    786.9187      7.2660      2.7373    137.9520
   639.5000      0.0000    791.8043      7.2313      2.3021    144.4007
   639.7500      0.0000    801.8055      7.1848      1.5187    146.8271
   640.0000      0.0000    819.2438      7.1496      2.1280    142.9958
   640.2500      0.0000    841.2242      7.1497      1.6927    133.1990
   640.5000      0.0000    862.7678      7.1960      2.6503    119.2590
   640.7500      0.0000    880.2195      7.2911      3.4337    102.9562
   641.0000      0.0000    892.3250      7.4283      1.6057     85.9697
   641.2500      0.0000    899.2865      7.5743      4.0430     70.4195
   641.5000      0.0000    900.9778      7.6660      2.3021     58.2719
   641.7500      0.0000    895.5764      7.6400      3.6948     50.3976
   642.0000      0.0000    880.4487      7.4733      5.9580     46.9691
   642.2500      0.0000    856.3843      7.2062      5.6098     48.6159
   642.5000      0.0000    831.7339      6.9335      2.9114     56.2650
   642.7500      0.0000    819.1763      6.7564      2.8244     69.4307
   643.0000      0.0000    824.9545      6.7174      4.9135     85.3414
   643.2500      0.0000    842.6206      6.7732      5.4358    100.5278
   643.5000      0.0000    859.8483      6.8362      2.1280    113.1633
   643.7500      0.0000    869.4511      6.8441      3.7819    123.5076
   644.0000      0.0000    871.8851      6.7948      3.5207    132.5833
   644.2500      0.0000    869.9173      6.7276      3.0855    140.9352
   644.5000      0.0000    864.4616      6.6806      3.1725    148.2574
   644.7500      0.0000    855.1917      6.6651      3.1725    153.7388
   645.0000      0.0000    842.5317      6.6773      3.4337    157.0128
   645.2500      0.0000    828.1767      6.7258      2.9114    158.8258
   645.5000      0.0000    814.2845      6.8266      2.4762    160.2469
   645.7500      0.0000    802.5398      6.9723      2.2150    161.1470
   646.0000      0.0000    794.7821      7.1246      2.7373    160.0657
   646.2500      0.0000    794.5975      7.2374      2.6503    155.9895
   646.5000      0.0000    805.9136      7.2750      2.1280    149.9557
   646.7500      0.0000    827.8021      7.2163      2.8244    144.4605
   647.0000      0.0000    852.1241      7.0650      3.3466    141.2967
   647.2500      0.0000    868.6799      6.8560      2.2150    140.2294
   647.5000      0.0000    872.7057      6.6397      2.9114    139.5067
   647.7500      0.0000    867.6392      6.4579      2.6503    137.0604
   648.0000      0.0000    862.1037      6.3328      2.4762    131.4064
   648.2500      0.0000    863.6418      6.2704      2.2150    122.4163
   648.5000      0.0000    873.4858      6.2722      2.2150    111.8263
   648.7500      0.0000    886.8511      6.3435      2.9984    102.6598
   649.0000      0.0000    898.0577      6.4862      2.3891     97.7006
   649.2500      0.0000    904.7302      6.6794      2.8244     98.2486
   649.5000      0.0000    907.6793      6.8786      2.2150    103.8417
   649.7500      0.0000    908.6378      7.0414      2.8244    112.6291
   650.0000      0.0000    908.7620      7.1489      2.9114    122.0798
   650.2500      0.0000    908.4443      7.2016      2.6503    129.9637
   650.5000      0.0000    907.6863      7.2092      3.5207    135.0852
   650.7500      0.0000    906.5457      7.1898      2.5632    137.3001
   651.0000      0.0000    905.4290      7.1708      2.3891    137.0674
   651.2500      0.0000    904.9535      7.1809      2.9984    135.0372
   651.5000      0.0000    905.4290      7.2387      3.6078    131.7264
   651.7500      0.0000    906.5457      7.3417      3.7819    127.4320
   652.0000      0.0000    907.6863      7.4616      2.9984    122.5710
   652.2500      0.0000    908.4524      7.5562      4.0430    117.9834
   652.5000      0.0000    908.8222      7.6001      3.6948    114.6818
   652.7500      0.0000    908.9550      7.6007      4.3912    113.2869
   653.0000      0.0000    908.9911      7.5792      3.9560    113.6139
   653.2500      0.0000    908.9972      7.5350      3.3466    114.6772
   653.5000      0.0000    908.9892      7.4401      3.6078    115.3310
   653.7500      0.0000    908.9354      7.2749      3.0855    115.2778
