~Version Information
VERS.                      2.0: CWLS Log ASCII Standard - VERSION 2.0
WRAP.                       NO: One line per depth step
~Well Information Block
STRT.FT               340.0000: 
STOP.FT              1542.5000: 
STEP.FT                 0.1000: 
NULL.                -999.2500: 
COMP.          Petrogulf Corporation: COMPANY
WELL.            Montoya 7-21R: WELL
FLD.           Purgatorie River: FIELD
LOC.           445' FNL & 1942' FWL: LOCATION
PROV.                 Colorado: PROVINCE
CNTY.               Las Animas: COUNTRY
SRVC.                Patterson: SERVICE COMPANY
DATE.          Thu Sep 15 10:33:27 2005: LOG DATE
UWI.                          : UNIQUE WELL ID
~Curve Information Block
DEPT.FT            0 000 00 00: Depth
DCAL.in                       : CDL Caliper
RHOB.g/cc                     : CDL Bulk Density
RHOC.g/cc                     : CDL Density Correction
DPOR.pu                       : CDL Density Porosity
GR.GAPI                       : Gamma Ray
NPOR.pu                       : Neutron Porosity
~Parameter Information Block
~A  Depth       DCAL        RHOB        RHOC        DPOR         GR         NPOR    
# ...
  1453.6000      7.9506      2.6305      0.0474      1.1834    118.5854     19.1841
  1453.7000      7.9506      2.6140      0.0357      2.1820    114.9251     20.1136
  1453.8000      7.9631      2.6032      0.0407      2.8385    110.0159     21.2382
  1453.9000      7.9631      2.5978      0.0279      3.1652    107.8735     21.8513
  1454.0000      7.9509      2.5969      0.0027      3.2203    110.2276     21.4850
  1454.1000      7.9509      2.5981      0.0520      3.1473    112.4727     20.6263
  1454.2000      7.9509      2.5916      0.0376      3.5410    111.7994     19.6919
  1454.3000      7.9465      2.5730      0.0433      4.6669    110.0468     18.8058
  1454.4000      7.9465      2.5537     -0.0078      5.8356    107.5276     18.3607
  1454.5000      7.9569      2.5446      0.0353      6.3901    103.3792     18.3810
  1454.6000      7.9569      2.5410      0.0116      6.6058     99.0125     18.8256
  1454.7000      7.9569      2.5404      0.0320      6.6429     96.5676     19.5984
  1454.8000      7.9545      2.5508     -0.0375      6.0133     97.5233     20.1077
  1454.9000      7.9545      2.5755      0.0115      4.5173     99.6217     20.1714
  1455.0000      7.9477      2.5998      0.0337      3.0437     97.9298     20.1811
  1455.1000      7.9477      2.6071      0.0444      2.6023     92.0384     20.0814
  1455.2000      7.9477      2.5967      0.0321      3.2328     87.0625     19.6903
  1455.3000      7.9456      2.5868     -0.0015      3.8304     85.6408     19.3080
  1455.4000      7.9456      2.5936      0.0316      3.4154     85.4289     19.2975
  1455.5000      7.9430      2.6064      0.0180      2.6398     84.1335     19.7356
  1455.6000      7.9430      2.6100      0.0280      2.4268     82.3058     20.1778
  1455.7000      7.9430      2.6064      0.0378      2.6449     83.6180     20.1296
  1455.8000      7.9394      2.6018      0.0353      2.9218     90.3509     19.6001
  1455.9000      7.9394      2.5936      0.0155      3.4203     99.0942     18.8262
  1456.0000      7.9378      2.5800      0.0256      4.2418    103.6776     18.0935
  1456.1000      7.9378      2.5708      0.0030      4.7999    104.4034     17.6876
  1456.2000      7.9378      2.5691      0.0340      4.9033    107.1021     17.6098
  1456.3000      7.9379      2.5584      0.0258      5.5522    111.7237     17.6369
  1456.4000      7.9379      2.5387     -0.0569      6.7429    115.0059     17.9766
  1456.5000      7.9468      2.5406      0.0018      6.6328    119.7393     19.0692
  1456.6000      7.9468      2.5743      0.0895      4.5864    128.7794     20.5870
  1456.7000      7.9468      2.6114      0.1590      2.3419    139.0508     21.7566
  1456.8000      7.9461      2.6238      0.1657      1.5901    147.3485     22.4801
  1456.9000      7.9461      2.6151      0.0999      2.1147    154.8207     22.8918
  1457.0000      7.9472      2.6040      0.1240      2.7858    162.7622     22.9139
  1457.1000      7.9472      2.5980      0.1101      3.1541    167.9868     22.8387
  1457.2000      7.9472      2.5938      0.1144      3.4056    168.8216     22.9552
  1457.3000      7.9506      2.5898      0.1246      3.6507    169.0478     23.1039
  1457.4000      7.9506      2.5933      0.1164      3.4348    170.5888     23.4392
  1457.5000      7.9605      2.6085      0.1135      2.5181    172.1047     24.1576
  1457.6000      7.9605      2.6242      0.1279      1.5648    173.1363     24.5959
  1457.7000      7.9605      2.6302      0.1304      1.2030    175.3752     24.3344
  1457.8000      7.9638      2.6250      0.1135      1.5160    178.0755     23.8524
  1457.9000      7.9638      2.6156      0.0983      2.0826    175.5556     23.5089
  1458.0000      7.9631      2.6082      0.0987      2.5324    166.4872     23.1113
  1458.1000      7.9631      2.5967      0.0847      3.2303    158.1131     22.5209
  1458.2000      7.9631      2.5751      0.0669      4.5396    156.1140     22.2115
  1458.3000      7.9544      2.5547      0.0076      5.7746    159.0974     22.7183
  1458.4000      7.9544      2.5515      0.0335      5.9700    162.4671     23.5764
  1458.5000      7.9424      2.5645      0.0277      5.1846    163.1671     23.8538
  1458.6000      7.9424      2.5818      0.0390      4.1336    161.6051     23.5192
  1458.7000      7.9424      2.5949      0.0252      3.3386    160.3363     22.9959
  1458.8000      7.9493      2.5969      0.0507      3.2154    160.8848     22.5763
  1458.9000      7.9493      2.5839      0.0368      4.0090    160.4598     22.4556
  1459.0000      7.9913      2.5697      0.0012      4.8660    155.1931     22.4549
  1459.1000      7.9913      2.5651      0.0447      5.1479    148.2198     22.3061
  1459.2000      7.9913      2.5645      0.0144      5.1805    146.0082     22.1584
  1459.3000      8.0154      2.5727     -0.0045      4.6835    147.2966     22.2970
  1459.4000      8.0154      2.5903      0.0468      3.6198    147.9282     22.6445
  1459.5000      8.0338      2.5922      0.0937      3.5027    146.6435     22.9349
  1459.6000      8.0338      2.5670     -0.0009      5.0332    144.1140     22.8631
  1459.7000      8.0338      2.5383      0.0018      6.7673    140.9978     22.4759
  1459.8000      8.0286      2.5260     -0.0014      7.5171    136.6633     22.4957
  1459.9000      8.0286      2.5251      0.0193      7.5696    132.0857     22.9871
  1460.0000      7.9905      2.5228      0.0108      7.7094    131.6205     23.2333
  1460.1000      7.9905      2.5185      0.0058      7.9714    137.9651     23.0396
  1460.2000      7.9905      2.5282     -0.0119      7.3849    147.0122     22.8548
  1460.3000      7.9434      2.5565      0.0548      5.6667    151.9783     22.9923
  1460.4000      7.9434      2.5792      0.1133      4.2917    150.8368     23.3557
  1460.5000      7.9288      2.5768      0.1303      4.4389    147.7811     23.8528
  1460.6000      7.9288      2.5588      0.1350      5.5251    149.6305     24.4101
  1460.7000      7.9288      2.5370      0.1488      6.8489    158.5603     25.0159
  1460.8000      7.9382      2.5180      0.1037      7.9978    167.5370     25.4337
  1460.9000      7.9382      2.5193      0.1350      7.9202    171.7526     25.2156
  1461.0000      7.9438      2.5498      0.1582      6.0714    176.0808     24.6872
  1461.1000      7.9438      2.5957      0.1510      3.2880    182.1847     24.3633
  1461.2000      7.9438      2.6335      0.2081      1.0029    184.8481     24.4706
  1461.3000      7.9535      2.6454      0.2001      0.2799    181.6810     25.1967
  1461.4000      7.9535      2.6278      0.2302      1.3458    177.8257     26.2542
  1461.5000      7.9611      2.5943      0.1498      3.3765    179.2650     27.0662
  1461.6000      7.9611      2.5649      0.1888      5.1563    184.6495     27.2140
  1461.7000      7.9611      2.5455      0.1316      6.3310    190.4448     26.9645
  1461.8000      7.9581      2.5360      0.0812      6.9080    197.0245     26.9980
  1461.9000      7.9581      2.5408      0.0784      6.6192    200.5352     27.2677
  1462.0000      7.9750      2.5606      0.0499      5.4152    194.7556     27.3309
  1462.1000      7.9750      2.5832      0.0637      4.0480    185.6370     27.2179
  1462.2000      7.9750      2.5911      0.0540      3.5713    180.1609     27.0182
  1462.3000      8.0380      2.5813      0.0748      4.1660    176.4769     26.7092
  1462.4000      8.0380      2.5669      0.0434      5.0371    174.4906     26.4920
  1462.5000      7.9926      2.5580      0.0918      5.5731    175.6775     26.5395
  1462.6000      7.9926      2.5473      0.0677      6.2222    178.9202     26.6959
  1462.7000      7.9926      2.5322      0.0487      7.1369    182.2657     26.7203
  1462.8000      7.9860      2.5292      0.0479      7.3217    184.5734     26.5469
  1462.9000      7.9860      2.5458      0.0903      6.3124    187.1176     26.4666
  1463.0000      7.9915      2.5680      0.0938      4.9681    188.2606     26.6834
  1463.1000      7.9915      2.5810      0.1043      4.1821    183.9310     26.6989
