~Version Information
VERS.                      2.0: CWLS Log ASCII Standard - VERSION 2.0
WRAP.                       NO: One line per depth step
~Well Information Block
STRT.FT               450.0000: 
STOP.FT              2756.0000: 
STEP.FT                 0.2500: 
NULL.                -999.2500: 
COMP.          Pioneer Natural Resources: COMPANY
WELL.             Squeal 11-26: WELL
FLD.           Purgatoire River: FIELD
LOC.           1186' FNL & 152' FWL: LOCATION
PROV.                 Colorado: PROVINCE
CNTY.               Las Animas: COUNTRY
SRVC.                Patterson: SERVICE COMPANY
DATE.          Wed Jun 15 02:22:08 2005: LOG DATE
UWI.           05 071 08404 00: UNIQUE WELL ID
~Curve Information Block
DEPT.FT            0 000 00 00: Depth
SN.Ohm-m                      : IEL Short Normal
SP.mV                         : IEL Spontaneous Potential
DIR.Ohm-m                     : IEL Induction Resistivity
GR.GAPI                       : Gamma Ray
~Parameter Information Block
~A  Depth        SN          SP         DIR          GR     
# ...
  1522.0000      0.8121   -200.0001      0.8041     48.3631
  1522.2500      0.7396   -200.0001      1.1627     45.9231
  1522.5000      0.6215   -200.0001      2.2997     44.3573
  1522.7500      0.5420   -200.0001     12.4993     44.8711
  1523.0000      0.5399   -200.0001 100000.0000     47.0719
  1523.2500      0.6014   -200.0001 100000.0000     48.4057
  1523.5000      0.6743   -200.0001 100000.0000     48.3168
  1523.7500      0.7168   -200.0001 100000.0000     46.3742
  1524.0000      0.7501   -200.0001 100000.0000     41.2609
  1524.2500      0.8128   -200.0001 100000.0000     37.2159
  1524.5000      0.9158   -200.0001 100000.0000     31.3915
  1524.7500      1.0135   -200.0001 100000.0000     28.0718
  1525.0000      1.0216   -199.9992 100000.0000     24.4524
  1525.2500      0.9259   -199.9913 100000.0000     23.2719
  1525.5000      0.7865   -199.9476 100000.0000     23.7906
  1525.7500      0.6519   -199.7579 100000.0000     25.7228
  1526.0000      0.5801   -199.1040 100000.0000     30.7778
  1526.2500      0.6231   -197.3050 100000.0000     35.4050
  1526.5000      0.7289   -193.3308      9.4211     44.2129
  1526.7500      0.8045   -186.2306      2.6621     51.6073
  1527.0000      0.8394   -175.8677      1.3018     65.6834
  1527.2500      0.8431   -163.3253      0.7726     77.1149
  1527.5000      0.8281   -150.4550      0.5147     95.8716
  1527.7500      0.9288   -138.9006      0.3777    107.7251
  1528.0000      1.3740   -129.4559      0.3074    121.6492
  1528.2500      2.4145   -122.1260      0.2801    127.7771
  1528.5000      4.3220   -116.5392      0.2861    133.4836
  1528.7500      7.1064   -112.2668      0.3250    136.1137
  1529.0000     10.2258   -108.9425      0.4071    139.1724
  1529.2500     12.9586   -106.2825      0.5615    140.3838
  1529.5000     14.9678   -104.0858      0.8660    140.3423
  1529.7500     16.3065   -102.2307      1.5801    139.0504
  1530.0000     17.0956   -100.6608      4.1319    135.7931
  1530.2500     17.3891    -99.3599 100000.0000    133.2719
  1530.5000     17.2255    -98.3219 100000.0000    129.8624
  1530.7500     16.6649    -97.5275 100000.0000    128.1734
  1531.0000     15.8144    -96.9356 100000.0000    126.6741
  1531.2500     14.8348    -96.4932 100000.0000    126.3322
  1531.5000     13.9254    -96.1508 100000.0000    126.6996
  1531.7500     13.3361    -95.8717 100000.0000    127.3585
  1532.0000     13.2844    -95.6340 100000.0000    128.4704
  1532.2500     13.7454    -95.4300 100000.0000    129.1424
  1532.5000     14.4061    -95.2630 100000.0000    130.3979
  1532.7500     14.8991    -95.1390 100000.0000    131.7592
  1533.0000     15.0401    -95.0582 100000.0000    134.6609
  1533.2500     14.8325    -95.0112 100000.0000    136.6822
  1533.5000     14.3545    -94.9829 100000.0000    138.5274
  1533.7500     13.6928    -94.9581 100000.0000    138.3822
  1534.0000     12.8664    -94.9261 100000.0000    136.0871
  1534.2500     11.8237    -94.8829 100000.0000    133.7692
  1534.5000     10.6258    -94.8330 100000.0000    130.6786
  1534.7500      9.5319    -94.7889 100000.0000    129.7324
  1535.0000      8.8227    -94.7682 100000.0000    130.5588
  1535.2500      8.6426    -94.7877 100000.0000    132.1144
  1535.5000      8.9859    -94.8583 100000.0000    133.9452
  1535.7500      9.7123    -94.9777     59.8866    133.6499
  1536.0000     10.6038    -95.1248     27.3989    130.0627
  1536.2500     11.4703    -95.2629     17.8575    125.7959
  1536.5000     12.2196    -95.3551     13.6795    117.4277
  1536.7500     12.8691    -95.3821     11.6025    110.9700
  1537.0000     13.5126    -95.3490     10.5748    100.7841
  1537.2500     14.2215    -95.2806     10.1533     94.4745
  1537.5000     14.9945    -95.2084     10.1198     87.6313
  1537.7500     15.8154    -95.1565     10.3596     85.8166
  1538.0000     16.6747    -95.1315     10.8142     87.9806
  1538.2500     17.5287    -95.1188     11.4576     92.3610
  1538.5000     18.2764    -95.0894     12.2770    101.5295
  1538.7500     18.7981    -95.0126     13.2517    107.9205
  1539.0000     19.0148    -94.8739     14.3305    115.8153
  1539.2500     18.9074    -94.6922     15.4152    119.3592
  1539.5000     18.5380    -94.5161     16.3706    122.1714
  1539.7500     18.0696    -94.3961     17.0735    122.8145
  1540.0000     17.6692    -94.3543     17.4755    122.9793
  1540.2500     17.3991    -94.3819     17.6230    123.1323
  1540.5000     17.2387    -94.4574     17.6141    123.6904
  1540.7500     17.1512    -94.5599     17.5384    123.8603
  1541.0000     17.1087    -94.6695     17.4495    123.0587
  1541.2500     17.0800    -94.7695     17.3761    122.0467
  1541.5000     17.0358    -94.8559     17.3443    121.1561
  1541.7500     16.9949    -94.9448     17.3865    121.5104
  1542.0000     17.0015    -95.0671     17.5318    123.1410
  1542.2500     17.0492    -95.2512     17.7912    124.4116
  1542.5000     17.1156    -95.5083     18.1528    125.9229
  1542.7500     17.2297    -95.8301     18.5871    126.4553
  1543.0000     17.4372    -96.1976     19.0560    126.1945
  1543.2500     17.7712    -96.5869     19.5181    125.1626
  1543.5000     18.2612    -96.9718     19.9255    122.2219
  1543.7500     18.9030    -97.3248     20.2186    119.1723
  1544.0000     19.6367    -97.6223     20.3311    112.2894
  1544.2500     20.4105    -97.8505     20.2186    105.7444
  1544.5000     21.2860    -98.0087     19.8931     93.0226
  1544.7500     22.4384    -98.1105     19.4283     83.4955
  1545.0000     23.9994    -98.1846     18.9211     70.9201
  1545.2500     25.8320    -98.2723     18.4412     66.0937
  1545.5000     27.4226    -98.4141     18.0094     67.1026
  1545.7500     28.1184    -98.6312     17.6074     73.3579
  1546.0000     27.5615    -98.9177     17.2046     88.4987
  1546.2500     25.8932    -99.2535     16.7775    100.1109
  1546.5000     23.5943    -99.6242     16.3147    116.3344
  1546.7500     21.1793   -100.0298     15.8119    125.2772
  1547.0000     18.9798   -100.4781     15.2698    135.4538
  1547.2500     17.1456   -100.9698     14.6946    139.9930
  1547.5000     15.7434   -101.4864     14.0983    142.8052
  1547.7500     14.7367   -101.9901     13.4954    141.6376
  1548.0000     13.9501   -102.4361     12.9007    135.6352
  1548.2500     13.2189   -102.7822     12.3306    129.7497
  1548.5000     12.5401   -102.9935     11.8061    120.6939
  1548.7500     11.9618   -103.0602     11.3493    116.2077
  1549.0000     11.4572   -103.0299     10.9783    114.1027
  1549.2500     11.0383   -103.0174     10.7033    116.1550
  1549.5000     10.7913   -103.1539     10.5291    122.7388
  1549.7500     10.7369   -103.5120     10.4572    127.6118
  1550.0000     10.8074   -104.0777     10.4842    133.1361
  1550.2500     10.9112   -104.7860     10.5978    135.3422
  1550.5000     10.9682   -105.5663     10.7750    137.3152
  1550.7500     11.0014   -106.3495     10.9874    138.1456
  1551.0000     11.1830   -107.0389     11.2087    138.4996
  1551.2500     11.6751   -107.4821     11.4202    137.8890
  1551.5000     12.4750   -107.4813     11.6078    135.5541
  1551.7500     13.4399   -106.8507     11.7573    132.9100
  1552.0000     14.3939   -105.5072     11.8534    126.4263
  1552.2500     15.1975   -103.5553     11.8845    119.8768
  1552.5000     15.7778   -101.3046     11.8480    107.1966
  1552.7500     16.1430    -99.1554     11.7540     98.3266
  1553.0000     16.3421    -97.3999     11.6253     87.9553
  1553.2500     16.3781    -96.1008     11.4905     84.6185
  1553.5000     16.1857    -95.1524     11.3735     85.8487
  1553.7500     15.7136    -94.4336     11.2840     90.3757
  1554.0000     14.9565    -93.8928     11.2158    101.1376
  1554.2500     13.9304    -93.5267     11.1534    109.7270
  1554.5000     12.7422    -93.3252     11.0800    122.1292
  1554.7500     11.5994    -93.2481     10.9826    128.6114
  1555.0000     10.6081    -93.2412     10.8532    134.4303
  1555.2500      9.6977    -93.2620     10.6898    136.0268
