~Version Information
VERS.                      2.0: CWLS Log ASCII Standard - VERSION 2.0
WRAP.                       NO: One line per depth step
~Well Information Block
STRT.FT               750.3000: 
STOP.FT              1254.0000: 
STEP.FT                 0.1000: 
NULL.                -999.2500: 
COMP.          Petrogulf Corporation: COMPANY
WELL.           Montoya 13-41V: WELL
FLD.           Purgatorie River: FIELD
LOC.           449' FNL & 891' FEL: LOCATION
CNTY.               Las Animas: COUNTY
SRVC.                         : SERVICE COMPANY
DATE.          Tue Aug 17 15:47:43 2004: LOG DATE
UWI.           05 071 08021 00: UNIQUE WELL ID
STAT.                 Colorado: STATE
~Curve Information Block
DEPT.FT            0 000 00 00: Depth
DCAL.in                       : CDL Caliper
RHOB.g/cc                     : CDL Bulk Density
RHOC.g/cc                     : CDL Density Correction
DPOR.pu                       : CDL Density Porosity
GR.GAPI                       : Gamma Ray
NPOR.pu                       : Neutron Porosity
~Parameter Information Block
~A  Depth       DCAL        RHOB        RHOC        DPOR         GR         NPOR    
# ...
   990.3000      8.1047      2.6139      0.0278      2.1876     99.4849     18.8674
   990.4000      8.1047      2.6128      0.0063      2.2553     99.8185     17.9383
   990.5000      8.1085      2.6147      0.0225      2.1387    101.5015     17.0341
   990.6000      8.1085      2.6139      0.0102      2.1872    106.2337     16.1183
   990.7000      8.1085      2.6154     -0.0009      2.0990    109.8106     15.5722
   990.8000      8.1019      2.6191      0.0561      1.8749    107.4971     15.4212
   990.9000      8.1019      2.6107      0.0174      2.3801    106.5537     15.5838
   991.0000      8.0864      2.5938     -0.0092      3.4032    111.0013     15.8692
   991.1000      8.0864      2.5810      0.0180      4.1825    115.3771     16.0150
   991.2000      8.0864      2.5677      0.0230      4.9887    117.1307     16.1165
   991.3000      8.0813      2.5531     -0.0225      5.8713    115.9496     16.1223
   991.4000      8.0813      2.5492      0.0074      6.1114    111.1882     15.8642
   991.5000      8.0590      2.5612      0.0202      5.3788    106.5789     15.4214
   991.6000      8.0590      2.5864      0.0269      3.8558    104.3633     14.8606
   991.7000      8.0590      2.6159      0.0736      2.0637    102.7542     14.3729
   991.8000      8.0626      2.6314      0.0942      1.1245    102.2079     14.3543
   991.9000      8.0626      2.6226      0.0917      1.6606    105.7920     14.9040
   992.0000      8.0616      2.6087      0.0793      2.5037    112.6368     15.9968
   992.1000      8.0616      2.6114      0.0892      2.3412    117.7653     17.6187
   992.2000      8.0616      2.6274      0.0773      1.3671    122.0833     19.2471
   992.3000      8.0607      2.6435      0.1017      0.3919    125.6582     20.0827
   992.4000      8.0607      2.6542      0.1253     -0.2573    122.6301     20.0608
   992.5000      8.0597      2.6611      0.1094     -0.6749    117.3376     19.9976
   992.6000      8.0597      2.6598      0.1312     -0.5945    119.6841     20.7357
   992.7000      8.0597      2.6485      0.0599      0.0930    128.3765     22.0342
   992.8000      8.0682      2.6338      0.0837      0.9791    138.0159     23.0790
   992.9000      8.0682      2.6132      0.1145      2.2332    144.5843     23.7062
   993.0000      8.0686      2.5880      0.0383      3.7554    143.8591     24.1661
   993.1000      8.0686      2.5773      0.0470      4.4034    139.3275     24.7209
   993.2000      8.0686      2.5892      0.0826      3.6839    137.7188     25.1148
   993.3000      8.0651      2.6115      0.0803      2.3329    138.4594     24.6397
   993.4000      8.0651      2.6316      0.0917      1.1125    137.4310     23.8211
   993.5000      8.0642      2.6447      0.0923      0.3236    131.9334     23.3753
   993.6000      8.0642      2.6483      0.0875      0.1057    123.3670     22.7119
   993.7000      8.0642      2.6407      0.1168      0.5633    116.5850     21.6193
   993.8000      8.0629      2.6195      0.0967      1.8497    112.8052     20.6011
   993.9000      8.0629      2.5912      0.0733      3.5611    108.9059     19.5043
   994.0000      8.0621      2.5757      0.0036      4.5024    104.1381     18.1183
   994.1000      8.0621      2.5782      0.0699      4.3486     97.2374     16.9461
   994.2000      8.0621      2.5838      0.0525      4.0128     88.0753     16.4545
   994.3000      8.0625      2.5854      0.0268      3.9156     81.6105     16.5149
   994.4000      8.0625      2.5913      0.0302      3.5577     79.6647     16.6967
   994.5000      8.0611      2.6158      0.0359      2.0757     79.7336     16.4851
   994.6000      8.0611      2.6545      0.1141     -0.2739     81.0662     15.6196
   994.7000      8.0611      2.6802      0.1273     -1.8293     86.0247     14.5162
   994.8000      8.0638      2.6771      0.1224     -1.6398     92.5234     13.8942
   994.9000      8.0638      2.6509      0.0993     -0.0566     93.2268     13.8075
   995.0000      8.0688      2.6237      0.0367      1.5965     88.2983     13.9143
   995.1000      8.0688      2.6232      0.0141      1.6237     83.8482     14.2372
   995.2000      8.0688      2.6449      0.0530      0.3074     82.1762     14.4265
   995.3000      8.0868      2.6524      0.0620     -0.1467     80.9438     14.0206
   995.4000      8.0868      2.6319      0.0139      1.0990     77.0732     13.2583
   995.5000      8.1022      2.6031      0.0176      2.8409     72.1720     12.6755
   995.6000      8.1022      2.5871     -0.0052      3.8120     72.6072     12.5757
   995.7000      8.1022      2.5862      0.0258      3.8688     80.8280     12.7610
   995.8000      8.0888      2.5897      0.0129      3.6569     90.4691     12.9868
   995.9000      8.0888      2.5892      0.0333      3.6834     94.3097     13.5372
   996.0000      8.0862      2.5868     -0.0021      3.8284     92.8074     14.6262
   996.1000      8.0862      2.5918      0.0330      3.5264     90.6459     15.7624
   996.2000      8.0862      2.6020      0.0802      2.9086     91.0484     16.7152
   996.3000      8.0638      2.6111      0.0878      2.3580     94.8499     18.1191
   996.4000      8.0638      2.6195      0.1134      1.8483     98.5850     20.0242
   996.5000      8.0620      2.6200      0.1256      1.8204    100.8307     21.8497
   996.6000      8.0620      2.6087      0.1090      2.5030    105.0457     23.3557
   996.7000      8.0620      2.6022      0.1092      2.8991    111.6197     23.9556
   996.8000      8.0656      2.6040      0.1769      2.7859    117.7343     23.4293
   996.9000      8.0656      2.5922      0.1305      3.5025    124.4932     23.3609
   997.0000      8.0770      2.5664      0.0444      5.0644    134.7150     24.8260
   997.1000      8.0770      2.5526      0.0537      5.9020    145.2202     26.2765
   997.2000      8.0770      2.5609      0.0561      5.3994    150.6596     26.2771
   997.3000      8.0768      2.5807      0.0932      4.2009    151.4300     25.8720
   997.4000      8.0768      2.5974      0.1018      3.1900    150.5695     26.5454
   997.5000      8.0770      2.6039      0.0831      2.7949    148.4933     27.8798
   997.6000      8.0770      2.5991      0.1019      3.0821    145.7453     28.4670
   997.7000      8.0770      2.5835      0.0733      4.0326    145.1371     28.0709
   997.8000      8.0773      2.5683      0.0402      4.9507    145.7995     27.3221
   997.9000      8.0773      2.5621      0.0754      5.3271    140.2061     26.7653
   998.0000      8.0742      2.5598      0.0626      5.4649    128.8498     26.5904
   998.1000      8.0742      2.5643      0.0618      5.1947    123.4057     26.3388
   998.2000      8.0742      2.5746      0.1063      4.5690    127.2072     25.6920
   998.3000      8.0748      2.5814      0.0603      4.1549    133.1255     24.8624
   998.4000      8.0748      2.5874      0.0641      3.7961    138.3861     24.3419
   998.5000      8.0796      2.5969      0.1117      3.2180    141.4828     24.1279
   998.6000      8.0796      2.6123      0.0426      2.2844    139.0287     23.6121
   998.7000      8.0796      2.6322      0.0923      1.0767    130.4963     22.5740
   998.8000      8.0743      2.6408      0.0994      0.5600    121.5794     21.7603
   998.9000      8.0743      2.6299      0.1042      1.2210    120.2603     21.6761
   999.0000      8.0725      2.6101      0.0616      2.4168    123.0233     22.1429
   999.1000      8.0725      2.5901      0.0766      3.6289    122.5580     22.9544
   999.2000      8.0725      2.5745      0.0027      4.5775    120.8973     23.5291
   999.3000      8.0732      2.5719      0.0012      4.7361    122.3253     23.1017
   999.4000      8.0732      2.5778      0.0206      4.3775    126.2054     21.7244
   999.5000      8.0738      2.5741      0.0294      4.6018    127.0545     20.1871
   999.6000      8.0738      2.5564      0.0484      5.6749    122.8404     19.1015
   999.7000      8.0738      2.5426      0.0157      6.5110    115.4879     18.5931
   999.8000      8.0721      2.5487      0.0719      6.1365    104.4809     18.2455
