~Version Information
VERS.                      2.0: CWLS Log ASCII Standard - VERSION 2.0
WRAP.                       NO: One line per depth step
~Well Information Block
STRT.FT                -8.0000: 
STOP.FT              2410.0000: 
STEP.FT                 0.2500: 
NULL.                -999.2500: 
COMP.          Petrogulf Corporation: COMPANY
WELL.            Torcom 17-33V: WELL
FLD.           Purgatorie River: FIELD
LOC.           1544' FSL & 1746' FEL--: LOCATION
PROV.                       CO: PROVINCE
CNTY.               Las Animas: COUNTRY
SRVC.          Patterson Wireline: SERVICE COMPANY
DATE.          Wed Dec 10 17:24:27 2003: LOG DATE
UWI.                          : UNIQUE WELL ID
~Curve Information Block
DEPT.FT            0 000 00 00: Depth
CCL.                          : Casing Collar Locator
TT3.usec                      : CBL 3' Travel Time
AMP3.mV                       : CBL 3' Amplitude
GR.GAPI                       : Gamma Ray
~Parameter Information Block
~A  Depth       CCL         TT3         AMP3         GR     
# ...
  1265.0000      0.0000    755.5223      9.3106    105.7695
  1265.2500      0.0000    758.3091      9.4922    109.8283
  1265.5000      0.0000    765.8589      9.6201    114.8223
  1265.7500      0.0000    776.0942      9.6344    118.9239
  1266.0000      0.0000    786.3069      9.4523    120.4241
  1266.2500      0.0000    794.6516      9.0526    118.9651
  1266.5000      0.0000    800.1619      8.5152    116.0728
  1266.7500      0.0000    802.2205      7.9705    114.1526
  1267.0000      0.0000    800.9695      7.5272    114.3811
  1267.2500      0.0000    797.8506      7.2381    115.5130
  1267.5000      0.0000    794.6250      7.0918    115.0065
  1267.7500      0.0000    791.5501      7.0134    111.4034
  1268.0000      0.0000    787.2806      6.8928    105.6860
  1268.2500      0.0000    781.2031      6.6472    100.6289
  1268.5000      0.0000    775.2287      6.2754     98.8109
  1268.7500      0.0000    772.0899      5.8571    100.7260
  1269.0000      0.0000    771.8723      5.4906    104.4338
  1269.2500      0.0000    771.2396      5.2257    107.1917
  1269.5000      0.0000    766.4103      5.0491    107.6671
  1269.7500      0.0000    756.4597      4.9226    106.5423
  1270.0000      0.0000    743.5309      4.8189    105.1392
  1270.2500      0.0000    730.3317      4.7237    104.0370
  1270.5000      0.0000    718.2044      4.6270    103.1376
  1270.7500      0.0000    707.5464      4.5300    102.4012
  1271.0000      0.0000    698.8726      4.4530    101.9155
  1271.2500      0.0000    692.6726      4.4221    101.4937
  1271.5000      0.0000    688.7889      4.4433    100.7736
  1271.7500      0.0000    686.5898      4.4915     99.8089
  1272.0000      0.0000    685.7297      4.5244     99.2676
  1272.2500      0.0000    686.7928      4.5027     99.8586
  1272.5000      0.0000    691.3564      4.4044    101.6202
  1272.7500      0.0000    700.9924      4.2317    103.9328
  1273.0000      0.0000    715.4026      4.0121    106.1264
  1273.2500      0.0000    731.4153      3.7929    107.8231
  1273.5000      0.0000    744.5708      3.6240    108.8321
  1273.7500      0.0000    752.4499      3.5368    109.1555
  1274.0000      0.0000    756.7232      3.5343    109.2855
  1274.2500      0.0000    761.8584      3.5974    110.2721
  1274.5000      0.0000    771.6700      3.6989    113.0980
  1274.7500      0.0000    787.3336      3.8161    117.6695
  1275.0000      0.0000    808.0116      3.9336    122.4311
  1275.2500      0.0000    830.9587      4.0372    125.4019
  1275.5000      0.0000    849.9539      4.1062    126.1357
  1275.7500      0.0000    856.4808      4.1156    126.5466
  1276.0000      0.0000    845.5618      4.0516    129.1170
  1276.2500      0.0000    820.0595      3.9249    134.3223
  1276.5000      0.0000    788.0624      3.7657    140.3574
  1276.7500      0.0000    757.2086      3.6012    145.0924
  1277.0000      0.0000    732.1300      3.4377    147.5775
  1277.2500      0.0000    715.0797      3.2671    147.7734
  1277.5000      0.0000    706.7573      3.0859    145.6957
  1277.7500      0.0000    706.5344      2.9071    141.4065
  1278.0000      0.0000    712.9562      2.7542    135.7566
  1278.2500      0.0000    724.3694      2.6472    130.6371
  1278.5000      0.0000    739.1770      2.5920    127.8903
  1278.7500      0.0000    755.7548      2.5786    127.6905
  1279.0000      0.0000    771.6222      2.5919    128.2766
  1279.2500      0.0000    782.2217      2.6262    127.5743
  1279.5000      0.0000    782.3942      2.6830    125.1426
  1279.7500      0.0000    771.6937      2.7558    122.6467
  1280.0000      0.0000    757.2291      2.8283    122.4834
  1280.2500      0.0000    748.7900      2.8876    125.6978
  1280.5000      0.0000    751.5133      2.9321    131.1329
  1280.7500      0.0000    764.1799      2.9619    136.8422
  1281.0000      0.0000    782.2181      2.9682    142.2682
  1281.2500      0.0000    799.7263      2.9439    148.4929
  1281.5000      0.0000    810.0146      2.9023    156.3117
  1281.7500      0.0000    808.1303      2.8670    164.7287
  1282.0000      0.0000    794.5605      2.8383    171.8263
  1282.2500      0.0000    775.5546      2.7964    176.8981
  1282.5000      0.0000    759.2801      2.7510    181.0759
  1282.7500      0.0000    751.2165      2.7712    185.5227
  1283.0000      0.0000    751.6412      2.9409    189.3898
  1283.2500      0.0000    756.3459      3.2787    190.0619
  1283.5000      0.0000    760.2897      3.7102    185.3894
  1283.7500      0.0000    761.3851      4.1252    175.4725
  1284.0000      0.0000    761.2504      4.4633    162.3874
  1284.2500      0.0000    762.9990      4.7471    148.5841
  1284.5000      0.0000    768.2693      5.0463    135.6715
  1284.7500      0.0000    775.6331      5.4218    124.3431
  1285.0000      0.0000    781.5479      5.8917    114.8608
  1285.2500      0.0000    783.0171      6.4226    107.3312
  1285.5000      0.0000    779.2484      6.9436    101.6904
  1285.7500      0.0000    771.3601      7.3794     97.6459
  1286.0000      0.0000    761.7310      7.6705     94.6855
  1286.2500      0.0000    754.1243      7.7611     92.2473
  1286.5000      0.0000    753.3760      7.5998     90.0584
  1286.7500      0.0000    763.0934      7.1860     88.3899
  1287.0000      0.0000    782.4680      6.6121     87.7636
  1287.2500      0.0000    805.8128      6.0287     88.1764
  1287.5000      0.0000    826.2380      5.5502     88.7739
  1287.7500      0.0000    839.9891      5.1956     88.6588
  1288.0000      0.0000    847.2983      4.9158     87.9574
  1288.2500      0.0000    850.0246      4.6541     87.5892
  1288.5000      0.0000    849.4751      4.3812     87.9365
  1288.7500      0.0000    846.0532      4.1037     88.4133
  1289.0000      0.0000    840.0477      3.8565     88.6901
  1289.2500      0.0000    832.6261      3.6767     89.5645
  1289.5000      0.0000    826.0352      3.5682     91.9229
  1289.7500      0.0000    821.9120      3.4941     95.4325
  1290.0000      0.0000    818.7821      3.4089     98.9073
  1290.2500      0.0000    812.2012      3.2951    101.3720
  1290.5000      0.0000    798.4147      3.1747    102.1928
  1290.7500      0.0000    777.9308      3.0882    100.9829
  1291.0000      0.0000    755.9029      3.0507     98.2884
  1291.2500      0.0000    739.5895      3.0296     95.7977
  1291.5000      0.0000    734.4451      2.9800     94.9275
  1291.7500      0.0000    740.5008      2.8989     95.3874
  1292.0000      0.0000    751.4922      2.8206     95.7692
  1292.2500      0.0000    758.7897      2.7675     95.3728
  1292.5000      0.0000    757.9165      2.7345     94.8918
  1292.7500      0.0000    751.2338      2.7231     95.4091
  1293.0000      0.0000    744.0891      2.7506     97.1629
  1293.2500      0.0000    739.8157      2.8109     99.2550
  1293.5000      0.0000    739.3558      2.8548    100.4552
  1293.7500      0.0000    743.3904      2.8274    100.5750
  1294.0000      0.0000    751.9721      2.7133    101.0290
  1294.2500      0.0000    762.9243      2.5404    103.5621
  1294.5000      0.0000    773.1568      2.3495    108.3588
  1294.7500      0.0000    781.1474      2.1645    113.7680
  1295.0000      0.0000    786.1513      1.9927    117.7621
  1295.2500      0.0000    786.1141      1.8472    119.3688
  1295.5000      0.0000    779.0957      1.7511    119.0978
  1295.7500      0.0000    766.2548      1.7173    118.4045
  1296.0000      0.0000    751.3035      1.7347    118.5575
  1296.2500      0.0000    737.4295      1.7772    119.8974
  1296.5000      0.0000    726.0279      1.8225    122.3611
  1296.7500      0.0000    717.5914      1.8558    126.2301
  1297.0000      0.0000    712.3644      1.8654    131.5918
  1297.2500      0.0000    710.2891      1.8506    137.2530
  1297.5000      0.0000    711.1246      1.8328    140.9866
  1297.7500      0.0000    714.5397      1.8361    141.1283
  1298.0000      0.0000    719.7236      1.8537    137.7047
  1298.2500      0.0000    725.2823      1.8463    132.0216
