~Version Information
VERS.                      2.0: CWLS Log ASCII Standard - VERSION 2.0
WRAP.                       NO: One line per depth step
~Well Information Block
STRT.FT               742.5000: 
STOP.FT              2463.5000: 
STEP.FT                 0.2500: 
NULL.                -999.2500: 
COMP.          Petrogulf Corporation: COMPANY
WELL.           Montoya 12-44V: WELL
FLD.           Purgatorie River: FIELD
LOC.           698' FSL & 599' FEL: LOCATION
CNTY.               Las Animas: COUNTY
SRVC.                         : SERVICE COMPANY
DATE.          Sun Aug 08 06:43:17 2004: LOG DATE
UWI.           05 071 08094 00: UNIQUE WELL ID
STAT.                 Colorado: STATE
~Curve Information Block
DEPT.FT            0 000 00 00: Depth
SN.Ohm-m                      : IEL Short Normal
SP.mV                         : IEL Spontaneous Potential
DIR.Ohm-m                     : IEL Induction Resistivity
GR.GAPI                       : Gamma Ray
~Parameter Information Block
~A  Depth        SN          SP         DIR          GR     
# ...
  1647.0000      9.7296   -103.9007      9.9399    146.1122
  1647.2500      9.8553   -104.5395      9.7892    145.6527
  1647.5000     10.1488   -105.1112      9.7339    144.1141
  1647.7500     10.4861   -105.4734      9.7489    142.4777
  1648.0000     10.7719   -105.5512      9.7872    139.7816
  1648.2500     10.9480   -105.3593      9.7958    138.1646
  1648.5000     10.9899   -104.9970      9.7395    135.6062
  1648.7500     10.9020   -104.6132      9.6177    133.3379
  1649.0000     10.7105   -104.3621      9.4625    129.3269
  1649.2500     10.4547   -104.3521      9.3217    127.2188
  1649.5000     10.1735   -104.6152      9.2381    126.6329
  1649.7500      9.8932   -105.0999      9.2311    128.0191
  1650.0000      9.6214   -105.6877      9.2860    131.0165
  1650.2500      9.3543   -106.2307      9.3552    132.4650
  1650.5000      9.0894   -106.5927      9.3759    133.3554
  1650.7500      8.8376   -106.6856      9.3018    133.8510
  1651.0000      8.6238   -106.4845      9.1257    136.2034
  1651.2500      8.4758   -106.0286      8.8773    139.1496
  1651.5000      8.4080   -105.4101      8.6006    144.1517
  1651.7500      8.4086   -104.7422      8.3340    146.4826
  1652.0000      8.4403   -104.1423      8.0993    147.1498
  1652.2500      8.4534   -103.7082      7.9030    145.9197
  1652.5000      8.4076   -103.5012      7.7438    142.7335
  1652.7500      8.2906   -103.5389      7.6234    140.3111
  1653.0000      8.1255   -103.7897      7.5511    136.7668
  1653.2500      7.9609   -104.1739      7.5366    134.6135
  1653.5000      7.8490   -104.5753      7.5793    132.1012
  1653.7500      7.8194   -104.8592      7.6617    131.3043
  1654.0000      7.8650   -104.8996      7.7569    131.9316
  1654.2500      7.9484   -104.6136      7.8440    133.3862
  1654.5000      8.0280   -103.9876      7.9198    135.9689
  1654.7500      8.0846   -103.0865      7.9951    137.1926
  1655.0000      8.1310   -102.0442      8.0796    137.6128
  1655.2500      8.1997   -101.0315      8.1715    137.0153
  1655.5000      8.3207   -100.2110      8.2617    135.1668
  1655.7500      8.5024    -99.6959      8.3472    133.3709
  1656.0000      8.7269    -99.5272      8.4389    129.8449
  1656.2500      8.9599    -99.6758      8.5558    127.1863
  1656.5000      9.1684   -100.0678      8.7093    123.6134
  1656.7500      9.3363   -100.6178      8.8884    121.9150
  1657.0000      9.4666   -101.2574      9.0563    120.5042
  1657.2500      9.5722   -101.9418      9.1652    120.2317
  1657.5000      9.6655   -102.6457      9.1848    120.6784
  1657.7500      9.7555   -103.3397      9.1240    121.3295
  1658.0000      9.8479   -103.9698      9.0256    122.3794
  1658.2500      9.9405   -104.4588      8.9385    123.1886
  1658.5000     10.0128   -104.7153      8.8943    125.2881
  1658.7500     10.0263   -104.6637      8.8997    127.4797
  1659.0000      9.9445   -104.2675      8.9398    131.0785
  1659.2500      9.7619   -103.5472      8.9871    132.7075
  1659.5000      9.5164   -102.5782      9.0111    132.8280
  1659.7500      9.2686   -101.4703      8.9892    131.4727
  1660.0000      9.0610   -100.3407      8.9131    128.6145
  1660.2500      8.8893    -99.2854      8.7898    126.9963
  1660.5000      8.7087    -98.3710      8.6358    125.7183
  1660.7500      8.4712    -97.6305      8.4721    125.7727
  1661.0000      8.1684    -97.0677      8.3218    127.6646
  1661.2500      7.8511    -96.6672      8.2083    130.4361
  1661.5000      7.6127    -96.3969      8.1509    136.5038
  1661.7500      7.5520    -96.2127      8.1582    140.9059
  1662.0000      7.7348    -96.0710      8.2244    146.2213
  1662.2500      8.1736    -95.9446      8.3304    148.4090
  1662.5000      8.8265    -95.8373      8.4536    149.9838
  1662.7500      9.6145    -95.7887      8.5793    150.3266
  1663.0000     10.4476    -95.8690      8.7090    150.1215
  1663.2500     11.2511    -96.1521      8.8592    149.3093
  1663.5000     11.9834    -96.6806      9.0567    146.2095
  1663.7500     12.6457    -97.4422      9.3348    142.4311
  1664.0000     13.2865    -98.3601      9.7339    134.4866
  1664.2500     13.9950    -99.3043     10.3002    128.6358
  1664.5000     14.8776   -100.1206     11.0789    121.0588
  1664.7500     16.0229   -100.6697     12.1017    117.5422
  1665.0000     17.4804   -100.8569     13.3684    114.7407
  1665.2500     19.2742   -100.6472     14.8307    114.1149
  1665.5000     21.4438   -100.0689     16.3912    113.3899
  1665.7500     24.0769    -99.2004     17.9225    111.7073
  1666.0000     27.2926    -98.1534     19.2957    105.9417
  1666.2500     31.1642    -97.0577     20.4102    100.3164
  1666.5000     35.6129    -96.0453     21.2251     91.4496
  1666.7500     40.3346    -95.2397     21.7712     86.5630
  1667.0000     44.8092    -94.7480     22.1100     81.9089
  1667.2500     48.4028    -94.6506     22.2657     80.6032
  1667.5000     50.5310    -94.9819     22.2009     80.6096
  1667.7500     50.8228    -95.7179     21.8708     81.2472
  1668.0000     49.2286    -96.7690     21.2867     82.1719
  1668.2500     46.0308    -97.9885     20.5165     82.7024
  1668.5000     41.7544    -99.1910     19.6323     84.3246
  1668.7500     37.0081   -100.1892     18.6701     86.7513
  1669.0000     32.3219   -100.8369     17.6355     93.1842
  1669.2500     28.0456   -101.0639     16.5358     99.0094
  1669.5000     24.3383   -100.8946     15.4054    108.0315
  1669.7500     21.2239   -100.4487     14.2976    112.7845
  1670.0000     18.6639    -99.9093     13.2526    117.1256
  1670.2500     16.6035    -99.4739     12.2804    119.1624
  1670.5000     14.9807    -99.2981     11.3767    123.7224
  1670.7500     13.7146    -99.4575     10.5467    128.4933
  1671.0000     12.7020    -99.9278      9.8066    136.9344
  1671.2500     11.8350   -100.6061      9.1662    142.0273
  1671.5000     11.0337   -101.3473      8.6176    147.4384
  1671.7500     10.2675   -102.0211      8.1451    149.6735
  1672.0000      9.5488   -102.5455      7.7417    152.3115
  1672.2500      8.9065   -102.9047      7.4150    154.4415
  1672.5000      8.3645   -103.1318      7.1761    158.3956
  1672.7500      7.9379   -103.2768      7.0272    160.6849
  1673.0000      7.6371   -103.3713      6.9556    161.7482
  1673.2500      7.4645   -103.4124      6.9399    160.6248
  1673.5000      7.4059   -103.3614      6.9617    157.7708
  1673.7500      7.4304   -103.1660      7.0149    156.5107
  1674.0000      7.5075   -102.7821      7.1043    157.1435
  1674.2500      7.6264   -102.2006      7.2347    159.1769
  1674.5000      7.8011   -101.4491      7.4038    163.1275
  1674.7500      8.0578   -100.5870      7.6037    165.1528
  1675.0000      8.4165    -99.6893      7.8302    165.6603
  1675.2500      8.8803    -98.8209      8.0871    163.9485
  1675.5000      9.4342    -98.0257      8.3782    158.5050
  1675.7500     10.0483    -97.3218      8.6939    153.2291
  1676.0000     10.6831    -96.7071      9.0030    143.2943
  1676.2500     11.2959    -96.1750      9.2614    135.7635
  1676.5000     11.8483    -95.7319      9.4336    124.6147
  1676.7500     12.3097    -95.4075      9.5133    118.5239
  1677.0000     12.6525    -95.2587      9.5282    113.2034
  1677.2500     12.8450    -95.3555      9.5271    112.4876
  1677.5000     12.8510    -95.7586      9.5596    114.8312
  1677.7500     12.6457    -96.4941      9.6584    117.9736
  1678.0000     12.2382    -97.5308      9.8268    124.1423
  1678.2500     11.6825    -98.7793     10.0336    128.7521
  1678.5000     11.0652   -100.0985     10.2208    135.7096
  1678.7500     10.4765   -101.3228     10.3253    140.2965
  1679.0000      9.9859   -102.2949     10.3065    147.4120
  1679.2500      9.6339   -102.8984     10.1618    152.2747
  1679.5000      9.4363   -103.0799      9.9225    158.8024
  1679.7500      9.3902   -102.8629      9.6358    161.7774
  1680.0000      9.4761   -102.3404      9.3487    162.8144
  1680.2500      9.6569   -101.6560      9.0971    160.8368
