~Version Information
VERS.                      2.0: CWLS Log ASCII Standard - VERSION 2.0
WRAP.                       NO: One line per depth step
~Well Information Block
STRT.FT                -7.2500: 
STOP.FT               765.5000: 
STEP.FT                 0.2500: 
NULL.                -999.2500: 
COMP.          Pioneer Natural Resources: COMPANY
WELL.          Barrelman 41-27: WELL
FLD.           Purgatorie River: FIELD
LOC.           371' FNL & 493' FEL--: LOCATION
PROV.                       CO: PROVINCE
CNTY.               Las Animas: COUNTRY
SRVC.          Patterson Wireline: SERVICE COMPANY
DATE.          Wed May 25 09:32:20 2005: LOG DATE
UWI.           05 071 08334 00: UNIQUE WELL ID
~Curve Information Block
DEPT.FT            0 000 00 00: Depth
CCL.                          : Casing Collar Locator
TT3.usec                      : CBL 3' Travel Time
AMP3.mV                       : CBL 3' Amplitude
GR.GAPI                       : Gamma Ray
~Parameter Information Block
~A  Depth       CCL         TT3         AMP3         GR     
# ...
   729.7500      0.0000    775.0494      8.1568     82.7013
   730.0000      0.0000    776.0428      8.0887     84.1124
   730.2500      0.0000    776.8098      8.0479     84.8190
   730.5000      0.0000    778.4489      8.0320     84.2667
   730.7500      0.0000    781.3480      8.0445     82.1598
   731.0000      0.0000    785.2193      8.0871     79.1886
   731.2500      0.0000    789.2220      8.1534     77.0285
   731.5000      0.0000    792.6019      8.2315     77.1399
   731.7500      0.0000    795.2812      8.3089     79.4705
   732.0000      0.0000    797.5110      8.3777     82.5128
   732.2500      0.0000    799.0974      8.4380     84.5715
   732.5000      0.0000    799.3584      8.4992     84.7015
   732.7500      0.0000    797.9245      8.5755     82.6657
   733.0000      0.0000    795.4901      8.6746     78.7996
   733.2500      0.0000    793.6733      8.7900     74.2305
   733.5000      0.0000    793.8536      8.9060     70.5554
   733.7500      0.0000    795.9523      9.0035     68.6817
   734.0000      0.0000    798.4324      9.0618     68.1298
   734.2500      0.0000    799.5275      9.0611     67.7261
   734.5000      0.0000    798.5192      8.9950     66.9031
   734.7500      0.0000    796.2120      8.8788     66.2119
   735.0000      0.0000    794.4343      8.7456     66.6645
   735.2500      0.0000    794.7314      8.6327     68.6584
   735.5000      0.0000    797.1392      8.5690     71.4510
   735.7500      0.0000    800.2409      8.5653     73.5877
   736.0000      0.0000    802.3719      8.6099     73.9551
   736.2500      0.0000    802.6156      8.6758     72.6516
   736.5000      0.0000    800.8950      8.7334     71.0252
   736.7500      0.0000    797.6342      8.7602     70.7961
   737.0000      0.0000    793.4468      8.7433     72.8055
   737.2500      0.0000    788.9301      8.6823     76.2534
   737.5000      0.0000    784.6579      8.5897     79.0355
   737.7500      0.0000    781.2711      8.4846     79.0278
   738.0000      0.0000    779.3557      8.3845     75.5200
   738.2500      0.0000    779.1273      8.2990     69.8672
   738.5000      0.0000    780.2045      8.2284     64.7735
   738.7500      0.0000    781.6583      8.1677     62.4259
   739.0000      0.0000    782.5081      8.1129     62.8728
   739.2500      0.0000    782.5580      8.0646     64.2546
   739.5000      0.0000    782.7652      8.0255     64.7355
   739.7500      0.0000    784.4926      7.9959     64.0882
   740.0000      0.0000    788.2477      7.9723     63.4170
   740.2500      0.0000    793.1841      7.9496     63.7816
   740.5000      0.0000    797.7967      7.9231     65.4285
   740.7500      0.0000    801.0280      7.8922     67.9504
   741.0000      0.0000    802.7503      7.8617     70.6435
   741.2500      0.0000    803.4349      7.8390     72.8110
   741.5000      0.0000    803.6103      7.8312     74.1094
   741.7500      0.0000    803.5972      7.8420     74.6128
   742.0000      0.0000    803.5294      7.8727     74.5776
   742.2500      0.0000    803.4512      7.9211     74.3273
   742.5000      0.0000    803.3831      7.9799     74.1754
   742.7500      0.0000    803.3425      8.0395     74.1487
   743.0000      0.0000    803.3369      8.0917     74.0047
   743.2500      0.0000    803.3547      8.1308     73.7047
   743.5000      0.0000    803.3716      8.1517     73.6396
   743.7500      0.0000    803.3694      8.1495     74.3444
   744.0000      0.0000    803.3472      8.1227     76.1077
   744.2500      0.0000    803.3154      8.0735     78.6646
   744.5000      0.0000    803.2813      8.0063     81.1530
   744.7500      0.0000    803.2441      7.9279     82.6306
   745.0000      0.0000    803.2040      7.8476     82.8867
   745.2500      0.0000    803.1707      7.7746     82.6656
   745.5000      0.0000    803.1583      7.7147     82.8952
   745.7500      0.0000    803.1696      7.6709     83.6249
   746.0000      0.0000    803.1920      7.6455     83.8327
   746.2500      0.0000    803.2101      7.6376     82.4398
   746.5000      0.0000    803.2199      7.6397     79.5561
   746.7500      0.0000    803.2294      7.6397     76.5577
   747.0000      0.0000    803.2507      7.6289     74.8468
   747.2500      0.0000    803.2898      7.6067     74.6069
   747.5000      0.0000    803.3401      7.5782     74.8336
   747.7500      0.0000    803.3825      7.5506     74.4758
   748.0000      0.0000    803.3931      7.5336     73.3987
   748.2500      0.0000    803.3553      7.5410     72.2453
   748.5000      0.0000    803.2689      7.5880     71.5698
   748.7500      0.0000    803.1465      7.6872     71.2919
   749.0000      0.0000    803.0048      7.8436     70.9853
   749.2500      0.0000    802.8652      8.0506     70.4848
   749.5000      0.0000    802.7673      8.2862     70.0308
   749.7500      0.0000    802.7644      8.5135     69.8581
   750.0000      0.0000    802.8950      8.6926     69.7726
   750.2500      0.0000    803.1674      8.8006     69.1528
   750.5000      0.0000    803.5815      8.8493     67.3146
   750.7500      0.0000    804.1860      8.8838     63.7342
   751.0000      0.0000    805.1383      8.9610     57.8392
   751.2500      0.0000    806.7271      9.1212     48.9919
   751.5000      0.0000    809.2301      9.3711     37.3440
   751.7500      0.0000    812.5010      9.6834     24.6793
   752.0000      0.0000    815.5912     10.0048     13.7128
   752.2500      0.0000    817.1003     10.2705      6.2649
   752.5000      0.0000    816.3298     10.4214      2.3171
   752.7500      0.0000    814.0963     10.4217      0.6864
   753.0000      0.0000    812.3080     10.2703      0.1614
   753.2500      0.0000    812.8785      9.9990      0.0297
   753.5000      0.0000    816.8341      9.6607      0.0038
   753.7500      0.0000    823.6788      9.3149      0.0000
   754.0000      0.0000    831.1664      9.0150   -999.2500
   754.2500      0.0000    836.1201      8.7964   -999.2500
   754.5000      0.0000    836.1967      8.6665   -999.2500
   754.7500      0.0000    831.3310      8.6047   -999.2500
   755.0000      0.0000    823.6611      8.5778   -999.2500
   755.2500      0.0000    815.9115      8.5576   -999.2500
   755.5000      0.0000    809.4530      8.5278   -999.2500
   755.7500      0.0000    803.0235      8.4740   -999.2500
   756.0000      0.0000    791.8858      8.3584   -999.2500
   756.2500      0.0000    766.4113      8.0858   -999.2500
   756.5000      0.0000    711.8003      7.4926   -999.2500
   756.7500      0.0000    614.2700      6.4227   -999.2500
   757.0000      0.0000    474.6875      4.8862   -999.2500
   757.2500      0.0000    317.1722      3.1539   -999.2500
   757.5000      0.0000    178.0399      1.6284   -999.2500
   757.7500      0.0000     82.1636      0.5809   -999.2500
   758.0000      0.0000     30.6927      0.0205   -999.2500
   758.2500      0.0000      9.1780     -0.2131   -999.2500
   758.5000      0.0000      2.1769     -0.2890   -999.2500
   758.7500      0.0000      0.4037     -0.3081   -999.2500
   759.0000      0.0000      0.0539     -0.3119   -999.2500
   759.2500      0.0000   -999.2500   -999.2500   -999.2500
   759.5000      0.0000   -999.2500   -999.2500   -999.2500
   759.7500      0.0000   -999.2500   -999.2500   -999.2500
   760.0000      0.0000   -999.2500   -999.2500   -999.2500
   760.2500      0.0000   -999.2500   -999.2500   -999.2500
   760.5000      0.0000   -999.2500   -999.2500   -999.2500
   760.7500      0.0000   -999.2500   -999.2500   -999.2500
   761.0000      0.0000   -999.2500   -999.2500   -999.2500
   761.2500      0.0000   -999.2500   -999.2500   -999.2500
   761.5000      0.0000   -999.2500   -999.2500   -999.2500
   761.7500      0.0000   -999.2500   -999.2500   -999.2500
   762.0000      0.0000   -999.2500   -999.2500   -999.2500
   762.2500      0.0000   -999.2500   -999.2500   -999.2500
   762.5000      0.0000   -999.2500   -999.2500   -999.2500
   762.7500      0.0000   -999.2500   -999.2500   -999.2500
   763.0000      0.0000   -999.2500   -999.2500   -999.2500
