~Version Information
VERS.                      2.0: CWLS Log ASCII Standard - VERSION 2.0
WRAP.                       NO: One line per depth step
~Well Information Block
STRT.FT               702.7000: 
STOP.FT              2529.2000: 
STEP.FT                 0.1000: 
NULL.                -999.2500: 
COMP.          Pioneer Natural Resources: COMPANY
WELL.          Aztec Federal 41-15: WELL
FLD.           Purgatorie River: FIELD
LOC.           706' FNL & 1253' FEL: LOCATION
CNTY.               Las Animas: COUNTY
SRVC.          Superior Well Services: SERVICE COMPANY
DATE.          Tue Mar 18 09-36-47 2008: LOG DATE
UWI.           05-071-08342-00: UNIQUE WELL ID
STAT.                       CO: STATE
~Curve Information Block
DEPT.FT            0 000 00 00: Depth
DCAL.in                       : CDL Caliper
DPOR.pu                       : CDL Density Porosity
GR.GAPI                       : Gamma Ray
RHOB.g/cc                     : CDL Bulk Density
RHOC.g/cc                     : CDL Density Correction
~Parameter Information Block
~A  Depth       DCAL        DPOR         GR         RHOB        RHOC    
# ...
   949.1000      7.9708      3.2199    125.1875      2.5969      0.1165
   949.2000      7.9761      3.7992    124.0279      2.5873      0.1323
   949.3000      7.9806      4.9553    125.1961      2.5682      0.1488
   949.4000      7.9843      5.1648    126.3987      2.5648      0.1815
   949.5000      7.9872      3.8242    126.9019      2.5869      0.2318
   949.6000      7.9896      3.1980    129.8145      2.5972      0.2678
   949.7000      7.9916      4.4650    135.6574      2.5763      0.2681
   949.8000      7.9934      6.0026    139.3426      2.5510      0.2531
   949.9000      7.9951      6.9531    140.8657      2.5353      0.2411
   950.0000      7.9967      8.5156    145.9954      2.5095      0.2178
   950.1000      7.9984     11.2860    152.2235      2.4638      0.1693
   950.2000      8.0001     14.0029    152.3783      2.4190      0.1079
   950.3000      8.0017     15.3486    147.5801      2.3967      0.0603
   950.4000      8.0031     15.5465    144.0374      2.3935      0.0371
   950.5000      8.0042     15.3446    141.3366      2.3968      0.0284
   950.6000      8.0052     14.5723    136.2440      2.4096      0.0345
   950.7000      8.0074     13.3791    130.7234      2.4292      0.0644
   950.8000      8.0123     13.3438    127.4282      2.4298      0.1079
   950.9000      8.0213     15.7323    128.1446      2.3904      0.1396
   951.0000      8.0346     19.1351    132.1706      2.3343      0.1594
   951.1000      8.0499     21.5280    135.0906      2.2948      0.1854
   951.2000      8.0633     23.8447    132.8945      2.2566      0.2138
   951.3000      8.0711     28.7471    124.8168      2.1757      0.2185
   951.4000      8.0722     37.6333    116.2268      2.0291      0.1764
   951.5000      8.0684     48.7781    111.1480      1.8452      0.1008
   951.6000      8.0630     57.6740    107.6073      1.6984      0.0487
   951.7000      8.0590     62.1092    105.5364      1.6252      0.0465
   951.8000      8.0579     63.9617    106.9617      1.5946      0.0524
   951.9000      8.0592     63.9161    109.2966      1.5954      0.0445
   952.0000      8.0617     61.3074    106.8642      1.6384      0.0399
   952.1000      8.0633     58.1630    100.5026      1.6903      0.0314
   952.2000      8.0625     57.1605     96.7447      1.7069     -0.0040
   952.3000      8.0587     57.2466     98.8709      1.7054     -0.0542
   952.4000      8.0529     54.8532    104.7889      1.7449     -0.0806
   952.5000      8.0470     47.9597    111.3921      1.8587     -0.0627
   952.6000      8.0431     37.8484    116.6966      2.0255     -0.0142
   952.7000      8.0423     27.9580    117.7368      2.1887      0.0275
   952.8000      8.0446     20.9505    115.9664      2.3043      0.0346
   952.9000      8.0486     16.7831    116.3739      2.3731      0.0185
   953.0000      8.0530     14.2742    119.1530      2.4145      0.0068
   953.1000      8.0565     13.4267    121.7716      2.4285      0.0000
   953.2000      8.0588     14.2153    124.3214      2.4154     -0.0140
   953.3000      8.0603     14.8912    127.9252      2.4043     -0.0266
   953.4000      8.0615     14.3610    130.9216      2.4130     -0.0289
   953.5000      8.0631     13.5299    131.5948      2.4268     -0.0277
   953.6000      8.0651     12.8823    130.7496      2.4374     -0.0231
   953.7000      8.0674     11.9411    129.7983      2.4530     -0.0071
   953.8000      8.0696     11.4112    129.7747      2.4617      0.0093
   953.9000      8.0715     11.5774    129.2724      2.4590      0.0098
   954.0000      8.0732     11.4368    127.8927      2.4613      0.0021
   954.1000      8.0744     10.9031    128.7476      2.4701      0.0020
   954.2000      8.0749     10.1384    131.3546      2.4827      0.0136
   954.3000      8.0748      9.0726    132.2590      2.5003      0.0294
   954.4000      8.0741      8.4952    131.3617      2.5098      0.0355
   954.5000      8.0734      9.0755    130.5833      2.5003      0.0266
   954.6000      8.0732     10.1685    131.4175      2.4822      0.0117
   954.7000      8.0741     10.2610    134.0676      2.4807      0.0086
   954.8000      8.0761      9.5953    138.0667      2.4917      0.0180
   954.9000      8.0794      9.5631    141.9749      2.4922      0.0243
   955.0000      8.0839     10.2441    144.8599      2.4810      0.0244
   955.1000      8.0892     11.5133    147.7447      2.4600      0.0232
   955.2000      8.0950     12.3306    151.3058      2.4465      0.0312
   955.3000      8.1004     11.5791    153.8213      2.4589      0.0514
   955.4000      8.1045     10.5590    152.3412      2.4758      0.0664
   955.5000      8.1066     10.8069    147.8987      2.4717      0.0692
   955.6000      8.1064     11.6556    146.3474      2.4577      0.0780
   955.7000      8.1040     12.2931    149.8165      2.4472      0.1027
   955.8000      8.1000     13.2185    152.5723      2.4319      0.1307
   955.9000      8.0951     14.9100    151.6983      2.4040      0.1501
   956.0000      8.0904     16.9213    151.1634      2.3708      0.1600
   956.1000      8.0864     17.3756    152.3039      2.3633      0.1792
   956.2000      8.0838     15.7436    153.7222      2.3902      0.2156
   956.3000      8.0833     14.5503    154.8394      2.4099      0.2358
   956.4000      8.0860     15.3205    156.2100      2.3972      0.2172
   956.5000      8.0935     16.8591    158.5506      2.3718      0.1781
   956.6000      8.1071     18.5162    160.9845      2.3445      0.1256
   956.7000      8.1265     21.2719    162.8064      2.2990      0.0516
   956.8000      8.1486     24.8116    161.3540      2.2406     -0.0205
   956.9000      8.1673     26.8947    155.7811      2.2062     -0.0572
   957.0000      8.1763     26.4556    151.5255      2.2135     -0.0564
   957.1000      8.1721     24.2219    151.9158      2.2503     -0.0370
   957.2000      8.1558     20.8831    151.8185      2.3054     -0.0119
   957.3000      8.1325     17.2714    146.5152      2.3650      0.0123
   957.4000      8.1083     13.9087    139.7896      2.4205      0.0361
   957.5000      8.0880     11.3287    135.8371      2.4631      0.0572
   957.6000      8.0736     10.8448    134.3453      2.4711      0.0594
   957.7000      8.0647     12.2477    136.2617      2.4479      0.0389
   957.8000      8.0600     13.8248    140.4884      2.4219      0.0135
   957.9000      8.0580     14.5230    142.9502      2.4104     -0.0029
   958.0000      8.0572     14.5493    140.7223      2.4099     -0.0111
   958.1000      8.0565     14.4995    134.6168      2.4108     -0.0137
   958.2000      8.0548     14.8204    129.0956      2.4055     -0.0192
   958.3000      8.0518     15.2051    126.3817      2.3991     -0.0315
   958.4000      8.0478     14.9753    125.2107      2.4029     -0.0350
   958.5000      8.0434     13.7232    124.7277      2.4236     -0.0140
   958.6000      8.0396     11.4892    126.7678      2.4604      0.0240
   958.7000      8.0367      8.7868    132.8653      2.5050      0.0572
   958.8000      8.0349      5.8281    140.4166      2.5538      0.0833
   958.9000      8.0339      3.1619    147.3253      2.5978      0.1067
   959.0000      8.0335      2.9965    152.4391      2.6006      0.1033
   959.1000      8.0337      6.1389    152.7136      2.5487      0.0573
   959.2000      8.0347      9.5851    148.5656      2.4918      0.0002
   959.3000      8.0365     10.4754    142.2182      2.4772     -0.0269
   959.4000      8.0393     10.1503    136.4818      2.4825     -0.0304
   959.5000      8.0432      9.9254    134.0179      2.4862     -0.0285
   959.6000      8.0484      8.7077    133.2814      2.5063     -0.0122
   959.7000      8.0545      6.6735    132.7088      2.5399      0.0167
   959.8000      8.0607      5.1196    133.7789      2.5655      0.0424
   959.9000      8.0658      4.5581    136.0127      2.5748      0.0602
   960.0000      8.0690      4.4840    135.8752      2.5760      0.0746
   960.1000      8.0702      4.1230    133.0130      2.5820      0.0925
   960.2000      8.0704      3.3689    131.0158      2.5944      0.1190
