~Version Information
VERS.                      2.0: CWLS Log ASCII Standard - VERSION 2.0
WRAP.                       NO: One line per depth step
~Well Information Block
STRT.FT               784.0000: 
STOP.FT              1033.0000: 
STEP.FT                 0.1000: 
NULL.                -999.2500: 
COMP.          Pioneer Natural Resources: COMPANY
WELL.          Run-Away-Train 43-26: WELL
FLD.           Purgatoire River: FIELD
LOC.           1693' FSL & 1195' FEL: LOCATION
PROV.                 Colorado: PROVINCE
CNTY.               Las Animas: COUNTRY
SRVC.                Patterson: SERVICE COMPANY
DATE.          Wed Apr 06 07:23:28 2005: LOG DATE
UWI.           05 071 08188 00: UNIQUE WELL ID
~Curve Information Block
DEPT.FT            0 000 00 00: Depth
DCAL.in                       : CDL Caliper
RHOB.g/cc                     : CDL Bulk Density
RHOC.g/cc                     : CDL Density Correction
DPOR.pu                       : CDL Density Porosity
GR.GAPI                       : Gamma Ray
NPOR.pu                       : Neutron Porosity
~Parameter Information Block
~A  Depth       DCAL        RHOB        RHOC        DPOR         GR         NPOR    
# ...
  1014.4000      7.8460      2.5491      0.0328      6.1124     95.9619     20.5218
  1014.5000      7.8517      2.5534      0.0847      5.8528     87.8305     19.6888
  1014.6000      7.8517      2.5469      0.0503      6.2489     84.3728     18.9255
  1014.7000      7.8517      2.5372      0.0797      6.8377     85.6312     18.7903
  1014.8000      7.8430      2.5239      0.0710      7.6433     87.7073     19.0953
  1014.9000      7.8430      2.5028      0.0115      8.9195     89.7232     19.6093
  1015.0000      7.8584      2.4797      0.0023     10.3227     92.6036     20.2747
  1015.1000      7.8584      2.4649      0.0016     11.2173     97.8518     20.8708
  1015.2000      7.8584      2.4636      0.0280     11.2967    103.2045     21.1353
  1015.3000      7.8663      2.4772      0.0052     10.4733    103.1680     21.0572
  1015.4000      7.8663      2.5040      0.0616      8.8506     94.8722     20.6139
  1015.5000      7.8566      2.5265      0.0793      7.4844     78.5814     19.9776
  1015.6000      7.8566      2.5324      0.0602      7.1260     55.1371     19.4801
  1015.7000      7.8566      2.5297      0.0984      7.2906     28.4118     19.0346
  1015.8000      7.8402      2.5252      0.0672      7.5609      9.2372     18.6868
  1015.9000      7.8402      2.5224      0.0768      7.7305      1.7242     18.6939
  1016.0000      7.8229      2.5256      0.0655      7.5420      0.1763     18.7278
  1016.1000      7.8229      2.5356      0.1095      6.9359      0.0095     18.1707
  1016.2000      7.8229      2.5491      0.0639      6.1178      0.0000     17.5724
  1016.3000      7.8155      2.5552      0.0879      5.7431   -999.2500     17.8670
  1016.4000      7.8155      2.5367      0.0346      6.8640   -999.2500     18.6185
  1016.5000      7.8086      2.4925      0.0226      9.5467   -999.2500     18.4751
  1016.6000      7.8086      2.4488     -0.0498     12.1945   -999.2500     17.2783
  1016.7000      7.8086      2.4306     -0.0048     13.2974   -999.2500     16.5825
  1016.8000      7.8276      2.4346     -0.0198     13.0544   -999.2500     17.1477
  1016.9000      7.8276      2.4447      0.0146     12.4423   -999.2500     18.0691
  1017.0000      7.8588      2.4604      0.0037     11.4926   -999.2500     18.2937
  1017.1000      7.8588      2.4908      0.0130      9.6456   -999.2500     17.9859
  1017.2000      7.8588      2.5211      0.0765      7.8132   -999.2500     18.1440
  1017.3000      7.8479      2.5295      0.0739      7.3022   -999.2500     18.7292
  1017.4000      7.8479      2.5294      0.0603      7.3107   -999.2500     18.9077
  1017.5000      7.8415      2.5373      0.1115      6.8294   -999.2500     18.8655
  1017.6000      7.8415      2.5410      0.0948      6.6065   -999.2500     19.2987
  1017.7000      7.8415      2.5296      0.0656      7.2958   -999.2500     20.0780
  1017.8000      7.8316      2.5092      0.0610      8.5337   -999.2500     20.3354
  1017.9000      7.8316      2.4907      0.0304      9.6560   -999.2500     19.8957
  1018.0000      7.7956      2.4942     -0.0012      9.4433   -999.2500     20.0430
  1018.1000      7.7956      2.5312      0.0589      7.2021   -999.2500     22.6883
  1018.2000      7.7956      2.5723      0.1663      4.7109   -999.2500     29.9926
  1018.3000      7.7909      2.5821      0.1222      4.1161   -999.2500     40.4769
  1018.4000      7.7909      2.5729      0.0708      4.6746   -999.2500     47.8246
  1018.5000      7.7993      2.5649      0.1279      5.1566   -999.2500     50.4583
  1018.6000      7.7993      2.5455      0.1075      6.3328   -999.2500     50.9743
  1018.7000      7.7993      2.5137      0.0091      8.2625   -999.2500     51.0290
  1018.8000      7.8081      2.4976      0.0143      9.2340   -999.2500     51.0321
  1018.9000      7.8081      2.5102      0.0416      8.4704   -999.2500   -999.2500
  1019.0000      7.8137      2.5320      0.0696      7.1490   -999.2500   -999.2500
  1019.1000      7.8137      2.5395      0.0634      6.6954   -999.2500   -999.2500
  1019.2000      7.8137      2.5326      0.0668      7.1130   -999.2500   -999.2500
  1019.3000      7.8339      2.5227      0.0688      7.7126   -999.2500   -999.2500
  1019.4000      7.8339      2.5116      0.0368      8.3849   -999.2500   -999.2500
  1019.5000      7.8380      2.5019     -0.0295      8.9746   -999.2500   -999.2500
  1019.6000      7.8380      2.5018     -0.0015      8.9813   -999.2500   -999.2500
  1019.7000      7.8380      2.5082      0.0267      8.5964   -999.2500   -999.2500
  1019.8000      7.8375      2.5128     -0.0043      8.3160   -999.2500   -999.2500
  1019.9000      7.8375      2.5182      0.0226      7.9872   -999.2500   -999.2500
  1020.0000      7.8542      2.5230      0.0286      7.6995   -999.2500   -999.2500
  1020.1000      7.8542      2.5177      0.0190      8.0207   -999.2500   -999.2500
  1020.2000      7.8542      2.5001      0.0204      9.0822   -999.2500   -999.2500
  1020.3000      7.8449      2.4835      0.0025     10.0891   -999.2500   -999.2500
  1020.4000      7.8449      2.4941     -0.0307      9.4514   -999.2500   -999.2500
  1020.5000      7.8420      2.5321      0.0534      7.1468   -999.2500   -999.2500
  1020.6000      7.8420      2.5620      0.0471      5.3311   -999.2500   -999.2500
  1020.7000      7.8420      2.5708      0.0520      4.7979   -999.2500   -999.2500
  1020.8000      7.8400      2.5715      0.0699      4.7599   -999.2500   -999.2500
  1020.9000      7.8400      2.5659      0.0543      5.0947   -999.2500   -999.2500
  1021.0000      7.8468      2.5546      0.0365      5.7815   -999.2500   -999.2500
  1021.1000      7.8468      2.5414      0.0548      6.5818   -999.2500   -999.2500
  1021.2000      7.8468      2.5253      0.0288      7.5601   -999.2500   -999.2500
  1021.3000      7.8525      2.5093     -0.0046      8.5258   -999.2500   -999.2500
  1021.4000      7.8525      2.5036     -0.0040      8.8711   -999.2500   -999.2500
  1021.5000      7.8561      2.5153     -0.0337      8.1629   -999.2500   -999.2500
  1021.6000      7.8561      2.5410      0.0424      6.6040   -999.2500   -999.2500
  1021.7000      7.8561      2.5658      0.0281      5.1051   -999.2500   -999.2500
  1021.8000      7.8688      2.5755      0.0488      4.5140   -999.2500   -999.2500
  1021.9000      7.8688      2.5724      0.0151      4.7060   -999.2500   -999.2500
  1022.0000      7.8553      2.5656      0.0314      5.1173   -999.2500   -999.2500
  1022.1000      7.8553      2.5554      0.0331      5.7315   -999.2500   -999.2500
  1022.2000      7.8553      2.5457     -0.0067      6.3208   -999.2500   -999.2500
  1022.3000      7.8693      2.5439      0.0628      6.4299   -999.2500   -999.2500
  1022.4000      7.8693      2.5469      0.0273      6.2491   -999.2500   -999.2500
  1022.5000      7.8399      2.5567     -0.0068      5.6516   -999.2500   -999.2500
  1022.6000      7.8399      2.5725      0.1056      4.6989   -999.2500   -999.2500
  1022.7000      7.8399      2.5781      0.0630      4.3554   -999.2500   -999.2500
  1022.8000      7.8265      2.5693      0.0418      4.8929   -999.2500   -999.2500
  1022.9000      7.8265      2.5573      0.0657      5.6186   -999.2500   -999.2500
  1023.0000      7.8239      2.5570      0.0199      5.6347   -999.2500   -999.2500
  1023.1000      7.8239      2.5715      0.0721      4.7592   -999.2500   -999.2500
  1023.2000      7.8239      2.5807      0.0736      4.2028   -999.2500   -999.2500
  1023.3000      7.8272      2.5660      0.0591      5.0925   -999.2500   -999.2500
  1023.4000      7.8272      2.5374      0.0040      6.8224   -999.2500   -999.2500
  1023.5000      7.8316      2.5222      0.0232      7.7471   -999.2500   -999.2500
  1023.6000      7.8316      2.5345      0.0080      7.0008   -999.2500   -999.2500
  1023.7000      7.8316      2.5642      0.0493      5.1996   -999.2500   -999.2500
  1023.8000      7.8466      2.5858      0.0693      3.8889   -999.2500   -999.2500
  1023.9000      7.8466      2.5854      0.0483      3.9122   -999.2500   -999.2500
