~Version Information
 VERS.                                  2.0 : CWLS LAS VERSION
 WRAP.                                   NO : WRAPING MODE
 SWARE .                 MController 2.5.0E : SOFTWARE VERSION
~Well Information
 WELL.                        Triumph 13 10 : WELL
 COMP.             Evergreen Operating Corp : COMPANY
 FLD.                      Purgatorie River : FIELD
 LOC.                NW/SW Sec 10 T32S R66W : LOCATION
 DATE.                           7/22 23/04 : DATE(S) LOGGED
 SRVC.       Blanco Geological Services LLC : SERVICE COMPANY
 STAT.                                   CO : STATE
 CNTY.                           Las Animas : COUNTY
 CTRY.                                  USA : COUNTRY
 API.                       05 071 08108 00 : API NUMBER
 STRT.FT                             414.00 : START DEPTH
 STOP.FT                            2210.00 : STOP DEPTH
 STEP.FT                               1.00 : DEPTH INCREMENT
 NULL.                                 9999 : NULL VALUE
~Curve information
 DEPTH.FT                                   :
 ROP.MIN/FT                                 :
 GAS.UNITS                                  :
~ASCII Log data
# ...
     2014.00        0.400       1556.7 
     2015.00        0.300       1569.8 
     2016.00        0.367       1702.6 
     2017.00        0.333       1875.1 
     2018.00        0.200       1951.6 
     2019.00        0.200       2008.8 
     2020.00        0.233       2059.4 
     2021.00        0.233       2069.5 
     2022.00        0.233       2063.4 
     2023.00        0.267       1946.5 
     2024.00        0.250       1932.7 
     2025.00        0.200       2051.6 
     2026.00        0.133       2150.7 
     2027.00        0.133       2264.6 
     2028.00        0.133       2281.7 
     2029.00        0.200       2367.0 
     2030.00        0.300       2455.9 
     2031.00        0.167       2470.1 
     2032.00        0.233       2470.4 
     2033.00        0.233       2412.8 
     2034.00        0.267       2161.1 
     2035.00        0.233       1690.8 
     2036.00        4.333       4108.2 
     2037.00        0.867       3298.2 
     2038.00        0.633       2738.9 
     2039.00        0.733       2164.2 
     2040.00        0.700       1752.5 
     2041.00        0.583       1624.1 
     2042.00        0.500       1503.1 
     2043.00        0.500       1456.0 
     2044.00        0.500       1435.1 
     2045.00        0.567       1411.5 
     2046.00        0.533       1438.1 
     2047.00        0.517       1471.5 
     2048.00        0.600       1470.1 
     2049.00        0.533       1424.0 
     2050.00        0.667       1425.6 
     2051.00        0.467       1388.6 
     2052.00        0.667       1427.0 
     2053.00        0.650       1499.4 
     2054.00        0.567       1502.1 
     2055.00        0.500       1502.8 
     2056.00        0.500       1546.6 
     2057.00        0.500       1645.0 
     2058.00        0.433       1644.0 
     2059.00        0.367       1563.8 
     2060.00        0.417       1560.4 
     2061.00        0.633       1587.4 
     2062.00        0.533       1563.8 
     2063.00        0.467       1432.4 
     2064.00        0.533       1389.3 
     2065.00        0.467       1358.3 
     2066.00        3.283       4133.4 
     2067.00        0.617       4158.7 
     2068.00        0.667       3972.4 
     2069.00        0.500       3002.7 
     2070.00        0.467       2376.1 
     2071.00        0.467       1954.9 
     2072.00        0.433       1756.5 
     2073.00        0.367       1610.6 
     2074.00        0.333       1567.1 
     2075.00        0.350       1542.9 
     2076.00        0.333       1654.7 
     2077.00        0.300       1776.4 
     2078.00        0.300       1887.6 
     2079.00        0.267       2022.3 
     2080.00        0.267       2056.0 
     2081.00        0.267       2102.5 
     2082.00        0.267       2103.2 
     2083.00        0.300       2098.8 
     2084.00        0.267       2093.1 
     2085.00        0.300       2094.8 
     2086.00        0.283       2116.7 
     2087.00        0.333       2126.8 
     2088.00        0.233       2126.8 
     2089.00        0.300       2124.7 
     2090.00        0.233       1915.2 
     2091.00        0.200       1870.7 
     2092.00        0.167       1867.3 
     2093.00        0.133       1850.2 
     2094.00        0.167       1754.5 
     2095.00        0.233       1658.1 
     2096.00        3.717       4223.7 
     2097.00        1.317       4163.4 
     2098.00        0.600       3052.6 
     2099.00        0.200       2231.2 
     2100.00        0.267       2042.5 
     2101.00        0.433       1931.4 
     2102.00        0.367       1820.2 
     2103.00        0.367       1745.7 
     2104.00        0.267       1660.1 
     2105.00        0.233       1539.9 
     2106.00        0.250       1456.0 
     2107.00        0.267       1425.6 
     2108.00        0.300       1430.7 
     2109.00        0.300       1441.5 
     2110.00        0.267       1449.2 
     2111.00        0.267       1451.6 
     2112.00        0.300       1452.3 
     2113.00        0.267       1453.6 
     2114.00        0.233       1457.7 
     2115.00        0.267       1461.4 
     2116.00        0.367       1469.1 
     2117.00        0.267       1475.5 
     2118.00        0.250       1475.8 
     2119.00        0.267       1472.8 
     2120.00        0.233       1472.8 
     2121.00        0.267       1471.5 
     2122.00        0.233       1475.8 
     2123.00        0.233       1489.3 
     2124.00        0.267       1493.0 
     2125.00        0.267       1461.7 
     2126.00        4.783       3611.9 
     2127.00        1.017       3123.0 
     2128.00        0.567       2325.5 
     2129.00        0.467       2165.2 
     2130.00        0.500       1946.9 
     2131.00        0.400       1768.3 
     2132.00        0.367       1624.4 
     2133.00        0.383       1537.2 
     2134.00        1.967       2245.7 
     2135.00      308.683       7354.3 
     2136.00        0.467          2.0 
     2137.00        1.300          2.4 
     2138.00        0.983          1.5 
     2139.00        0.333          0.9 
     2140.00        0.867          1.5 
     2141.00        0.600          1.3 
     2142.00        0.917          1.4 
     2143.00        0.533          1.2 
     2144.00        0.733          1.2 
     2145.00        0.367          1.1 
     2146.00        0.833          1.1 
     2147.00        0.883          1.3 
     2148.00        0.467          0.8 
     2149.00        0.967          1.5 
     2150.00        0.967          1.5 
     2151.00        0.983          1.3 
     2152.00        0.967          7.9 
     2153.00        0.900          2.0 
     2154.00        1.350          1.4 
     2155.00        1.667          1.0 
     2156.00        1.267          1.0 
     2157.00        0.450          0.9 
     2158.00        1.000        121.1 
     2159.00        0.833        204.7 
     2160.00        1.033        193.0 
     2161.00        1.017        129.1 
     2162.00        1.067        120.3 
     2163.00        0.867        123.5 
     2164.00        0.883        123.7 
     2165.00        0.933        122.9 
     2166.00        0.900        125.3 
     2167.00        2.417        154.2 
     2168.00        2.033        166.9 
     2169.00        0.850        179.4 
     2170.00        0.967        175.3 
     2171.00        0.833        162.1 
     2172.00        0.917        166.3 
     2173.00        0.767        167.7 
     2174.00        0.900        165.6 
     2175.00        0.700        154.0 
     2176.00        0.700        148.0 
     2177.00        0.683        158.3 
     2178.00        0.633        162.0 
     2179.00        0.667        171.0 
     2180.00        0.667        169.8 
     2181.00        0.700        165.7 
     2182.00        0.750        163.2 
     2183.00        0.667        159.2 
     2184.00        0.700        170.4 
     2185.00        0.633        178.5 
     2186.00       11.867       2137.9 
     2187.00        1.167        134.4 
     2188.00        0.733        175.5 
     2189.00        0.717        188.2 
     2190.00        0.700        171.1 
     2191.00        0.867        147.3 
     2192.00        0.933        135.5 
     2193.00        0.817        152.9 
     2194.00        0.767        161.9 
     2195.00        0.633        158.1 
     2196.00        0.667        142.2 
     2197.00        0.700        138.0 
     2198.00        0.650        152.7 
     2199.00        0.833        172.8 
     2200.00        0.733        178.8 
     2201.00        0.800        155.1 
     2202.00        0.783        144.1 
     2203.00        0.833        148.9 
     2204.00        0.867        160.2 
     2205.00        0.767        164.8 
     2206.00        0.633        164.6 
     2207.00        0.617        163.0 
     2208.00        0.600        163.0 
     2209.00        0.833        175.1 
     2210.00        1.200        176.9 
