~Version Information
VERS.                      2.0: CWLS Log ASCII Standard - VERSION 2.0
WRAP.                       NO: One line per depth step
~Well Information Block
STRT.FT               440.0000: 
STOP.FT              2735.2000: 
STEP.FT                 0.1000: 
NULL.                -999.2500: 
COMP.          Pioneer Natural Resources: COMPANY
WELL.              Cluck 21-25: WELL
FLD.           Purgatoire River: FIELD
LOC.           91' FNL & 1834' FWL--: LOCATION
PROV.                 Colorado: PROVINCE
CNTY.               Las Animas: COUNTRY
SRVC.                Patterson: SERVICE COMPANY
DATE.          Tue Jun 07 07:26:19 2005: LOG DATE
UWI.           05 071 08397 00: UNIQUE WELL ID
~Curve Information Block
DEPT.FT            0 000 00 00: Depth
DCAL.in                       : CDL Caliper
RHOB.g/cc                     : CDL Bulk Density
RHOC.g/cc                     : CDL Density Correction
DPOR.pu                       : CDL Density Porosity
NPOR.pu                       : Neutron Porosity
GR.GAPI                       : Gamma Ray
~Parameter Information Block
SNDERRM.mmho-m          0.0000: Medium Sonde Error Correction
~A  Depth       DCAL        RHOB        RHOC        DPOR        NPOR         GR     
# ...
   891.2000      8.0746      1.1354     -0.1869     91.7969      6.8672     83.8924
   891.3000      8.1240      1.1697     -0.1220     89.7145      6.7221     78.0639
   891.4000      8.1240      1.2674     -0.0376     83.7941      6.9807     78.7420
   891.5000      8.2439      1.4384      0.0766     73.4315      7.6597     82.0194
   891.6000      8.2439      1.6722      0.3675     59.2635      8.8263     84.3008
   891.7000      8.2439      1.9141      0.5259     44.6014     10.6446     86.4576
   891.8000      8.4496      2.1084      0.5694     32.8252     12.9258     89.8949
   891.9000      8.4496      2.2464      0.5044     24.4591     14.6518     94.3895
   892.0000      8.5654      2.3482      0.4206     18.2935     15.2938     98.8428
   892.1000      8.5654      2.4184      0.3797     14.0384     15.8198    102.5947
   892.2000      8.5654      2.4464      0.3359     12.3392     16.9102    105.3224
   892.3000      8.4533      2.4311      0.2085     13.2651     17.9832    107.4678
   892.4000      8.4533      2.3892      0.1320     15.8058     18.5517    110.4672
   892.5000      8.3090      2.3481      0.0503     18.2951     18.9022    115.5900
   892.6000      8.3090      2.3289      0.0819     19.4601     19.0556    121.2227
   892.7000      8.3090      2.3291      0.1042     19.4501     18.9546    125.3988
   892.8000      8.2584      2.3326      0.1206     19.2346     18.8888    130.5178
   892.9000      8.2584      2.3337      0.1032     19.1699     18.7943    135.9735
   893.0000      8.2551      2.3471      0.0606     18.3553     18.4456    137.4243
   893.1000      8.2551      2.3876      0.0403     15.9060     17.8639    136.0480
   893.2000      8.2551      2.4378      0.1135     12.8625     17.6212    135.8328
   893.3000      8.2682      2.4622      0.1383     11.3796     18.3106    137.1834
   893.4000      8.2682      2.4570      0.0779     11.6968     19.6204    139.0267
   893.5000      8.3098      2.4467      0.1045     12.3195     20.8378    138.8885
   893.6000      8.3098      2.4432      0.0935     12.5325     21.8573    135.9676
   893.7000      8.3098      2.4573      0.0487     11.6768     22.9078    134.0894
   893.8000      8.3966      2.4974      0.1571      9.2480     23.8889    134.3352
   893.9000      8.3966      2.5319      0.1560      7.1605     24.6370    132.2012
   894.0000      8.4535      2.5193      0.1622      7.9192     25.2104    125.8777
   894.1000      8.4535      2.4615      0.0566     11.4271     25.5286    118.9788
   894.2000      8.4535      2.3984      0.0033     15.2494     25.4638    115.3179
   894.3000      8.4067      2.3599      0.0338     17.5840     25.0799    114.0665
   894.4000      8.4067      2.3412      0.0590     18.7165     24.5296    115.7474
   894.5000      8.3478      2.3329     -0.0033     19.2175     24.0580    122.9931
   894.6000      8.3478      2.3345      0.0939     19.1201     23.8224    132.1548
   894.7000      8.3478      2.3456      0.0650     18.4464     23.6669    136.2393
   894.8000      8.3517      2.3735      0.1215     16.7587     23.4537    134.9286
   894.9000      8.3517      2.4311      0.1585     13.2694     23.3440    132.7732
   895.0000      8.4147      2.5367      0.2223      6.8667     23.5671    129.9040
   895.1000      8.4147      2.6855      0.4013     -2.1501     24.1268    125.6183
   895.2000      8.4147      2.8147      0.5554     -9.9789     24.8660    122.1698
   895.3000      8.4401      2.8580      0.4691    -12.6053     25.3728    120.3972
   895.4000      8.4401      2.8191      0.3234    -10.2474     25.4771    120.4980
   895.5000      8.3277      2.7495      0.2350     -6.0323     25.5767    124.4123
   895.6000      8.3277      2.6889      0.1924     -2.3578     25.8568    131.8973
   895.7000      8.3277      2.6481      0.1379      0.1159     26.2932    134.7469
   895.8000      8.1864      2.6257      0.0868      1.4754     27.0005    128.9710
   895.9000      8.1864      2.6164      0.0751      2.0362     27.8769    123.5966
   896.0000      8.1177      2.6118      0.0469      2.3180     28.6319    124.0324
   896.1000      8.1177      2.6037      0.0343      2.8030     29.1066    124.7332
   896.2000      8.1177      2.5897      0.0342      3.6564     29.2867    122.4862
   896.3000      8.0942      2.5751      0.0455      4.5369     29.4141    120.5564
   896.4000      8.0942      2.5654      0.0289      5.1256     29.4226    121.9777
   896.5000      8.0859      2.5554      0.0503      5.7309     28.8596    124.7432
   896.6000      8.0859      2.5414      0.0069      6.5832     27.9164    125.4612
   896.7000      8.0859      2.5276      0.0038      7.4192     27.3130    124.3896
   896.8000      8.0849      2.5153      0.0071      8.1658     27.2336    123.4673
   896.9000      8.0849      2.5054     -0.0001      8.7664     27.4885    122.9782
   897.0000      8.0853      2.5034     -0.0098      8.8842     27.8816    121.8358
   897.1000      8.0853      2.5061      0.0210      8.7237     28.0582    119.7698
   897.2000      8.0853      2.4994      0.0260      9.1284     27.8475    121.1712
   897.3000      8.0840      2.4784      0.0329     10.4006     27.4579    129.4276
   897.4000      8.0840      2.4503      0.0245     12.1005     27.2341    139.0049
   897.5000      8.0831      2.4214      0.0441     13.8552     27.2520    142.1571
   897.6000      8.0831      2.3948     -0.0214     15.4675     27.1800    141.7350
   897.7000      8.0831      2.3778      0.0014     16.4942     26.9590    143.1391
   897.8000      8.0840      2.3702      0.0276     16.9597     26.6855    142.2388
   897.9000      8.0840      2.3620      0.0425     17.4535     26.1517    137.8283
   898.0000      8.0854      2.3497     -0.0015     18.1985     25.3362    134.9571
   898.1000      8.0854      2.3370      0.0189     18.9718     24.5755    136.1825
   898.2000      8.0854      2.3260      0.0511     19.6361     24.0811    141.3923
   898.3000      8.0903      2.3146      0.0565     20.3261     23.6912    147.7946
   898.4000      8.0903      2.3063      0.0286     20.8275     23.1302    147.6206
   898.5000      8.0965      2.3068      0.0768     20.8026     22.5702    137.5382
   898.6000      8.0965      2.3083      0.0738     20.7109     22.4111    127.0425
   898.7000      8.0965      2.3028      0.0570     21.0453     22.5949    125.1220
   898.8000      8.0941      2.2885      0.0641     21.9065     22.7052    130.2484
   898.9000      8.0941      2.2567      0.0634     23.8389     22.3766    137.3887
   899.0000      8.0865      2.2033      0.0063     27.0746     21.6237    141.9415
   899.1000      8.0865      2.1543     -0.0106     30.0395     20.7189    141.6115
   899.2000      8.0865      2.1427      0.0322     30.7450     19.7781    137.7171
   899.3000      8.0791      2.1668      0.0499     29.2836     18.7727    131.5213
   899.4000      8.0791      2.1941      0.0422     27.6274     17.8571    124.0876
   899.5000      8.0692      2.2003      0.0111     27.2562     16.9654    117.4282
   899.6000      8.0692      2.1886      0.0249     27.9641     15.9759    114.3068
   899.7000      8.0692      2.1740      0.0850     28.8463     15.4097    116.5245
   899.8000      8.0589      2.1770      0.0984     28.6682     15.5285    120.8419
   899.9000      8.0589      2.2311      0.1152     25.3897     15.9446    123.0738
   900.0000      8.0543      2.3541      0.2281     17.9355     16.3495    124.1996
   900.1000      8.0543      2.5002      0.4628      9.0786     16.6347    125.7501
   900.2000      8.0543      2.5864      0.4910      3.8562     17.0567    125.9967
   900.3000      8.0547      2.5854      0.3737      3.9127     17.8094    122.7562
   900.4000      8.0547      2.5478      0.2561      6.1946     18.3917    118.6349
   900.5000      8.0507      2.5305      0.2845      7.2407     18.7162    118.5227
   900.6000      8.0507      2.5351      0.3430      6.9635     19.3836    122.4325
   900.7000      8.0507      2.5222      0.2843      7.7470     20.1277    126.0574
