~Version Information
VERS.                      2.0: CWLS Log ASCII Standard - VERSION 2.0
WRAP.                       NO: One line per depth step
~Well Information Block
STRT.FT                -3.5000: 
STOP.FT              1745.0000: 
STEP.FT                 0.2500: 
NULL.                -999.2500: 
COMP.          Pioneer Natural Resources: COMPANY
WELL.           Labrador 34-30: WELL
FLD.           Purgatorie River: FIELD
LOC.           926' FSL & 2080' FEL--: LOCATION
PROV.                       CO: PROVINCE
CNTY.               Las Animas: COUNTRY
SRVC.                         : SERVICE COMPANY
DATE.          Fri Dec 10 09:58:23 2004: LOG DATE
UWI.                071-08202 : UNIQUE WELL ID
~Curve Information Block
DEPT.FT            0 000 00 00: Depth
GR.GAPI                       : Gamma Ray
CCL.                          : Casing Collar Locator
TT3.usec                      : CBL 3' Travel Time
AMP3.mV                       : CBL 3' Amplitude
~Parameter Information Block
~A  Depth        GR         CCL         TT3         AMP3    
# ...
   901.0000    123.7276      0.0000    775.0012     10.1653
   901.2500    121.5647      0.0000    771.7335     10.4686
   901.5000    121.4020      0.0000    773.2531     10.8674
   901.7500    122.8948      0.0000    776.9648     11.3587
   902.0000    125.0066      0.0000    779.0805     11.9328
   902.2500    126.9076      0.0000    777.7261     12.5660
   902.5000    128.5706      0.0000    774.0421     13.2105
   902.7500    130.4451      0.0000    770.5478     13.7756
   903.0000    132.7794      0.0000    768.5538     14.1176
   903.2500    135.3667      0.0000    767.3872     14.0833
   903.5000    137.6837      0.0000    765.9681     13.6151
   903.7500    139.1135      0.0000    764.4688     12.8153
   904.0000    139.0958      0.0000    764.0616     11.8678
   904.2500    137.0574      0.0000    765.3552     10.8938
   904.5000    132.1696      0.0000    767.4429      9.9304
   904.7500    123.6913      0.0000    768.6052      9.0311
   905.0000    112.0944      0.0000    767.9904      8.2927
   905.2500     99.5968      0.0000    766.5916      7.7705
   905.5000     89.1749      0.0000    766.5563      7.4352
   905.7500     83.2285      2.0000    769.6032      7.2327
   906.0000     83.0327      2.0000    775.8566      7.1609
   906.2500     88.4376      0.0000    783.7343      7.2880
   906.5000     97.1682      0.0000    790.8471      7.6953
   906.7500    104.8950      0.0000    795.2672      8.3930
   907.0000    107.5206      0.0000    796.3069      9.2995
   907.2500    104.2023      0.0000    794.6383     10.3057
   907.5000     97.8281      0.0000    792.0096     11.3160
   907.7500     92.5879      0.0000    790.4327     12.2121
   908.0000     91.4830      0.0000    790.9319     12.8431
   908.2500     95.3935      0.0000    792.9528     13.1043
   908.5000    103.0021      0.0000    795.1157     13.0063
   908.7500    111.4918      0.0000    796.3651     12.6529
   909.0000    118.3791      0.0000    796.2711     12.1724
   909.2500    123.0688      0.0000    794.6917     11.6713
   909.5000    126.4590      0.0000    791.7001     11.2239
   909.7500    129.3855      0.0000    787.9335     10.8724
   910.0000    131.7960      0.0000    784.6796     10.6283
   910.2500    132.9211      0.0000    783.2432     10.4813
   910.5000    131.7325      0.0000    784.0102     10.4083
   910.7500    127.5809      0.0000    785.9626     10.3732
   911.0000    121.0358      0.0000    787.1172     10.3280
   911.2500    114.2903      0.0000    785.8165     10.2336
   911.5000    110.2460      0.0000    782.0266     10.0887
   911.7500    110.4557      0.0000    777.3733      9.9287
   912.0000    113.7033      0.0000    773.7217      9.7911
   912.2500    116.8953      0.0000    771.7990      9.6897
   912.5000    117.6464      0.0000    771.2271      9.6191
   912.7500    115.9866      0.0000    771.4718      9.5740
   913.0000    113.6024      0.0000    772.5519      9.5567
   913.2500    111.9660      0.0000    775.3071      9.5724
   913.5000    111.4355      0.0000    781.2028      9.6189
   913.7500    111.4660      0.0000    791.7162      9.6792
   914.0000    111.1160      0.0000    807.7972      9.7279
   914.2500    109.5829      0.0000    829.3692      9.7494
   914.5000    106.6897      0.0000    854.4434      9.7490
   914.7500    103.0871      0.0000    878.8881      9.7485
   915.0000    100.0555      0.0000    898.1706      9.7731
   915.2500     98.9214      0.0000    909.7990      9.8344
   915.5000    100.4041      0.0000    913.8609      9.9193
   915.7500    104.1894      0.0000    911.6520      9.9976
   916.0000    108.6899      0.0000    904.6527     10.0457
   916.2500    111.3861      0.0000    894.4351     10.0588
   916.5000    110.2843      0.0000    881.9821     10.0419
   916.7500    105.6048      0.0000    866.7263      9.9972
   917.0000     99.9906      0.0000    847.9836      9.9249
   917.2500     96.9374      0.0000    827.8758      9.8317
   917.5000     98.6333      0.0000    810.6879      9.7339
   917.7500    104.5591      0.0000    798.4626      9.6495
   918.0000    111.8385      0.0000    789.2267      9.5904
   918.2500    117.4672      0.0000    780.3152      9.5630
   918.5000    120.5167      0.0000    771.5605      9.5694
   918.7500    121.8817      0.0000    764.4849      9.6017
   919.0000    122.1024      0.0000    759.9415      9.6371
   919.2500    120.3723      0.0000    757.4919      9.6484
   919.5000    115.9453      0.0000    756.2490      9.6239
   919.7500    109.5843      0.0000    755.5821      9.5730
   920.0000    103.0347      0.0000    755.2109      9.5110
   920.2500     97.7174      0.0000    755.0361      9.4450
   920.5000     94.4762      0.0000    755.0024      9.3759
   920.7500     93.9080      0.0000    755.0460      9.3107
   921.0000     96.0545      0.0000    755.1116      9.2671
   921.2500     99.9815      0.0000    755.1667      9.2654
   921.5000    104.3296      0.0000    755.1981      9.3161
   921.7500    108.4679      0.0000    755.2062      9.4131
   922.0000    112.9292      0.0000    755.2117      9.5357
   922.2500    118.7400      0.0000    755.2467      9.6567
   922.5000    126.2674      0.0000    755.3278      9.7513
   922.7500    134.5336      0.0000    755.4347      9.8060
   923.0000    141.6872      0.0000    755.5206      9.8200
   923.2500    146.4098      0.0000    755.5418      9.8030
   923.5000    148.9419      0.0000    755.4874      9.7733
   923.7500    150.6325      0.0000    755.3869      9.7527
   924.0000    152.5930      0.0000    755.2881      9.7554
   924.2500    155.0422      0.0000    755.2188      9.7785
   924.5000    157.7473      0.0000    755.1703      9.8087
   924.7500    160.3261      0.0000    755.1174      9.8366
   925.0000    162.0599      0.0000    755.0496      9.8608
   925.2500    162.2626      0.0000    754.9811      9.8806
   925.5000    161.2302      0.0000    754.9355      9.8923
   925.7500    160.2560      0.0000    754.9308      9.8947
   926.0000    160.3514      0.0000    754.9780      9.8920
   926.2500    161.2868      0.0000    755.0822      9.8899
   926.5000    162.1653      0.0000    755.2333      9.8916
   926.7500    162.5591      0.0000    755.4045      9.8986
   927.0000    162.6684      0.0000    755.5790      9.9166
   927.2500    162.4897      0.0000    755.8129      9.9583
   927.5000    161.1100      0.0000    756.2922     10.0341
   927.7500    157.0747      0.0000    757.3512     10.1384
   928.0000    149.9196      0.0000    759.3265     10.2499
   928.2500    141.5543      0.0000    762.1349     10.3453
   928.5000    135.6615      0.0000    764.9179     10.4164
   928.7500    135.0600      0.0000    766.5237     10.4752
   929.0000    139.4361      0.0000    766.8361     10.5452
   929.2500    145.5319      0.0000    767.4435     10.6448
   929.5000    149.1598      0.0000    770.3965     10.7737
   929.7500    147.2294      0.0000    776.0392     10.9107
   930.0000    139.1708      0.0000    782.2355     11.0225
   930.2500    127.4659      0.0000    786.0935     11.0837
   930.5000    116.4641      0.0000    786.7281     11.0942
   930.7500    109.8816      0.0000    786.1851     11.0733
   931.0000    109.0410      0.0000    787.3495     11.0331
   931.2500    112.9131      0.0000    791.0919     10.9624
   931.5000    119.1681      0.0000    795.7148     10.8406
   931.7500    125.3399      0.0000    798.7052     10.6631
   932.0000    129.8561      0.0000    798.3455     10.4482
   932.2500    132.7063      0.0000    794.0754     10.2264
   932.5000    135.3333      0.0000    786.4866     10.0324
   932.7500    139.6413      0.0000    777.3430      9.9014
   933.0000    146.7740      0.0000    768.9492      9.8555
   933.2500    156.5008      0.0000    762.9073      9.8863
   933.5000    167.1706      0.0000    759.4329      9.9584
   933.7500    175.9353      0.0000    757.7784     10.0402
   934.0000    179.7618      0.0000    757.0613     10.1232
   934.2500    177.4391      0.0000    756.7103     10.2057
