~Version Information
VERS.                      2.0: CWLS Log ASCII Standard - VERSION 2.0
WRAP.                       NO: One line per depth step
~Well Information Block
STRT.FT               185.2500: 
STOP.FT              2109.7500: 
STEP.FT                 0.2500: 
NULL.                -999.2500: 
COMP.    Petrogulf Corporation: COMPANY
WELL.             State 16-44V: WELL
FLD.          Purgatorie River: FIELD
LOC.       320' FSL & 320' FEL: LOCATION
PROV.                 Colorado: PROVINCE
CNTY.               Las Animas: COUNTRY
SRVC.                Patterson: SERVICE COMPANY
DATE. Thu Aug 11 12:58:04 2005: LOG DATE
UWI.               071-08263  : UNIQUE WELL ID
~Curve Information Block
DEPT.FT            0 000 00 00: Depth
GR.GAPI                       : Gamma Ray
CCL.                          : Casing Collar Locator
TT3.usec                      : CBL 3' Travel Time
AMP3.mV                       : CBL 3' Amplitude
~Parameter Information Block
~A  Depth        GR         CCL         TT3         AMP3    
# ...
   419.7500     96.2939      0.0000    365.2967      8.6380
   420.0000     96.2379      0.0000    365.1525      8.5794
   420.2500     96.6390      0.0000    364.9375      8.4254
   420.5000     98.3129      0.0000    364.7315      8.2361
   420.7500    100.5822      0.0000    364.5478      8.0880
   421.0000    102.0755      0.0000    364.3778      8.0188
   421.2500    102.0095      0.0000    364.2311      8.0207
   421.5000    100.7850      0.0000    364.1226      8.0632
   421.7500     99.5041      0.0000    364.0596      8.1165
   422.0000     99.0912      0.0000    364.0286      8.1606
   422.2500     99.6605      0.0000    363.9853      8.1812
   422.5000    100.3695      0.0000    363.9022      8.1760
   422.7500     99.9365      0.0000    363.8185      8.1608
   423.0000     97.6618      0.0000    363.7809      8.1493
   423.2500     94.0545      0.0000    363.7717      8.1623
   423.5000     90.4382      0.0000    363.7577      8.2334
   423.7500     88.0689      0.0000    363.7391      8.3617
   424.0000     87.4434      0.0000    363.7340      8.5060
   424.2500     87.8985      0.0000    363.7810      8.6325
   424.5000     87.8012      0.0000    363.9211      8.7090
   424.7500     85.7908      0.0000    364.1297      8.6854
   425.0000     82.2645      0.0000    364.3230      8.5351
   425.2500     79.3648      0.0000    364.4487      8.2976
   425.5000     79.2752      0.0000    364.5169      8.0596
   425.7500     82.6067      0.0000    364.5556      7.8964
   426.0000     88.2447      0.0000    364.5538      7.8163
   426.2500     94.1946      0.0000    364.4689      7.7724
   426.5000     98.5285      0.0000    364.3299      7.7345
   426.7500    100.1347      0.0000    364.2552      7.7081
   427.0000     99.2479      0.0000    364.3343      7.6866
   427.2500     97.3614      0.0000    364.5764      7.6467
   427.5000     96.0998      0.0000    364.9508      7.5883
   427.7500     95.7640      0.0000    365.4192      7.5396
   428.0000     95.2205      0.0000    365.9802      7.5364
   428.2500     93.4212      0.0000    366.6476      7.6013
   428.5000     90.6395      0.0000    367.2993      7.7059
   428.7500     87.9879      0.0000    367.9612      7.7684
   429.0000     86.0935      0.0000    370.2724      7.7261
   429.2500     84.5273      0.0000    379.5540      7.5882
   429.5000     82.4170      0.0000    403.5812      7.3993
   429.7500     79.3936      0.0000    443.0680      7.2100
   430.0000     75.8740      0.0000    484.6636      7.0780
   430.2500     72.6424      0.0000    520.4730      7.0208
   430.5000     70.4229      0.0000    571.3737      7.0042
   430.7500     69.6152      0.0000    655.0325      7.0054
   431.0000     69.9410      0.0000    739.0476      7.0126
   431.2500     70.3750      0.0000    775.5447      7.0046
   431.5000     69.9367      0.0000    762.7950      7.0186
   431.7500     68.6993      0.0000    733.6001      7.1530
   432.0000     67.6932      0.0000    713.3625      7.4225
   432.2500     67.6991      0.0000    705.9227      7.7094
   432.5000     68.4857      0.0000    704.7313      7.9163
   432.7500     69.3499      0.0000    707.4611      8.0596
   433.0000     69.9462      0.0000    709.9074      8.1954
   433.2500     70.4049      0.0000    703.9464      8.3695
   433.5000     71.1458      0.0000    690.8722      8.5965
   433.7500     72.7528      0.0000    677.6611      8.7440
   434.0000     75.5317      0.0000    668.8179      8.5426
   434.2500     78.9932      0.0000    673.1171      7.9005
   434.5000     82.0240      0.0000    698.5031      7.1409
   434.7500     83.4369      0.0000    733.2122      6.7247
   435.0000     82.1107      0.0000    751.8163      6.7575
   435.2500     77.1888      0.0000    744.3010      6.9569
   435.5000     68.9491      0.0000    727.8531      7.0351
   435.7500     59.3977     -2.0000    726.5125      6.9198
   436.0000     51.3690     -2.0000    745.2035      6.7011
   436.2500     46.6835      0.0000    771.8218      6.5337
   436.5000     45.1211      0.0000    791.4290      6.5867
   436.7500     45.0878      0.0000    792.6995      6.9556
   437.0000     45.1752      0.0000    772.8077      7.5171
   437.2500     45.1815      0.0000    731.4612      8.0470
   437.5000     45.9582      0.0000    671.7943      8.4925
   437.7500     48.5451      0.0000    618.0123      8.8690
   438.0000     53.4393      0.0000    600.0303      9.0948
   438.2500     60.3374      0.0000    610.3955      9.1238
   438.5000     68.2982      0.0000    610.1877      9.0398
   438.7500     76.2915      0.0000    578.8901      8.9429
   439.0000     83.8121      0.0000    532.5295      8.8728
   439.2500     90.8661      0.0000    499.4879      8.8668
   439.5000     97.3110      0.0000    496.2455      8.9628
   439.7500    102.5261      0.0000    523.3776      9.1272
   440.0000    105.9747      0.0000    568.9969      9.2761
   440.2500    107.7930      0.0000    613.3221      9.3888
   440.5000    108.4690      0.0000    639.6347      9.5267
   440.7500    108.1491      0.0000    640.3434      9.7205
   441.0000    106.5758      0.0000    612.4109      9.9356
   441.2500    103.6435      0.0000    559.4755     10.1549
   441.5000     99.8563      0.0000    500.8535     10.3818
   441.7500     96.2008      0.0000    461.6839     10.5773
   442.0000     93.6528      0.0000    451.1691     10.7068
   442.2500     92.8172      0.0000    460.9862     10.8020
   442.5000     93.8571      0.0000    481.4440     10.9062
   442.7500     96.5189      0.0000    513.0717     11.0182
   443.0000    100.1775      0.0000    562.6710     11.1313
   443.2500    103.9893      0.0000    626.7012     11.2681
   443.5000    107.0297      0.0000    683.7776     11.4268
   443.7500    108.3512      0.0000    712.9412     11.5426
   444.0000    107.3935      0.0000    718.6581     11.5479
   444.2500    104.7583      0.0000    725.9176     11.4539
   444.5000    102.2826      0.0000    745.1110     11.3458
   444.7500    101.7594      0.0000    759.7672     11.2747
   445.0000    103.5181      0.0000    754.9026     11.1997
   445.2500    106.4736      0.0000    738.1871     11.0712
   445.5000    109.3267      0.0000    728.6947     10.9036
   445.7500    111.2677      0.0000    735.6931     10.7160
   446.0000    111.6683      0.0000    751.8066     10.4594
   446.2500    109.8801      0.0000    767.9760     10.0924
   446.5000    105.9046      0.0000    784.2117      9.6884
   446.7500    100.9835      0.0000    800.0112      9.3750
   447.0000     96.9543      0.0000    811.8660      9.1947
   447.2500     94.8717      0.0000    818.7537      9.0904
   447.5000     94.3542      0.0000    819.3998      9.0041
   447.7500     94.2040      0.0000    812.0633      8.9328
   448.0000     93.6025      0.0000    800.8850      8.8894
   448.2500     92.7896      0.0000    795.6898      8.8645
   448.5000     92.6035      0.0000    801.8516      8.8268
   448.7500     93.4822      0.0000    813.5619      8.7457
   449.0000     95.2390      0.0000    820.7663      8.6241
   449.2500     97.8234      0.0000    819.7430      8.5187
   449.5000    101.6050      0.0000    813.1378      8.4947
   449.7500    106.3824      0.0000    800.1899      8.5398
   450.0000    110.6281      0.0000    772.3975      8.5855
   450.2500    112.4978      0.0000    728.2960      8.6212
   450.5000    111.4970      0.0000    690.8828      8.6883
   450.7500    108.7421      0.0000    689.6957      8.7804
   451.0000    105.7109      0.0000    724.9347      8.8669
   451.2500    103.0464      0.0000    769.0546      8.9780
   451.5000    100.5164      0.0000    797.8754      9.1401
   451.7500     97.7788      0.0000    807.3057      9.2883
   452.0000     94.9692      0.0000    803.5418      9.3509
   452.2500     92.6633      0.0000    788.7835      9.3255
   452.5000     91.4484      0.0000    760.3871      9.2264
   452.7500     91.4529      0.0000    719.1693      9.0702
   453.0000     92.2096      0.0000    677.7416      8.9098
