~Version Information
VERS.                      2.0: CWLS Log ASCII Standard - VERSION 2.0
WRAP.                       NO: One line per depth step
~Well Information Block
STRT.FT               -11.0000: 
STOP.FT              1523.2500: 
STEP.FT                 0.2500: 
NULL.                -999.2500: 
COMP.          Petrogulf Corporation: COMPANY
WELL.             State 16-43R: WELL
FLD.           Purgatorie River: FIELD
LOC.           2538' FSL & 716' FEL--: LOCATION
PROV.                       CO: PROVINCE
CNTY.               Las Animas: COUNTRY
SRVC.          Patterson Wireline: SERVICE COMPANY
DATE.          Fri Sep 09 13:13:52 2005: LOG DATE
UWI.           05 071 08338 00: UNIQUE WELL ID
~Curve Information Block
DEPT.FT            0 000 00 00: Depth
CCL.                          : Casing Collar Locator
TT3.usec                      : CBL 3' Travel Time
AMP3.mV                       : CBL 3' Amplitude
GR.GAPI                       : Gamma Ray
~Parameter Information Block
~A  Depth       CCL         TT3         AMP3         GR     
# ...
   994.0000      0.0000    663.8212     10.8134     71.6026
   994.2500      0.0000    661.0368     10.8607     78.2014
   994.5000      0.0000    659.9041     10.8424     83.7888
   994.7500      0.0000    661.1359     10.7711     85.7340
   995.0000      0.0000    663.9566     10.6765     83.5810
   995.2500      0.0000    666.8691     10.5905     79.4440
   995.5000      0.0000    668.8975     10.5364     76.4883
   995.7500      0.0000    669.9440     10.5278     76.8979
   996.0000      0.0000    670.3301     10.5717     80.9003
   996.2500      0.0000    670.3505     10.6700     87.1702
   996.5000      0.0000    670.1779     10.8126     93.8237
   996.7500      0.0000    669.9366     10.9697     99.1967
   997.0000      0.0000    669.7426     11.1008    102.3139
   997.2500      0.0000    669.6855     11.1800    103.2438
   997.5000      0.0000    669.7898     11.2116    103.0952
   997.7500      0.0000    670.0029     11.2161    103.1914
   998.0000      0.0000    670.2183     11.2030    103.9081
   998.2500      0.0000    670.3342     11.1622    104.5846
   998.5000      0.0000    670.3124     11.0802    104.8670
   998.7500      0.0000    670.1825     10.9604    105.8248
   999.0000      0.0000    669.9995     10.8278    109.2799
   999.2500      0.0000    669.8147     10.7163    116.0702
   999.5000      0.0000    669.6787     10.6496    125.0981
   999.7500      0.0000    669.6374     10.6338    133.7442
  1000.0000      0.0000    669.7172     10.6613    139.1727
  1000.2500      0.0000    669.9281     10.7199    140.0188
  1000.5000      0.0000    670.3196     10.7968    137.3455
  1000.7500      0.0000    671.0747     10.8808    133.7917
  1001.0000      0.0000    672.6050     10.9667    131.6203
  1001.2500      0.0000    675.4020     11.0602    131.5798
  1001.5000      0.0000    679.3817     11.1749    133.2414
  1001.7500      0.0000    683.2026     11.3172    135.8505
  1002.0000      0.0000    684.7756     11.4755    138.8032
  1002.2500      0.0000    683.0565     11.6280    141.8342
  1002.5000      0.0000    679.1138     11.7619    145.1625
  1002.7500      0.0000    675.0554     11.8804    149.3643
  1003.0000      0.0000    672.2320     11.9863    154.7623
  1003.2500      0.0000    670.7285     12.0653    160.7126
  1003.5000      0.0000    670.0513     12.0919    165.5075
  1003.7500      0.0000    669.8044     12.0512    167.0896
  1004.0000      0.0000    669.8989     11.9543    164.0707
  1004.2500      0.0000    670.5827     11.8328    156.3981
  1004.5000      0.0000    672.3491     11.7192    145.2329
  1004.7500      0.0000    675.5092     11.6301    132.2758
  1005.0000      0.0000    679.5809     11.5619    119.3812
  1005.2500      0.0000    683.1858     11.4987    108.6745
  1005.5000      0.0000    684.8721     11.4230    102.1450
  1005.7500      0.0000    684.3086     11.3234    100.4762
  1006.0000      0.0000    682.7691     11.1992    102.8010
  1006.2500      0.0000    682.3339     11.0636    108.1159
  1006.5000      0.0000    684.3856     10.9352    116.2256
  1006.7500      0.0000    688.8118     10.8192    126.6303
  1007.0000      0.0000    694.4786     10.6910    137.2683
  1007.2500      0.0000    699.9716     10.4998    145.4394
  1007.5000      0.0000    703.7797     10.1951    149.9052
  1007.7500      0.0000    704.4043      9.7512    151.5596
  1008.0000      0.0000    701.0012      9.1707    152.2161
  1008.2500      0.0000    694.3052      8.4731    152.9837
  1008.5000      0.0000    687.0224      7.6908    153.2954
  1008.7500      0.0000    683.0068      6.8818    151.0542
  1009.0000      0.0000    685.2896      6.1322    144.1522
  1009.2500      0.0000    694.1278      5.5291    132.5402
  1009.5000      0.0000    706.6352      5.1176    118.9206
  1009.7500      0.0000    718.6082      4.8861    107.1776
  1010.0000      0.0000    727.1348      4.7938     99.9455
  1010.2500      0.0000    731.7386      4.8160     97.5319
  1010.5000      0.0000    733.4484      4.9695     98.9201
  1010.7500      0.0000    733.1836      5.3050    103.1633
  1011.0000      0.0000    730.8462      5.8710    109.3046
  1011.2500      0.0000    725.5090      6.6691    115.6647
  1011.5000      0.0000    716.4946      7.6311    120.4782
  1011.7500      0.0000    704.6621      8.6361    123.2417
  1012.0000      0.0000    692.7403      9.5546    124.5540
  1012.2500      0.0000    684.1797     10.2893    124.7205
  1012.5000      0.0000    681.4283     10.7953    123.2916
  1012.7500      0.0000    684.6433     11.0779    119.9968
  1013.0000      0.0000    691.1335     11.1792    115.6925
  1013.2500      0.0000    696.1814     11.1594    112.2811
  1013.5000      0.0000    695.9056     11.0764    111.5931
  1013.7500      0.0000    690.3078     10.9714    114.0333
  1014.0000      0.0000    683.2521     10.8642    118.3809
  1014.2500      0.0000    679.3821     10.7587    123.0770
  1014.5000      0.0000    681.2721     10.6544    127.3937
  1014.7500      0.0000    688.7945     10.5549    131.1470
  1015.0000      0.0000    699.7910     10.4650    133.9305
  1015.2500      0.0000    710.7640     10.3849    135.1889
  1015.5000      0.0000    717.5615     10.3146    134.7210
  1015.7500      0.0000    716.8625     10.2643    132.8225
  1016.0000      0.0000    708.3675     10.2510    130.1529
  1016.2500      0.0000    695.5696     10.2830    127.5777
  1016.5000      0.0000    683.5339     10.3510    125.8412
  1016.7500      0.0000    675.6691     10.4358    125.2188
  1017.0000      0.0000    672.6900     10.5204    125.5645
  1017.2500      0.0000    673.7520     10.5961    126.6497
  1017.5000      0.0000    677.4167     10.6595    128.3580
  1017.7500      0.0000    681.6738     10.7059    130.6477
  1018.0000      0.0000    684.4813     10.7300    133.4898
  1018.2500      0.0000    685.3019     10.7318    136.7837
  1018.5000      0.0000    685.5533     10.7100    140.2317
  1018.7500      0.0000    686.7740     10.6360    143.3240
  1019.0000      0.0000    688.8875     10.4437    145.3779
  1019.2500      0.0000    691.1545     10.0803    145.5614
  1019.5000      0.0000    694.1506      9.5814    143.2623
  1019.7500      0.0000    699.4316      9.0751    138.7894
  1020.0000      0.0000    707.1804      8.6896    133.6539
  1020.2500      0.0000    715.4453      8.4644    129.9917
  1020.5000      0.0000    722.1842      8.3546    129.3633
  1020.7500     -2.0000    727.0577      8.2987    131.6735
  1021.0000      0.0000    730.2537      8.2697    135.1168
  1021.2500      0.0000    730.1506      8.2820    137.5380
  1021.5000      0.0000    723.9371      8.3695    138.1895
  1021.7500      0.0000    711.3222      8.5506    137.8951
  1022.0000      0.0000    696.3916      8.8034    137.3118
  1022.2500      0.0000    684.4694      9.0833    135.6756
  1022.5000      0.0000    677.6560      9.3664    131.8176
  1022.7500      0.0000    674.2972      9.6547    125.9927
  1023.0000      0.0000    671.7413      9.9361    120.0189
  1023.2500      0.0000    668.0245     10.1709    115.6081
  1023.5000      0.0000    661.2566     10.3291    112.9971
  1023.7500      0.0000    649.3813     10.4191    111.3432
  1024.0000      0.0000    632.0597     10.4678    109.9725
  1024.2500      0.0000    612.6790     10.4912    108.6861
  1024.5000      0.0000    597.2217     10.4905    107.1382
  1024.7500      0.0000    590.6503     10.4672    104.7016
  1025.0000      0.0000    595.0119     10.4318    101.1473
  1025.2500      0.0000    610.1501     10.3970     97.1780
  1025.5000      0.0000    633.8207     10.3685     94.2464
  1025.7500      0.0000    661.1505     10.3450     93.8914
  1026.0000      0.0000    686.3843     10.3238     96.9885
  1026.2500      0.0000    705.9495     10.3039    103.2449
  1026.5000      0.0000    719.1338     10.2825    111.1004
  1026.7500      0.0000    726.2032     10.2530    118.1330
  1027.0000      0.0000    727.0513     10.2109    122.1787
  1027.2500      0.0000    722.0599     10.1623    122.7316
