~Version Information
VERS.                      2.0: CWLS Log ASCII Standard - VERSION 2.0
WRAP.                       NO: One line per depth step
~Well Information Block
STRT.FT               950.0000: 
STOP.FT              2417.7000: 
STEP.FT                 0.1000: 
NULL.                -999.2500: 
COMP.          Pioneer Natural Resources: COMPANY
WELL.            Chevron 13-13: WELL
FLD.           Purgatoire River: FIELD
LOC.           1560' FSL & 711' FWL--: LOCATION
CNTY.               Las Animas: COUNTY
SRVC.          Superior Well Services: SERVICE COMPANY
DATE.          Mon Feb 12 14:55:24 2007: LOG DATE
UWI.           05 071 08319 00: UNIQUE WELL ID
STAT.                 Colorado: STATE
~Curve Information Block
DEPT.FT            0 000 00 00: Depth
DCAL.in                       : CDL Caliper
RHOB.g/cc                     : CDL Bulk Density
RHOC.g/cc                     : CDL Density Correction
DPOR.pu                       : CDL Density Porosity
GR.GAPI                       : Gamma Ray
~Parameter Information Block
~A  Depth       DCAL        RHOB        RHOC        DPOR         GR     
# ...
  1050.8000      8.0687      2.5316     -0.0018      7.1787     93.2499
  1050.9000      8.0687      2.5467      0.0515      6.2604     94.9803
  1051.0000      8.0695      2.5562      0.0226      5.6841     91.8971
  1051.1000      8.0695      2.5615      0.0293      5.3642     87.7143
  1051.2000      8.0695      2.5587      0.0266      5.5321     89.4201
  1051.3000      8.0710      2.5456      0.0376      6.3257     92.2109
  1051.4000      8.0710      2.5296      0.0388      7.2949     89.7980
  1051.5000      8.0718      2.5255      0.0045      7.5463     87.8726
  1051.6000      8.0718      2.5362      0.0523      6.8985     90.9715
  1051.7000      8.0718      2.5420      0.0943      6.5439     93.6151
  1051.8000      8.0717      2.5357      0.0290      6.9253     91.8274
  1051.9000      8.0717      2.5328      0.0405      7.1014     88.0366
  1052.0000      8.0721      2.5345      0.0378      6.9978     84.5294
  1052.1000      8.0721      2.5241      0.0635      7.6298     83.9767
  1052.2000      8.0721      2.5014     -0.0039      9.0075     84.7562
  1052.3000      8.0719      2.4881     -0.0084      9.8117     82.6415
  1052.4000      8.0719      2.4865      0.0495      9.9083     78.0734
  1052.5000      8.0713      2.4814      0.0420     10.2207     72.8344
  1052.6000      8.0713      2.4724      0.0429     10.7643     68.9384
  1052.7000      8.0713      2.4614      0.0259     11.4327     69.8415
  1052.8000      8.0729      2.4463      0.0142     12.3437     75.5502
  1052.9000      8.0729      2.4359      0.0247     12.9776     81.3691
  1053.0000      8.0743      2.4456     -0.0098     12.3900     84.2071
  1053.1000      8.0743      2.4693      0.0692     10.9506     84.1320
  1053.2000      8.0743      2.4762      0.0889     10.5336     82.5159
  1053.3000      8.0736      2.4615      0.0178     11.4214     81.8767
  1053.4000      8.0736      2.4469      0.0505     12.3116     80.6663
  1053.5000      8.0721      2.4371      0.0402     12.9040     75.8292
  1053.6000      8.0721      2.4254      0.0540     13.6098     69.4646
  1053.7000      8.0721      2.4152      0.0351     14.2295     65.6500
  1053.8000      8.0702      2.4174      0.0421     14.0990     66.4793
  1053.9000      8.0702      2.4273      0.0700     13.4992     70.4301
  1054.0000      8.0704      2.4308      0.0287     13.2876     73.5100
  1054.1000      8.0704      2.4335      0.0219     13.1182     72.1273
  1054.2000      8.0704      2.4440      0.0458     12.4877     67.5732
  1054.3000      8.0707      2.4515      0.0543     12.0293     64.2135
  1054.4000      8.0707      2.4525      0.0432     11.9702     65.4991
  1054.5000      8.0714      2.4588      0.0495     11.5850     71.2137
  1054.6000      8.0714      2.4746      0.0709     10.6279     73.9046
  1054.7000      8.0714      2.4854      0.0945      9.9770     68.5278
  1054.8000      8.0708      2.4798      0.1004     10.3144     61.5051
  1054.9000      8.0708      2.4729      0.0606     10.7326     60.0963
  1055.0000      8.0692      2.4844      0.0751     10.0353     62.0868
  1055.1000      8.0692      2.5074      0.0816      8.6416     64.7720
  1055.2000      8.0692      2.5209      0.1117      7.8236     68.2738
  1055.3000      8.0705      2.5151      0.1225      8.1758     69.7704
  1055.4000      8.0705      2.4981      0.0764      9.2067     68.1102
  1055.5000      8.0720      2.4863      0.0592      9.9203     65.6029
  1055.6000      8.0720      2.4814      0.0731     10.2154     64.3542
  1055.7000      8.0720      2.4711      0.0619     10.8439     66.0776
  1055.8000      8.0730      2.4539      0.0632     11.8867     70.3316
  1055.9000      8.0730      2.4366      0.0469     12.9341     73.0032
  1056.0000      8.0765      2.4219      0.0640     13.8230     70.3922
  1056.1000      8.0765      2.4158      0.0369     14.1964     64.8604
  1056.2000      8.0765      2.4247      0.0291     13.6548     60.3903
  1056.3000      8.0801      2.4433      0.0456     12.5274     58.9788
  1056.4000      8.0801      2.4598      0.0787     11.5250     60.8251
  1056.5000      8.0793      2.4689      0.0747     10.9758     63.2455
  1056.6000      8.0793      2.4721      0.0907     10.7838     65.2515
  1056.7000      8.0793      2.4661      0.1224     11.1436     68.9025
  1056.8000      8.0766      2.4474      0.0732     12.2790     72.1874
  1056.9000      8.0766      2.4308      0.0597     13.2874     71.9099
  1057.0000      8.0773      2.4307      0.0853     13.2915     70.7538
  1057.1000      8.0773      2.4391      0.0791     12.7830     71.2590
  1057.2000      8.0773      2.4433      0.0990     12.5272     73.6618
  1057.3000      8.0807      2.4441      0.0571     12.4774     79.6715
  1057.4000      8.0807      2.4436      0.0939     12.5076     86.9146
  1057.5000      8.0823      2.4363      0.0700     12.9526     89.4690
  1057.6000      8.0823      2.4277      0.0592     13.4735     86.4910
  1057.7000      8.0823      2.4240      0.0747     13.6966     82.1227
  1057.8000      8.0825      2.4126      0.0775     14.3855     77.9228
  1057.9000      8.0825      2.3876      0.0633     15.9005     74.9285
  1058.0000      8.0840      2.3649      0.0042     17.2806     74.2874
  1058.1000      8.0840      2.3527      0.0440     18.0204     73.9359
  1058.2000      8.0840      2.3414      0.0272     18.7006     72.2688
  1058.3000      8.0862      2.3387     -0.0370     18.8647     69.6976
  1058.4000      8.0862      2.3679      0.0194     17.0955     65.4423
  1058.5000      8.0908      2.4184      0.0859     14.0349     60.6236
  1058.6000      8.0908      2.4509      0.0872     12.0682     58.9155
  1058.7000      8.0908      2.4502      0.1106     12.1076     59.5080
  1058.8000      8.0946      2.4370      0.0866     12.9061     60.6798
  1058.9000      8.0946      2.4329      0.1040     13.1576     62.7188
  1059.0000      8.0943      2.4361      0.0984     12.9663     63.6127
  1059.1000      8.0943      2.4356      0.0989     12.9938     62.6597
  1059.2000      8.0943      2.4270      0.1017     13.5151     61.5883
  1059.3000      8.0940      2.4174      0.0293     14.0971     59.9113
  1059.4000      8.0940      2.4148      0.0537     14.2525     57.4622
  1059.5000      8.0963      2.4112      0.0713     14.4750     57.4255
  1059.6000      8.0963      2.4011      0.0410     15.0835     60.9755
  1059.7000      8.0963      2.3916      0.0525     15.6584     65.3048
  1059.8000      8.0988      2.3841      0.0126     16.1134     67.8689
  1059.9000      8.0988      2.3770      0.0129     16.5445     67.7008
  1060.0000      8.0995      2.3750      0.0176     16.6640     66.5650
  1060.1000      8.0995      2.3854      0.0218     16.0346     66.6934
  1060.2000      8.0995      2.4069      0.0558     14.7304     66.6821
  1060.3000      8.0995      2.4318      0.0480     13.2226     65.9387
  1060.4000      8.0995      2.4468      0.0734     12.3143     68.1048
  1060.5000      8.0996      2.4405      0.0710     12.6970     73.0694
  1060.6000      8.0996      2.4216      0.0412     13.8395     75.3138
  1060.7000      8.0996      2.4062      0.0293     14.7762     72.4160
  1060.8000      8.0995      2.3980      0.0335     15.2719     67.4918
  1060.9000      8.0995      2.3970      0.0538     15.3319     66.5229
  1061.0000      8.0980      2.4006      0.0644     15.1138     69.1249
  1061.1000      8.0980      2.4067      0.0292     14.7449     67.4830
  1061.2000      8.0980      2.4212      0.0285     13.8685     61.9832
  1061.3000      8.0968      2.4379      0.0699     12.8520     60.9296
  1061.4000      8.0968      2.4330      0.1183     13.1526     65.9969
  1061.5000      8.0979      2.4069      0.0145     14.7350     72.8287
  1061.6000      8.0979      2.3928      0.0343     15.5881     78.3095
  1061.7000      8.0979      2.4019      0.0479     15.0367     80.4126
  1061.8000      8.0993      2.4176      0.0587     14.0857     79.1699
  1061.9000      8.0993      2.4357      0.0574     12.9856     77.5137
