~Version Information
VERS.                      2.0: CWLS Log ASCII Standard - VERSION 2.0
WRAP.                       NO: One line per depth step
~Well Information Block
STRT.FT               491.0000: 
STOP.FT              1055.5000: 
STEP.FT                 0.1000: 
NULL.                -999.2500: 
COMP.          Evergreen Operating Corporation: COMPANY
WELL.              Sunset 24-3: WELL
FLD.           Purgatorie River: FIELD
LOC.           467' FSL & 2262' FWL: LOCATION
PROV.                 Colorado: PROVINCE
CNTY.               Las Animas: COUNTRY
SRVC.                         : SERVICE COMPANY
DATE.          Wed Sep 22 14:05:09 2004: LOG DATE
UWI.           05 071 08158 00: UNIQUE WELL ID
~Curve Information Block
DEPT.FT            0 000 00 00: Depth
DCAL.in                       : CDL Caliper
RHOB.g/cc                     : CDL Bulk Density
RHOC.g/cc                     : CDL Density Correction
DPOR.pu                       : CDL Density Porosity
GR.GAPI                       : Gamma Ray
NPOR.pu                       : Neutron Porosity
~Parameter Information Block
~A  Depth       DCAL        RHOB        RHOC        DPOR         GR         NPOR    
# ...
   711.8000      7.9840      2.5380      0.0335      6.7904     58.6310     18.0976
   711.9000      7.9840      2.5254     -0.0080      7.5499     64.8510     18.4962
   712.0000      7.9827      2.5253     -0.0222      7.5592     71.1081     18.3232
   712.1000      7.9827      2.5444     -0.0295      6.3990     73.2568     18.2135
   712.2000      7.9827      2.5694      0.0395      4.8853     74.9633     18.4164
   712.3000      7.9793      2.5837      0.0465      4.0171     79.4863     18.4595
   712.4000      7.9793      2.5850      0.0702      3.9365     81.9018     18.0908
   712.5000      7.9796      2.5808      0.0290      4.1945     78.0014     17.5813
   712.6000      7.9796      2.5795      0.0346      4.2716     73.1457     17.3282
   712.7000      7.9796      2.5847     -0.0056      3.9565     71.2607     17.4734
   712.8000      7.9525      2.5896      0.0493      3.6605     68.8474     17.5631
   712.9000      7.9525      2.5845      0.0081      3.9717     65.3594     17.1943
   713.0000      7.9476      2.5704      0.0322      4.8244     63.1200     16.7331
   713.1000      7.9476      2.5569      0.0237      5.6448     63.7733     16.5794
   713.2000      7.9476      2.5529     -0.0106      5.8878     68.7870     16.4325
   713.3000      7.9509      2.5650     -0.0059      5.1502     72.1666     16.1500
   713.4000      7.9509      2.5898      0.0516      3.6504     66.9775     16.2594
   713.5000      7.9480      2.6107      0.0398      2.3816     58.1101     16.6676
   713.6000      7.9480      2.6154      0.0433      2.0945     52.9095     16.6707
   713.7000      7.9480      2.6064      0.0821      2.6410     53.6665     16.2377
   713.8000      7.9605      2.5955      0.0530      3.3037     58.6158     15.9340
   713.9000      7.9605      2.5882      0.0502      3.7442     62.6547     16.0051
   714.0000      7.9622      2.5804      0.0455      4.2185     64.9891     16.2339
   714.1000      7.9622      2.5667      0.0460      5.0495     66.8484     16.4304
   714.2000      7.9622      2.5502      0.0121      6.0461     65.9159     16.6949
   714.3000      7.9618      2.5448      0.0064      6.3784     63.8649     17.3287
   714.4000      7.9618      2.5573      0.0310      5.6164     65.1432     18.0577
   714.5000      7.9661      2.5785      0.0588      4.3349     66.7504     18.3828
   714.6000      7.9661      2.5970      0.0602      3.2124     62.4610     18.4698
   714.7000      7.9661      2.6136      0.0477      2.2050     55.1112     18.5271
   714.8000      7.9804      2.6277      0.0752      1.3518     52.9343     18.4248
   714.9000      7.9804      2.6239      0.1007      1.5795     56.4970     18.1680
   715.0000      7.9795      2.5944      0.0438      3.3707     60.8698     17.8340
   715.1000      7.9795      2.5559      0.0493      5.7014     64.6743     17.4334
   715.2000      7.9795      2.5323     -0.0172      7.1306     67.3556     17.1169
   715.3000      7.9573      2.5370      0.0174      6.8499     68.0074     16.9552
   715.4000      7.9573      2.5597      0.0557      5.4717     69.4757     16.8737
   715.5000      7.9744      2.5777      0.0457      4.3803     70.7927     16.8487
   715.6000      7.9744      2.5802      0.0629      4.2307     69.3132     16.9075
   715.7000      7.9744      2.5723      0.0822      4.7096     68.7162     17.2687
   715.8000      7.9640      2.5637      0.0590      5.2296     72.3428     18.3164
   715.9000      7.9640      2.5622      0.0261      5.3185     76.9409     20.0826
   716.0000      7.9544      2.5743      0.0306      4.5852     78.2183     21.6070
   716.1000      7.9544      2.5974      0.0901      3.1895     78.3399     21.8718
   716.2000      7.9544      2.6162      0.0954      2.0464     79.1316     21.4943
   716.3000      7.9442      2.6227      0.0895      1.6527     78.7471     21.3771
   716.4000      7.9442      2.6229      0.0722      1.6419     77.2206     21.1766
   716.5000      7.9433      2.6185      0.1178      1.9106     74.6553     20.4545
   716.6000      7.9433      2.6057      0.0936      2.6859     70.1307     19.5027
   716.7000      7.9433      2.5882      0.0549      3.7438     65.6521     18.4926
   716.8000      7.9467      2.5741      0.0398      4.6018     63.5324     17.6173
   716.9000      7.9467      2.5687     -0.0157      4.9265     64.2372     17.3681
   717.0000      7.9704      2.5738      0.0276      4.6209     67.1803     17.9085
   717.1000      7.9704      2.5887      0.0232      3.7147     69.4693     18.7614
   717.2000      7.9704      2.6100      0.0611      2.4243     67.9998     19.1462
   717.3000      7.9640      2.6215      0.0784      1.7292     64.2770     18.7345
   717.4000      7.9640      2.6126      0.0730      2.2640     62.8687     17.7938
   717.5000      7.9624      2.5964      0.0637      3.2504     65.8106     16.8211
   717.6000      7.9624      2.5902      0.0475      3.6247     70.3727     15.8710
   717.7000      7.9624      2.5982      0.0594      3.1398     72.0315     14.7010
   717.8000      7.9611      2.6123      0.0237      2.2853     70.3357     13.9134
   717.9000      7.9611      2.6202      0.0704      1.8037     69.8318     14.1335
   718.0000      7.9462      2.6123      0.0591      2.2836     71.4704     14.9919
   718.1000      7.9462      2.5949      0.0299      3.3412     71.4418     15.6953
   718.2000      7.9462      2.5820      0.0811      4.1187     71.4974     15.9241
   718.3000      7.9444      2.5830      0.0093      4.0635     74.2973     15.9228
   718.4000      7.9444      2.5984      0.0847      3.1254     74.3328     15.7272
   718.5000      7.9499      2.6137      0.0799      2.2025     68.5354     15.4387
   718.6000      7.9499      2.6185      0.0620      1.9107     61.6546     15.5174
   718.7000      7.9499      2.6174      0.0821      1.9735     59.0892     16.0081
   718.8000      7.9781      2.6110      0.0737      2.3651     62.2463     16.4981
   718.9000      7.9781      2.5997      0.0433      3.0455     66.6707     16.8210
   719.0000      7.9825      2.5958      0.0131      3.2829     67.7568     17.0167
   719.1000      7.9825      2.6064      0.0407      2.6409     68.8853     17.0107
   719.2000      7.9825      2.6213      0.0531      1.7394     73.8879     16.9028
   719.3000      7.9828      2.6253      0.0486      1.4990     78.0812     16.9888
   719.4000      7.9828      2.6164      0.0277      2.0377     77.2376     17.4274
   719.5000      7.9840      2.6035      0.0473      2.8190     73.0443     17.9203
   719.6000      7.9840      2.5921      0.0262      3.5068     68.8548     17.8431
   719.7000      7.9840      2.5851      0.0165      3.9326     65.3666     17.3183
   719.8000      7.9855      2.5857      0.0296      3.8964     63.0623     17.1528
   719.9000      7.9855      2.5869      0.0261      3.8260     63.2741     17.7250
   720.0000      8.0043      2.5742      0.0417      4.5927     66.2716     18.6369
   720.1000      8.0043      2.5475      0.0247      6.2108     68.6679     19.0398
   720.2000      8.0043      2.5225      0.0057      7.7259     66.7842     18.7841
   720.3000      7.9989      2.5132     -0.0213      8.2886     64.9233     18.4824
   720.4000      7.9989      2.5219      0.0102      7.7621     69.7838     18.3664
   720.5000      7.9847      2.5387      0.0235      6.7449     78.0556     18.0650
   720.6000      7.9847      2.5498      0.0526      6.0743     81.2368     17.5048
   720.7000      7.9847      2.5561     -0.0001      5.6936     78.8426     17.1915
   720.8000      7.9799      2.5682      0.0427      4.9574     77.3836     17.2080
   720.9000      7.9799      2.5805      0.0511      4.2137     79.3040     17.2866
   721.0000      7.9642      2.5828      0.0128      4.0723     79.7049     17.1995
   721.1000      7.9642      2.5805      0.0233      4.2151     75.3124     17.1129
   721.2000      7.9642      2.5838      0.0143      4.0145     70.3548     17.1527
   721.3000      7.9556      2.5916      0.0372      3.5411     69.0450     17.2583
