~Version Information
VERS.                      2.0: CWLS Log ASCII Standard - VERSION 2.0
WRAP.                       NO: One line per depth step
~Well Information Block
STRT.FT               419.7500: 
STOP.FT              1170.0000: 
STEP.FT                 0.2500: 
NULL.                -999.2500: 
COMP.          Evergreen Operating Corporation: COMPANY
WELL.             Bernice 21-3: WELL
FLD.           Purgatoire River: FIELD
LOC.           201' FNL & 2575' FWL: LOCATION
PROV.                 Colorado: PROVINCE
CNTY.               Las Animas: COUNTRY
SRVC.                Patterson: SERVICE COMPANY
DATE.          Mon Jan 26 13:04:04 2004: LOG DATE
UWI.           05 071 07912   : UNIQUE WELL ID
~Curve Information Block
DEPT.FT            0 000 00 00: Depth
SN.Ohm-m                      : IEL Short Normal
SP.mV                         : IEL Spontaneous Potential
DIR.Ohm-m                     : IEL Induction Resistivity
GR.GAPI                       : Gamma Ray
~Parameter Information Block
~A  Depth        SN          SP         DIR          GR     
# ...
  1022.7500     21.9448    -62.2283     18.7648     94.4509
  1023.0000     21.3751    -64.0676     18.7269    112.6679
  1023.2500     20.9978    -66.1827     18.8199    135.5727
  1023.5000     20.7468    -68.3509     18.9944    185.7149
  1023.7500     20.5008    -70.5720     19.1940    224.3581
  1024.0000     20.2680    -73.0173     19.3864    275.0929
  1024.2500     20.0949    -75.9029     19.5665    295.6105
  1024.5000     19.9471    -79.1433     19.7384    299.1067
  1024.7500     19.8453    -82.0244     19.9024    284.8761
  1025.0000     19.9566    -83.1276     20.0658    249.4100
  1025.2500     20.3863    -80.5837     20.2554    223.5912
  1025.5000     21.0216    -72.8409     20.5091    189.0222
  1025.7500     21.6786    -59.8323     20.8420    169.3976
  1026.0000     22.2539    -43.7045     21.2197    143.8074
  1026.2500     22.7222    -28.2730     21.5660    129.2757
  1026.5000     23.1051    -17.3118     21.8111    112.3686
  1026.7500     23.4096    -12.7958     21.9399    104.4203
  1027.0000     23.5966    -14.1545     21.9957     95.7655
  1027.2500     23.6232    -18.7342     22.0407     90.9512
  1027.5000     23.4944    -23.0688     22.1168     84.4490
  1027.7500     23.2862    -24.4794     22.2374     80.9649
  1028.0000     23.0689    -22.2856     22.3998     77.5930
  1028.2500     22.8423    -17.7896     22.5934     76.4444
  1028.5000     22.6066    -13.1076     22.7906     75.9295
  1028.7500     22.4117    -10.0451     22.9374     76.4302
  1029.0000     22.2958     -9.8532     22.9689     78.6574
  1029.2500     22.2296    -13.2655     22.8545     80.8283
  1029.5000     22.1621    -20.0261     22.6288     83.7665
  1029.7500     22.0934    -28.5011     22.3761     84.7476
  1030.0000     22.0450    -36.4644     22.1759     84.2377
  1030.2500     22.0036    -42.5013     22.0585     82.7289
  1030.5000     21.9614    -46.2399     22.0048     79.5350
  1030.7500     21.9450    -47.3021     21.9792     77.5017
  1031.0000     21.9784    -44.8209     21.9619     75.5663
  1031.2500     22.0687    -38.3745     21.9513     75.0100
  1031.5000     22.1594    -29.0255     21.9344     74.5445
  1031.7500     22.1365    -19.0643     21.8627     74.2842
  1032.0000     22.0026    -10.6730     21.6678     74.5463
  1032.2500     21.8838     -4.8053     21.3140     75.6328
  1032.5000     21.8265     -1.1707     20.8442     78.8052
  1032.7500     21.7813      0.9237     20.3712     81.6039
  1033.0000     21.7168      1.8260     20.0259     85.8063
  1033.2500     21.6480      1.5870     19.9028     87.9660
  1033.5000     21.6347      0.5185     20.0331     89.4429
  1033.7500     21.7739     -0.7121     20.3814     89.1416
  1034.0000     22.1025     -1.8018     20.8668     87.1632
  1034.2500     22.4528     -3.4202     21.4003     85.1876
  1034.5000     22.5324     -6.8119     21.9184     81.7332
  1034.7500     22.2628    -12.8908     22.3776     79.3766
  1035.0000     21.8976    -21.7902     22.7222     76.3772
  1035.2500     21.7317    -32.9306     22.8786     74.9700
  1035.5000     21.8277    -45.1543     22.8123     73.4628
  1035.7500     22.0444    -56.9203     22.5943     72.5554
  1036.0000     22.2444    -66.7770     22.3882     71.5532
  1036.2500     22.4046    -73.8961     22.3534     71.5971
  1036.5000     22.5641    -78.2235     22.5584     72.9867
  1036.7500     22.7488    -80.1679     22.9733     74.4026
  1037.0000     22.9465    -80.2012     23.5353     76.4171
  1037.2500     23.1303    -78.7709     24.2247     77.4555
  1037.5000     23.2817    -76.5249     25.0718     78.4291
  1037.7500     23.3987    -74.4283     26.0779     78.5410
  1038.0000     23.4960    -73.4438     27.1210     77.5205
  1038.2500     23.5740    -74.0319     27.9424     76.0103
  1038.5000     23.5815    -75.9482     28.2805     73.2203
  1038.7500     23.4620    -78.4396     28.0692     71.7825
  1039.0000     23.2438    -80.6533     27.4896     71.3007
  1039.2500     23.0252    -82.0529     26.8092     72.0424
  1039.5000     22.8646    -82.5945     26.2038     73.4590
  1039.7500     22.7264    -82.5698     25.7092     73.6899
  1040.0000     22.5837    -82.3207     25.2781     72.4326
  1040.2500     22.4515    -82.0583     24.8544     71.0492
  1040.5000     22.2526    -81.8404     24.4065     69.5380
  1040.7500     21.8871    -81.6328     23.9215     69.3256
  1041.0000     21.4262    -81.3846     23.3897     69.9749
  1041.2500     21.0274    -81.0671     22.8119     70.6554
  1041.5000     20.7540    -80.6771     22.2190     71.4799
  1041.7500     20.5450    -80.2319     21.6769     71.8588
  1042.0000     20.2875    -79.7716     21.2591     72.7632
  1042.2500     19.9410    -79.3618     21.0032     74.0456
  1042.5000     19.5931    -79.0817     20.8877     77.0056
  1042.7500     19.3481    -78.9954     20.8447     79.0597
  1043.0000     19.2409    -79.1161     20.8011     80.9352
  1043.2500     19.2488    -79.3889     20.7201     81.0663
  1043.5000     19.2845    -79.7102     20.6125     80.3485
  1043.7500     19.2600    -79.9766     20.5179     80.1914
  1044.0000     19.2020    -80.1252     20.4783     81.7742
  1044.2500     19.2068    -80.1445     20.5229     84.2031
  1044.5000     19.3257    -80.0577     20.6644     88.8635
  1044.7500     19.5601    -79.8978     20.8938     91.4893
  1045.0000     19.8916    -79.6866     21.1758     92.8910
  1045.2500     20.2904    -79.4289     21.4550     91.8885
  1045.5000     20.7280    -79.1245     21.6808     88.7509
  1045.7500     21.1849    -78.7911     21.8377     86.6761
  1046.0000     21.6292    -78.4784     21.9510     84.5469
  1046.2500     22.0119    -78.2577     22.0650     83.4935
  1046.5000     22.3079    -78.1874     22.2139     81.3869
  1046.7500     22.5320    -78.2779     22.4088     79.4092
  1047.0000     22.7040    -78.4833     22.6404     76.3016
  1047.2500     22.8257    -78.7262     22.8851     74.7088
  1047.5000     22.8939    -78.9324     23.1072     73.2080
  1047.7500     22.9176    -79.0494     23.2635     72.4890
  1048.0000     22.8941    -79.0486     23.3159     71.6449
  1048.2500     22.7809    -78.9279     23.2461     71.5502
  1048.5000     22.5444    -78.7219     23.0589     72.5316
  1048.7500     22.2130    -78.5035     22.7758     73.6440
  1049.0000     21.8314    -78.3559     22.4301     74.8041
  1049.2500     21.4200    -78.3182     22.0644     74.6807
  1049.5000     21.0079    -78.3481     21.7229     73.3332
  1049.7500     20.6453    -78.3366     21.4325     72.4455
  1050.0000     20.3650    -78.1670     21.1890     72.5856
  1050.2500     20.1528    -77.7764     20.9605     73.8755
  1050.5000     19.9503    -77.1813     20.7084     76.7992
  1050.7500     19.6913    -76.4586     20.4088     78.8418
  1051.0000     19.3435    -75.7006     20.0601     81.7381
  1051.2500     18.9303    -74.9801     19.6766     83.6990
  1051.5000     18.5261    -74.3389     19.2808     86.9205
  1051.7500     18.1947    -73.7880     18.9003     89.1514
  1052.0000     17.9218    -73.3076     18.5608     91.9815
  1052.2500     17.6320    -72.8575     18.2758     93.1991
  1052.5000     17.2858    -72.4060     18.0390     94.3247
  1052.7500     16.9381    -71.9585     17.8311     95.1723
  1053.0000     16.6682    -71.5556     17.6355     97.1055
  1053.2500     16.4936    -71.2382     17.4501     98.5927
  1053.5000     16.3866    -71.0172     17.2821    100.3753
  1053.7500     16.3310    -70.8796     17.1359    100.9770
  1054.0000     16.3300    -70.8107     17.0065    100.8437
  1054.2500     16.3777    -70.7978     16.8825    100.2064
  1054.5000     16.4495    -70.8178     16.7547     99.0291
  1054.7500     16.5193    -70.8405     16.6244     98.2967
  1055.0000     16.5780    -70.8520     16.5076     96.7806
  1055.2500     16.6363    -70.8735     16.4290     95.0209
  1055.5000     16.7075    -70.9460     16.4087     91.2452
  1055.7500     16.7677    -71.0900     16.4478     88.5508
  1056.0000     16.7597    -71.2801     16.5273     85.4820
