~Version Information
VERS.                      2.0: CWLS Log ASCII Standard - VERSION 2.0
WRAP.                       NO: One line per depth step
~Well Information Block
STRT.FT                -2.7500: 
STOP.FT              2139.2500: 
STEP.FT                 0.2500: 
NULL.                -999.2500: 
COMP.          Petrogulf Corporation: COMPANY
WELL.             State 16-34V: WELL
FLD.           Purgatorie River: FIELD
LOC.           1146' FSL & 1393' FEL: LOCATION
PROV.                 Colorado: PROVINCE
CNTY.               Las Animas: COUNTRY
SRVC.          Patterson Wireline: SERVICE COMPANY
DATE.          Wed Jun 25 13:16:42 2003: LOG DATE
UWI.           05 071 07724 00: UNIQUE WELL ID
~Curve Information Block
DEPT.FT            0 000 00 00: Depth
CCL.                          : Casing Collar Locator
TT3.usec                      : CBL 3' Travel Time
AMP3.mV                       : CBL 3' Amplitude
GR.GAPI                       : Gamma Ray
~Parameter Information Block
~A  Depth       CCL         TT3         AMP3         GR     
# ...
   265.2500      0.0000    301.4655     15.8176     91.5907
   265.5000      0.0000    301.6268     15.7001     92.2669
   265.7500      0.0000    301.7845     15.6223     94.9640
   266.0000      0.0000    301.8990     15.5366     97.9251
   266.2500      0.0000    301.9619     15.4335     98.8535
   266.5000      0.0000    301.9882     15.3455     96.7006
   266.7500      0.0000    301.9955     15.3144     92.8709
   267.0000      0.0000    301.9930     15.3582     90.2683
   267.2500      0.0000    301.9821     15.4583     90.7699
   267.5000      0.0000    301.9644     15.5627     93.4621
   267.7500      0.0000    301.9525     15.6021     95.4235
   268.0000      0.0000    301.9715     15.5241     94.3462
   268.2500      0.0000    302.0391     15.3289     90.4058
   268.5000      0.0000    302.1357     15.0756     85.6755
   268.7500      0.0000    302.2041     14.8474     82.0862
   269.0000      0.0000    302.1914     14.6981     80.0368
   269.2500      0.0000    302.0955     14.6316     78.6826
   269.5000      0.0000    301.9742     14.6309     77.3600
   269.7500      0.0000    301.9316     14.6819     76.4593
   270.0000      0.0000    302.1012     14.7672     76.5949
   270.2500      0.0000    302.8694     14.8560     77.3821
   270.5000      0.0000    305.3814     14.9169     77.7545
   270.7500      0.0000    312.0432     14.9352     77.2858
   271.0000      0.0000    325.6512     14.9183     76.5905
   271.2500      0.0000    345.9489     14.8869     76.4565
   271.5000      0.0000    366.4398     14.8539     76.9925
   271.7500      0.0000    377.9143     14.8128     77.7888
   272.0000      0.0000    378.7609     14.7541     78.7881
   272.2500      0.0000    380.4231     14.6942     80.7057
   272.5000      0.0000    398.4754     14.6788     84.3439
   272.7500      0.0000    437.6278     14.7460     89.4833
   273.0000      0.0000    487.6482     14.8934     94.6472
   273.2500      0.0000    533.0968     15.0787     98.1416
   273.5000      0.0000    563.0150     15.2451     99.3611
   273.7500      0.0000    571.2021     15.3498     99.0653
   274.0000      0.0000    554.4276     15.3770     98.4416
   274.2500      0.0000    515.0582     15.3308     97.9670
   274.5000      0.0000    462.2027     15.2285     97.2333
   274.7500      0.0000    407.8576     15.1069     95.8491
   275.0000      0.0000    362.2593     15.0178     94.1385
   275.2500      0.0000    330.9227     15.0039     92.6623
   275.5000      0.0000    313.5526     15.0816     91.3919
   275.7500      0.0000    305.8749     15.2467     89.8580
   276.0000      0.0000    303.1987     15.4881     88.0226
   276.2500      0.0000    302.8560     15.7853     86.6127
   276.5000      0.0000    304.6617     16.0889     86.4957
   276.7500      0.0000    310.8609     16.2910     87.8196
   277.0000      0.0000    325.8488     16.2175     89.8626
   277.2500      0.0000    354.4604     15.6909     91.7238
   277.5000      0.0000    398.9344     14.6688     93.0388
   277.7500      0.0000    456.7609     13.3413     93.9261
   278.0000      0.0000    521.4293     12.0574     94.4794
   278.2500      0.0000    584.8848     11.1274     94.5640
   278.5000      0.0000    639.8342     10.6822     93.9507
   278.7500      2.0000    680.8100     10.6669     92.4561
   279.0000      0.0000    703.2341     10.9117     90.0216
   279.2500      2.0000    702.2758     11.2231     86.7849
   279.5000      0.0000    675.7491     11.4827     83.0739
   279.7500      0.0000    629.2435     11.7310     79.3497
   280.0000      0.0000    574.6831     12.1642     76.2641
   280.2500      0.0000    520.9238     12.9886     74.7343
   280.5000      0.0000    468.6225     14.2037     75.6614
   280.7500      0.0000    416.7523     15.5235     79.1886
   281.0000      0.0000    369.8456     16.5713     84.1214
   281.2500      0.0000    335.0248     17.1612     88.2990
   281.5000      0.0000    314.7470     17.3747     89.9411
   281.7500      0.0000    305.5747     17.4145     88.9295
   282.0000      0.0000    302.3573     17.4353     86.8536
   282.2500      0.0000    301.5216     17.4840     85.6603
   282.5000      0.0000    301.4405     17.5303     86.0763
   282.7500      0.0000    301.5393     17.5299     87.3308
   283.0000      0.0000    301.6354     17.4805     88.3691
   283.2500      0.0000    301.6763     17.4311     89.1327
   283.5000      0.0000    301.7190     17.4283     90.5276
   283.7500      0.0000    301.8909     17.4596     93.2296
   284.0000      0.0000    302.4931     17.4717     96.6302
   284.2500      0.0000    304.2803     17.4381     99.1623
   284.5000      0.0000    308.9232     17.3711     99.8645
   284.7500      0.0000    318.8570     17.2754     99.2992
   285.0000      0.0000    335.5628     17.1319     98.5453
   285.2500      0.0000    357.0991     16.9378     97.8258
   285.5000      0.0000    377.8633     16.7354     96.8018
   285.7500      0.0000    392.0911     16.5932     95.5633
   286.0000      0.0000    397.8766     16.5542     94.4303
   286.2500      0.0000    397.3517     16.5931     93.1668
   286.5000      0.0000    393.0698     16.6330     91.2471
   286.7500      0.0000    385.4619     16.6278     88.8748
   287.0000      0.0000    374.7934     16.6141     87.1867
   287.2500      0.0000    364.3039     16.6488     87.2709
   287.5000      0.0000    358.8885     16.7123     89.1140
   287.7500      0.0000    360.1100     16.7292     91.5670
   288.0000      0.0000    363.6576     16.6771     93.2782
   288.2500      0.0000    362.7912     16.6152     93.6885
   288.5000      0.0000    354.6261     16.5982     93.2055
   288.7500      0.0000    342.1923     16.6192     92.3929
   289.0000      0.0000    330.3085     16.6606     91.2404
   289.2500      0.0000    321.1447     16.7521     89.5438
   289.5000      0.0000    314.3254     16.9388     87.7477
   289.7500      0.0000    309.2800     17.2211     86.7810
   290.0000      0.0000    306.0400     17.5565     86.9683
   290.2500      0.0000    304.6805     17.8906     87.5689
   290.5000      0.0000    304.9733     18.1649     87.6549
   290.7500      0.0000    306.3710     18.3283     87.1006
   291.0000      0.0000    307.9240     18.3716     86.4408
   291.2500      0.0000    308.5352     18.3267     85.9729
   291.5000      0.0000    307.6801     18.2331     85.3239
   291.7500      0.0000    305.8282     18.1353     83.9604
   292.0000      0.0000    303.9357     18.0977     81.9652
   292.2500      0.0000    302.6337     18.1733     80.2262
   292.5000      0.0000    301.9852     18.3502     79.7650
   292.7500      0.0000    301.7748     18.5686     80.7129
   293.0000      0.0000    301.7870     18.7974     81.9041
   293.2500      0.0000    301.8704     19.0519     81.5967
   293.5000      0.0000    301.9218     19.3285     78.8193
   293.7500      0.0000    301.8999     19.5690     74.0262
   294.0000      0.0000    301.8298     19.7107     68.3677
   294.2500      0.0000    301.7678     19.7404     62.5052
   294.5000      0.0000    301.7595     19.6853     56.4408
   294.7500      0.0000    301.8338     19.5777     50.3358
   295.0000      0.0000    302.0269     19.4393     44.9457
   295.2500      0.0000    302.4215     19.2766     41.0302
   295.5000      0.0000    303.2005     19.0793     38.6272
   295.7500      0.0000    304.6136     18.8392     37.1456
   296.0000      0.0000    306.7532     18.5794     36.0703
   296.2500      0.0000    309.3645     18.3490     35.3997
   296.5000      0.0000    312.1199     18.1799     35.4539
   296.7500      0.0000    315.1403     18.0575     36.4419
   297.0000      0.0000    318.8698     17.9493     38.1373
   297.2500      0.0000    323.2496     17.8501     39.8200
   297.5000      0.0000    327.4111     17.7796     40.6521
   297.7500      0.0000    330.4147     17.7473     40.3716
   298.0000      0.0000    332.0150     17.7547     39.6619
   298.2500      0.0000    332.5991     17.8156     39.6498
   298.5000      0.0000    332.6766     17.9289     40.9378
