~Version Information
 VERS.                                  2.0 : CWLS LAS VERSION
 WRAP.                                   NO : WRAPING MODE
 SWARE .                 MController 2.5.0J : SOFTWARE VERSION
~Well Information
 WELL.                        Montoya 7-12R : WELL
 COMP.                       Petrogulf Corp : COMPANY
 FLD.                      Purgatorie River : FIELD
 LOC.                 SW/NW Sec 7 T33S R67W : LOCATION
 DATE.                    11/18/04 11/19/04 : DATE(S) LOGGED
 SRVC.       Blanco Geological Services LLC : SERVICE COMPANY
 STAT.                                   CO : STATE
 CNTY.                           Las Animas : COUNTY
 CTRY.                                  USA : COUNTRY
 API.                       05-071-08240-00 : API NUMBER
 STRT.FT                              30.00 : START DEPTH
 STOP.FT                            2040.00 : STOP DEPTH
 STEP.FT                               1.00 : DEPTH INCREMENT
 NULL.                                -9999 : NULL VALUE
~Curve information
 DEPTH.FT                                   :
 ROP.MIN/FT                                 :
 GAS.UNITS                                  :
~ASCII Log data
# ...
      1630.0         0.33          7.7 
      1631.0         0.30          8.2 
      1632.0         0.33          7.8 
      1633.0         0.30          7.5 
      1634.0         0.27          6.9 
      1635.0         0.33          7.1 
      1636.0         0.30          8.4 
      1637.0         0.33          8.2 
      1638.0         0.47          9.9 
      1639.0         0.35         91.0 
      1640.0         0.30         68.3 
      1641.0         0.33         38.2 
      1642.0         0.30         22.7 
      1643.0         0.30         20.4 
      1644.0         0.33         19.8 
      1645.0         0.27         29.0 
      1646.0         0.37         32.8 
      1647.0         0.55         29.0 
      1648.0         0.53         13.7 
      1649.0         0.57         11.6 
      1650.0         0.53         12.0 
      1651.0         0.53          8.7 
      1652.0         0.70          7.9 
      1653.0         0.62          7.4 
      1654.0         0.57          7.7 
      1655.0         0.57          7.9 
      1656.0         0.47          8.6 
      1657.0         0.50          6.9 
      1658.0         0.53          7.0 
      1659.0         0.48          8.6 
      1660.0         0.40          9.5 
      1661.0         0.47          8.1 
      1662.0         0.40          7.6 
      1663.0         0.53          7.9 
      1664.0         0.43          8.1 
      1665.0         0.40          8.2 
      1666.0         0.55          8.8 
      1667.0         0.47          6.9 
      1668.0         0.50          7.6 
      1669.0         0.57          8.3 
      1670.0         0.50          8.8 
      1671.0         0.47          6.9 
      1672.0         0.50         53.3 
      1673.0         0.62         62.3 
      1674.0         0.60         23.1 
      1675.0         0.63         30.2 
      1676.0         0.03         30.2 
      1677.0         0.53         32.4 
      1678.0         0.53         20.3 
      1679.0         0.67         14.2 
      1680.0         0.60          8.5 
      1681.0         0.52          8.4 
      1682.0         0.43          7.7 
      1683.0         0.50          7.9 
      1684.0         0.47          9.0 
      1685.0         0.43         13.9 
      1686.0         0.33         14.7 
      1687.0         0.33         14.3 
      1688.0         0.30         13.3 
      1689.0         0.32         13.8 
      1690.0         0.30         13.9 
      1691.0         0.23         13.9 
      1692.0         0.33         15.7 
      1693.0         0.23         16.1 
      1694.0         0.40         16.2 
      1695.0         0.77         15.8 
      1696.0         0.60         15.9 
      1697.0         0.30         15.1 
      1698.0         0.35         15.5 
      1699.0         0.30         97.5 
      1700.0         0.30         53.3 
      1701.0         0.30         32.8 
      1702.0         0.33         31.5 
      1703.0         0.30         24.2 
      1704.0         0.33         34.0 
      1705.0         0.27         35.3 
      1706.0         0.20         31.5 
      1707.0         0.37         26.1 
      1708.0         0.47         15.5 
      1709.0         0.67         11.5 
      1710.0         0.37         11.0 
      1711.0         0.30         10.8 
      1712.0         0.30          9.4 
      1713.0         0.43          9.1 
      1714.0         0.48          8.6 
      1715.0         0.50          8.8 
      1716.0         0.40          9.7 
      1717.0         0.40          7.6 
      1718.0         0.30          9.1 
      1719.0         0.37          9.6 
      1720.0         0.27          9.6 
      1721.0         0.27          9.0 
      1722.0         0.23          9.1 
      1723.0         0.30          9.4 
      1724.0         0.28         10.0 
      1725.0         0.33         11.0 
      1726.0         0.33         13.4 
      1727.0         0.30         14.1 
      1728.0         0.27         14.3 
      1729.0         0.37         14.7 
      1730.0         0.33        414.0 
      1731.0         0.37         23.4 
      1732.0         0.43         18.8 
      1733.0         0.33         23.2 
      1734.0         0.35         26.6 
      1735.0         0.37         31.2 
      1736.0         0.47         30.6 
      1737.0         0.85         16.5 
      1738.0         0.70         10.9 
      1739.0         0.57         10.3 
      1740.0         0.50          9.3 
      1741.0         0.40          9.2 
      1742.0         0.43         12.1 
      1743.0         0.45         12.8 
      1744.0         0.47         12.2 
      1745.0         0.33         14.0 
      1746.0         0.33         15.7 
      1747.0         0.33         15.7 
      1748.0         0.50         17.0 
      1749.0         0.43         17.8 
      1750.0         0.57         18.0 
      1751.0         0.52         17.6 
      1752.0         0.47         18.4 
      1753.0         0.40         20.2 
      1754.0         0.53         19.4 
      1755.0         0.43         17.4 
      1756.0         0.50         15.2 
      1757.0         0.50         12.9 
      1758.0         0.45         12.3 
      1759.0         0.37         11.6 
      1760.0         0.37         10.7 
      1761.0         0.40         51.9 
      1762.0         0.47         27.4 
      1763.0         0.43         36.9 
      1764.0         0.50         43.2 
      1765.0         0.52         27.9 
      1766.0         0.27         15.1 
      1767.0         0.37         16.0 
      1768.0         0.27         14.8 
      1769.0         0.55         13.8 
      1770.0         0.53         11.6 
      1771.0         0.50          9.5 
      1772.0         0.50         10.5 
      1773.0         0.37         11.6 
      1774.0         0.37         12.0 
      1775.0         0.43         10.2 
      1776.0         0.48         10.5 
      1777.0         0.40         11.8 
      1778.0         0.33         11.4 
      1779.0         0.33         11.2 
      1780.0         0.43         11.2 
      1781.0         0.77         10.4 
      1782.0         0.40         11.7 
      1783.0         0.37         11.7 
      1784.0         0.45         11.6 
      1785.0         0.40         10.2 
      1786.0         0.37         10.6 
      1787.0         0.30         10.0 
      1788.0         0.33         10.2 
      1789.0         0.33         10.8 
      1790.0         0.37         32.7 
      1791.0         0.27         26.5 
      1792.0         0.30         30.5 
      1793.0         0.42         26.5 
      1794.0         0.40         18.1 
      1795.0         0.37         15.8 
      1796.0         0.30         15.9 
      1797.0         0.43         15.4 
      1798.0         0.43         13.4 
      1799.0         0.63         12.5 
      1800.0         0.57         11.2 
      1801.0         0.60         11.0 
      1802.0         0.58         11.7 
      1803.0         0.50         13.2 
      1804.0         0.50         13.6 
      1805.0         0.50         19.5 
      1806.0         0.47         24.2 
      1807.0         0.43         20.8 
      1808.0         0.40         16.3 
      1809.0         0.45         15.6 
      1810.0         0.43         13.0 
      1811.0         0.47         12.5 
      1812.0         0.43         11.9 
      1813.0         0.43         11.8 
      1814.0         0.47         11.6 
      1815.0         0.47         11.7 
      1816.0         0.48         11.5 
      1817.0         0.50         10.3 
      1818.0         0.43         11.1 
      1819.0         0.60         11.8 
      1820.0         0.50         10.2 
      1821.0         0.57         11.0 
      1822.0         0.67         35.4 
      1823.0         0.65         33.2 
      1824.0         0.60         15.8 
      1825.0         0.60         24.9 
      1826.0         0.20         26.9 
      1827.0         0.75         27.7 
      1828.0         0.70         16.7 
      1829.0         0.63         14.5 
