~Version Information
VERS.                      2.0: CWLS Log ASCII Standard - VERSION 2.0
WRAP.                       NO: One line per depth step
~Well Information Block
STRT.FT               964.0000: 
STOP.FT              2440.0000: 
STEP.FT                 0.2500: 
NULL.                -999.2500: 
COMP.          Petrogulf Corporation: COMPANY
WELL.              Hand 8-44 V: WELL
FLD.           Purgatorie River: FIELD
LOC.           1076' FEL & 820' FSL: LOCATION
CNTY.               Las Animas: COUNTY
SRVC.                         : SERVICE COMPANY
DATE.          Fri Nov 21 11:54:17 2003: LOG DATE
UWI.                          : UNIQUE WELL ID
STAT.                 Colorado: STATE
~Curve Information Block
DEPT.FT            0 000 00 00: Depth
SP.mV                         : IEL Spontaneous Potential
DIR.Ohm-m                     : IEL Induction Resistivity
GR.GAPI                       : Gamma Ray
~Parameter Information Block
~A  Depth        SP         DIR          GR     
# ...
  1256.2500     -4.4031     15.5699    111.2441
  1256.5000     -4.3733     15.7867    114.6112
  1256.7500     -4.3364     15.7104    117.3461
  1257.0000     -4.2934     15.3444    118.7659
  1257.2500     -4.2459     14.7668    116.4603
  1257.5000     -4.1958     14.0915    107.9751
  1257.7500     -4.1463     13.4233    100.4626
  1258.0000     -4.1020     12.8307     90.5436
  1258.2500     -4.0679     12.3436     86.9486
  1258.5000     -4.0477     11.9642     87.3045
  1258.7500     -4.0421     11.6794     90.6846
  1259.0000     -4.0482     11.4696     98.6524
  1259.2500     -4.0612     11.3134    105.2157
  1259.5000     -4.0768     11.1894    115.9936
  1259.7500     -4.0915     11.0789    122.8810
  1260.0000     -4.1017     10.9702    131.2151
  1260.2500     -4.1024     10.8623    135.4059
  1260.5000     -4.0900     10.7669    140.8979
  1260.7500     -4.0659     10.7066    144.3611
  1261.0000     -4.0366     10.7109    148.0412
  1261.2500     -4.0108     10.8085    148.5204
  1261.5000     -3.9941     11.0205    145.8184
  1261.7500     -3.9878     11.3543    142.0817
  1262.0000     -3.9895     11.8032    134.5310
  1262.2500     -3.9961     12.3463    129.0876
  1262.5000     -4.0051     12.9485    122.5423
  1262.7500     -4.0155     13.5575    120.4033
  1263.0000     -4.0269     14.1086    120.9600
  1263.2500     -4.0387     14.5429    123.2511
  1263.5000     -4.0500     14.8309    128.1175
  1263.7500     -4.0601     14.9824    131.5014
  1264.0000     -4.0693     15.0341    135.4798
  1264.2500     -4.0794     15.0308    136.8654
  1264.5000     -4.0930     15.0160    136.8621
  1264.7500     -4.1124     15.0302    135.6652
  1265.0000     -4.1382     15.1076    132.6830
  1265.2500     -4.1695     15.2684    130.5471
  1265.5000     -4.2041     15.5126    128.7491
  1265.7500     -4.2399     15.8205    129.2737
  1266.0000     -4.2742     16.1571    132.6028
  1266.2500     -4.3032     16.4765    135.5907
  1266.5000     -4.3221     16.7232    138.9997
  1266.7500     -4.3267     16.8384    139.4409
  1267.0000     -4.3153     16.7778    136.1564
  1267.2500     -4.2894     16.5315    131.1616
  1267.5000     -4.2533     16.1306    120.3025
  1267.7500     -4.2132     15.6325    111.8196
  1268.0000     -4.1756     15.0973     99.1291
  1268.2500     -4.1463     14.5684     91.8593
  1268.5000     -4.1299     14.0637     85.0142
  1268.7500     -4.1279     13.5773     84.1393
  1269.0000     -4.1386     13.0889     88.0830
  1269.2500     -4.1574     12.5769     93.0579
  1269.5000     -4.1794     12.0302    102.0414
  1269.7500     -4.2005     11.4529    108.3011
  1270.0000     -4.2189     10.8616    116.9660
  1270.2500     -4.2353     10.2792    121.6140
  1270.5000     -4.2535      9.7288    126.7948
  1270.7500     -4.2787      9.2283    129.7967
  1271.0000     -4.3163      8.7889    135.0193
  1271.2500     -4.3701      8.4160    138.9874
  1271.5000     -4.4412      8.1124    144.0570
  1271.7500     -4.5270      7.8812    145.6627
  1272.0000     -4.6219      7.7243    144.5341
  1272.2500     -4.7173      7.6399    141.9066
  1272.5000     -4.8023      7.6201    137.0397
  1272.7500     -4.8660      7.6522    134.3529
  1273.0000     -4.9012      7.7230    132.6531
  1273.2500     -4.9090      7.8223    133.3487
  1273.5000     -4.8980      7.9450    136.0729
  1273.7500     -4.8779      8.0884    137.7391
  1274.0000     -4.8511      8.2499    138.4431
  1274.2500     -4.8128      8.4248    137.9500
  1274.5000     -4.7571      8.6073    137.5335
  1274.7500     -4.6853      8.7917    138.1183
  1275.0000     -4.6068      8.9714    139.2878
  1275.2500     -4.5345      9.1386    138.8781
  1275.5000     -4.4779      9.2838    134.8670
  1275.7500     -4.4405      9.3985    130.1762
  1276.0000     -4.4202      9.4774    122.1907
  1276.2500     -4.4112      9.5189    117.6493
  1276.5000     -4.4054      9.5221    113.5508
  1276.7500     -4.3951      9.4844    112.6867
  1277.0000     -4.3737      9.4019    113.0836
  1277.2500     -4.3383      9.2745    113.6977
  1277.5000     -4.2898      9.1118    114.6820
  1277.7500     -4.2325      8.9331    115.6181
  1278.0000     -4.1721      8.7580    117.8946
  1278.2500     -4.1136      8.5970    120.1273
  1278.5000     -4.0609      8.4474    124.9051
  1278.7500     -4.0166      8.2999    129.1091
  1279.0000     -3.9820      8.1483    135.7227
  1279.2500     -3.9569      7.9933    138.8719
  1279.5000     -3.9406      7.8409    139.7099
  1279.7500     -3.9312      7.6969    137.7258
  1280.0000     -3.9267      7.5654    132.9023
  1280.2500     -3.9253      7.4489    129.8874
  1280.5000     -3.9258      7.3502    127.3277
  1280.7500     -3.9279      7.2730    127.1848
  1281.0000     -3.9316      7.2208    128.5957
  1281.2500     -3.9370      7.1953    129.7673
  1281.5000     -3.9437      7.1956    130.4513
  1281.7500     -3.9504      7.2181    129.8075
  1282.0000     -3.9559      7.2578    127.6532
  1282.2500     -3.9591      7.3107    126.2956
  1282.5000     -3.9602      7.3760    126.2184
  1282.7500     -3.9604      7.4569    128.1331
  1283.0000     -3.9612      7.5575    133.6124
  1283.2500     -3.9638      7.6793    138.1019
  1283.5000     -3.9682      7.8183    144.1440
  1283.7500     -3.9731      7.9672    146.7216
  1284.0000     -3.9766      8.1183    147.6956
  1284.2500     -3.9774      8.2670    146.8409
  1284.5000     -3.9752      8.4111    144.8085
  1284.7500     -3.9711      8.5498    143.5026
  1285.0000     -3.9670      8.6828    141.3943
  1285.2500     -3.9649      8.8094    139.5091
  1285.5000     -3.9664      8.9280    135.8235
  1285.7500     -3.9720      9.0342    133.0919
  1286.0000     -3.9809      9.1190    129.3316
  1286.2500     -3.9913      9.1693    127.3407
  1286.5000     -4.0010      9.1700    124.9457
  1286.7500     -4.0078      9.1095    123.3184
  1287.0000     -4.0106      8.9844    120.4892
  1287.2500     -4.0094      8.8014    118.7909
  1287.5000     -4.0056      8.5753    117.9462
  1287.7500     -4.0009      8.3244    119.0375
  1288.0000     -3.9974      8.0665    122.7533
  1288.2500     -3.9964      7.8154    125.7896
  1288.5000     -3.9986      7.5797    129.5831
  1288.7500     -4.0024      7.3630    131.0124
  1289.0000     -4.0050      7.1669    131.7197
  1289.2500     -4.0035      6.9928    132.0293
  1289.5000     -3.9971      6.8422    133.6674
  1289.7500     -3.9873      6.7144    135.7738
  1290.0000     -3.9776      6.6036    139.6948
  1290.2500     -3.9712      6.5000    142.0421
  1290.5000     -3.9694      6.3946    143.8217
  1290.7500     -3.9713      6.2853    143.3443
  1291.0000     -3.9746      6.1781    140.3539
  1291.2500     -3.9770      6.0825    137.6195
  1291.5000     -3.9776      6.0039    133.9532
  1291.7500     -3.9770      5.9410    132.3815
  1292.0000     -3.9764      5.8886    131.8619
  1292.2500     -3.9770      5.8432    132.8892
  1292.5000     -3.9787      5.8065    136.0694
  1292.7500     -3.9808      5.7842    138.5666
  1293.0000     -3.9824      5.7816    141.6764
  1293.2500     -3.9831      5.7989    143.0359
  1293.5000     -3.9827      5.8309    143.9548
  1293.7500     -3.9814      5.8690    143.8777
  1294.0000     -3.9793      5.9056    143.2930
  1294.2500     -3.9760      5.9369    143.2011
  1294.5000     -3.9707      5.9621    144.0127
  1294.7500     -3.9628      5.9825    144.6788
  1295.0000     -3.9525      5.9994    144.3647
  1295.2500     -3.9403      6.0143    142.9209
  1295.5000     -3.9274      6.0281    139.7894
  1295.7500     -3.9148      6.0408    137.9976
  1296.0000     -3.9031      6.0517    136.9487
  1296.2500     -3.8929      6.0595    137.4496
  1296.5000     -3.8845      6.0634    139.1532
  1296.7500     -3.8782      6.0629    140.2356
  1297.0000     -3.8741      6.0585    141.4440
  1297.2500     -3.8719      6.0506    142.5838
  1297.5000     -3.8709      6.0400    146.3281
  1297.7500     -3.8709      6.0289    150.3693
