~Version Information
VERS.                      2.0: CWLS Log ASCII Standard - VERSION 2.0
WRAP.                       NO: One line per depth step
~Well Information Block
STRT.FT               -14.0000: 
STOP.FT              2531.7500: 
STEP.FT                 0.2500: 
NULL.                -999.2500: 
COMP.          Petrogulf Corporation: COMPANY
WELL.            Lavedure 7-44: WELL
FLD.           Purgatorie River: FIELD
LOC.           969' FSL & 501' FEL--: LOCATION
PROV.                       CO: PROVINCE
CNTY.               Las Animas: COUNTRY
SRVC.          Patterson Wireline: SERVICE COMPANY
DATE.          Wed Dec 10 09:23:08 2003: LOG DATE
UWI.                          : UNIQUE WELL ID
~Curve Information Block
DEPT.FT            0 000 00 00: Depth
CCL.                          : Casing Collar Locator
TT3.usec                      : CBL 3' Travel Time
AMP3.mV                       : CBL 3' Amplitude
GR.GAPI                       : Gamma Ray
~Parameter Information Block
~A  Depth       CCL         TT3         AMP3         GR     
# ...
  1326.0000      0.0000    760.2349      3.7403    168.2632
  1326.2500      0.0000    764.4451      3.7363    173.9572
  1326.5000      0.0000    767.7179      3.7435    170.3804
  1326.7500      0.0000    769.5560      3.7538    158.9804
  1327.0000      0.0000    770.2576      3.7452    145.3920
  1327.2500      0.0000    770.3736      3.7158    135.2907
  1327.5000      0.0000    770.2954      3.6880    130.3484
  1327.7500      0.0000    770.1533      3.6849    128.0187
  1328.0000      0.0000    769.9290      3.7046    124.9322
  1328.2500      0.0000    769.6042      3.7217    120.1878
  1328.5000      0.0000    769.2262      3.7142    115.5522
  1328.7500      0.0000    768.8549      3.6838    113.2883
  1329.0000      0.0000    768.5141      3.6445    114.4374
  1329.2500      0.0000    768.2082      3.6004    118.8656
  1329.5000      0.0000    767.9574      3.5452    125.7139
  1329.7500      0.0000    767.7871      3.4785    133.0051
  1330.0000      0.0000    767.6575      3.4049    137.5122
  1330.2500      0.0000    767.3555      3.3207    136.4035
  1330.5000      0.0000    766.3627      3.2221    129.4658
  1330.7500      0.0000    763.8748      3.1299    119.3385
  1331.0000      0.0000    759.2556      3.0823    109.5245
  1331.2500      0.0000    752.8905      3.0936    102.2126
  1331.5000      0.0000    746.5599      3.1302     97.4809
  1331.7500      0.0000    742.4792      3.1362     93.9337
  1332.0000      0.0000    741.6499      3.0797     89.9903
  1332.2500      0.0000    743.3163      2.9815     85.0479
  1332.5000      0.0000    746.1026      2.9054     79.9561
  1332.7500      0.0000    749.3124      2.9172     76.4887
  1333.0000      0.0000    752.9222      3.0376     76.0833
  1333.2500      0.0000    756.6209      3.2228     78.8196
  1333.5000      0.0000    759.3995      3.3885     83.5256
  1333.7500      0.0000    760.3890      3.4614     88.8495
  1334.0000      0.0000    759.9542      3.4119     94.0771
  1334.2500      0.0000    759.5131      3.2621     98.8008
  1334.5000      0.0000    760.0683      3.0857    102.2030
  1334.7500      0.0000    761.1458      2.9843    103.2965
  1335.0000      0.0000    761.3884      3.0205    102.0440
  1335.2500      0.0000    760.0803      3.1644     99.7972
  1335.5000      0.0000    757.9583      3.3264     98.3515
  1335.7500      0.0000    756.5363      3.4461     98.7324
  1336.0000      0.0000    756.5687      3.5328    100.8511
  1336.2500      0.0000    757.1646      3.6242    103.8054
  1336.5000      0.0000    756.3972      3.7316    106.3223
  1336.7500      0.0000    752.7431      3.8328    107.3577
  1337.0000      0.0000    746.1786      3.8959    106.6547
  1337.2500      0.0000    738.2552      3.8967    104.7980
  1337.5000      0.0000    731.1177      3.8293    102.9134
  1337.7500      0.0000    726.1859      3.7210    102.3784
  1338.0000      0.0000    723.5918      3.6336    104.3773
  1338.2500      0.0000    722.6513      3.6209    109.2045
  1338.5000      0.0000    722.6577      3.6680    115.9024
  1338.7500      0.0000    723.3372      3.6991    122.6750
  1339.0000      0.0000    724.7883      3.6673    127.8081
  1339.2500      0.0000    726.9907      3.6170    130.4029
  1339.5000      0.0000    729.3700      3.6336    130.4326
  1339.7500      0.0000    731.1888      3.7445    128.2558
  1340.0000      0.0000    732.6016      3.8917    124.4211
  1340.2500      0.0000    734.8162      3.9942    120.2020
  1340.5000      0.0000    738.5178      4.0110    117.8799
  1340.7500      0.0000    742.2922      3.9480    119.6760
  1341.0000      0.0000    743.3574      3.8405    125.9697
  1341.2500      0.0000    740.3485      3.7457    134.5242
  1341.5000      0.0000    735.4160      3.7205    141.5900
  1341.7500      0.0000    733.2858      3.7774    144.0417
  1342.0000      0.0000    737.4709      3.8724    140.8566
  1342.2500      0.0000    746.7090      3.9529    132.9643
  1342.5000      0.0000    755.4644      4.0049    122.2314
  1342.7500      0.0000    758.8211      4.0481    110.8689
  1343.0000      0.0000    757.1008      4.1061    101.3326
  1343.2500     -2.0000    755.5602      4.1856     95.9272
  1343.5000     -2.0000    759.5484      4.2739     95.9416
  1343.7500      0.0000    769.3860      4.3617    101.0372
  1344.0000      0.0000    779.3240      4.4621    109.4665
  1344.2500      0.0000    782.0925      4.5744    118.7398
  1344.5000      0.0000    775.3037      4.6345    126.3015
  1344.7500      0.0000    763.4269      4.5549    130.5521
  1345.0000      0.0000    753.8302      4.3348    131.8400
  1345.2500      0.0000    751.4527      4.0870    131.8789
  1345.5000      0.0000    756.5325      3.9322    131.7864
  1345.7500      0.0000    766.1164      3.8942    131.2866
  1346.0000      0.0000    777.3964      3.9043    129.7482
  1346.2500      0.0000    789.7906      3.8826    127.0381
  1346.5000      0.0000    803.6483      3.8002    123.4334
  1346.7500      0.0000    817.1396      3.6838    119.6189
  1347.0000      0.0000    825.4485      3.5879    116.8664
  1347.2500      0.0000    823.8158      3.5616    116.5614
  1347.5000      0.0000    811.5924      3.6179    119.1299
  1347.7500      0.0000    793.7902      3.7326    123.4196
  1348.0000      0.0000    778.9440      3.8747    127.3473
  1348.2500      0.0000    774.4257      4.0261    129.4014
  1348.5000      0.0000    781.9156      4.1801    129.4736
  1348.7500      0.0000    796.4238      4.3415    128.1720
  1349.0000      0.0000    810.1816      4.5167    125.9038
  1349.2500      0.0000    817.9506      4.6924    123.1100
  1349.5000      0.0000    818.8589      4.8470    120.8954
  1349.7500      0.0000    814.6124      4.9798    120.6474
  1350.0000      0.0000    807.6603      5.1034    122.8750
  1350.2500      0.0000    800.7516      5.2194    126.6826
  1350.5000      0.0000    796.5763      5.3285    130.4906
  1350.7500      0.0000    796.8212      5.4414    133.1041
  1351.0000      0.0000    801.2137      5.5466    134.0953
  1351.2500      0.0000    807.4125      5.5982    133.5535
  1351.5000      0.0000    812.3450      5.5711    131.9422
  1351.7500      0.0000    814.0555      5.5080    130.2861
  1352.0000      0.0000    812.2321      5.4781    130.0362
  1352.2500      0.0000    807.5984      5.5011    132.1184
  1352.5000      0.0000    801.7094      5.5433    135.7289
  1352.7500      0.0000    797.0237      5.5695    138.3200
  1353.0000      0.0000    795.9073      5.5643    137.3535
  1353.2500      0.0000    798.7916      5.5150    132.2415
  1353.5000      0.0000    803.2693      5.4210    124.5067
  1353.7500      0.0000    805.2532      5.3194    116.3426
  1354.0000      0.0000    801.7701      5.2620    109.3666
  1354.2500      0.0000    793.3453      5.2583    104.4093
  1354.5000      0.0000    783.5355      5.2723    101.6404
  1354.7500      0.0000    775.9540      5.2733    100.3420
  1355.0000      0.0000    771.9592      5.2527     98.9626
  1355.2500      0.0000    770.8232      5.1940     96.1106
  1355.5000      0.0000    771.1644      5.0775     91.4807
  1355.7500      0.0000    771.9856      4.9338     85.4790
  1356.0000      0.0000    773.0939      4.8480     78.4768
  1356.2500      0.0000    775.1776      4.8742     71.1132
  1356.5000      0.0000    779.2230      4.9726     64.8746
  1356.7500      0.0000    785.1281      5.0654     61.4802
  1357.0000      0.0000    790.6729      5.1206     61.6841
  1357.2500      0.0000    792.4116      5.1442     65.2334
  1357.5000      0.0000    788.0217      5.1200     71.8419
  1357.7500      0.0000    777.7200      5.0080     81.3644
  1358.0000      0.0000    763.7325      4.7969     92.7970
  1358.2500      0.0000    749.3927      4.5306    103.7941
  1358.5000      0.0000    738.7944      4.2796    111.7656
  1358.7500      0.0000    735.4589      4.0857    115.4787
  1359.0000      0.0000    739.8228      3.9386    115.7225
  1359.2500      0.0000    748.8551      3.8106    114.6045
