~Version Information
VERS.                      2.0: CWLS Log ASCII Standard - VERSION 2.0
WRAP.                       NO: One line per depth step
~Well Information Block
STRT.FT               750.6000: 
STOP.FT              2495.5000: 
STEP.FT                 0.1000: 
NULL.                -999.2500: 
COMP.                         : COMPANY
WELL.                         : WELL
FLD.                          : FIELD
LOC.                          : LOCATION
CNTY.                         : COUNTY
SRVC.                         : SERVICE COMPANY
DATE.          Sat Feb 28 14:05:57 2004: LOG DATE
UWI.                          : UNIQUE WELL ID
STAT.                         : STATE
~Curve Information Block
DEPT.FT            0 000 00 00: Depth
DCAL.in                       : CDL Caliper
RHOB.g/cc                     : CDL Bulk Density
RHOC.g/cc                     : CDL Density Correction
DPOR.pu                       : CDL Density Porosity
GR.GAPI                       : Gamma Ray
NPOR.pu                       : Neutron Porosity
~Parameter Information Block
~A  Depth       DCAL        RHOB        RHOC        DPOR         GR         NPOR    
# ...
  1355.4000      7.9919      2.4893      0.0680      9.7383     75.4551     20.8384
  1355.5000      7.9993      2.4921      0.0998      9.5696     74.5048     20.5012
  1355.6000      7.9993      2.5022      0.0725      8.9588     77.5395     20.2299
  1355.7000      7.9993      2.4977      0.0693      9.2305     78.8184     19.9000
  1355.8000      8.0403      2.4782      0.0951     10.4119     79.4843     19.4061
  1355.9000      8.0403      2.4491      0.0749     12.1787     80.1844     18.9751
  1356.0000      8.1270      2.4251      0.0077     13.6289     77.4443     19.0688
  1356.1000      8.1270      2.4162      0.0521     14.1683     72.2268     19.3515
  1356.2000      8.1270      2.4020      0.1039     15.0330     67.8829     19.2951
  1356.3000      8.1834      2.3631      0.0770     17.3881     63.9018     19.4349
  1356.4000      8.1834      2.3219      0.0112     19.8855     60.0658     20.2961
  1356.5000      8.1840      2.3119      0.0644     20.4934     59.1641     21.2098
  1356.6000      8.1840      2.3218      0.1331     19.8921     61.9403     21.4813
  1356.7000      8.1840      2.3225      0.0331     19.8466     64.6356     21.3443
  1356.8000      8.1790      2.3191      0.0224     20.0523     65.3391     21.1980
  1356.9000      8.1790      2.3253      0.1251     19.6766     64.4918     21.1821
  1357.0000      8.1504      2.3453      0.1166     18.4658     61.9600     21.0932
  1357.1000      8.1504      2.3858      0.1570     16.0134     60.6113     20.7961
  1357.2000      8.1504      2.4271      0.2695     13.5114     61.1402     20.4356
  1357.3000      8.0622      2.4297      0.2135     13.3540     59.2327     20.1906
  1357.4000      8.0622      2.3951      0.1150     15.4475     56.6616     20.0632
  1357.5000      8.0144      2.3626      0.0935     17.4176     58.4228     20.0001
  1357.6000      8.0144      2.3552      0.1041     17.8638     61.6133     20.0341
  1357.7000      8.0144      2.3665      0.1468     17.1840     62.0656     19.9532
  1357.8000      8.0102      2.3883      0.0772     15.8577     59.1298     19.4734
  1357.9000      8.0102      2.4216      0.0761     13.8445     52.4841     18.8481
  1358.0000      8.0253      2.4531      0.1455     11.9313     44.6465     18.4083
  1358.1000      8.0253      2.4660      0.1357     11.1541     39.9445     18.3210
  1358.2000      8.0253      2.4688      0.1014     10.9788     38.6935     18.6457
  1358.3000      8.0420      2.4809      0.1274     10.2458     38.6744     19.0697
  1358.4000      8.0420      2.5015      0.2199      9.0010     39.6850     19.2917
  1358.5000      8.0256      2.5180      0.1855      8.0023     42.4204     19.4450
  1358.6000      8.0256      2.5176      0.2362      8.0250     47.0873     19.5895
  1358.7000      8.0256      2.4904      0.1523      9.6707     51.1297     19.3834
  1358.8000      8.0206      2.4460      0.1376     12.3640     52.4500     18.7528
  1358.9000      8.0206      2.4059      0.0232     14.7916     54.4223     18.2991
  1359.0000      8.0224      2.3854      0.0676     16.0341     58.2869     18.2245
  1359.1000      8.0224      2.3879      0.0479     15.8857     61.2271     18.1370
  1359.2000      8.0224      2.4005      0.1467     15.1193     61.8792     17.9803
  1359.3000      8.0251      2.3961      0.1254     15.3889     59.5691     18.0778
  1359.4000      8.0251      2.3625      0.1140     17.4261     55.4259     18.3714
  1359.5000      8.0298      2.3257      0.0567     19.6522     51.9684     18.4608
  1359.6000      8.0298      2.3145      0.0823     20.3329     50.8082     18.4859
  1359.7000      8.0298      2.3144      0.1268     20.3371     53.1038     18.8809
  1359.8000      8.0307      2.3010      0.0814     21.1525     57.4686     19.4990
  1359.9000      8.0307      2.2799      0.1113     22.4327     59.5923     19.9380
  1360.0000      8.0395      2.2744      0.0598     22.7619     57.3363     20.2890
  1360.1000      8.0395      2.2930      0.1444     21.6351     54.4711     20.8193
  1360.2000      8.0395      2.3143      0.1621     20.3457     53.5508     21.3688
  1360.3000      8.0398      2.3269      0.1304     19.5791     52.6991     21.6894
  1360.4000      8.0398      2.3463      0.2114     18.4076     50.7001     21.6674
  1360.5000      8.0455      2.3796      0.2169     16.3873     49.7655     21.5102
  1360.6000      8.0455      2.4155      0.2801     14.2151     53.2276     21.5085
  1360.7000      8.0455      2.4385      0.3269     12.8208     57.6891     21.5898
  1360.8000      8.0432      2.4427      0.3125     12.5649     56.6216     21.7948
  1360.9000      8.0432      2.4286      0.3193     13.4211     53.2353     22.1478
  1361.0000      8.0465      2.4112      0.2067     14.4729     54.8115     22.2997
  1361.1000      8.0465      2.4204      0.1627     13.9180     57.9427     22.3936
  1361.2000      8.0465      2.4549      0.2144     11.8270     56.8596     22.5824
  1361.3000      8.0478      2.4789      0.1937     10.3673     53.8312     22.3939
  1361.4000      8.0478      2.4755      0.1453     10.5776     51.2726     21.9673
  1361.5000      8.0472      2.4561      0.1467     11.7491     49.1441     21.9319
  1361.6000      8.0472      2.4347      0.0981     13.0484     49.2091     22.0669
  1361.7000      8.0472      2.4214      0.0703     13.8560     50.9690     21.7460
  1361.8000      8.0475      2.4254      0.0846     13.6149     51.2221     21.0461
  1361.9000      8.0475      2.4420      0.1465     12.6035     48.1229     20.2705
  1362.0000      8.0364      2.4572      0.1165     11.6843     42.5118     19.4132
  1362.1000      8.0364      2.4685      0.1357     10.9976     40.0349     18.5919
  1362.2000      8.0364      2.4781      0.1424     10.4158     44.4929     18.1447
  1362.3000      8.0316      2.4817      0.1293     10.2011     50.2508     18.1668
  1362.4000      8.0316      2.4809      0.0927     10.2505     51.4720     18.2575
  1362.5000      8.0207      2.4893      0.0978      9.7391     50.1930     18.0295
  1362.6000      8.0207      2.5063      0.1520      8.7073     49.4100     17.3632
  1362.7000      8.0207      2.5116      0.1665      8.3904     50.2699     16.3769
  1362.8000      8.0217      2.4983      0.1710      9.1949     49.9635     15.3932
  1362.9000      8.0217      2.4835      0.1046     10.0890     45.9050     14.7890
  1363.0000      8.0198      2.4871      0.0930      9.8730     44.2879     14.6402
  1363.1000      8.0198      2.5081      0.1332      8.5975     48.4872     14.7955
  1363.2000      8.0198      2.5271      0.1794      7.4455     51.0500     15.4373
  1363.3000      8.0158      2.5286      0.1475      7.3546     48.5030     16.7019
  1363.4000      8.0158      2.5155      0.1511      8.1487     46.8907     18.1496
  1363.5000      8.0153      2.5046      0.1053      8.8136     46.1485     19.0560
  1363.6000      8.0153      2.5047      0.1190      8.8085     42.7225     19.6001
  1363.7000      8.0153      2.5068      0.1313      8.6762     40.8266     20.1983
  1363.8000      8.0157      2.5042      0.1385      8.8351     44.8762     20.3788
  1363.9000      8.0157      2.4991      0.1169      9.1467     52.1900     20.2171
  1364.0000      8.0190      2.4888      0.1326      9.7700     57.1331     20.3453
  1364.1000      8.0190      2.4670      0.1751     11.0900     56.0173     20.3480
  1364.2000      8.0190      2.4436      0.0714     12.5073     51.5820     19.8358
  1364.3000      8.0234      2.4353      0.0753     13.0132     49.5949     19.5533
  1364.4000      8.0234      2.4324      0.1087     13.1883     50.1925     19.8919
  1364.5000      8.0265      2.4183      0.1345     14.0448     51.6689     20.1348
  1364.6000      8.0265      2.4041      0.0178     14.9010     54.4575     19.6490
  1364.7000      8.0265      2.4147     -0.0093     14.2615     56.8975     18.8109
  1364.8000      8.0252      2.4525      0.1063     11.9690     55.7831     18.3412
  1364.9000      8.0252      2.4956      0.1157      9.3593     51.2289     18.2551
