~Version Information
VERS.                      2.0: CWLS Log ASCII Standard - VERSION 2.0
WRAP.                       NO: One line per depth step
~Well Information Block
STRT.FT               418.4000: 
STOP.FT              1170.0000: 
STEP.FT                 0.1000: 
NULL.                -999.2500: 
COMP.          Evergreen Operating Corporation: COMPANY
WELL.             Bernice 21-3: WELL
FLD.           Purgatoire River: FIELD
LOC.           201' FNL & 2575' FWL: LOCATION
PROV.                 Colorado: PROVINCE
CNTY.               Las Animas: COUNTRY
SRVC.                Patterson: SERVICE COMPANY
DATE.          Mon Jan 26 14:55:16 2004: LOG DATE
UWI.             05 071 07912 : UNIQUE WELL ID
~Curve Information Block
DEPT.FT            0 000 00 00: Depth
DCAL.in                       : CDL Caliper
RHOB.g/cc                     : CDL Bulk Density
RHOC.g/cc                     : CDL Density Correction
DPOR.pu                       : CDL Density Porosity
NPOR.pu                       : Neutron Porosity
GR.GAPI                       : Gamma Ray
~Parameter Information Block
~A  Depth       DCAL        RHOB        RHOC        DPOR        NPOR         GR     
# ...
  1042.4000      8.0314      2.4912      0.0069      9.6240     16.6999     79.1687
  1042.5000      8.0328      2.4675     -0.0181     11.0622     17.2893     78.4889
  1042.6000      8.0328      2.4531     -0.0114     11.9335     17.5694     79.1141
  1042.7000      8.0328      2.4513     -0.0011     12.0452     17.3303     80.7444
  1042.8000      8.0347      2.4599      0.0124     11.5205     16.8773     82.3506
  1042.9000      8.0347      2.4768     -0.0016     10.4945     16.4981     84.6850
  1043.0000      8.0310      2.4973      0.0349      9.2526     16.5908     87.0117
  1043.1000      8.0310      2.5123      0.0246      8.3444     17.5321     89.2706
  1043.2000      8.0310      2.5170     -0.0011      8.0577     18.6036     89.6747
  1043.3000      8.0279      2.5124      0.0235      8.3382     18.8443     85.7588
  1043.4000      8.0279      2.5018      0.0245      8.9835     18.4449     79.2596
  1043.5000      8.0305      2.4966     -0.0144      9.2955     17.9955     73.5527
  1043.6000      8.0305      2.5029      0.0675      8.9174     17.6493     70.9912
  1043.7000      8.0305      2.5073      0.0640      8.6486     17.7255     72.9314
  1043.8000      8.0312      2.4998      0.0191      9.1053     18.6182     77.7326
  1043.9000      8.0312      2.4830      0.0010     10.1212     19.7118     80.6586
  1044.0000      8.0329      2.4670     -0.0091     11.0933     20.1176     78.9778
  1044.1000      8.0329      2.4620     -0.0076     11.3939     19.9671     75.9632
  1044.2000      8.0329      2.4652      0.0114     11.2013     19.9032     77.4092
  1044.3000      8.0298      2.4651      0.0131     11.2082     20.3001     83.7000
  1044.4000      8.0298      2.4614     -0.0184     11.4295     20.9161     87.0370
  1044.5000      8.0319      2.4660     -0.0115     11.1494     21.0106     85.0473
  1044.6000      8.0319      2.4798      0.0380     10.3161     20.4958     87.9863
  1044.7000      8.0319      2.4880      0.0237      9.8184     20.1937    100.0912
  1044.8000      8.0349      2.4804      0.0137     10.2792     20.5318    109.3869
  1044.9000      8.0349      2.4633     -0.0001     11.3122     20.9648    107.6548
  1045.0000      8.0339      2.4536      0.0017     11.9025     20.7385    101.5484
  1045.1000      8.0339      2.4551      0.0088     11.8127     19.8702     97.7739
  1045.2000      8.0339      2.4545      0.0324     11.8489     18.9563     95.1263
  1045.3000      8.0334      2.4486      0.0117     12.2090     18.2464     90.9384
  1045.4000      8.0334      2.4509      0.0112     12.0688     17.8112     87.6749
  1045.5000      8.0309      2.4590      0.0629     11.5741     18.0170     87.7057
  1045.6000      8.0309      2.4561      0.0075     11.7498     18.7800     85.7674
  1045.7000      8.0309      2.4475     -0.0123     12.2702     19.3212     79.2926
  1045.8000      8.0289      2.4484      0.0217     12.2193     19.3178     75.7026
  1045.9000      8.0289      2.4577      0.0188     11.6532     19.1298     78.4389
  1046.0000      8.0323      2.4699      0.0421     10.9123     18.8936     82.7820
  1046.1000      8.0323      2.4825      0.0202     10.1543     18.4905     86.0579
  1046.2000      8.0323      2.4928      0.0308      9.5254     18.1030     88.3158
  1046.3000      8.0335      2.5018      0.0098      8.9842     17.9388     88.7591
  1046.4000      8.0335      2.5104      0.0315      8.4623     17.9398     88.3247
  1046.5000      8.0317      2.5135      0.0183      8.2699     17.8943     87.1434
  1046.6000      8.0317      2.5055      0.0219      8.7585     17.6104     84.2046
  1046.7000      8.0317      2.4905      0.0244      9.6662     17.0735     80.6068
  1046.8000      8.0217      2.4822      0.0043     10.1712     16.6162     77.0287
  1046.9000      8.0217      2.4807      0.0464     10.2610     16.5887     75.1218
  1047.0000      8.0063      2.4694      0.0282     10.9452     16.8328     74.1430
  1047.1000      8.0063      2.4494      0.0011     12.1602     17.3106     69.3296
  1047.2000      8.0063      2.4397      0.0172     12.7485     18.1643     64.0920
  1047.3000      8.0016      2.4491     -0.0069     12.1776     18.7995     64.9757
  1047.4000      8.0016      2.4735      0.0173     10.6962     18.6986     71.3142
  1047.5000      8.0000      2.4995      0.0655      9.1220     18.4347     78.9983
  1047.6000      8.0000      2.5120      0.0352      8.3661     18.6331     82.3446
  1047.7000      8.0000      2.5060      0.0375      8.7248     19.0057     80.3022
  1047.8000      7.9858      2.4874      0.0284      9.8571     19.3261     76.8026
  1047.9000      7.9858      2.4691     -0.0002     10.9620     19.6928     72.4073
  1048.0000      7.9810      2.4562      0.0128     11.7438     19.8772     66.5520
  1048.1000      7.9810      2.4445     -0.0002     12.4515     19.7069     62.3367
  1048.2000      7.9810      2.4392     -0.0056     12.7777     19.3937     62.1864
  1048.3000      7.9806      2.4509     -0.0241     12.0657     19.3033     66.0096
  1048.4000      7.9806      2.4742      0.0302     10.6573     19.4350     70.8014
  1048.5000      7.9805      2.4901      0.0544      9.6894     19.4280     72.6928
  1048.6000      7.9805      2.4935      0.0350      9.4853     19.2400     73.0945
  1048.7000      7.9805      2.4892      0.0210      9.7452     18.9273     74.7554
  1048.8000      7.9801      2.4819      0.0061     10.1888     18.5827     77.1688
  1048.9000      7.9801      2.4731      0.0107     10.7222     18.4780     78.7302
  1049.0000      7.9811      2.4591      0.0409     11.5675     18.7003     77.9329
  1049.1000      7.9811      2.4435      0.0068     12.5157     19.1185     76.6818
  1049.2000      7.9811      2.4431     -0.0211     12.5377     19.6379     78.2442
  1049.3000      7.9679      2.4642      0.0099     11.2579     20.0231     81.5529
  1049.4000      7.9679      2.4898      0.0241      9.7105     19.8508     82.1086
  1049.5000      7.9688      2.5042      0.0453      8.8369     19.3145     78.2455
  1049.6000      7.9688      2.5080      0.0484      8.6057     19.1846     72.2045
  1049.7000      7.9688      2.5112      0.0284      8.4116     19.4773     64.8848
  1049.8000      7.9614      2.5236      0.0313      7.6624     19.7429     57.8921
  1049.9000      7.9614      2.5429      0.0552      6.4883     19.9732     56.9475
  1050.0000      7.9202      2.5555      0.0660      5.7251     20.2086     64.2657
  1050.1000      7.9202      2.5482      0.0534      6.1695     20.3840     72.7631
  1050.2000      7.9202      2.5185      0.0266      7.9673     20.3057     77.0350
  1050.3000      7.9577      2.4788      0.0191     10.3736     19.9933     79.0428
  1050.4000      7.9577      2.4495     -0.0177     12.1506     19.8595     79.5748
  1050.5000      7.9657      2.4409      0.0027     12.6731     20.0705     78.9435
  1050.6000      7.9657      2.4464      0.0140     12.3375     20.1998     78.1771
  1050.7000      7.9657      2.4576      0.0417     11.6590     20.0642     78.9640
  1050.8000      7.9874      2.4715      0.0409     10.8177     20.1372     80.9338
  1050.9000      7.9874      2.4868      0.0504      9.8891     20.3279     80.8694
  1051.0000      7.9991      2.5000      0.0485      9.0885     20.1305     79.2868
  1051.1000      7.9991      2.5048      0.0568      8.8003     19.7715     79.4093
  1051.2000      7.9991      2.4956      0.0519      9.3593     19.5497     82.1411
  1051.3000      8.0016      2.4776     -0.0070     10.4475     19.4995     86.8574
  1051.4000      8.0016      2.4602      0.0230     11.5050     19.7245     89.8216
  1051.5000      8.0002      2.4449     -0.0021     12.4313     20.0435     87.8470
  1051.6000      8.0002      2.4328      0.0046     13.1642     19.9100     83.6426
  1051.7000      8.0002      2.4241      0.0115     13.6892     19.3280     81.7047
  1051.8000      7.9999      2.4206      0.0257     13.9012     18.8837     84.3026
  1051.9000      7.9999      2.4278      0.0056     13.4674     18.7397     91.6808
