~Version Information
VERS.                      2.0: CWLS Log ASCII Standard - VERSION 2.0
WRAP.                       NO: One line per depth step
~Well Information Block
STRT.FT                -7.0000: 
STOP.FT               867.2500: 
STEP.FT                 0.2500: 
NULL.                -999.2500: 
COMP.          Pioneer Natural Resources: COMPANY
WELL.          Claim Jumper 41-22: WELL
FLD.           Purgatorie River: FIELD
LOC.           1120' FNL & 977' FEL--: LOCATION
PROV.                       CO: PROVINCE
CNTY.               Las Animas: COUNTRY
SRVC.          Patterson Wireline: SERVICE COMPANY
DATE.          Mon Jun 27 12:47:30 2005: LOG DATE
UWI.           05 071 08405 00: UNIQUE WELL ID
~Curve Information Block
DEPT.FT            0 000 00 00: Depth
CCL.                          : Casing Collar Locator
TT3.usec                      : CBL 3' Travel Time
AMP3.mV                       : CBL 3' Amplitude
GR.GAPI                       : Gamma Ray
~Parameter Information Block
~A  Depth       CCL         TT3         AMP3         GR     
# ...
   227.5000      0.0000    764.0839      7.1914     65.1756
   227.7500      0.0000    753.7806      7.3216     68.9699
   228.0000      0.0000    743.1556      7.4347     72.0824
   228.2500      0.0000    735.8451      7.5359     73.1401
   228.5000      0.0000    737.4637      7.6302     71.6437
   228.7500      0.0000    749.2030      7.7140     68.2785
   229.0000      0.0000    765.0913      7.7806     64.2452
   229.2500      0.0000    775.7077      7.8315     60.4881
   229.5000      0.0000    775.2625      7.8764     57.5118
   229.7500      0.0000    765.5402      7.9261     55.6375
   230.0000      0.0000    753.0894      7.9838     55.1407
   230.2500      0.0000    743.9570      8.0409     56.0043
   230.5000      0.0000    742.0883      8.0836     57.5866
   230.7500      0.0000    750.2241      8.1054     58.7676
   231.0000      0.0000    768.4396      8.1109     58.7138
   231.2500      0.0000    791.4487      8.1067     57.5840
   231.5000      0.0000    809.7285      8.0962     56.3190
   231.7500      0.0000    814.3103      8.0820     55.5336
   232.0000      0.0000    801.1656      8.0686     54.7786
   232.2500      0.0000    773.3898      8.0629     53.2471
   232.5000      0.0000    740.2914      8.0702     51.1488
   232.7500      0.0000    711.9017      8.0886     49.9692
   233.0000      0.0000    692.4305      8.1036     51.1335
   233.2500      0.0000    681.0783      8.0917     54.5170
   233.5000      0.0000    678.6725      8.0370     58.3767
   233.7500      0.0000    687.6722      7.9457     60.7340
   234.0000      0.0000    704.6470      7.8424     60.8583
   234.2500      0.0000    719.3914      7.7437     59.6074
   234.5000      0.0000    724.0260      7.6384     58.5544
   234.7500      0.0000    719.1035      7.5005     58.6974
   235.0000      0.0000    709.2822      7.3217     59.6462
   235.2500      0.0000    696.6966      7.1247     59.9842
   235.5000      0.0000    681.7260      6.9458     58.6569
   235.7500      0.0000    668.6887      6.8121     56.0068
   236.0000      0.0000    665.8448      6.7322     53.3159
   236.2500      0.0000    676.3938      6.7001     51.4693
   236.5000      0.0000    690.9865      6.7025     50.3270
   236.7500      0.0000    692.3341      6.7303     49.3154
   237.0000      0.0000    667.9179      6.7812     48.3185
   237.2500      0.0000    619.4042      6.8523     47.8866
   237.5000      0.0000    561.7434      6.9324     48.6198
   237.7500      0.0000    512.4219      7.0065     50.4057
   238.0000      0.0000    479.1526      7.0716     52.4029
   238.2500      0.0000    457.3342      7.1446     53.8764
   238.5000      0.0000    438.7517      7.2524     54.8663
   238.7500      0.0000    420.4311      7.4080     55.8729
   239.0000      0.0000    404.6125      7.5994     57.0501
   239.2500      0.0000    393.3793      7.7983     57.8980
   239.5000      0.0000    385.7820      7.9800     57.6955
   239.7500      0.0000    379.3331      8.1324     56.1129
   240.0000      0.0000    372.6117      8.2538     53.4502
   240.2500      0.0000    366.2566      8.3462     50.3963
   240.5000      0.0000    361.9005      8.4097     47.6425
   240.7500      0.0000    360.6253      8.4430     45.7189
   241.0000      0.0000    362.8846      8.4491     45.1762
   241.2500      0.0000    370.0338      8.4397     46.7474
   241.5000      0.0000    384.9354      8.4330     50.9256
   241.7500      0.0000    409.6734      8.4443     57.1038
   242.0000      0.0000    442.0399      8.4816     63.3627
   242.2500      0.0000    474.7206      8.5501     67.5947
   242.5000      0.0000    498.5445      8.6582     69.0024
   242.7500      0.0000    506.8033      8.8113     68.3596
   243.0000      0.0000    497.5317      8.9973     67.0511
   243.2500      0.0000    473.9480      9.1846     66.2575
   243.5000      0.0000    443.4608      9.3388     66.6786
   243.7500      0.0000    414.2365      9.4431     68.2070
   244.0000      0.0000    390.9989      9.5037     69.7980
   244.2500      0.0000    374.1091      9.5396     70.1542
   244.5000      0.0000    362.2855      9.5666     68.6647
   244.7500      0.0000    355.2943      9.5832     65.5724
   245.0000      0.0000    354.4348      9.5676     61.5729
   245.2500      0.0000    362.0776      9.4905     57.6745
   245.5000      0.0000    381.3167      9.3380     55.1441
   245.7500      0.0000    414.9170      9.1266     54.8380
   246.0000      0.0000    463.1064      8.8955     56.3981
   246.2500      0.0000    521.6638      8.6798     58.3912
   246.5000      0.0000    582.7403      8.4758     59.3804
   246.7500      0.0000    638.4852      8.2357     58.7979
   247.0000      0.0000    684.5507      7.9232     56.8898
   247.2500      0.0000    720.2934      7.5870     54.1367
   247.5000      0.0000    746.3706      7.3470     50.9895
   247.7500      0.0000    763.4308      7.2896     48.0633
   248.0000      0.0000    773.0911      7.3956     46.1341
   248.2500      2.0000    778.2000      7.5802     45.5279
   248.5000      2.0000    780.7070      7.7803     45.5334
   248.7500      0.0000    779.7904      8.0018     44.8723
   249.0000      0.0000    772.5855      8.3042     43.0113
   249.2500      0.0000    756.2416      8.7285     40.7202
   249.5000      0.0000    728.9411      9.2164     39.1566
   249.7500      0.0000    690.8272      9.6179     38.8829
   250.0000      0.0000    645.6907      9.8220     40.0483
   250.2500      0.0000    600.7322      9.8595     42.8351
   250.5000      0.0000    563.7152      9.8393     47.0742
   250.7500      0.0000    541.1949      9.8215     51.7898
   251.0000      0.0000    538.8718      9.7954     55.8190
   251.2500      0.0000    559.2014      9.7441     58.8481
   251.5000      0.0000    596.3076      9.6789     61.3808
   251.7500      0.0000    636.6088      9.6199     63.8214
   252.0000      0.0000    667.6584      9.5699     66.2203
   252.2500      0.0000    685.4668      9.5153     68.9438
   252.5000      0.0000    693.2956      9.4434     72.7976
   252.7500      0.0000    696.1215      9.3608     78.0769
   253.0000      0.0000    697.1971      9.2939     83.8418
   253.2500      0.0000    697.8770      9.2731     88.4754
   253.5000      0.0000    698.5320      9.3119     91.0542
   253.7500      0.0000    699.2713      9.3993     92.2454
   254.0000      0.0000    700.2514      9.5093     93.6651
   254.2500      0.0000    701.8243      9.6142     95.9611
   254.5000      0.0000    704.5400      9.6893     97.6409
   254.7500      0.0000    708.6722      9.7138     96.3320
   255.0000      0.0000    713.3898      9.6736     91.1981
   255.2500      0.0000    716.6253      9.5653     83.7104
   255.5000      0.0000    716.4857      9.3991     76.3289
   255.7500      0.0000    713.0469      9.2018     70.9713
   256.0000      0.0000    708.4606      9.0167     68.5889
   256.2500      0.0000    705.4067      8.8902     69.4522
   256.5000      0.0000    706.0023      8.8480     73.2265
   256.7500      0.0000    711.9816      8.8849     78.7260
   257.0000      0.0000    724.6226      8.9743     84.0952
   257.2500      0.0000    743.3693      9.0852     87.8603
   257.5000      0.0000    764.8265      9.1919     90.0554
   257.7500      0.0000    784.3364      9.2785     92.2513
   258.0000      0.0000    799.2150      9.3430     96.2113
   258.2500      0.0000    810.1873      9.3966    102.2053
   258.5000      0.0000    819.5297      9.4573    108.5294
   258.7500      0.0000    827.9161      9.5436    112.8233
   259.0000      0.0000    833.3580      9.6682    113.9726
   259.2500      0.0000    833.6981      9.8288    112.7563
   259.5000      0.0000    829.9285     10.0007    110.7506
   259.7500      0.0000    825.3221     10.1439    108.7402
   260.0000      0.0000    820.3659     10.2298    106.2858
   260.2500      0.0000    810.6996     10.2658    102.6592
   260.5000      0.0000    792.3635     10.2866     98.0035
   260.7500      0.0000    767.8497     10.3226     93.3849
