~Version Information
VERS.                      2.0: CWLS Log ASCII Standard - VERSION 2.0
WRAP.                       NO: One line per depth step
~Well Information Block
STRT.FT                -6.0000: 
STOP.FT              2490.5000: 
STEP.FT                 0.2500: 
NULL.                -999.2500: 
COMP.          Pioneer Natural Resources: COMPANY
WELL.          Aztec Federal 41-15: WELL
FLD.           Purgatorie River: FIELD
LOC.           706' FNL & 1253' FEL--: LOCATION
CNTY.               Las Animas: COUNTY
SRVC.          Superior Well Services: SERVICE COMPANY
DATE.          Wed May 28 14-18-16 2008: LOG DATE
UWI.           05 071 08342 00: UNIQUE WELL ID
STAT.                       CO: STATE
~Curve Information Block
DEPT.FT            0 000 00 00: Depth
GR.GAPI                       : Gamma Ray
CCL.                          : Casing Collar Locator
AMP3FT.mV                     : AMP3FT Amplitude
TT3FT.usec                    : 3FT Travel Time
AMP5FT.mV                     : AMP5FT Amplitude
~Parameter Information Block
~A  Depth        GR         CCL        AMP3FT      TT3FT       AMP5FT   
# ...
   806.0000    121.4469      0.0000     13.1123    337.7939      5.4184
   806.2500    123.7657      0.0000     12.9381    338.0628      5.3727
   806.5000    128.9506      0.0000     12.7135    338.4008      5.3443
   806.7500    135.0064      0.0000     12.4407    338.8091      5.3297
   807.0000    139.9005      0.0000     12.1556    339.2426      5.3282
   807.2500    142.7070      0.0000     11.9250    339.5985      5.3339
   807.5000    143.8060      0.0000     11.8063    339.7754      5.3399
   807.7500    144.3656      0.0000     11.8043    339.7599      5.3482
   808.0000    145.1405      0.0000     11.8738    339.6429      5.3668
   808.2500    145.2997      0.0000     11.9682    339.5366      5.3964
   808.5000    142.6851      0.0000     12.0827    339.4717      5.4285
   808.7500    135.7157      0.0000     12.2465    339.3857      5.4566
   809.0000    125.3032      0.0000     12.4756    339.2099      5.4847
   809.2500    114.9099      0.0000     12.7387    338.9552      5.5238
   809.5000    108.5083      0.0000     12.9748    338.7024      5.5819
   809.7500    108.1228      0.0000     13.1494    338.5171      5.6554
   810.0000    112.9777      0.0000     13.2871    338.3871      5.7289
   810.2500    120.5489      0.0000     13.4384    338.2454      5.7836
   810.5000    128.0925      0.0000     13.6129    338.0498      5.8089
   810.7500    133.5970      0.0000     13.7553    337.8372      5.8082
   811.0000    136.2234      0.0000     13.7941    337.6938      5.7979
   811.2500    136.2727      0.0000     13.7097    337.6751      5.7963
   811.5000    134.6451      0.0000     13.5539    337.7572      5.8076
   811.7500    132.3721      0.0000     13.4065    337.8610      5.8173
   812.0000    130.4519      0.0000     13.3169    337.9153      5.8088
   812.2500    129.4215      0.0000     13.2835    337.8951      5.7824
   812.5000    128.8135      0.0000     13.2769    337.8167      5.7544
   812.7500    127.5406      0.0000     13.2744    337.7181      5.7403
   813.0000    125.1102      0.0000     13.2704    337.6450      5.7443
   813.2500    122.2031      0.0000     13.2688    337.6370      5.7631
   813.5000    119.9118      0.0000     13.2728    337.7075      5.7922
   813.7500    118.6437      0.0000     13.2835    337.8347      5.8254
   814.0000    117.9188      0.0000     13.3024    337.9740      5.8539
   814.2500    117.0690      0.0000     13.3337    338.0821      5.8696
   814.5000    115.9292      0.0000     13.3804    338.1335      5.8693
   814.7500    114.7701      0.0000     13.4383    338.1234      5.8572
   815.0000    113.7670      0.0000     13.4936    338.0634      5.8446
   815.2500    112.8139      0.0000     13.5295    337.9828      5.8438
   815.5000    111.9570      0.0000     13.5362    337.9297      5.8577
   815.7500    111.7337      0.0000     13.5152    337.9574      5.8742
   816.0000    112.6280      0.0000     13.4729    338.0923      5.8764
   816.2500    114.1914      0.0000     13.4142    338.3055      5.8603
   816.5000    115.1283      0.0000     13.3457    338.5207      5.8380
   816.7500    114.3617      0.0000     13.2821    338.6613      5.8205
   817.0000    111.7682      0.0000     13.2450    338.6964      5.8017
   817.2500    107.9802      0.0000     13.2492    338.6477      5.7655
   817.5000    103.8508      0.0000     13.2866    338.5638      5.7054
   817.7500    100.1674      0.0000     13.3252    338.4937      5.6311
   818.0000     97.4712      0.0000     13.3272    338.4786      5.5578
   818.2500     95.7930      0.0000     13.2714    338.5482      5.4943
   818.5000     94.6868      0.0000     13.1642    338.7103      5.4427
   818.7500     93.7746      0.0000     13.0327    338.9449      5.4012
   819.0000     93.1476      0.0000     12.9061    339.2148      5.3637
   819.2500     93.0300      0.0000     12.7985    339.4881      5.3194
   819.5000     93.2307      0.0000     12.7077    339.7708      5.2621
   819.7500     93.1805      0.0000     12.6262    340.1366      5.2037
   820.0000     92.5936      0.0000     12.5454    340.9420      5.1747
   820.2500     92.0683      0.0000     12.4511    343.2680      5.1978
   820.5000     92.8932      0.0000     12.3212    349.4997      5.2524
   820.7500     96.0166      0.0000     12.1453    362.9447      5.2772
   821.0000    101.0375      0.0000     11.9482    385.3371      5.2298
   821.2500    106.1898      0.0000     11.7686    413.5554      5.1340
   821.5000    109.4491      0.0000     11.5965    439.5820      5.0485
   821.7500    109.9186      0.0000     11.3693    454.9927      4.9973
   822.0000    108.2393      0.0000     11.0711    455.6250      4.9539
   822.2500    105.5971      0.0000     10.7941    442.6342      4.8868
   822.5000    102.4529      0.0000     10.6545    420.9388      4.8008
   822.7500     98.4735      0.0000     10.6813    396.9280      4.7278
   823.0000     93.6753     -1.2207     10.8240    376.0215      4.6921
   823.2500     89.2634      0.0000     11.0339    361.0145      4.6949
   823.5000     86.8574      0.0000     11.3120    351.9950      4.7230
   823.7500     86.8568      0.0000     11.6919    347.3971      4.7616
   824.0000     88.0730      0.0000     12.1774    345.2478      4.8037
   824.2500     89.1848      0.0000     12.6767    343.9582      4.8573
   824.5000     90.0974      0.0000     13.0235    342.6804      4.9475
   824.7500     91.6120      0.0000     13.1153    341.2530      5.1010
   825.0000     94.3020      0.0000     13.0102    339.9153      5.3161
   825.2500     98.0205      0.0000     12.8455    338.9341      5.5455
   825.5000    101.9343      0.0000     12.7000    338.3889      5.7258
   825.7500    104.6049      0.0000     12.5767    338.1876      5.8366
   826.0000    104.5590      0.0000     12.4744    338.1782      5.9144
   826.2500    101.3170      0.0000     12.4246    338.2364      5.9991
   826.5000     95.8310      0.0000     12.4654    338.2889      6.0883
   826.7500     90.0466      0.0000     12.5995    338.3023      6.1531
   827.0000     86.1890      0.0000     12.7858    338.2742      6.1753
   827.2500     85.8030      0.0000     12.9644    338.2289      6.1608
   827.5000     88.9127      0.0000     13.0902    338.1997      6.1304
   827.7500     94.4066      0.0000     13.1452    338.2069      6.1056
   828.0000    101.3309      0.0000     13.1307    338.2537      6.0943
   828.2500    109.2392      0.0000     13.0561    338.3370      6.0852
   828.5000    117.1532      0.0000     12.9384    338.4542      6.0556
   828.7500    122.9276      0.0000     12.8086    338.5940      5.9903
   829.0000    124.3541      0.0000     12.7121    338.7281      5.8945
   829.2500    120.9331      0.0000     12.6934    338.8210      5.7904
   829.5000    114.4067      0.0000     12.7693    338.8523      5.7029
   829.7500    107.7047      0.0000     12.9153    338.8185      5.6429
   830.0000    103.6088      0.0000     13.0828    338.7044      5.6028
   830.2500    104.0566      0.0000     13.2311    338.4755      5.5653
   830.5000    109.6940      0.0000     13.3390    338.1216      5.5158
   830.7500    119.5017      0.0000     13.3953    337.7039      5.4498
   831.0000    131.2823      0.0000     13.3922    337.3339      5.3773
   831.2500    142.8804      0.0000     13.3326    337.1009      5.3225
   831.5000    152.6849      0.0000     13.2346    337.0172      5.3106
   831.7500    159.2766      0.0000     13.1260    337.0220      5.3430
   832.0000    161.6295      0.0000     13.0337    337.0324      5.3913
   832.2500    159.7944      0.0000     12.9695    337.0047      5.4197
   832.5000    154.7101      0.0000     12.9171    336.9639      5.4135
   832.7500    147.6080      0.0000     12.8359    336.9799      5.3834
   833.0000    140.2609      0.0000     12.6905    337.1143      5.3477
   833.2500    135.2181      0.0000     12.4794    337.3806      5.3175
   833.5000    134.5630      0.0000     12.2352    337.7408      5.2945
   833.7500    138.0665      0.0000     11.9981    338.1305      5.2752
