~Version Information
VERS.                      2.0: CWLS Log ASCII Standard - VERSION 2.0
WRAP.                       NO: One line per depth step
~Well Information Block
STRT.FT                -9.5000: 
STOP.FT              1862.5000: 
STEP.FT                 0.2500: 
NULL.                -999.2500: 
COMP.          Petrogulf Corporation: COMPANY
WELL.             State 16-34R: WELL
FLD.           Purgatoire River: FIELD
LOC.           1095' FSL & 1498' FEL--: LOCATION
CNTY.               Las Animas: COUNTY
SRVC.                         : SERVICE COMPANY
DATE.          Mon May 10 14:56:57 2004: LOG DATE
UWI.                          : UNIQUE WELL ID
STAT.                       CO: STATE
~Curve Information Block
DEPT.FT            0 000 00 00: Depth
GR.GAPI                       : Gamma Ray
CCL.                          : Casing Collar Locator
TT3.usec                      : CBL 3' Travel Time
AMP3.mV                       : CBL 3' Amplitude
~Parameter Information Block
~A  Depth        GR         CCL         TT3         AMP3    
# ...
  1464.5000    172.4180      0.0000    702.6484     20.4553
  1464.7500    172.6356      0.0000    735.4563     18.8830
  1465.0000    174.7577      0.0000    745.6771     17.3913
  1465.2500    178.5780      0.0000    746.6833     15.7772
  1465.5000    182.3882      0.0000    743.5947     14.0149
  1465.7500    183.3493      0.0000    737.3998     12.3306
  1466.0000    179.3083      0.0000    729.2681     10.9412
  1466.2500    170.4863      0.0000    719.8757      9.8742
  1466.5000    159.4897      0.0000    710.8710      9.0622
  1466.7500    149.8540      0.0000    708.9909      8.4743
  1467.0000    144.4589      0.0000    720.0944      8.0920
  1467.2500    144.4440      0.0000    739.1481      7.8773
  1467.5000    148.6796      0.0000    754.2853      7.8037
  1467.7500    154.3421      0.0000    759.5386      7.7889
  1468.0000    158.5641      0.0000    757.2511      7.6986
  1468.2500    159.6916      0.0000    752.5802      7.5762
  1468.5000    157.3173      0.0000    758.8839      7.6703
  1468.7500    151.9701      0.0000    802.7458      8.1303
  1469.0000    145.0847      0.0000    898.2476      8.8671
  1469.2500    138.6251      0.0000   1006.3179      9.7173
  1469.5000    134.0805      0.0000   1048.9236     10.5966
  1469.7500    131.6977      0.0000    995.5052     11.4771
  1470.0000    130.6808      0.0000    900.8819     12.3357
  1470.2500    129.8740      0.0000    829.5981     13.2325
  1470.5000    128.1902      0.0000    793.1508     14.3357
  1470.7500    124.8892      0.0000    771.2773     15.7394
  1471.0000    120.1704      0.0000    746.3880     17.3550
  1471.2500    115.6661      0.0000    710.8809     19.0758
  1471.5000    113.7074      0.0000    670.5483     20.8651
  1471.7500    115.2857      0.0000    646.6613     22.4940
  1472.0000    118.5492      0.0000    653.8003     23.4502
  1472.2500    119.6717      0.0000    680.2570     23.3977
  1472.5000    115.5594      0.0000    705.8918     22.5347
  1472.7500    106.0157      0.0000    723.2839     21.3110
  1473.0000     93.7167      0.0000    734.6383     19.9499
  1473.2500     82.3499      0.0000    742.1370     18.4119
  1473.5000     74.5254      0.0000    746.2599     16.7385
  1473.7500     70.8368      0.0000    747.8256     15.2017
  1474.0000     70.5380      0.0000    748.2191     14.0565
  1474.2500     72.9604      0.0000    748.7131     13.3197
  1474.5000     78.0890      0.0000    750.1866     12.8603
  1474.7500     85.7436      0.0000    753.2377     12.5733
  1475.0000     94.6676      0.0000    756.9830     12.3738
  1475.2500    102.7523      0.0000    757.6826     12.1632
  1475.5000    108.0108      0.0000    752.5676     11.9266
  1475.7500    109.3756      0.0000    745.5617     11.7740
  1476.0000    107.0825      0.0000    745.6802     11.8022
  1476.2500    102.5137      0.0000    758.8924     11.9860
  1476.5000     97.3510      0.0000    782.0246     12.2610
  1476.7500     92.7313      0.0000    802.9018     12.5974
  1477.0000     89.2349      0.0000    806.9574     12.9619
  1477.2500     87.3801      0.0000    792.1382     13.3229
  1477.5000     87.7934      0.0000    774.2654     13.6420
  1477.7500     90.9923      0.0000    767.5244     13.8141
  1478.0000     97.2744      0.0000    768.9980     13.7555
  1478.2500    106.6227      0.0000    768.0939     13.5448
  1478.5000    118.3907      0.0000    761.5125     13.3433
  1478.7500    131.1976      0.0000    754.0697     13.2264
  1479.0000    143.3170      0.0000    749.9450     13.1632
  1479.2500    152.9812      0.0000    748.8363     13.1097
  1479.5000    158.2312      0.0000    748.7006     13.0928
  1479.7500    157.0329      0.0000    748.4131     13.2006
  1480.0000    148.4314      0.0000    748.0635     13.4811
  1480.2500    133.8605      0.0000    747.9910     13.9056
  1480.5000    116.8426      0.0000    748.0394     14.4108
  1480.7500    101.0114      0.0000    747.5785     14.9200
  1481.0000     88.4155      0.0000    745.6479     15.3142
  1481.2500     79.5476      0.0000    741.0309     15.4547
  1481.5000     74.2393      0.0000    733.8260     15.3335
  1481.7500     72.0166      0.0000    727.9796     15.1061
  1482.0000     72.1523      0.0000    728.6724     14.9192
  1482.2500     74.1992      0.0000    735.4114     14.8145
  1482.5000     78.5291      0.0000    742.4866     14.7182
  1482.7500     86.0526      0.0000    746.3010     14.4259
  1483.0000     97.3648      0.0000    747.5551     13.7504
  1483.2500    112.2357      0.0000    747.9828     12.7362
  1483.5000    129.4917      0.0000    748.4159     11.6434
  1483.7500    146.8463      0.0000    749.0314     10.7791
  1484.0000    160.9520      0.0000    749.8499     10.3373
  1484.2500    168.3579      0.0000    750.7009     10.2670
  1484.5000    167.2654      0.0000    751.0503     10.3056
  1484.7500    158.7487      0.0000    750.6666     10.2587
  1485.0000    146.0835      0.0000    750.5853     10.1834
  1485.2500    132.6016      0.0000    752.5526     10.2222
  1485.5000    120.0546      0.0000    756.4211     10.4017
  1485.7500    108.6993      0.0000    758.6902     10.6141
  1486.0000     98.4896      0.0000    756.5745     10.7104
  1486.2500     90.1137      0.0000    752.1180     10.6678
  1486.5000     85.1345      0.0000    748.8212     10.6368
  1486.7500     85.2443      0.0000    747.4086     10.7318
  1487.0000     91.2096      0.0000    746.7407     10.8892
  1487.2500    102.2469      0.0000    745.6860     10.9925
  1487.5000    116.2091      0.0000    743.6726     10.9801
  1487.7500    130.5474      0.0000    742.6476     10.8077
  1488.0000    143.5013      0.0000    749.2103     10.4031
  1488.2500    154.3338      0.0000    769.0958      9.7301
  1488.5000    162.1557      0.0000    795.3758      8.9849
  1488.7500    165.0430      0.0000    808.5182      8.5145
  1489.0000    161.1701      0.0000    795.5706      8.3112
  1489.2500    150.6561      0.0000    761.7133      8.0413
  1489.5000    135.7725      0.0000    717.5942      7.6319
  1489.7500    119.6875     -3.7271    673.2056      7.2483
  1490.0000    105.3756      0.0000    646.5535      6.9426
  1490.2500     94.9270      0.0000    648.3115      6.6875
  1490.5000     88.9081      0.0000    655.7307      6.5199
  1490.7500     86.2965      0.0000    638.4570      6.5315
  1491.0000     85.3603      0.0000    610.1828      6.8066
  1491.2500     84.8061      0.0000    612.9620      7.3713
  1491.5000     84.2329      0.0000    651.2060      8.0452
  1491.7500     83.6510      0.0000    687.6326      8.4144
  1492.0000     82.9447      0.0000    701.4976      8.2863
  1492.2500     81.9677      0.0000    704.3773      7.9579
  1492.5000     80.7274      0.0000    708.5220      7.7470
  1492.7500     79.1293      0.0000    712.4677      7.6632
  1493.0000     76.9483      0.0000    706.9642      7.5826
  1493.2500     74.3679      0.0000    684.1644      7.4182
  1493.5000     72.1260      0.0000    652.9582      7.1913
  1493.7500     70.8208      0.0000    641.8350      6.9962
  1494.0000     70.3781      0.0000    665.0914      6.8683
  1494.2500     70.3462      0.0000    697.7595      6.7690
  1494.5000     70.4042      0.0000    705.3158      6.6767
  1494.7500     70.4703      0.0000    678.3859      6.6016
  1495.0000     70.5565      0.0000    634.8054      6.5423
  1495.2500     70.6779      0.0000    602.8933      6.4765
  1495.5000     70.8070      0.0000    594.2139      6.4042
  1495.7500     70.7609      0.0000    590.5978      6.3575
  1496.0000     70.1422      0.0000    569.6602      6.3439
  1496.2500     68.7000      0.0000    536.4862      6.3385
  1496.5000     67.1034      0.0000    515.4229      6.3399
  1496.7500     67.0908      0.0000    520.9984      6.3670
  1497.0000     70.0826      0.0000    550.7998      6.4004
  1497.2500     75.4095      0.0000    595.6161      6.3850
  1497.5000     80.3724      0.0000    642.3757      6.3210
  1497.7500     82.3535      0.0000    676.6378      6.2831
