~Version Information
VERS.                      2.0: CWLS Log ASCII Standard - VERSION 2.0
WRAP.                       NO: One line per depth step
~Well Information Block
STRT.FT                15.0000: 
STOP.FT              2265.2500: 
STEP.FT                 0.2500: 
NULL.                -999.2500: 
COMP.          Pioneer Natural Resources: COMPANY
WELL.             Vector 33-23: WELL
FLD.           Purgatoire River: FIELD
LOC.           1988' FSL & 1560' FEL: LOCATION
PROV.                 Colorado: PROVINCE
CNTY.               Las Animas: COUNTRY
SRVC.                Patterson: SERVICE COMPANY
DATE.          Fri Apr 01 13:14:24 2005: LOG DATE
UWI.           05 071 08336 00: UNIQUE WELL ID
~Curve Information Block
DEPT.FT            0 000 00 00: Depth
GR.GAPI                       : Gamma Ray
CCL.                          : Casing Collar Locator
TT3.usec                      : CBL 3' Travel Time
AMP3.mV                       : CBL 3' Amplitude
AMP5.mV                       : CBL 5' Amplitude
~Parameter Information Block
~A  Depth        GR         CCL         TT3         AMP3        AMP5    
# ...
   463.0000     49.7355      0.0000   1350.0000     24.2010      5.0775
   463.2500     50.1069      0.0000   1350.0000     24.2197      5.6972
   463.5000     51.6894      0.0000   1350.0000     24.2061      6.0535
   463.7500     53.0281      0.0000   1350.0000     24.2730      6.1871
   464.0000     53.2189      0.0000   1350.0000     24.4833      6.2402
   464.2500     52.5557      0.0000   1350.0000     24.8661      6.3233
   464.5000     52.1301      0.0000   1350.0000     25.4211      6.4619
   464.7500     52.8512      0.0000   1350.0000     26.1334      6.6276
   465.0000     54.7661      0.0000   1350.0000     26.9860      6.7838
   465.2500     57.1529      0.0000   1350.0000     27.9509      6.9105
   465.5000     59.0976      0.0000   1350.0000     28.9622      7.0047
   465.7500     59.8761      0.0000   1350.0000     29.9161      7.0729
   466.0000     58.9812      0.0000   1350.0000     30.7171      7.1247
   466.2500     56.2945      0.0000   1350.0000     31.3277      7.1688
   466.5000     52.5260      0.0000   1350.0000     31.7725      7.2122
   466.7500     49.1982      0.0000   1350.0000     32.0969      7.2610
   467.0000     47.6673      0.0000   1350.0000     32.3305      7.3245
   467.2500     48.0024      0.0000   1350.0000     32.4803      7.4139
   467.5000     49.0205      0.0000   1350.0000     32.5563      7.5385
   467.7500     49.5061      0.0000   1350.0000     32.5953      7.6993
   468.0000     49.2089      0.0000   1350.0000     32.6436      7.8861
   468.2500     48.7081      0.0000   1350.0000     32.7100      8.0803
   468.5000     48.6636      0.0000   1350.0000     32.7568      8.2615
   468.7500     49.3319      0.0000   1350.0000     32.7518      8.4137
   469.0000     50.4904      0.0000   1350.0000     32.7145      8.5269
   469.2500     51.5599      0.0000   1350.0000     32.6974      8.5921
   469.5000     51.9013      0.0000   1350.0000     32.7413      8.6009
   469.7500     51.2261      0.0000   1350.0000     32.8612      8.5544
   470.0000     49.8473      0.0000   1350.0000     33.0588      8.4704
   470.2500     48.4988      0.0000   1350.0000     33.3325      8.3784
   470.5000     47.7823      0.0000   1350.0000     33.6863      8.3049
   470.7500     47.7590      0.0000   1350.0000     34.1337      8.2643
   471.0000     48.1405      0.0000   1350.0000     34.6776      8.2569
   471.2500     48.7673      0.0000   1350.0000     35.2779      8.2735
   471.5000     49.6844      0.0000   1350.0000     35.8513      8.3038
   471.7500     50.9278      0.0000   1350.0000     36.3134      8.3438
   472.0000     52.5539      0.0000   1350.0000     36.6088      8.3950
   472.2500     54.7131      0.0000   1350.0000     36.6969      8.4557
   472.5000     57.3096      0.0000   1350.0000     36.5352      8.5136
   472.7500     59.8022      0.0000   1350.0000     36.1086      8.5510
   473.0000     61.7627      0.0000   1350.0000     35.4663      8.5518
   473.2500     63.6025      0.0000   1350.0000     34.7072      8.5039
   473.5000     66.3995      0.0000   1350.0000     33.9263      8.4017
   473.7500     70.7640      0.0000   1350.0000     33.1734      8.2531
   474.0000     75.8657      0.0000   1350.0000     32.4448      8.0822
   474.2500     79.8327      0.0000   1350.0000     31.7087      7.9175
   474.5000     81.3898      0.0000   1350.0000     30.9561      7.7794
   474.7500     81.0468      0.0000   1350.0000     30.2439      7.6783
   475.0000     80.4316      0.0000   1350.0000     29.6722      7.6167
   475.2500     80.5128      0.0000   1350.0000     29.3074      7.5915
   475.5000     80.7096      0.0000   1350.0000     29.1411      7.5981
   475.7500     79.7925      0.0000   1350.0000     29.1304      7.6373
   476.0000     77.4012      0.0000   1350.0000     29.2560      7.7111
   476.2500     74.4452      0.0000   1350.0000     29.5262      7.8046
   476.5000     72.2182      0.0000   1350.0000     29.9450      7.8807
   476.7500     71.4377      0.0000   1350.0000     30.4939      7.9042
   477.0000     71.8556      0.0000   1350.0000     31.1256      7.8701
   477.2500     72.3858      0.0000   1350.0000     31.7517      7.8013
   477.5000     71.7863      0.0000   1350.0000     32.2504      7.7222
   477.7500     69.6353      0.0000   1350.0000     32.5254      7.6391
   478.0000     66.7186      0.0000   1350.0000     32.5671      7.5479
   478.2500     64.4514      0.0000   1350.0000     32.4409      7.4550
   478.5000     63.9785      0.0000   1350.0000     32.2122      7.3855
   478.7500     65.7179      0.0000   1350.0000     31.8937      7.3647
   479.0000     69.4004      0.0000   1350.0000     31.4685      7.3927
   479.2500     74.2254      0.0000   1350.0000     30.9540      7.4403
   479.5000     78.9055      0.0000   1350.0000     30.4180      7.4700
   479.7500     81.8217      0.0000   1350.0000     29.9060      7.4596
   480.0000     81.5965      0.0000   1350.0000     29.3614      7.4079
   480.2500     77.9024      0.0000   1350.0000     28.6535      7.3269
   480.5000     71.8104      0.0000   1350.0000     27.7134      7.2288
   480.7500     65.1465      0.0000   1350.0000     26.6358      7.1175
   481.0000     59.2915      0.0000   1350.0000     25.6412      6.9862
   481.2500     54.5739      0.0000   1350.0000     24.9369      6.8251
   481.5000     50.7508      0.0000   1350.0000     24.5928      6.6369
   481.7500     47.8230      0.0000   1350.0000     24.5323      6.4436
   482.0000     46.1750      0.0000   1350.0000     24.6360      6.2749
   482.2500     45.9978      0.0000   1350.0000     24.8484      6.1464
   482.5000     46.8829      0.0000   1350.0000     25.1750      6.0507
   482.7500     48.1124      0.0000   1350.0000     25.5896      5.9691
   483.0000     49.1538      0.0000   1350.0000     25.9720      5.8886
   483.2500     49.8769      0.0000   1350.0000     26.1566      5.8101
   483.5000     50.4634      0.0000   1350.0000     26.0469      5.7413
   483.7500     51.0481      0.0000   1350.0000     25.6814      5.6837
   484.0000     51.3886      0.0000   1350.0000     25.1920      5.6257
   484.2500     51.1289      0.0000   1350.0000     24.7099      5.5497
   484.5000     50.5472      0.0000   1350.0000     24.3106      5.4473
   484.7500     50.8173      0.0000   1350.0000     24.0205      5.3280
   485.0000     53.2603      0.0000   1350.0000     23.8373      5.2144
   485.2500     58.2617      0.0000   1350.0000     23.7304      5.1274
   485.5000     64.8865      0.0000   1350.0000     23.6394      5.0757
   485.7500     71.4914      0.0000   1350.0000     23.4938      5.0551
   486.0000     76.7923      0.0000   1350.0000     23.2456      5.0541
   486.2500     80.5298      0.0000   1350.0000     22.8924      5.0575
   486.5000     83.2629      0.0000   1350.0000     22.4753      5.0470
   486.7500     85.6572      0.0000   1350.0000     22.0519      5.0056
   487.0000     88.0146      0.0000   1350.0000     21.6653      4.9260
   487.2500     90.2099      0.0000   1350.0000     21.3383      4.8170
   487.5000     91.7060      0.0000   1350.0000     21.0888      4.7002
   487.7500     91.7576      0.0000   1350.0000     20.9393      4.5987
   488.0000     90.1614      0.0000   1350.0000     20.9037      4.5284
   488.2500     87.8892      0.0000   1350.0000     20.9697      4.4965
   488.5000     86.5415      0.0000   1350.0000     21.1021      4.5031
   488.7500     86.9967      0.0000   1350.0000     21.2733      4.5410
   489.0000     88.7434      0.0000   1350.0000     21.4815      4.5970
   489.2500     90.4745      0.0000   1350.0000     21.7287      4.6581
   489.5000     91.2543      0.0000   1350.0000     21.9814      4.7167
   489.7500     91.2043      0.0000   1350.0000     22.1678      4.7699
   490.0000     91.2420      0.0000   1350.0000     22.2250      4.8144
   490.2500     92.2697      0.0000   1350.0000     22.1463      4.8472
   490.5000     94.4791      0.0000   1350.0000     21.9836      4.8686
   490.7500     97.1481      0.0000   1350.0000     21.8099      4.8831
