~Version Information
VERS.                      2.0: CWLS Log ASCII Standard - VERSION 2.0
WRAP.                       NO: One line per depth step
~Well Information Block
STRT.FT               260.0000: 
STOP.FT              1199.2000: 
STEP.FT                 0.1000: 
NULL.                -999.2500: 
COMP.          Evergreen Operating Corporation: COMPANY
WELL.             Justin 32-10: WELL
FLD.           Purgatorie River: FIELD
LOC.           2994' FNL & 1449' FEL: LOCATION
PROV.                 Colorado: PROVINCE
CNTY.               Las Animas: COUNTRY
SRVC.                         : SERVICE COMPANY
DATE.          Mon Aug 30 07:14:35 2004: LOG DATE
UWI.           05 071 08053 00: UNIQUE WELL ID
~Curve Information Block
DEPT.FT            0 000 00 00: Depth
LTEN.lb                       : Surface Line Tension
DCAL.in                       : CDL Caliper
RHOB.g/cc                     : CDL Bulk Density
RHOC.g/cc                     : CDL Density Correction
DPOR.pu                       : CDL Density Porosity
GR.GAPI                       : Gamma Ray
NPOR.pu                       : Neutron Porosity
~Parameter Information Block
~A  Depth       LTEN        DCAL        RHOB        RHOC        DPOR         GR         NPOR    
# ...
  1066.4000    940.0714      7.7822      2.5487      0.1561      6.1364     81.9318     24.0686
  1066.5000    905.0490      7.7802      2.5442      0.1504      6.4120     82.3064     23.2266
  1066.6000    905.0490      7.7802      2.5326      0.1500      7.1166     82.5294     23.2074
  1066.7000    905.0490      7.7802      2.5090      0.1150      8.5459     77.1512     23.6065
  1066.8000    908.0168      7.8054      2.4882      0.0580      9.8033     68.8009     23.5582
  1066.9000    908.0168      7.8054      2.4864      0.0363      9.9168     63.8196     23.1590
  1067.0000    903.7688      7.7575      2.4982      0.0446      9.1984     61.8006     23.0146
  1067.1000    903.7688      7.7575      2.5139      0.0412      8.2477     59.7079     22.6981
  1067.2000    903.7688      7.7575      2.5388      0.0148      6.7379     58.7734     21.7615
  1067.3000    911.8077      7.7384      2.5717      0.1044      4.7456     59.8432     20.8123
  1067.4000    911.8077      7.7384      2.5894      0.1228      3.6753     60.9963     20.3698
  1067.5000    949.7630      7.7499      2.5868      0.0878      3.8285     59.1679     20.3545
  1067.6000    949.7630      7.7499      2.5859      0.0723      3.8837     55.6230     20.5761
  1067.7000    949.7630      7.7499      2.5877      0.1540      3.7766     54.7824     20.6224
  1067.8000    908.2753      7.7400      2.5742      0.1209      4.5955     54.6982     20.2689
  1067.9000    908.2753      7.7400      2.5510      0.0588      5.9973     52.6099     19.8243
  1068.0000    909.9917      7.7426      2.5337      0.0521      7.0513     49.6558     19.4504
  1068.1000    909.9917      7.7426      2.5190      0.1310      7.9365     47.8697     19.1918
  1068.2000    909.9917      7.7426      2.5015      0.0989      9.0002     48.9786     19.1538
  1068.3000    932.9415      7.7419      2.4955      0.0905      9.3654     51.6736     19.4396
  1068.4000    932.9415      7.7419      2.5105      0.1574      8.4561     52.4494     20.0400
  1068.5000    908.2500      7.7844      2.5289      0.1587      7.3365     49.9632     20.5514
  1068.6000    908.2500      7.7844      2.5386      0.1545      6.7522     46.0172     20.6119
  1068.7000    908.2500      7.7844      2.5472      0.1445      6.2290     41.7099     20.3453
  1068.8000    950.0338      7.8073      2.5582      0.1883      5.5635     38.0869     19.5261
  1068.9000    950.0338      7.8073      2.5696      0.1601      4.8729     36.8311     18.0464
  1069.0000   1002.5037      7.8196      2.5857      0.2215      3.8998     35.9848     16.7270
  1069.1000   1002.5037      7.8196      2.6021      0.2553      2.9031     34.6875     16.3272
  1069.2000   1002.5037      7.8196      2.6062      0.2609      2.6541     35.7795     16.9461
  1069.3000   1012.3683      7.8209      2.5981      0.1757      3.1450     39.7167     17.7285
  1069.4000   1012.3683      7.8209      2.5910      0.1740      3.5737     43.0437     17.8299
  1069.5000    991.1243      7.8447      2.5950      0.1563      3.3323     43.4331     17.7880
  1069.6000    991.1243      7.8447      2.6056      0.1795      2.6888     43.4139     18.1764
  1069.7000    991.1243      7.8447      2.6012      0.1573      2.9578     45.0766     18.7909
  1069.8000    922.6405      7.8201      2.5762      0.1004      4.4716     45.9951     19.2548
  1069.9000    922.6405      7.8201      2.5535      0.1204      5.8474     44.2006     19.6220
  1070.0000    988.2419      7.8267      2.5398      0.1172      6.6782     43.4381     20.2456
  1070.1000    988.2419      7.8267      2.5269      0.0509      7.4601     46.6965     20.9487
  1070.2000    988.2419      7.8267      2.5229      0.0373      7.7003     50.8350     21.2371
  1070.3000    965.9908      7.8326      2.5351      0.0268      6.9614     53.4496     20.8731
  1070.4000    965.9908      7.8326      2.5481      0.0823      6.1771     55.8268     20.1872
  1070.5000    967.8910      7.8447      2.5447      0.0833      6.3832     56.3635     19.9136
  1070.6000    967.8910      7.8447      2.5348      0.0569      6.9816     53.8123     20.2527
  1070.7000    967.8910      7.8447      2.5352      0.0930      6.9565     52.2146     21.0029
  1070.8000    984.3243      7.8303      2.5426      0.0836      6.5109     52.5650     21.5643
  1070.9000    984.3243      7.8303      2.5461      0.0940      6.2958     51.0572     21.3856
  1071.0000    999.7678      7.8521      2.5420      0.1020      6.5429     47.1923     20.6515
  1071.1000    999.7678      7.8521      2.5375      0.0524      6.8160     42.3884     19.6873
  1071.2000    999.7678      7.8521      2.5420      0.0503      6.5461     37.0840     19.1998
  1071.3000    982.8696      7.8359      2.5527      0.0613      5.8992     33.4939     19.1868
  1071.4000    982.8696      7.8359      2.5605      0.0665      5.4221     33.6035     18.7728
  1071.5000    946.5928      7.8201      2.5614      0.0793      5.3692     35.2808     18.0768
  1071.6000    946.5928      7.8201      2.5530      0.1028      5.8803     36.7566     17.7906
  1071.7000    946.5928      7.8201      2.5378      0.0461      6.7988     38.9798     18.2278
  1071.8000    977.7535      7.8181      2.5290      0.0505      7.3332     41.9705     19.0780
  1071.9000    977.7535      7.8181      2.5313      0.0664      7.1952     44.6598     19.2179
  1072.0000    998.0598      7.8237      2.5341      0.0725      7.0225     46.2341     18.2298
  1072.1000    998.0598      7.8237      2.5307      0.0528      7.2283     47.1026     17.0124
  1072.2000    998.0598      7.8237      2.5306      0.0283      7.2371     48.2216     16.2358
  1072.3000    939.2652      7.8334      2.5451      0.0480      6.3567     49.6277     15.9244
  1072.4000    939.2652      7.8334      2.5677      0.0641      4.9892     49.7554     16.0292
  1072.5000    925.0371      7.8117      2.5779      0.1097      4.3714     48.7138     16.5606
  1072.6000    925.0371      7.8117      2.5691      0.0656      4.9032     49.5448     17.1188
  1072.7000    925.0371      7.8117      2.5538      0.0952      5.8319     53.6537     17.5883
  1072.8000    962.3899      7.8090      2.5417      0.0775      6.5654     57.5168     18.1792
  1072.9000    962.3899      7.8090      2.5381      0.0583      6.7808     58.2472     18.6278
  1073.0000   1021.6813      7.8528      2.5398      0.0688      6.6765     57.6084     18.6539
  1073.1000   1021.6813      7.8528      2.5340      0.0760      7.0296     55.9455     18.4240
  1073.2000   1021.6813      7.8528      2.5188      0.0668      7.9521     52.7966     18.3589
  1073.3000   1033.3229      7.8489      2.5052      0.0701      8.7766     49.8006     18.3594
  1073.4000   1033.3229      7.8489      2.4988      0.0618      9.1650     47.9572     17.9783
  1073.5000    996.4691      7.8378      2.4919      0.0752      9.5837     47.8238     17.5705
  1073.6000    996.4691      7.8378      2.4776      0.0487     10.4485     49.2597     17.9719
  1073.7000    996.4691      7.8378      2.4688      0.0015     10.9826     52.2529     19.2503
  1073.8000    977.0873      7.8479      2.4742      0.0638     10.6561     57.5142     20.4298
  1073.9000    977.0873      7.8479      2.4851      0.0241      9.9914     61.8980     20.7212
  1074.0000   1010.3277      7.8319      2.5003      0.0737      9.0740     63.0906     20.2877
  1074.1000   1010.3277      7.8319      2.5174      0.0896      8.0343     64.2335     19.5669
  1074.2000   1010.3277      7.8319      2.5245      0.0918      7.6059     64.9238     18.9562
  1074.3000   1005.7009      7.8264      2.5148      0.0700      8.1925     63.1313     18.7709
  1074.4000   1005.7009      7.8264      2.4998      0.0391      9.1034     61.7117     18.7470
  1074.5000    948.0013      7.8282      2.4964      0.0499      9.3115     60.4353     18.4312
  1074.6000    948.0013      7.8282      2.5044      0.0915      8.8252     57.9345     17.9132
  1074.7000    948.0013      7.8282      2.5145      0.0970      8.2138     57.5283     17.5286
