~Version Information
VERS.                      2.0: CWLS Log ASCII Standard - VERSION 2.0
WRAP.                       NO: One line per depth step
~Well Information Block
STRT.FT               765.6000: 
STOP.FT              2431.0000: 
STEP.FT                 0.1000: 
NULL.                -999.2500: 
COMP.          Petrogulf Corporation: COMPANY
WELL.             Norton 9-14V: WELL
FLD.           Purgatorie River: FIELD
LOC.           230' FSL & 225' FWL: LOCATION
CNTY.               Las Animas: COUNTY
SRVC.                         : SERVICE COMPANY
DATE.          Thu Oct 28 06:20:25 2004: LOG DATE
UWI.           05 071 07891 00: UNIQUE WELL ID
STAT.                 Colorado: STATE
~Curve Information Block
DEPT.FT            0 000 00 00: Depth
DCAL.in                       : CDL Caliper
RHOB.g/cc                     : CDL Bulk Density
RHOC.g/cc                     : CDL Density Correction
DPOR.pu                       : CDL Density Porosity
GR.GAPI                       : Gamma Ray
NPOR.pu                       : Neutron Porosity
~Parameter Information Block
~A  Depth       DCAL        RHOB        RHOC        DPOR         GR         NPOR    
# ...
  2311.2000      8.1208      2.4821      0.0410     10.1778     63.1782     21.8017
  2311.3000      8.1359      2.4931      0.0352      9.5063     62.1717     23.1762
  2311.4000      8.1359      2.4911      0.0721      9.6311     58.1854     23.8176
  2311.5000      8.1486      2.4721      0.0303     10.7804     55.4389     23.6738
  2311.6000      8.1486      2.4688      0.0003     10.9802     54.9080     23.6995
  2311.7000      8.1486      2.4979      0.0747      9.2188     53.7853     24.2074
  2311.8000      8.1588      2.5349      0.0909      6.9747     53.0305     24.9785
  2311.9000      8.1588      2.5602      0.1427      5.4405     53.6186     25.3439
  2312.0000      8.1696      2.5854      0.1067      3.9164     53.7475     24.7922
  2312.1000      8.1696      2.6206      0.1595      1.7799     51.9744     24.0605
  2312.2000      8.1696      2.6463      0.1757      0.2255     50.7583     24.1108
  2312.3000      8.2118      2.6449      0.1490      0.3079     53.3436     24.7394
  2312.4000      8.2118      2.6250      0.1606      1.5169     59.1294     25.1983
  2312.5000      8.2617      2.6037      0.1088      2.8062     65.5045     24.9945
  2312.6000      8.2617      2.5866      0.1224      3.8396     70.1654     24.3083
  2312.7000      8.2617      2.5690      0.1122      4.9111     70.9956     24.1049
  2312.8000      8.2745      2.5606      0.0622      5.4186     66.9614     24.5705
  2312.9000      8.2745      2.5697      0.1337      4.8687     60.6797     25.0944
  2313.0000      8.2991      2.5799      0.1367      4.2501     54.7409     25.4986
  2313.1000      8.2991      2.5809      0.1165      4.1853     48.5506     25.7312
  2313.2000      8.2991      2.5776      0.1099      4.3851     43.1652     25.7739
  2313.3000      8.3185      2.5675      0.1207      4.9994     43.7635     25.6156
  2313.4000      8.3185      2.5466      0.0967      6.2691     50.0843     25.3419
  2313.5000      8.3082      2.5309      0.0056      7.2185     55.1010     25.2410
  2313.6000      8.3082      2.5351      0.0554      6.9615     55.8782     25.1765
  2313.7000      8.3082      2.5382      0.0892      6.7771     54.6396     24.9874
  2313.8000      8.3053      2.5209      0.0638      7.8224     53.9733     25.1520
  2313.9000      8.3053      2.5049      0.0063      8.7951     55.3846     25.8389
  2314.0000      8.2899      2.5106      0.0122      8.4513     57.8669     26.5124
  2314.1000      8.2899      2.5238      0.0530      7.6483     59.1839     26.5136
  2314.2000      8.2899      2.5291      0.0123      7.3291     59.3971     25.8803
  2314.3000      8.2875      2.5295     -0.0054      7.3053     61.4007     25.3665
  2314.4000      8.2875      2.5228      0.0622      7.7070     66.9993     25.7128
  2314.5000      8.2947      2.5120      0.0164      8.3651     72.2419     26.6877
  2314.6000      8.2947      2.5133     -0.0032      8.2866     71.8252     27.2198
  2314.7000      8.2947      2.5246      0.0623      7.6014     68.3039     26.7101
  2314.8000      8.2919      2.5344      0.0465      7.0083     66.5885     25.6632
  2314.9000      8.2919      2.5470      0.0687      6.2404     65.5351     24.8007
  2315.0000      8.2968      2.5587      0.0416      5.5304     62.8479     24.5063
  2315.1000      8.2968      2.5511      0.0589      5.9938     59.4740     24.8547
  2315.2000      8.2968      2.5234      0.0411      7.6707     56.5923     25.2230
  2315.3000      8.2596      2.4968      0.0369      9.2843     54.1912     25.1718
  2315.4000      8.2596      2.4871      0.0310      9.8736     54.4385     25.1984
  2315.5000      8.2097      2.4894      0.0611      9.7309     58.7798     25.3400
  2315.6000      8.2097      2.4886      0.0287      9.7831     61.3713     25.0705
  2315.7000      8.2097      2.4852     -0.0280      9.9859     56.8745     24.5705
  2315.8000      8.1615      2.4917      0.0304      9.5948     50.6103     24.4532
  2315.9000      8.1615      2.5082      0.0439      8.5918     50.9399     24.6273
  2316.0000      8.1483      2.5314      0.0534      7.1896     56.7260     24.4973
  2316.1000      8.1483      2.5643      0.0573      5.1952     57.4798     23.8380
  2316.2000      8.1483      2.6004      0.1200      3.0060     50.5757     23.0645
  2316.3000      8.1477      2.6193      0.1412      1.8600     44.4841     22.8107
  2316.4000      8.1477      2.6168      0.0571      2.0129     40.9000     23.2015
  2316.5000      8.1422      2.6036      0.1026      2.8127     36.5490     23.8444
  2316.6000      8.1422      2.5790      0.0851      4.3060     34.2788     24.3285
  2316.7000      8.1422      2.5493      0.0297      6.1025     37.3602     24.3183
  2316.8000      8.1220      2.5351      0.0348      6.9652     43.2506     23.8696
  2316.9000      8.1220      2.5359      0.0832      6.9166     46.1062     23.3458
  2317.0000      8.0980      2.5258      0.0740      7.5270     43.6147     22.7472
  2317.1000      8.0980      2.5042     -0.0064      8.8373     40.9719     22.0179
  2317.2000      8.0980      2.4983      0.0103      9.1912     43.9332     21.7345
  2317.3000      8.0939      2.5113      0.0255      8.4072     51.7713     22.2239
  2317.4000      8.0939      2.5298     -0.0217      7.2829     58.9961     22.8173
  2317.5000      8.0956      2.5447      0.0380      6.3806     61.6838     23.2701
  2317.6000      8.0956      2.5403      0.0615      6.6490     59.9635     23.7691
  2317.7000      8.0956      2.5201      0.0213      7.8712     56.4946     23.8881
  2317.8000      8.0964      2.5024      0.0665      8.9462     54.1788     23.6701
  2317.9000      8.0964      2.4885      0.0386      9.7864     53.5106     23.4893
  2318.0000      8.0967      2.4807     -0.0169     10.2622     52.5876     23.1195
  2318.1000      8.0967      2.4819      0.0531     10.1884     50.7575     22.5649
  2318.2000      8.0967      2.4847      0.0216     10.0203     50.0557     22.1014
  2318.3000      8.0986      2.4864      0.0378      9.9157     51.8211     21.8515
  2318.4000      8.0986      2.4823      0.0490     10.1658     53.3829     22.2470
  2318.5000      8.0981      2.4746     -0.0047     10.6295     52.1790     23.0556
  2318.6000      8.0981      2.4805     -0.0057     10.2742     49.9837     23.3835
  2318.7000      8.0981      2.4976      0.0613      9.2392     51.8715     23.4981
  2318.8000      8.0969      2.5126      0.0215      8.3290     58.3294     23.9091
  2318.9000      8.0969      2.5289      0.0936      7.3364     62.1235     24.2444
  2319.0000      8.0986      2.5454      0.1151      6.3415     60.2019     24.5002
  2319.1000      8.0986      2.5521      0.0528      5.9310     58.4059     24.7550
  2319.2000      8.0986      2.5508      0.0671      6.0141     59.3647     24.5111
  2319.3000      8.0986      2.5520      0.0683      5.9369     59.9824     23.9729
  2319.4000      8.0986      2.5588      0.0943      5.5259     58.4096     23.6522
  2319.5000      8.0964      2.5632      0.0754      5.2608     55.9604     23.6473
  2319.6000      8.0964      2.5647      0.0912      5.1705     54.6455     24.1518
  2319.7000      8.0964      2.5627      0.0558      5.2896     54.6994     24.8460
  2319.8000      8.0944      2.5548      0.0700      5.7694     55.9998     25.0681
  2319.9000      8.0944      2.5472      0.0725      6.2321     58.5294     24.6386
  2320.0000      8.0946      2.5410      0.0889      6.6031     58.7658     23.8251
  2320.1000      8.0946      2.5337      0.0626      7.0491     54.3106     23.0847
  2320.2000      8.0946      2.5346      0.0229      6.9965     48.8958     22.8375
  2320.3000      8.0911      2.5494      0.0353      6.0941     47.0662     22.9310
  2320.4000      8.0911      2.5613      0.0761      5.3771     47.5073     22.9569
  2320.5000      8.0932      2.5571      0.0556      5.6281     47.4610     22.9314
  2320.6000      8.0932      2.5458      0.0541      6.3174     48.1629     22.8745
  2320.7000      8.0932      2.5347      0.0320      6.9865     50.8421     22.7903
