~Version Information
VERS.                      2.0: CWLS Log ASCII Standard - VERSION 2.0
WRAP.                       NO: One line per depth step
~Well Information Block
STRT.FT                 5.0000: 
STOP.FT              1874.2500: 
STEP.FT                 0.2500: 
NULL.                -999.2500: 
COMP.          Pioneer Natural Resources: COMPANY
WELL.           Stampede 42-18: WELL
FLD.           Purgatoire River: FIELD
LOC.           2479' FNL & 160' FEL--: LOCATION
CNTY.               Las Animas: COUNTY
SRVC.          Superior Well Services: SERVICE COMPANY
DATE.          Mon Jun 25 12:19:16 2007: LOG DATE
UWI.                          : UNIQUE WELL ID
STAT.                 Colorado: STATE
~Curve Information Block
DEPT.FT            0 000 00 00: Depth
GR.GAPI                       : Gamma Ray
CCL.                          : Casing Collar Locator
TT3.usec                      : CBL 3' Travel Time
AMP3.mV                       : CBL 3' Amplitude
AMP5.mV                       : CBL 5' Amplitude
~Parameter Information Block
~A  Depth        GR         CCL         TT3         AMP3        AMP5    
# ...
  1125.0000    115.4920      0.0000    624.2430      5.1544      2.4840
  1125.2500    108.3168      0.0000    623.6481      5.1767      2.4934
  1125.5000     99.3163      0.0000    623.0376      5.2242      2.5107
  1125.7500     91.8729      0.0000    622.4797      5.2790      2.5284
  1126.0000     89.4884      0.0000    622.0192      5.3165      2.5385
  1126.2500     93.3669      0.0000    621.7227      5.3206      2.5377
  1126.5000    101.5825      0.0000    621.8076      5.2941      2.5302
  1126.7500    110.2031      0.0000    622.7660      5.2530      2.5247
  1127.0000    115.5486      0.0000    625.2265      5.2136      2.5278
  1127.2500    116.1151      0.0000    629.4285      5.1843      2.5401
  1127.5000    112.9599      0.0000    634.6066      5.1646      2.5583
  1127.7500    108.5205      0.0000    638.9821      5.1511      2.5785
  1128.0000    104.9767      0.0000    640.5668      5.1394      2.5945
  1128.2500    103.4578      0.0000    637.9962      5.1228      2.5976
  1128.5000    104.2694      0.0000    630.4116      5.0901      2.5824
  1128.7500    107.1817      0.0000    616.7977      5.0324      2.5534
  1129.0000    111.3426      0.0000    596.6300      4.9536      2.5230
  1129.2500    115.5228      0.0000    572.6454      4.8737      2.5020
  1129.5000    118.8853      0.0000    552.5786      4.8158      2.4939
  1129.7500    121.2498      0.0000    545.5565      4.7897      2.4956
  1130.0000    122.3644      0.0000    554.9069      4.7886      2.5038
  1130.2500    121.4429      0.0000    575.0349      4.8022      2.5176
  1130.5000    117.9751      0.0000    596.0518      4.8264      2.5382
  1130.7500    112.9121      0.0000    610.9445      4.8599      2.5678
  1131.0000    108.6155      0.0000    618.3433      4.8952      2.6067
  1131.2500    107.1975      0.0000    620.2255      4.9196      2.6503
  1131.5000    108.7217      0.0000    618.4949      4.9251      2.6906
  1131.7500    111.3182      0.0000    613.5139      4.9128      2.7219
  1132.0000    113.1765      0.0000    605.0720      4.8824      2.7423
  1132.2500    114.0723      0.0000    594.5815      4.8194      2.7499
  1132.5000    115.0116      0.0000    585.9009      4.7089      2.7414
  1132.7500    117.0147      0.0000    582.7729      4.5661      2.7193
  1133.0000    120.4866      0.0000    584.4971      4.4375      2.6939
  1133.2500    125.2912      0.0000    584.7335      4.3615      2.6758
  1133.5000    131.0620      0.0000    576.2468      4.3375      2.6679
  1133.7500    137.5011     -2.1561    558.4219      4.3383      2.6672
  1134.0000    144.3542     -2.8351    540.1112      4.3410      2.6715
  1134.2500    150.9994      0.0000    533.4240      4.3426      2.6808
  1134.5000    156.0808      0.0000    543.6248      4.3600      2.6930
  1134.7500    157.8248      0.0000    565.5236      4.4139      2.7009
  1135.0000    155.2228      0.0000    589.4653      4.4998      2.6970
  1135.2500    149.1877      0.0000    608.5739      4.5811      2.6797
  1135.5000    142.2829      0.0000    619.6895      4.6266      2.6529
  1135.7500    137.1290      0.0000    620.9656      4.6463      2.6212
  1136.0000    135.2503      0.0000    611.9904      4.6717      2.5890
  1136.2500    137.2793      0.0000    595.3370      4.7119      2.5617
  1136.5000    143.3000      0.0000    576.4000      4.7486      2.5458
  1136.7500    152.1371      0.0000    562.3135      4.7651      2.5442
  1137.0000    160.7706      0.0000    560.2537      4.7629      2.5534
  1137.2500    165.7535      0.0000    573.3697      4.7519      2.5650
  1137.5000    165.7268      0.0000    596.8763      4.7369      2.5719
  1137.7500    162.2564      0.0000    620.0827      4.7176      2.5729
  1138.0000    158.3495      0.0000    633.4509      4.6943      2.5711
  1138.2500    156.4970      0.0000    633.6702      4.6687      2.5706
  1138.5000    157.6836      0.0000    623.7633      4.6418      2.5732
  1138.7500    161.4933      0.0000    610.8045      4.6143      2.5792
  1139.0000    166.8271      0.0000    602.5646      4.5896      2.5878
  1139.2500    172.5663      0.0000    603.0613      4.5721      2.5949
  1139.5000    177.7775      0.0000    610.4693      4.5594      2.5948
  1139.7500    181.6359      0.0000    619.9897      4.5425      2.5853
  1140.0000    183.4410      0.0000    628.1287      4.5157      2.5712
  1140.2500    182.8284      0.0000    633.7725      4.4850      2.5600
  1140.5000    180.1014      0.0000    636.9674      4.4640      2.5545
  1140.7500    176.3686      0.0000    638.3122      4.4621      2.5520
  1141.0000    172.9174      0.0000    638.9156      4.4779      2.5482
  1141.2500    170.0403      0.0000    639.6870      4.5030      2.5404
  1141.5000    166.6669      0.0000    640.6545      4.5307      2.5292
  1141.7500    161.5183      0.0000    641.3452      4.5596      2.5198
  1142.0000    154.7285      0.0000    641.3658      4.5903      2.5200
  1142.2500    148.4223      0.0000    640.1497      4.6199      2.5337
  1142.5000    145.6357      0.0000    635.9614      4.6423      2.5564
  1142.7500    148.0122      0.0000    625.1130      4.6533      2.5768
  1143.0000    154.0049      0.0000    603.1473      4.6568      2.5847
  1143.2500    159.7471      0.0000    568.9268      4.6654      2.5776
  1143.5000    162.2815      0.0000    528.1439      4.6920      2.5631
  1143.7500    161.8198      0.0000    490.9612      4.7373      2.5532
  1144.0000    160.6919      0.0000    465.0488      4.7885      2.5570
  1144.2500    160.6681      0.0000    451.3177      4.8297      2.5748
  1144.5000    161.5750      0.0000    445.7491      4.8542      2.6009
  1144.7500    161.7995      0.0000    443.6307      4.8685      2.6268
  1145.0000    159.5746      0.0000    441.9854      4.8867      2.6442
  1145.2500    154.1519      0.0000    439.7305      4.9199      2.6466
  1145.5000    146.2303      0.0000    436.9732      4.9697      2.6320
  1145.7500    137.3649      0.0000    434.4851      5.0242      2.6062
  1146.0000    129.0593      0.0000    433.6996      5.0650      2.5790
  1146.2500    122.4467      0.0000    437.2337      5.0795      2.5586
  1146.5000    118.3998      0.0000    449.0457      5.0702      2.5468
  1146.7500    117.2786      0.0000    472.4995      5.0506      2.5416
  1147.0000    118.3959      0.0000    506.2231      5.0323      2.5410
  1147.2500    120.0549      0.0000    541.5075      5.0169      2.5451
  1147.5000    120.4618      0.0000    565.8856      4.9975      2.5548
  1147.7500    118.9242      0.0000    571.7132      4.9656      2.5696
  1148.0000    116.4065      0.0000    562.5335      4.9171      2.5847
  1148.2500    114.8999      0.0000    551.1674      4.8542      2.5929
  1148.5000    116.1031      0.0000    550.6622      4.7821      2.5894
  1148.7500    120.4988      0.0000    565.6263      4.7018      2.5761
  1149.0000    127.0024      0.0000    590.9131      4.6084      2.5600
  1149.2500    132.8665      0.0000    617.2832      4.4989      2.5473
  1149.5000    134.6280      0.0000    637.8521      4.3826      2.5389
  1149.7500    130.3993      0.0000    650.6111      4.2806      2.5315
  1150.0000    121.3404      0.0000    657.1314      4.2130      2.5206
  1150.2500    110.4576      0.0000    660.0971      4.1853      2.5046
  1150.5000    100.3639      0.0000    661.6512      4.1863      2.4863
  1150.7500     92.5966      0.0000    663.0114      4.2000      2.4715
  1151.0000     88.2699      0.0000    664.7289      4.2171      2.4642
  1151.2500     88.2293      0.0000    666.7283      4.2393      2.4631
  1151.5000     92.4452      0.0000    668.1877      4.2738      2.4632
  1151.7500     99.8199      0.0000    667.7971      4.3278      2.4609
  1152.0000    108.7775      0.0000    664.3973      4.4080      2.4564
  1152.2500    117.8974      0.0000    657.0408      4.5216      2.4518
  1152.5000    126.2015      0.0000    644.3319      4.6721      2.4487
  1152.7500    133.2555      0.0000    624.8701      4.8528      2.4473
