~Version Information
VERS.                      2.0: CWLS Log ASCII Standard - VERSION 2.0
WRAP.                       NO: One line per depth step
~Well Information Block
STRT.FT                 5.5000: 
STOP.FT              1635.7500: 
STEP.FT                 0.2500: 
NULL.                -999.2500: 
COMP.          Pioneer Natural Resources: COMPANY
WELL.                Mead 11-9: WELL
FLD.           Purgatoire River: FIELD
LOC.           1127' FNL & 668' FWL: LOCATION
PROV.                 Colorado: PROVINCE
CNTY.               Las Animas: COUNTRY
SRVC.                Patterson: SERVICE COMPANY
DATE.          Wed Mar 02 13:48:38 2005: LOG DATE
UWI.           05 071 08160 00: UNIQUE WELL ID
~Curve Information Block
DEPT.FT            0 000 00 00: Depth
CCL.                          : Casing Collar Locator
TT3.usec                      : CBL 3' Travel Time
AMP3.mV                       : CBL 3' Amplitude
GR.GAPI                       : Gamma Ray
~Parameter Information Block
~A  Depth       CCL         TT3         AMP3         GR     
# ...
   541.5000      0.0000    975.5655      3.8287    105.2507
   541.7500      0.0000    998.0025      3.7306    108.3799
   542.0000      0.0000   1021.6760      3.6524    107.9013
   542.2500      0.0000   1031.7493      3.6014    104.6366
   542.5000      0.0000   1020.1058      3.5798    101.0616
   542.7500      0.0000    994.0137      3.5852    100.0685
   543.0000      0.0000    968.9655      3.6121    103.8008
   543.2500      0.0000    955.6990      3.6477    112.6318
   543.5000      0.0000    955.8058      3.6708    124.7762
   543.7500      0.0000    966.1453      3.6627    137.0914
   544.0000      0.0000    982.5143      3.6228    146.7223
   544.2500      0.0000    997.8661      3.5707    152.3036
   544.5000      0.0000   1000.7834      3.5288    153.8550
   544.7500      0.0000    982.4372      3.5039    152.0308
   545.0000      0.0000    947.0687      3.4861    147.9001
   545.2500      0.0000    910.7908      3.4620    143.0419
   545.5000      0.0000    887.4815      3.4232    138.9085
   545.7500      0.0000    879.1281      3.3667    135.8074
   546.0000      0.0000    879.9114      3.2983    133.0601
   546.2500      0.0000    885.0499      3.2480    130.2764
   546.5000      0.0000    894.2267      3.2651    127.8378
   546.7500      0.0000    909.9241      3.3688    126.0841
   547.0000      0.0000    936.1509      3.5072    124.8529
   547.2500      0.0000    978.2863      3.6018    124.0372
   547.5000      0.0000   1039.0837      3.6282    123.9055
   547.7500      0.0000   1110.9749      3.6253    124.5542
   548.0000     -3.0000   1174.7222      3.6338    125.5437
   548.2500      3.0000   1212.7449      3.6603    126.3128
   548.5000      0.0000   1226.2832      3.6963    126.6439
   548.7500      0.0000   1235.1775      3.7498    126.7058
   549.0000      0.0000   1257.4084      3.8501    126.8529
   549.2500      0.0000   1290.0154      4.0121    127.1474
   549.5000      0.0000   1310.9994      4.1890    126.9476
   549.7500      0.0000   1298.8833      4.2870    125.4061
   550.0000      0.0000   1251.5677      4.2574    122.6444
   550.2500      0.0000   1189.5942      4.1526    120.0724
   550.5000      0.0000   1141.8578      4.0650    119.2700
   550.7500      0.0000   1125.4297      4.0367    120.7729
   551.0000      0.0000   1136.4482      4.0493    123.9568
   551.2500      0.0000   1157.9066      4.0692    127.7941
   551.5000      0.0000   1174.0181      4.0776    131.7910
   551.7500      0.0000   1178.4005      4.0709    136.3764
   552.0000      0.0000   1173.1656      4.0529    142.0873
   552.2500      0.0000   1163.8771      4.0271    148.3376
   552.5000      0.0000   1155.0972      3.9921    153.5619
   552.7500      0.0000   1148.2029      3.9446    156.6831
   553.0000      0.0000   1141.1824      3.8833    157.8937
   553.2500      0.0000   1129.8906      3.8092    157.6712
   553.5000      0.0000   1110.8312      3.7256    155.5044
   553.7500      0.0000   1084.9125      3.6430    150.3789
   554.0000      0.0000   1059.1910      3.5840    142.5060
   554.2500      0.0000   1043.7424      3.5786    133.8014
   554.5000      0.0000   1046.5126      3.6455    126.5209
   554.7500      0.0000   1071.3456      3.7725    121.9589
   555.0000      0.0000   1117.5410      3.9146    120.3355
   555.2500      0.0000   1175.2538      4.0190    121.1813
   555.5000      0.0000   1221.5961      4.0598    123.5896
   555.7500      0.0000   1230.1405      4.0475    126.5170
   556.0000      0.0000   1192.1056      4.0092    129.1641
   556.2500      0.0000   1128.7343      3.9625    131.1218
   556.5000      0.0000   1079.4541      3.9093    132.1031
   556.7500      0.0000   1073.8785      3.8456    131.5100
   557.0000      0.0000   1109.8401      3.7727    128.3712
   557.2500      0.0000   1154.5944      3.6989    121.8527
   557.5000      0.0000   1169.4677      3.6326    111.9270
   557.7500      0.0000   1138.8239      3.5731     99.6277
   558.0000      0.0000   1078.5488      3.5099     86.7145
   558.2500      0.0000   1019.2105      3.4333     75.0337
   558.5000      0.0000    984.1588      3.3452     65.9278
   558.7500      0.0000    981.2029      3.2596     59.7602
   559.0000      0.0000   1005.9195      3.1914     55.7732
   559.2500      0.0000   1046.9221      3.1457     52.7296
   559.5000      0.0000   1092.2773      3.1188     49.9584
   559.7500      0.0000   1136.2864      3.1067     47.7474
   560.0000      0.0000   1177.8890      3.1135     46.8968
   560.2500      0.0000   1211.4886      3.1479     48.0885
   560.5000      0.0000   1226.6368      3.2099     51.4496
   560.7500      0.0000   1220.6210      3.2846     56.3853
   561.0000      0.0000   1205.6013      3.3515     61.8638
   561.2500      0.0000   1199.6138      3.4033     67.1637
   561.5000      0.0000   1212.1902      3.4560     72.5428
   561.7500      0.0000   1237.4480      3.5413     79.0329
   562.0000      0.0000   1258.0676      3.6897     87.1471
   562.2500      0.0000   1257.8529      3.9143     95.7309
   562.5000      0.0000   1234.3420      4.2025    102.6229
   562.7500      0.0000   1199.5786      4.5150    106.8103
   563.0000      0.0000   1168.3639      4.7976    109.6238
   563.2500      0.0000   1146.6871      5.0066    113.4535
   563.5000      0.0000   1130.6207      5.1302    119.4750
   563.7500      0.0000   1113.9331      5.1880    126.8700
   564.0000      0.0000   1096.0880      5.2129    133.8223
   564.2500      0.0000   1083.6044      5.2309    138.7505
   564.5000      0.0000   1083.4662      5.2530    140.9509
   564.7500      0.0000   1095.1993      5.2783    140.6917
   565.0000      0.0000   1110.1376      5.2986    138.7348
   565.2500      0.0000   1118.3920      5.2963    135.7679
   565.5000      0.0000   1116.3977      5.2463    132.6363
   565.7500      0.0000   1108.9419      5.1346    130.9223
   566.0000      0.0000   1104.0835      4.9805    132.4026
   566.2500      0.0000   1104.2832      4.8346    137.4195
   566.5000      0.0000   1102.2086      4.7461    143.9608
   566.7500      0.0000   1087.2805      4.7313    148.7486
   567.0000      0.0000   1057.4835      4.7696    149.5558
   567.2500      0.0000   1024.5178      4.8222    146.7945
   567.5000      0.0000   1007.6420      4.8532    143.0042
   567.7500      0.0000   1022.8882      4.8415    140.7310
   568.0000      0.0000   1075.6136      4.7845    140.7614
   568.2500      0.0000   1157.4978      4.6977    142.0834
   568.5000      0.0000   1247.9229      4.6037    143.0993
   568.7500      0.0000   1322.4894      4.5142    142.9042
   569.0000      0.0000   1364.4496      4.4230    141.7592
   569.2500      0.0000   1369.8894      4.3209    140.4902
   569.5000      0.0000   1345.6426      4.2131    139.6742
   569.7500      0.0000   1304.4438      4.1187    139.6401
   570.0000      0.0000   1257.2085      4.0537    140.7811
   570.2500      0.0000   1205.8893      4.0194    143.0234
   570.5000      0.0000   1149.0858      4.0079    145.0760
   570.7500      0.0000   1097.3126      4.0159    145.0686
   571.0000      0.0000   1072.0731      4.0486    142.2880
   571.2500      0.0000   1081.6359      4.1100    137.9370
   571.5000      0.0000   1106.4435      4.1947    133.9398
   571.7500      0.0000   1119.2719      4.2915    131.3110
   572.0000      0.0000   1115.1770      4.3930    129.8963
   572.2500      0.0000   1111.3561      4.5016    129.2550
   572.5000      0.0000   1120.6671      4.6284    129.4277
   572.7500      0.0000   1135.9781      4.7875    131.0300
   573.0000      0.0000   1140.1844      4.9834    134.5779
   573.2500      0.0000   1124.2019      5.2005    139.4423
   573.5000      0.0000   1095.3492      5.4102    143.8122
   573.7500      0.0000   1072.6802      5.5926    146.1582
   574.0000      0.0000   1072.7660      5.7456    146.5193
   574.2500      0.0000   1096.2295      5.8713    145.9327
   574.5000      0.0000   1128.0629      5.9664    144.9220
   574.7500      0.0000   1150.5353      6.0293    143.0743
