~Version Information
VERS.                      2.0: CWLS Log ASCII Standard - VERSION 2.0
WRAP.                       NO: One line per depth step
~Well Information Block
STRT.FT               460.5000: 
STOP.FT              2197.0000: 
STEP.FT                 0.2500: 
NULL.                -999.2500: 
COMP.          Petrogulf Corporation: COMPANY
WELL.              Silva 1-43R: WELL
FLD.           Purgatorie River: FIELD
LOC.           1971' FSL & 526' FEL: LOCATION
CNTY.               Las Animas: COUNTY
SRVC.                Patterson: SERVICE COMPANY
DATE.          Sun Jun 18 03:37:26 2006: LOG DATE
UWI.           05 071 08372 00: UNIQUE WELL ID
STAT.                 Colorado: STATE
~Curve Information Block
DEPT.FT            0 000 00 00: Depth
SN.Ohm-m                      : IEL Short Normal
SP.mV                         : IEL Spontaneous Potential
DIR.Ohm-m                     : IEL Induction Resistivity
GR.GAPI                       : Gamma Ray
~Parameter Information Block
~A  Depth        SN          SP         DIR          GR     
# ...
  2169.0000     33.9265     43.0673     31.3129     30.8519
  2169.2500     34.6124     43.0596     31.7362     31.9317
  2169.5000     35.1656     43.0550     31.9488     34.2374
  2169.7500     35.5775     43.0699     31.8821     35.6114
  2170.0000     35.8078     43.1201     31.4569     36.6047
  2170.2500     35.7608     43.2150     30.6185     36.8298
  2170.5000     35.2873     43.3527     29.3892     38.4395
  2170.7500     34.2233     43.5208     27.8836     41.8000
  2171.0000     32.4885     43.7011     26.2594     51.8686
  2171.2500     30.1946     43.8775     24.6525     61.8212
  2171.5000     27.6505     44.0434     23.1506     79.6024
  2171.7500     25.2271     44.2027     21.8025     91.6403
  2172.0000     23.1700     44.3631     20.6310    107.3128
  2172.2500     21.5130     44.5251     19.6315    115.2486
  2172.5000     20.1572     44.6783     18.7697    123.2540
  2172.7500     19.0062     44.8078     17.9942    126.6628
  2173.0000     18.0235     44.9028     17.2627    130.4562
  2173.2500     17.2058     44.9606     16.5621    132.6883
  2173.5000     16.5411     44.9836     15.9089    135.5432
  2173.7500     15.9961     44.9752     15.3297    136.6940
  2174.0000     15.5345     44.9358     14.8438    136.6506
  2174.2500     15.1471     44.8623     14.4575    135.3727
  2174.5000     14.8588     44.7503     14.1693    131.9319
  2174.7500     14.6861     44.6010     13.9761    128.9100
  2175.0000     14.6115     44.4240     13.8743    123.4570
  2175.2500     14.6023     44.2368     13.8573    118.6233
  2175.5000     14.6271     44.0602     13.9141    106.7541
  2175.7500     14.6707     43.9131     14.0329     93.9024
  2176.0000     14.7423     43.8036     14.2074     67.3588
  2176.2500     14.8521     43.7223     14.4393     47.8613
  2176.5000     14.9961     43.6465     14.7357     23.1110
  2176.7500     15.1729     43.5587     15.1030     12.1448
  2177.0000     15.4005     43.4597     15.5433      3.5872
  2177.2500     15.7069     43.3648     16.0550      1.3328
  2177.5000     16.1083     43.2905     16.6365      0.2281
  2177.7500     16.6132     43.2470     17.2868      0.0568
  2178.0000     17.2406     43.2377     18.0027      0.0032
  2178.2500     18.0123     43.2594     18.7774   -999.2500
  2178.5000     18.9332     43.3018     19.6066   -999.2500
  2178.7500     19.9951     43.3497     20.5005   -999.2500
  2179.0000     21.2013     43.3870     21.4860   -999.2500
  2179.2500     22.5562     43.4030     22.5852   -999.2500
  2179.5000     23.9950     43.3963     23.7704   -999.2500
  2179.7500     25.3669     43.3757     24.9304   -999.2500
  2180.0000     26.5309     43.3553     25.8956   -999.2500
  2180.2500     27.4349     43.3480     26.5439   -999.2500
  2180.5000     28.1192     43.3585     26.9004   -999.2500
  2180.7500     28.7169     43.3796     27.1226   -999.2500
  2181.0000     29.4065     43.3937     27.3830   -999.2500
  2181.2500     30.2300     43.3781     27.7663   -999.2500
  2181.5000     31.0190     43.3148     28.2471   -999.2500
  2181.7500     31.6261     43.2013     28.7343   -999.2500
  2182.0000     32.1338     43.0526     29.1415   -999.2500
  2182.2500     32.7736     42.8916     29.4377   -999.2500
  2182.5000     33.7207     42.7335     29.6567   -999.2500
  2182.7500     34.9797     42.5804     29.8720   -999.2500
  2183.0000     36.4084     42.4275     30.1621   -999.2500
  2183.2500     37.8178     42.2765     30.5805   -999.2500
  2183.5000     39.0574     42.1401     31.1404   -999.2500
  2183.7500     40.0380     42.0366     31.8197   -999.2500
  2184.0000     40.7201     41.9786     32.2381   -999.2500
  2184.2500     41.1240     41.9658     33.0320   -999.2500
  2184.5000     41.3412     41.9846     33.8201   -999.2500
  2184.7500     41.4814     42.0146     34.4875   -999.2500
  2185.0000     41.5774     42.0369     34.8434   -999.2500
  2185.2500     41.5264     42.0443     34.6889   -999.2500
  2185.5000     41.1138     42.0468     33.9437   -999.2500
  2185.7500     40.1301     42.0718     32.7192   -999.2500
  2186.0000     38.5064     42.1517     31.2715   -999.2500
  2186.2500     36.3577     42.3052     29.8851   -999.2500
  2186.5000     33.9288     42.5236     28.8024   -999.2500
  2186.7500     31.4869     42.7745     28.2378   -999.2500
  2187.0000     29.2132     43.0164     28.4468   -999.2500
  2187.2500     27.1637     43.2154     29.8049   -999.2500
  2187.5000     25.3245     43.3574     33.3182   -999.2500
  2187.7500     23.6853     43.4517     39.1592   -999.2500
  2188.0000     22.2478     43.5224     49.0097   -999.2500
  2188.2500     21.0032     43.5919     64.4198   -999.2500
  2188.5000     19.9293     43.6700     85.9759   -999.2500
  2188.7500     18.9989     43.7548    110.8310   -999.2500
  2189.0000     18.1843     43.8405    132.2183   -999.2500
  2189.2500     17.4671     43.9223    144.9473   -999.2500
  2189.5000     16.8460     43.9969    149.8564   -999.2500
  2189.7500     16.3286     44.0626    150.8337   -999.2500
  2190.0000     15.9263     44.1179    151.0850   -999.2500
  2190.2500     15.6519     44.1602    152.4631   -999.2500
  2190.5000     15.5082     44.1822   3055.4590   -999.2500
  2190.7500     15.4771     44.1727   9605.3711   -999.2500
  2191.0000     15.5315     44.1239 100000.0000   -999.2500
  2191.2500     15.6624     44.0395 100000.0000   -999.2500
  2191.5000     15.8825     43.9358 100000.0000   -999.2500
  2191.7500     16.2006     43.8318 100000.0000   -999.2500
  2192.0000     16.6315     43.7309 100000.0000   -999.2500
  2192.2500     17.2422     43.5777 100000.0000   -999.2500
  2192.5000     18.1315     43.1601 100000.0000   -999.2500
  2192.7500     19.3363     41.9604 100000.0000   -999.2500
  2193.0000     20.8045     39.1196 100000.0000   -999.2500
  2193.2500     22.3535     33.8300 100000.0000   -999.2500
  2193.5000     23.2474     26.1446 100000.0000   -999.2500
  2193.7500     21.7905     17.4432 100000.0000   -999.2500
  2194.0000     16.6071      9.7689 100000.0000   -999.2500
  2194.2500      9.0921      4.4967 100000.0000   -999.2500
  2194.5000      2.7321      1.6757 100000.0000   -999.2500
  2194.7500     -0.6137      0.5000 100000.0000   -999.2500
  2195.0000     -1.7283      0.1184 100000.0000   -999.2500
  2195.2500     -1.9650      0.0219 100000.0000   -999.2500
  2195.5000     -1.9972      0.0029 100000.0000   -999.2500
  2195.7500   -999.2500   -999.2500 100000.0000   -999.2500
  2196.0000   -999.2500   -999.2500 100000.0000   -999.2500
  2196.2500   -999.2500   -999.2500 100000.0000   -999.2500
  2196.5000   -999.2500   -999.2500 100000.0000   -999.2500
  2196.7500   -999.2500   -999.2500 100000.0000   -999.2500
  2197.0000   -999.2500   -999.2500 100000.0000   -999.2500
