~Version Information
VERS.                      2.0: CWLS Log ASCII Standard - VERSION 2.0
WRAP.                       NO: One line per depth step
~Well Information Block
STRT.FT               350.0000: 
STOP.FT              1391.5000: 
STEP.FT                 0.2500: 
NULL.                -999.2500: 
COMP.          Petrogulf Corporation: COMPANY
WELL.             Leier 17-42R: WELL
FLD.           Purgatorie River: FIELD
LOC.           2398' FNL & 1109' FEL: LOCATION
PROV.                 Colorado: PROVINCE
CNTY.               Las Animas: COUNTRY
SRVC.                Patterson: SERVICE COMPANY
DATE.          Mon Oct 17 09:42:26 2005: LOG DATE
UWI.                          : UNIQUE WELL ID
~Curve Information Block
DEPT.FT            0 000 00 00: Depth
SP.mV                         : DIL Spontaneous Potential
RILD.Ohm-m                    : DIL Deep Resistivity
RILM.Ohm-m                    : DIL Medium Resistivity
RLL3.Ohm-m                    : DIL Shallow Resistivity
GR.GAPI                       : Gamma Ray
~Parameter Information Block
~A  Depth        SP         RILD        RILM        RLL3         GR     
# ...
   490.0000    204.6838     24.6861     23.6438     27.3786    114.9432
   490.2500    206.2989     23.3935     22.2581     25.3537    116.2031
   490.5000    207.5643     22.2446     21.0453     24.8128    117.3392
   490.7500    208.5939     21.2182     19.9851     24.8156    117.7038
   491.0000    209.4910     20.3023     19.0608     24.5676    117.8565
   491.2500    210.3297     19.4988     18.2597     23.8080    117.9240
   491.5000    211.1450     18.8180     17.5730     22.7370    118.4762
   491.7500    211.9286     18.2679     16.9952     21.7092    119.2889
   492.0000    212.6391     17.8462     16.5223     20.9755    121.0340
   492.2500    213.2240     17.5410     16.1515     20.6038    122.3236
   492.5000    213.6397     17.3361     15.8803     20.5177    123.9782
   492.7500    213.8578     17.2171     15.7074     20.5664    124.6548
   493.0000    213.8634     17.1707     15.6331     20.5932    125.0870
   493.2500    213.6577     17.1810     15.6588     20.5045    125.5111
   493.5000    213.2658     17.2246     15.7855     20.3274    127.5193
   493.7500    212.7402     17.2707     16.0109     20.2763    129.8362
   494.0000    212.1552     17.2863     16.3240     20.8714    133.4028
   494.2500    211.5945     17.2470     16.7001     23.0504    134.9118
   494.5000    211.1410     17.1449     17.0964     27.9886    135.0006
   494.7500    210.8676     16.9919     17.4528     36.2500    133.0856
   495.0000    210.8273     16.8121     17.7007     46.4739    125.7882
   495.2500    211.0436     16.6307     17.7806     54.9526    117.6273
   495.5000    211.5026     16.4641     17.6622     57.4698    102.6941
   495.7500    212.1514     16.3162     17.3551     52.4675     93.8165
   496.0000    212.9026     16.1805     16.9041     42.4161     87.1541
   496.2500    213.6523     16.0473     16.3715     31.8159     88.5021
   496.5000    214.3089     15.9086     15.8177     23.9870     97.3749
   496.7500    214.8195     15.7605     15.2891     19.6673    105.0858
   497.0000    215.1748     15.6028     14.8160     17.8376    114.9709
   497.2500    215.3925     15.4395     14.4153     17.1483    119.4055
   497.5000    215.4913     15.2807     14.0967     16.7259    123.6013
   497.7500    215.4756     15.1453     13.8671     16.2920    125.8713
   498.0000    215.3377     15.0588     13.7334     15.9455    129.9136
   498.2500    215.0695     15.0476     13.7042     15.8567    132.9570
   498.5000    214.6682     15.1311     13.7895     16.0590    136.5357
   498.7500    214.1341     15.3168     14.0006     16.4720    137.4509
   499.0000    213.4668     15.6013     14.3489     17.1160    136.4923
   499.2500    212.6661     15.9761     14.8458     18.2732    134.7156
   499.5000    211.7341     16.4361     15.5010     20.3659    131.0529
   499.7500    210.6741     16.9843     16.3220     23.5940    128.2564
   500.0000    209.4884     17.6290     17.3119     27.6644    123.9082
   500.2500    208.1792     18.3765     18.4669     31.9156    120.9586
   500.5000    206.7488     19.2216     19.7733     35.7589    116.5846
   500.7500    205.1980     20.1425     21.2028     39.0169    114.1534
   501.0000    203.5275     21.1019     22.7071     41.8733    112.2824
   501.2500    201.7470     22.0517     24.2126     44.5911    112.2293
   501.5000    199.8866     22.9412     25.6192     47.3142    112.3854
   501.7500    197.9995     23.7227     26.8076     49.9831    111.5538
   502.0000    196.1511     24.3563     27.6610     52.1998    108.3411
   502.2500    194.3988     24.8141     28.0981     53.1397    105.3975
   502.5000    192.7712     25.0860     28.1018     51.8631    101.2393
   502.7500    191.2599     25.1848     27.7295     48.0323     99.4759
   503.0000    189.8289     25.1458     27.0938     42.3932     99.4217
   503.2500    188.4370     25.0191     26.3294     36.4175    101.3564
   503.5000    187.0605     24.8587     25.5609     31.3712    106.8065
   503.7500    185.7052     24.7108     24.8850     27.6802    111.6304
   504.0000    184.4025     24.6055     24.3674     25.0694    119.6113
   504.2500    183.1933     24.5526     24.0463     23.1642    124.5431
   504.5000    182.1111     24.5428     23.9385     21.9644    129.2109
   504.7500    181.1753     24.5539     24.0433     21.8917    129.5187
   505.0000    180.3988     24.5611     24.3428     23.5184    126.0393
   505.2500    179.7986     24.5479     24.8013     27.2454    122.2888
   505.5000    179.3972     24.5146     25.3642     33.0468    116.6125
   505.7500    179.2097     24.4806     25.9622     40.2019    113.2722
   506.0000    179.2256     24.4787     26.5202     47.0972    108.3248
   506.2500    179.4018     24.5428     26.9724     51.5566    104.3333
   506.5000    179.6738     24.6928     27.2756     51.9518     96.8126
   506.7500    179.9749     24.9223     27.4140     48.4029     91.6458
   507.0000    180.2499     25.1934     27.3940     42.8655     86.8568
   507.2500    180.4596     25.4413     27.2322     37.8034     87.1991
   507.5000    180.5799     25.5874     26.9445     34.5611     92.5777
   507.7500    180.6008     25.5622     26.5423     32.8234     97.3015
   508.0000    180.5235     25.3297     26.0349     31.4448    102.3393
   508.2500    180.3563     24.8994     25.4345     29.6829    103.8640
   508.5000    180.1140     24.3182     24.7607     27.6773    105.7037
   508.7500    179.8226     23.6483     24.0403     25.9650    108.1644
   509.0000    179.5217     22.9459     23.3056     24.8057    114.0830
   509.2500    179.2607     22.2529     22.5897     24.0340    118.5494
   509.5000    179.0883     21.5995     21.9228     23.3606    124.1621
   509.7500    179.0463     21.0094     21.3295     22.6416    126.7186
   510.0000    179.1716     20.4985     20.8260     21.9101    129.4513
   510.2500    179.5007     20.0673     20.4194     21.2808    131.3955
   510.5000    180.0688     19.6946     20.1056     20.8586    135.1561
   510.7500    180.9013     19.3402     19.8686     20.7106    137.5538
   511.0000    182.0002     18.9604     19.6798     20.9182    138.6647
   511.2500    183.3320     18.5256     19.4995     21.6408    136.6597
   511.5000    184.8244     18.0322     19.2809     23.0623    129.4811
   511.7500    186.3816     17.4991     18.9783     25.1694    123.0839
   512.0000    187.9108     16.9555     18.5576     27.5071    114.2523
   512.2500    189.3421     16.4280     18.0066     29.1842    110.5346
   512.5000    190.6316     15.9350     17.3395     29.2913    109.2411
   512.7500    191.7542     15.4877     16.5929     27.5183    110.6413
   513.0000    192.6941     15.0930     15.8152     24.4341    114.1733
   513.2500    193.4379     14.7555     15.0556     21.1015    116.4885
   513.5000    193.9745     14.4766     14.3548     18.3682    118.9147
   513.7500    194.3016     14.2548     13.7423     16.4831    119.6689
   514.0000    194.4328     14.0871     13.2370     15.2573    120.1420
   514.2500    194.3992     13.9730     12.8503     14.4336    120.8949
   514.5000    194.2460     13.9167     12.5892     13.8955    123.9176
   514.7500    194.0281     13.9274     12.4596     13.6634    127.0136
   515.0000    193.8088     14.0160     12.4685     13.7973    131.4400
   515.2500    193.6579     14.1912     12.6251     14.3065    133.0517
   515.5000    193.6433     14.4563     12.9423     15.1719    132.7166
   515.7500    193.8153     14.8104     13.4365     16.6093    131.1783
   516.0000    194.1932     15.2501     14.1264     19.5475    128.2958
   516.2500    194.7643     15.7715     15.0299     25.9356    126.1229
   516.5000    195.4991     16.3699     16.1589     38.2201    120.7963
   516.7500    196.3741     17.0380     17.5092     57.6318    114.4476
   517.0000    197.3902     17.7641     19.0485     82.0627     99.7696
   517.2500    198.5731     18.5302     20.7030    105.4809     87.5352
   517.5000    199.9533     19.3127     22.3509    120.3055     69.1754
   517.7500    201.5309     20.0815     23.8330    121.5691     59.1737
