~Version Information
VERS.                      2.0: CWLS Log ASCII Standard - VERSION 2.0
WRAP.                       NO: One line per depth step
~Well Information Block
STRT.FT               453.5000: 
STOP.FT              1386.0000: 
STEP.FT                 0.1000: 
NULL.                -999.2500: 
COMP.          Petrogulf Corporation: COMPANY
WELL.          Great Plains 22-22R: WELL
FLD.           Purgatoire River: FIELD
LOC.           2042' FNL & 1657' FWL--: LOCATION
PROV.                 Colorado: PROVINCE
CNTY.               Las Animas: COUNTRY
SRVC.                Patterson: SERVICE COMPANY
DATE.          Fri Sep 09 14:42:42 2005: LOG DATE
UWI.           05 071 08028 00: UNIQUE WELL ID
~Curve Information Block
DEPT.FT            0 000 00 00: Depth
DCAL.in                       : CDL Caliper
RHOB.g/cc                     : CDL Bulk Density
RHOC.g/cc                     : CDL Density Correction
DPOR.pu                       : CDL Density Porosity
NPOR.pu                       : Neutron Porosity
GR.GAPI                       : Gamma Ray
~Parameter Information Block
~A  Depth       DCAL        RHOB        RHOC        DPOR        NPOR         GR     
# ...
  1125.5000      8.1333      2.4687      0.0158     10.9883     28.1837    128.9368
  1125.6000      8.1333      2.4722      0.0668     10.7770     28.0865    125.9143
  1125.7000      8.1333      2.4838      0.0692     10.0719     28.0282    122.1846
  1125.8000      8.3410      2.4936      0.0243      9.4769     28.1611    119.4032
  1125.9000      8.3410      2.5020      0.0670      8.9668     28.4107    120.8089
  1126.0000      8.6150      2.5103      0.0937      8.4690     28.6666    126.0341
  1126.1000      8.6150      2.5170      0.0940      8.0605     28.4564    128.5455
  1126.2000      8.6150      2.5271      0.0560      7.4501     27.8100    125.5799
  1126.3000      8.7570      2.5442      0.1261      6.4100     27.2079    121.0065
  1126.4000      8.7570      2.5651      0.1123      5.1444     26.5625    119.0225
  1126.5000      8.5557      2.5868      0.1371      3.8275     25.7988    120.6067
  1126.6000      8.5557      2.6050      0.0866      2.7262     25.1433    121.2144
  1126.7000      8.5557      2.6195      0.0321      1.8474     24.5225    117.9229
  1126.8000      8.1543      2.6309      0.0711      1.1586     24.0751    111.5505
  1126.9000      8.1543      2.6276      0.0844      1.3574     24.1306    101.8545
  1127.0000      7.9059      2.6040      0.0762      2.7903     24.4294     90.4868
  1127.1000      7.9059      2.5794      0.0192      4.2806     24.3911     83.3484
  1127.2000      7.9059      2.5783      0.0492      4.3475     24.0283     82.2037
  1127.3000      7.8480      2.6025      0.0567      2.8810     23.4390     82.3849
  1127.4000      7.8480      2.6325      0.0924      1.0586     22.7159     80.6376
  1127.5000      7.8809      2.6490      0.0805      0.0630     22.4386     76.5573
  1127.6000      7.8809      2.6576      0.0429     -0.4603     22.9628     73.3843
  1127.7000      7.8809      2.6672      0.0715     -1.0403     23.9933     75.8829
  1127.8000      7.9475      2.6592      0.0397     -0.5586     24.8648     80.6032
  1127.9000      7.9475      2.6183      0.0493      1.9212     24.9656     82.5107
  1128.0000      7.9988      2.5589     -0.0092      5.5200     24.7375     82.8339
  1128.1000      7.9988      2.4976     -0.0019      9.2365     25.2768     82.8154
  1128.2000      7.9988      2.4303     -0.0454     13.3178     26.6790     81.0201
  1128.3000      8.0384      2.3587     -0.0625     17.6562     27.9921     77.8348
  1128.4000      8.0384      2.2969     -0.0867     21.4013     28.8097     75.9496
  1128.5000      8.0655      2.2424     -0.0722     24.7025     29.5657     76.4627
  1128.6000      8.0655      2.1730     -0.0549     28.9078     30.2400     79.9734
  1128.7000      8.0655      2.0902     -0.0840     33.9285     30.3875     84.2969
  1128.8000      8.0600      2.0323     -0.0955     37.4346     30.3762     87.2411
  1128.9000      8.0600      2.0203      0.0089     38.1656     31.0493     93.3795
  1129.0000      8.0465      2.0425      0.0628     36.8203     32.2044    106.2895
  1129.1000      8.0465      2.0847      0.2088     34.2617     32.6816    117.9173
  1129.2000      8.0465      2.1320      0.2358     31.3934     32.2253    120.1865
  1129.3000      8.0454      2.1744      0.2492     28.8240     31.6114    118.3057
  1129.4000      8.0454      2.2108      0.2306     26.6155     31.2223    121.3217
  1129.5000      8.0619      2.2373      0.2261     25.0110     30.9008    129.4638
  1129.6000      8.0619      2.2518      0.1750     24.1330     30.6584    135.7864
  1129.7000      8.0619      2.2667      0.0859     23.2281     30.7148    135.4949
  1129.8000      8.0985      2.2956      0.0570     21.4772     30.9013    132.2217
  1129.9000      8.0985      2.3404      0.0155     18.7630     30.7583    134.9806
  1130.0000      8.1402      2.3911      0.0909     15.6894     30.3498    145.2101
  1130.1000      8.1402      2.4313      0.0721     13.2565     30.0725    155.3663
  1130.2000      8.1402      2.4576      0.0811     11.6586     29.6314    160.5689
  1130.3000      8.1712      2.4783      0.1082     10.4081     28.6910    159.0175
  1130.4000      8.1712      2.4988      0.1191      9.1646     27.6999    152.3835
  1130.5000      8.1610      2.5199      0.1359      7.8850     27.2022    145.3133
  1130.6000      8.1610      2.5365      0.1236      6.8812     27.1678    142.5145
  1130.7000      8.1610      2.5449      0.1040      6.3673     27.1538    142.4364
  1130.8000      8.0855      2.5510      0.0683      6.0026     27.3286    141.3336
  1130.9000      8.0855      2.5605      0.0867      5.4214     27.8560    141.8068
  1131.0000      8.0068      2.5721      0.0476      4.7219     28.3435    143.7144
  1131.1000      8.0068      2.5771      0.0679      4.4173     28.4733    140.9772
  1131.2000      8.0068      2.5687      0.0396      4.9264     27.9836    135.1889
  1131.3000      7.9736      2.5562      0.0289      5.6833     26.8438    130.7985
  1131.4000      7.9736      2.5563      0.0089      5.6764     25.5365    125.6711
  1131.5000      7.9700      2.5689      0.0348      4.9169     24.6079    119.3913
  1131.6000      7.9700      2.5795      0.0265      4.2727     24.2334    113.0160
  1131.7000      7.9700      2.5824      0.0285      4.0983     24.4412    107.3457
  1131.8000      7.9745      2.5806      0.0220      4.2059     24.9260    104.4788
  1131.9000      7.9745      2.5738      0.0450      4.6179     25.0556    104.1247
  1132.0000      7.9766      2.5651      0.0179      5.1482     24.4514    103.1751
  1132.1000      7.9766      2.5679      0.0314      4.9751     23.2915     99.7286
  1132.2000      7.9766      2.5886      0.0409      3.7184     22.3322     94.2281
  1132.3000      7.9716      2.6166      0.0481      2.0253     21.8714     88.0363
  1132.4000      7.9716      2.6331      0.0620      1.0266     21.2623     82.8052
  1132.5000      7.9635      2.6270      0.0608      1.3913     20.3965     80.6773
  1132.6000      7.9635      2.6084      0.0119      2.5222     19.9241     82.4451
  1132.7000      7.9635      2.5979      0.0192      3.1549     19.8952     84.5920
  1132.8000      7.9530      2.5993      0.0417      3.0726     19.9273     85.0469
  1132.9000      7.9530      2.5978      0.0474      3.1612     19.7738     84.3336
  1133.0000      7.9373      2.5883     -0.0082      3.7419     19.5248     82.5995
  1133.1000      7.9373      2.5786      0.0090      4.3274     19.4851     82.5862
  1133.2000      7.9373      2.5697     -0.0303      4.8664     19.9324     84.6573
  1133.3000      7.9223      2.5572      0.0051      5.6227     21.0406     85.6425
  1133.4000      7.9223      2.5367     -0.0136      6.8648     22.7651     86.8027
  1133.5000      7.9155      2.5123     -0.0371      8.3473     24.8949     93.5707
  1133.6000      7.9155      2.5007     -0.0265      9.0487     27.2230    108.2877
  1133.7000      7.9155      2.5033      0.0119      8.8902     29.1760    125.4533
  1133.8000      7.9181      2.4962      0.0434      9.3224     30.1299    135.3991
  1133.9000      7.9181      2.4665      0.0017     11.1226     30.2737    137.4705
  1134.0000      7.9326      2.4318     -0.0072     13.2256     30.1789    136.7159
  1134.1000      7.9326      2.4108     -0.0028     14.4962     30.2683    133.9570
  1134.2000      7.9326      2.4060      0.0160     14.7893     30.5962    132.9540
  1134.3000      7.9593      2.4114      0.0490     14.4585     30.9243    137.8519
  1134.4000      7.9593      2.4215      0.0607     13.8511     31.0772    146.9709
  1134.5000      7.9899      2.4291      0.0840     13.3850     31.3910    155.7938
  1134.6000      7.9899      2.4249      0.1258     13.6415     31.8747    161.6941
  1134.7000      7.9899      2.4076      0.1116     14.6937     32.0442    166.7235
  1134.8000      8.0102      2.3888      0.1264     15.8327     32.0107    168.4781
  1134.9000      8.0102      2.3821      0.1066     16.2389     31.9238    163.3071
  1135.0000      8.0175      2.3959      0.1206     15.3992     31.4009    156.3630
