~Version Information
VERS.                      2.0: CWLS Log ASCII Standard - VERSION 2.0
WRAP.                       NO: One line per depth step
~Well Information Block
STRT.FT                -9.2500: 
STOP.FT              1945.2500: 
STEP.FT                 0.2500: 
NULL.                -999.2500: 
COMP.          Pioneer Natural Resources: COMPANY
WELL.          Titan Federal 34-17: WELL
FLD.           Purgatorie River: FIELD
LOC.           321' FSL & 1911' FEL: LOCATION
STAT.                       CO: State
CNTY.               Las Animas: COUNTY
CTRY. USA : Country
SECT. 17 : Section
TOWN. 32S : Township
RANG. 65W : Range
SRVC.          Patterson Wireline: SERVICE COMPANY
DATE.          Tue Oct 11 10:22:27 2005: LOG DATE
API.           05 071 08272 00: UNIQUE WELL ID
~Curve Information Block
DEPT.FT            0 000 00 00: Depth
CCL.                          : Casing Collar Locator
TT3.usec                      : CBL 3' Travel Time
AMP3.mV                       : CBL 3' Amplitude
GR.GAPI                       : Gamma Ray
~Parameter Information Block
~A  Depth       CCL         TT3         AMP3         GR     
# ...
   124.7500      0.0000    853.1805     11.9460    102.8280
   125.0000      0.0000    865.6467     12.1231    100.6322
   125.2500      0.0000    898.0463     12.2738     98.0556
   125.5000      0.0000    948.6330     12.4399     95.1842
   125.7500      0.0000   1003.8835     12.6267     91.6006
   126.0000      0.0000   1042.5493     12.7875     87.1088
   126.2500      0.0000   1050.4204     12.8517     81.9724
   126.5000      0.0000   1032.3428     12.7772     76.7889
   126.7500      0.0000   1008.7628     12.5845     72.3752
   127.0000      0.0000    998.0872     12.3387     69.5106
   127.2500      0.0000   1002.1696     12.0996     68.6403
   127.5000      0.0000   1010.6415     11.8896     69.7171
   127.7500      0.0000   1016.0024     11.7027     72.0355
   128.0000      0.0000   1018.4952     11.5319     74.3437
   128.2500      0.0000   1019.0458     11.3801     75.6761
   128.5000      0.0000   1015.5690     11.2533     76.3809
   128.7500      0.0000   1005.9772     11.1476     77.9507
   129.0000      0.0000    990.1887     11.0427     81.4789
   129.2500      0.0000    971.9189     10.9056     86.4194
   129.5000      0.0000    961.1516     10.7062     91.1171
   129.7500      0.0000    967.5570     10.4368     94.2631
   130.0000      0.0000    987.3499     10.1193     95.4168
   130.2500      0.0000   1003.4969      9.7959     94.4537
   130.5000      0.0000   1002.2401      9.5086     91.3090
   130.7500      0.0000    983.2452      9.2786     86.5797
   131.0000      0.0000    952.2774      9.0995     81.9745
   131.2500      0.0000    912.2260      8.9503     79.6414
   131.5000      0.0000    865.3456      8.8112     80.8338
   131.7500      0.0000    818.3522      8.6679     85.1225
   132.0000      0.0000    780.0999      8.5086     90.6149
   132.2500      0.0000    755.3423      8.3294     94.9060
   132.5000      0.0000    742.6517      8.1412     96.3531
   132.7500      0.0000    737.3063      7.9674     94.9437
   133.0000      0.0000    734.7262      7.8316     92.0174
   133.2500      0.0000    731.8788      7.7451     89.0083
   133.5000      0.0000    727.7169      7.7024     86.3874
   133.7500      0.0000    723.8357      7.6863     83.6440
   134.0000      0.0000    724.5115      7.6791     80.2012
   134.2500      0.0000    733.9190      7.6696     76.4153
   134.5000      0.0000    751.4626      7.6546     73.7646
   134.7500      0.0000    770.2446      7.6352     73.9611
   135.0000      0.0000    781.8786      7.6155     77.5929
   135.2500      0.0000    783.0209      7.6001     83.4071
   135.5000      0.0000    776.5936      7.5922     89.0708
   135.7500      0.0000    768.1260      7.5940     92.9382
   136.0000      0.0000    762.8699      7.6061     95.1055
   136.2500      0.0000    765.1121      7.6231     96.6909
   136.5000      0.0000    777.0246      7.6297     98.3280
   136.7500      0.0000    796.9243      7.6099     99.6461
   137.0000      0.0000    819.6992      7.5642    100.0615
   137.2500      0.0000    839.9589      7.5134     99.5400
   137.5000      0.0000    854.8314      7.4831     98.3818
   137.7500      0.0000    863.9591      7.4848     96.6611
   138.0000      0.0000    868.0037      7.5134     94.3522
   138.2500      0.0000    868.0667      7.5598     91.8879
   138.5000      0.0000    865.8703      7.6223     90.0287
   138.7500      0.0000    863.2634      7.7058     88.9971
   139.0000      0.0000    861.2647      7.8108     88.2916
   139.2500      0.0000    859.7678      7.9252     87.5696
   139.5000      0.0000    857.9094      8.0285     87.1162
   139.7500      0.0000    854.5107      8.1041     87.0643
   140.0000      0.0000    848.6469      8.1505     86.7111
   140.2500      0.0000    840.5363      8.1798     85.1313
   140.5000      0.0000    832.0652      8.2046     82.1616
   140.7500      0.0000    825.8909      8.2333     78.4531
   141.0000      0.0000    823.5262      8.2735     74.7910
   141.2500      0.0000    824.5263      8.3321     71.5553
   141.5000      0.0000    828.9362      8.4049     68.7351
   141.7500      0.0000    841.1553      8.4703     66.3067
   142.0000      0.0000    868.5137      8.5007     64.4135
   142.2500      0.0000    911.2211      8.4838     63.1493
   142.5000      0.0000    954.0822      8.4343     62.3351
   142.7500      0.0000    975.3744      8.3857     61.6234
   143.0000      0.0000    968.5637      8.3658     60.8110
   143.2500      0.0000    950.7734      8.3786     60.0889
   143.5000      0.0000    944.0823      8.4086     59.9297
   143.7500      0.0000    951.9107      8.4400     60.4867
   144.0000      0.0000    960.3370      8.4656     61.2120
   144.2500      0.0000    959.2188      8.4768     61.4061
   144.5000      0.0000    952.8380      8.4596     60.9080
   144.7500      0.0000    950.5473      8.4096     59.8319
   145.0000      0.0000    955.9021      8.3471     57.9622
   145.2500      0.0000    967.1834      8.3127     55.0004
   145.5000      0.0000    981.7802      8.3447     51.3474
   145.7500      0.0000    994.7368      8.4528     48.1334
   146.0000      0.0000    996.1248      8.6047     46.2957
   146.2500      0.0000    977.2508      8.7435     45.8986
   146.5000      0.0000    941.6808      8.8284     46.4384
   146.7500      0.0000    906.1608      8.8610     47.4722
   147.0000      0.0000    887.8621      8.8694     48.8093
   147.2500      0.0000    891.0093      8.8738     50.4151
   147.5000      0.0000    904.9866      8.8744     52.2675
   147.7500      0.0000    914.0613      8.8679     54.1756
   148.0000      0.0000    909.8855      8.8611     55.7901
   148.2500      0.0000    896.4021      8.8654     56.8446
   148.5000      0.0000    884.2870      8.8832     57.2019
   148.7500      0.0000    882.9053      8.9060     56.6479
   149.0000      0.0000    896.9706      8.9245     54.9512
   149.2500      0.0000    925.3890      8.9376     52.2593
   149.5000      0.0000    958.6675      8.9505     49.2629
   149.7500      0.0000    979.6273      8.9649     46.8139
   150.0000      0.0000    973.2682      8.9779     45.3719
   150.2500      0.0000    939.5609      8.9922     44.8307
   150.5000      0.0000    895.9133      9.0238     44.8964
   150.7500      0.0000    865.9551      9.0932     45.5529
   151.0000      0.0000    864.8735      9.2097     46.9243
   151.2500      0.0000    892.9448      9.3675     48.6981
   151.5000      0.0000    940.0420      9.5526     50.0849
   151.7500      0.0000    994.2631      9.7495     50.5391
   152.0000      0.0000   1045.9967      9.9438     50.2956
   152.2500      0.0000   1087.2186     10.1248     50.0539
   152.5000      0.0000   1112.1853     10.2869     50.2629
   152.7500      0.0000   1120.5017     10.4290     50.8171
   153.0000      0.0000   1117.3763     10.5540     51.4256
   153.2500      0.0000   1109.2288     10.6696     52.1636
   153.5000      0.0000   1098.7874     10.7863     53.4079
   153.7500      0.0000   1085.1476     10.9124     55.0734
   154.0000      0.0000   1069.1603     11.0493     56.1881
   154.2500      0.0000   1057.4448     11.1903     55.6662
   154.5000      0.0000   1058.7377     11.3187     53.5247
   154.7500      0.0000   1074.9812     11.4068     51.0624
   155.0000      0.0000   1097.1465     11.4255     49.7437
   155.2500      0.0000   1110.2168     11.3633     50.1031
   155.5000      0.0000   1101.1102     11.2360     51.6768
   155.7500      0.0000   1063.5620     11.0748     53.5836
   156.0000      0.0000   1001.2647     10.9026     55.0673
   156.2500      0.0000    928.9373     10.7279     55.9024
   156.5000      0.0000    866.9091     10.5557     56.5565
   156.7500      0.0000    830.3438     10.3958     57.6779
   157.0000      0.0000    821.0656     10.2477     59.1925
   157.2500      0.0000    827.5193     10.0811     60.2355
   157.5000      0.0000    832.4271      9.8375     60.2279
   157.7500      0.0000    824.2622      9.4741     59.6095
   158.0000      0.0000    804.7849      9.0213     59.1367
