~Version Information
VERS.                      2.0: CWLS Log ASCII Standard - VERSION 2.0
WRAP.                       NO: One line per depth step
~Well Information Block
STRT.FT                -9.2500: 
STOP.FT              2685.7500: 
STEP.FT                 0.2500: 
NULL.                -999.2500: 
COMP.          Pioneer Natural Resources: COMPANY
WELL.          Beacon 11-18 Tr: WELL
FLD.           Purgatorie River: FIELD
LOC.           409' FNL & 203' FWL--: LOCATION
PROV.                       CO: PROVINCE
CNTY.               Las Animas: COUNTRY
SRVC.                         : SERVICE COMPANY
DATE.          Fri Jan 21 09:45:44 2005: LOG DATE
UWI.        005 071 08251  : UNIQUE WELL ID
~Curve Information Block
DEPT.FT            0 000 00 00: Depth
CCL.                          : Casing Collar Locator
TT3.usec                      : CBL 3' Travel Time
AMP3.mV                       : CBL 3' Amplitude
GR.GAPI                       : Gamma Ray
~Parameter Information Block
~A  Depth       CCL         TT3         AMP3         GR     
# ...
  1230.2500      0.0000    733.8121      8.1324     81.1945
  1230.5000      0.0000    725.4109      7.7053     73.7027
  1230.7500      0.0000    716.6152      7.2864     67.4009
  1231.0000      0.0000    708.7101      6.9375     62.8884
  1231.2500      0.0000    701.1934      6.6726     60.4312
  1231.5000      0.0000    690.5320      6.4451     60.2457
  1231.7500      2.0000    671.7586      6.2157     63.3182
  1232.0000     -2.0000    643.4933      6.0003     71.3483
  1232.2500      0.0000    613.2925      5.8485     84.8444
  1232.5000      0.0000    596.2269      5.7967    101.2903
  1232.7500      0.0000    603.2917      5.8429    116.0648
  1233.0000      0.0000    629.1378      5.9494    125.4721
  1233.2500      0.0000    654.6063      6.0719    128.7453
  1233.5000      0.0000    664.0657      6.1982    127.6988
  1233.7500      0.0000    659.1145      6.3503    125.1528
  1234.0000      0.0000    654.4769      6.5474    123.2366
  1234.2500      0.0000    662.3085      6.7880    122.1713
  1234.5000      0.0000    682.1550      7.0699    120.4541
  1234.7500      0.0000    704.6688      7.3948    116.4409
  1235.0000      0.0000    721.3882      7.7487    109.4588
  1235.2500      0.0000    729.9191      8.0969     99.5944
  1235.5000      0.0000    732.6553      8.4009     87.6857
  1235.7500      0.0000    733.2633      8.6366     76.0501
  1236.0000      0.0000    734.1358      8.8054     67.9187
  1236.2500      0.0000    735.6886      8.9323     65.0905
  1236.5000      0.0000    737.1486      9.0512     66.4359
  1236.7500      0.0000    737.7111      9.1874     69.1062
  1237.0000      0.0000    736.8759      9.3477     70.8012
  1237.2500      0.0000    734.1813      9.5230     70.7294
  1237.5000      0.0000    729.1893      9.7025     69.2979
  1237.7500      0.0000    722.0589      9.8854     67.6935
  1238.0000      0.0000    713.9584     10.0712     67.4247
  1238.2500      0.0000    706.2823     10.2485     69.3863
  1238.5000      0.0000    698.8275     10.3986     72.9696
  1238.7500      0.0000    688.1649     10.5048     76.3229
  1239.0000      0.0000    667.8136     10.5536     77.8648
  1239.2500      0.0000    631.8293     10.5356     77.6916
  1239.5000      0.0000    581.0945     10.4481     77.4747
  1239.7500      0.0000    526.8821     10.2984     79.0358
  1240.0000      0.0000    485.3734     10.1037     83.2195
  1240.2500      0.0000    465.6177      9.8900     90.0393
  1240.5000      0.0000    462.5234      9.6879     99.1200
  1240.7500      0.0000    463.2727      9.5194    109.5519
  1241.0000      0.0000    460.6648      9.3795    119.7495
  1241.2500      0.0000    457.5892      9.2408    127.9314
  1241.5000      0.0000    457.9077      9.0915    132.7406
  1241.7500      0.0000    458.1908      8.9581    133.7383
  1242.0000      0.0000    452.4496      8.8773    131.9562
  1242.2500      0.0000    441.4540      8.8460    129.8476
  1242.5000      0.0000    433.2356      8.8149    130.0505
  1242.7500      0.0000    436.6581      8.7342    133.8871
  1243.0000      0.0000    457.2663      8.5981    140.7074
  1243.2500      0.0000    496.5119      8.4356    148.1886
  1243.5000      0.0000    550.5687      8.2684    153.8146
  1243.7500      0.0000    609.7697      8.0927    156.9155
  1244.0000      0.0000    662.1816      7.8964    159.2110
  1244.2500      0.0000    699.8531      7.6750    163.0452
  1244.5000      0.0000    721.9105      7.4319    169.1287
  1244.7500      0.0000    732.4274      7.1733    175.7249
  1245.0000      0.0000    736.3861      6.9085    179.7469
  1245.2500      0.0000    737.3384      6.6550    179.0505
  1245.5000      0.0000    737.1664      6.4404    174.3171
  1245.7500      0.0000    736.6943      6.2865    168.8083
  1246.0000      0.0000    736.2443      6.1905    165.9301
  1246.2500      0.0000    735.9572      6.1265    166.5670
  1246.5000      0.0000    735.8851      6.0653    168.7120
  1246.7500      0.0000    735.9326      5.9939    169.7596
  1247.0000      0.0000    735.6995      5.9263    168.6874
  1247.2500      0.0000    734.4599      5.8926    165.6623
  1247.5000      0.0000    731.5528      5.9088    160.6203
  1247.7500      0.0000    727.0375      5.9585    153.5182
  1248.0000      0.0000    721.8270      6.0102    145.7335
  1248.2500      0.0000    716.8793      6.0505    139.9933
  1248.5000      0.0000    712.4459      6.0971    138.2915
  1248.7500      0.0000    708.2769      6.1807    140.0302
  1249.0000      0.0000    703.9291      6.3143    142.4181
  1249.2500      0.0000    697.9462      6.4867    142.6534
  1249.5000      0.0000    687.3977      6.6763    139.8867
  1249.7500      0.0000    670.1461      6.8593    135.3769
  1250.0000      0.0000    647.8384      7.0081    131.1229
  1250.2500      0.0000    624.2706      7.0972    128.5103
  1250.5000      0.0000    600.6956      7.1105    128.0634
  1250.7500      0.0000    576.6098      7.0430    129.7221
  1251.0000      0.0000    555.9565      6.9081    132.6015
  1251.2500      0.0000    547.5841      6.7449    134.6944
  1251.5000      0.0000    557.5745      6.6021    133.9717
  1251.7500      0.0000    583.8132      6.5090    130.5304
  1252.0000      0.0000    617.8765      6.4659    127.0976
  1252.2500      0.0000    649.9835      6.4592    126.4533
  1252.5000      0.0000    673.4489      6.4761    128.4873
  1252.7500      0.0000    687.0070      6.5048    130.4746
  1253.0000      0.0000    693.7369      6.5325    130.0945
  1253.2500      0.0000    697.8842      6.5539    127.5687
  1253.5000      0.0000    702.3530      6.5780    124.8175
  1253.7500      0.0000    707.7886      6.6156    122.9956
  1254.0000      0.0000    713.0231      6.6611    121.3675
  1254.2500      0.0000    716.5986      6.7005    118.6721
  1254.5000      0.0000    718.2958      6.7299    115.2197
  1254.7500      0.0000    719.0359      6.7522    113.1219
  1255.0000      0.0000    719.4815      6.7583    114.2285
  1255.2500      0.0000    719.2188      6.7305    118.0130
  1255.5000      0.0000    717.6857      6.6638    121.8353
  1255.7500      0.0000    715.6902      6.5771    123.2440
  1256.0000      0.0000    715.3672      6.5054    121.7387
  1256.2500      0.0000    718.2822      6.4755    118.5845
  1256.5000      0.0000    723.8555      6.4837    115.7701
  1256.7500      0.0000    729.8499      6.4977    115.1386
  1257.0000      0.0000    733.8510      6.4872    117.3314
  1257.2500      0.0000    733.5668      6.4446    120.6881
  1257.5000      0.0000    725.3439      6.3789    121.8735
  1257.7500      0.0000    703.0236      6.3096    118.6782
  1258.0000      0.0000    660.3694      6.2702    112.1497
  1258.2500      0.0000    597.3232      6.2989    105.6856
  1258.5000      0.0000    524.2671      6.4162    102.6795
  1258.7500      0.0000    458.1054      6.6108    105.0783
  1259.0000      0.0000    413.2273      6.8411    112.8313
  1259.2500      0.0000    396.7587      7.0518    123.7342
  1259.5000      0.0000    410.4582      7.1997    134.3489
  1259.7500      0.0000    452.4542      7.2711    141.9845
  1260.0000      0.0000    514.9838      7.2758    145.9289
  1260.2500      0.0000    583.1335      7.2331    146.7400
  1260.5000      0.0000    639.5851      7.1758    145.0618
  1260.7500      0.0000    671.5039      7.1485    141.6321
  1261.0000      0.0000    672.8450      7.1777    137.8794
  1261.2500      0.0000    643.0607      7.2444    135.5960
  1261.5000      0.0000    587.5463      7.3053    135.7425
  1261.7500      0.0000    519.1564      7.3369    137.8052
  1262.0000      0.0000    454.9941      7.3534    140.3137
  1262.2500      0.0000    408.3938      7.3882    141.6887
  1262.5000      0.0000    383.6745      7.4635    140.5905
  1262.7500      0.0000    378.4214      7.5739    136.2331
  1263.0000      0.0000    389.7155      7.6939    129.0758
  1263.2500      0.0000    417.9796      7.7960    120.9585
  1263.5000      0.0000    465.2109      7.8617    113.9507
