~Version Information
 VERS.                                  2.0 : CWLS LAS VERSION
 WRAP.                                   NO : WRAPING MODE
 SWARE .                 MController 2.5.0E : SOFTWARE VERSION
~Well Information
 WELL.                        Triumph 13 10 : WELL
 COMP.             Evergreen Operating Corp : COMPANY
 FLD.                      Purgatorie River : FIELD
 LOC.                NW/SW Sec 10 T32S R66W : LOCATION
 DATE.                           7/22 23/04 : DATE(S) LOGGED
 SRVC.       Blanco Geological Services LLC : SERVICE COMPANY
 STAT.                                   CO : STATE
 CNTY.                           Las Animas : COUNTY
 CTRY.                                  USA : COUNTRY
 API.                       05 071 08108 00 : API NUMBER
 STRT.FT                             414.00 : START DEPTH
 STOP.FT                            2210.00 : STOP DEPTH
 STEP.FT                               1.00 : DEPTH INCREMENT
 NULL.                                 9999 : NULL VALUE
~Curve information
 DEPTH.FT                                   :
 ROP.MIN/FT                                 :
 GAS.UNITS                                  :
~ASCII Log data
# ...
     1014.00        0.400        674.7 
     1015.00        0.400       1102.5 
     1016.00        1.350       1435.4 
     1017.00        0.333       1138.3 
     1018.00        0.233       1102.2 
     1019.00        0.233        997.4 
     1020.00        0.267        938.8 
     1021.00        0.267        900.7 
     1022.00        0.233        894.7 
     1023.00        0.233        831.0 
     1024.00        0.167        800.7 
     1025.00        0.233        772.0 
     1026.00        0.167        752.2 
     1027.00        0.167        736.7 
     1028.00        0.167        723.9 
     1029.00        0.167        731.3 
     1030.00        0.167        746.1 
     1031.00        0.150        746.1 
     1032.00        0.167        758.2 
     1033.00        0.167        768.0 
     1034.00        0.167        772.0 
     1035.00        0.200        774.7 
     1036.00        0.167        774.7 
     1037.00        0.200        775.7 
     1038.00        0.167        769.3 
     1039.00        0.200        776.1 
     1040.00        0.200        787.9 
     1041.00        0.200        785.2 
     1042.00        0.200        776.1 
     1043.00        0.200        762.9 
     1044.00        0.233        738.3 
     1045.00        0.200        716.8 
     1046.00        3.117       1742.7 
     1047.00        0.267       1069.2 
     1048.00        0.200        983.3 
     1049.00        0.200        893.3 
     1050.00        0.217        880.9 
     1051.00        0.300        839.4 
     1052.00        0.233        796.3 
     1053.00        0.200        792.2 
     1054.00        0.167        795.6 
     1055.00        0.167        811.1 
     1056.00        0.167        820.5 
     1057.00        0.167        823.2 
     1058.00        0.167        827.3 
     1059.00        0.133        827.3 
     1060.00        0.200        817.2 
     1061.00        0.167        806.4 
     1062.00        0.167        797.3 
     1063.00        0.200        792.2 
     1064.00        0.167        790.6 
     1065.00        0.200        812.8 
     1066.00        0.167        828.6 
     1067.00        0.167        833.7 
     1068.00        0.133        827.3 
     1069.00        0.217        807.1 
     1070.00        0.167        773.4 
     1071.00        0.200        745.4 
     1072.00        0.200        769.7 
     1073.00        0.167        769.7 
     1074.00        0.133        880.9 
     1075.00        0.467       1499.8 
     1076.00        2.383       2302.0 
     1077.00        0.367       1136.9 
     1078.00        0.233       1066.2 
     1079.00        0.167       1032.5 
     1080.00        0.300       1011.9 
     1081.00        0.167        977.2 
     1082.00        0.167        934.8 
     1083.00        0.167        915.9 
     1084.00        0.167        915.9 
     1085.00        0.167        909.5 
     1086.00        0.167        877.1 
     1087.00        0.167        856.9 
     1088.00        0.200        854.2 
     1089.00        0.167        837.4 
     1090.00        0.200        823.2 
     1091.00        0.183        820.5 
     1092.00        0.233        803.4 
     1093.00        0.167        803.0 
     1094.00        0.167        801.3 
     1095.00        0.200        792.6 
     1096.00        0.233        795.3 
     1097.00        0.200        799.0 
     1098.00        0.233        807.1 
     1099.00        0.200        809.1 
     1100.00        0.233        809.4 
     1101.00        0.200        802.7 
     1102.00        0.200        779.4 
     1103.00        0.233        733.6 
     1104.00        0.200        664.6 
     1105.00        0.583        738.3 
     1106.00        2.233       1753.1 
     1107.00        0.267       1182.1 
     1108.00        0.200       1054.7 
     1109.00        0.233       1017.0 
     1110.00        0.200        988.3 
     1111.00        0.183        966.4 
     1112.00        0.167        947.6 
     1113.00        0.167        928.4 
     1114.00        0.167        911.5 
     1115.00        0.167        911.5 
     1116.00        0.167        900.1 
     1117.00        0.167        888.3 
     1118.00        0.167        875.5 
     1119.00        0.167        864.0 
     1120.00        0.200        852.6 
     1121.00        0.167        843.1 
     1122.00        0.167        830.3 
     1123.00        0.200        823.2 
     1124.00        0.200        820.2 
     1125.00        0.200        816.2 
     1126.00        0.200        823.9 
     1127.00        0.167        823.9 
     1128.00        0.200        844.1 
     1129.00        0.217        843.5 
     1130.00        0.200        828.0 
     1131.00        0.200        800.3 
     1132.00        0.200        763.3 
     1133.00        0.200        679.4 
     1134.00        0.200        639.3 
     1135.00        0.400        654.8 
     1136.00        2.017       1770.3 
     1137.00        0.367       1256.9 
     1138.00        0.267       1210.4 
     1139.00        0.233       1097.5 
     1140.00        0.200       1006.9 
     1141.00        0.300        983.3 
     1142.00        0.200        951.3 
     1143.00        0.133        941.8 
     1144.00        0.200        928.0 
     1145.00        0.200        905.4 
     1146.00        0.167        901.4 
     1147.00        0.200        881.2 
     1148.00        0.167        845.8 
     1149.00        0.167        834.0 
     1150.00        0.167        827.6 
     1151.00        0.167        826.3 
     1152.00        0.183        837.4 
     1153.00        0.167        837.4 
     1154.00        0.133        842.8 
     1155.00        0.167        839.1 
     1156.00        0.167        823.9 
     1157.00        0.233        805.0 
     1158.00        0.200        802.4 
     1159.00        0.133        809.8 
     1160.00        0.167        824.9 
     1161.00        0.167        845.8 
     1162.00        0.133        845.8 
     1163.00        0.167        851.5 
     1164.00        0.133        818.9 
     1165.00        0.333        790.2 
     1166.00        2.717       2141.9 
     1167.00        0.233       1373.1 
     1168.00        0.167       1316.1 
     1169.00        0.233       1193.2 
     1170.00        0.200       1179.0 
     1171.00        0.233       1077.6 
     1172.00        0.200       1002.5 
     1173.00        0.167        965.8 
     1174.00        0.217        951.3 
     1175.00        0.200        945.9 
     1176.00        0.233        914.9 
     1177.00        0.167        913.9 
     1178.00        0.200        871.4 
     1179.00        0.200        866.7 
     1180.00        0.300        836.0 
     1181.00        0.167        833.4 
     1182.00        0.133        833.4 
     1183.00        0.167        847.8 
     1184.00        0.167        851.2 
     1185.00        0.167        851.2 
     1186.00        0.200        858.6 
     1187.00        0.233        861.0 
     1188.00        0.200        862.3 
     1189.00        0.233        867.7 
     1190.00        0.233        859.0 
     1191.00        0.217        847.2 
     1192.00        0.267        837.1 
     1193.00        0.233        813.5 
     1194.00        0.200        767.3 
     1195.00        0.200        720.1 
     1196.00        3.050       2433.7 
     1197.00        0.400       1368.4 
     1198.00        0.300       1236.6 
     1199.00        0.267       1181.7 
     1200.00        0.233       1061.4 
     1201.00        0.200       1012.6 
     1202.00        0.200        948.2 
     1203.00        0.200        890.6 
     1204.00        0.200        869.1 
     1205.00        0.167        847.8 
     1206.00        0.167        827.3 
     1207.00        0.167        827.3 
     1208.00        0.133        833.0 
     1209.00        0.150        843.8 
     1210.00        0.133        843.8 
     1211.00        0.133        867.0 
     1212.00        0.167        873.8 
     1213.00        0.133        869.7 
