~Version Information
VERS.                      2.0: CWLS Log ASCII Standard - VERSION 2.0
WRAP.                       NO: One line per depth step
~Well Information Block
STRT.FT               241.5000: 
STOP.FT              2340.7500: 
STEP.FT                 0.2500: 
NULL.                -999.2500: 
COMP.          Petrogulf Corporation: COMPANY
WELL.            Montoya 1-24V: WELL
FLD.           Purgatorie River: FIELD
LOC.           605' FSL & 2557' FWL: LOCATION
CNTY.               Las Animas: COUNTY
SRVC.                         : SERVICE COMPANY
DATE.          Tue Nov 30 10:28:39 2004: LOG DATE
UWI.           05 071 08194 00: UNIQUE WELL ID
STAT.                 Colorado: STATE
~Curve Information Block
DEPT.FT            0 000 00 00: Depth
GR.GAPI                       : Gamma Ray
CCL.                          : Casing Collar Locator
TT3.usec                      : CBL 3' Travel Time
AMP3.mV                       : CBL 3' Amplitude
~Parameter Information Block
~A  Depth        GR         CCL         TT3         AMP3    
# ...
  1916.5000    109.4358      0.0000    577.3154      6.6639
  1916.7500    102.2923      0.0000    585.6511      6.7111
  1917.0000     95.8158      0.0000    594.1050      6.7940
  1917.2500     90.4409      0.0000    586.9093      6.8803
  1917.5000     86.4498      0.0000    558.4493      6.9290
  1917.7500     83.8558      0.0000    519.0268      6.8934
  1918.0000     82.4108      0.0000    488.9470      6.7450
  1918.2500     81.8035      0.0000    484.5160      6.4951
  1918.5000     81.5062      0.0000    506.3734      6.1839
  1918.7500     80.6738      0.0000    538.3076      5.8476
  1919.0000     78.9798      0.0000    557.3809      5.5064
  1919.2500     77.4151      0.0000    548.7068      5.1816
  1919.5000     77.3020      0.0000    514.2014      4.9054
  1919.7500     78.3973      0.0000    468.9266      4.7026
  1920.0000     78.7126      0.0000    429.5418      4.5656
  1920.2500     76.4648      0.0000    405.5867      4.4566
  1920.5000     71.7672      0.0000    399.6829      4.3353
  1920.7500     66.3862      0.0000    412.6234      4.1835
  1921.0000     62.3460      0.0000    445.2943      4.0081
  1921.2500     60.8039      0.0000    494.9084      3.8257
  1921.5000     61.5925      0.0000    551.5466      3.6504
  1921.7500     63.3857      0.0000    601.7625      3.4945
  1922.0000     64.5043      0.0000    636.8279      3.3719
  1922.2500     63.8818      0.0000    656.8293      3.2927
  1922.5000     61.4493      0.0000    667.3058      3.2499
  1922.7500     57.8848      0.0000    673.4793      3.2175
  1923.0000     54.2224      0.0000    677.4800      3.1685
  1923.2500     51.5604      0.0000    679.2008      3.0974
  1923.5000     50.7582      0.0000    678.5093      3.0252
  1923.7500     52.0570      0.0000    676.6090      2.9797
  1924.0000     54.8871      0.0000    675.7574      2.9712
  1924.2500     58.2266      0.0000    677.8636      2.9877
  1924.5000     61.2277      0.0000    683.1077      3.0137
  1924.7500     63.3710      0.0000    689.5742      3.0495
  1925.0000     64.0916      0.0000    694.4598      3.1051
  1925.2500     62.6542      0.0000    696.0887      3.1834
  1925.5000     58.7386      0.0000    694.7835      3.2784
  1925.7500     53.1687      0.0000    691.7897      3.3848
  1926.0000     47.7293      0.0000    687.8474      3.4997
  1926.2500     43.9495      0.0000    683.0021      3.6194
  1926.5000     42.2054      0.0000    677.0077      3.7477
  1926.7500     42.1352      0.0000    668.9937      3.9049
  1927.0000     43.5468      0.0000    656.8257      4.1139
  1927.2500     46.5517      0.0000    638.4465      4.3728
  1927.5000     50.9749      0.0000    615.8156      4.6481
  1927.7500     55.9604      0.0000    597.2198      4.9008
  1928.0000     60.2300      0.0000    592.5986      5.1176
  1928.2500     62.6819      0.0000    604.5953      5.3124
  1928.5000     62.8219      0.0000    625.6885      5.5027
  1928.7500     60.8652      0.0000    644.9656      5.6937
  1929.0000     57.6395      0.0000    655.7144      5.8856
  1929.2500     54.2455      0.0000    655.9488      6.0850
  1929.5000     51.4300      0.0000    644.9544      6.3036
  1929.7500     49.1634      0.0000    623.0391      6.5460
  1930.0000     46.9009      0.0000    595.0847      6.7984
  1930.2500     44.2845      0.0000    570.8744      7.0266
  1930.5000     41.6164      0.0000    557.8566      7.1943
  1930.7500     39.6149      0.0000    554.4642      7.2946
  1931.0000     38.7110      0.0000    554.7177      7.3591
  1931.2500     38.7220      0.0000    558.4944      7.4243
  1931.5000     39.2781      0.0000    571.6249      7.5010
  1931.7500     40.3083      0.0000    595.7534      7.5813
  1932.0000     41.8361      0.0000    623.6974      7.6537
  1932.2500     43.4398      0.0000    646.1734      7.6922
  1932.5000     44.4425      0.0000    659.4058      7.6513
  1932.7500     44.9094      0.0000    665.4445      7.5017
  1933.0000     46.1030      0.0000    668.3767      7.2625
  1933.2500     49.4524      0.0000    672.0132      6.9903
  1933.5000     55.1030      0.0000    679.5887      6.7438
  1933.7500     61.8493      0.0000    693.0698      6.5605
  1934.0000     68.4084      0.0000    711.0898      6.4480
  1934.2500     74.2745      0.0000    727.8294      6.3878
  1934.5000     79.2748      0.0000    735.6826      6.3523
  1934.7500     82.9399      0.0000    730.0917      6.3252
  1935.0000     84.8695      0.0000    711.8175      6.3011
  1935.2500     85.4443      0.0000    685.8289      6.2650
  1935.5000     85.5870      0.0000    659.8859      6.1853
  1935.7500     85.8848      0.0000    642.4755      6.0413
  1936.0000     86.3691      0.0000    638.1051      5.8539
  1936.2500     87.0300      0.0000    644.0185      5.6758
  1936.5000     88.1039      0.0000    653.2602      5.5498
  1936.7500     89.7984      0.0000    660.5687      5.4825
  1937.0000     91.9944      0.0000    664.5512      5.4539
  1937.2500     94.2953      0.0000    665.8555      5.4468
  1937.5000     96.3454      0.0000    664.9802      5.4656
  1937.7500     98.1467      0.0000    661.7061      5.5296
  1938.0000     99.9131      0.0000    655.7872      5.6494
  1938.2500    101.4874      0.0000    647.7155      5.8067
  1938.5000    102.1747      0.0000    638.0302      5.9404
  1938.7500    101.3857      0.0000    625.5535      5.9640
  1939.0000     99.2029      0.0000    608.3699      5.8336
  1939.2500     96.2348      0.0000    588.9713      5.6101
  1939.5000     93.4518      0.0000    576.7087      5.4207
  1939.7500     92.3730     -3.0000    580.6592      5.3472
  1940.0000     94.5662      3.0000    599.3203      5.3780
  1940.2500    100.2538      3.0000    620.6790      5.4581
  1940.5000    107.8898      0.0000    633.6041      5.5523
  1940.7500    115.5915      0.0000    637.4158      5.6560
  1941.0000    122.5150      0.0000    640.1391      5.7802
  1941.2500    128.4496      0.0000    649.3376      5.9470
  1941.5000    132.7162      0.0000    665.9345      6.1866
  1941.7500    134.2401      0.0000    685.8200      6.5104
  1942.0000    132.6595      0.0000    704.6589      6.8733
  1942.2500    128.9608      0.0000    720.1458      7.1775
  1942.5000    124.8028      0.0000    731.5461      7.3369
  1942.7500    121.2062      0.0000    738.9323      7.3430
  1943.0000    118.0530      0.0000    742.9648      7.2568
  1943.2500    114.8765      0.0000    744.8142      7.1426
  1943.5000    111.7749      0.0000    745.9806      7.0298
  1943.7500    109.2719      0.0000    747.9679      6.9257
  1944.0000    107.5356      0.0000    751.6194      6.8320
  1944.2500    106.0893      0.0000    756.3395      6.7393
  1944.5000    104.2587      0.0000    760.1467      6.6298
  1944.7500    101.7462      0.0000    761.2253      6.4988
  1945.0000     98.8585      0.0000    759.8084      6.3645
  1945.2500     96.1821      0.0000    758.1881      6.2521
  1945.5000     93.9030      0.0000    758.5956      6.1716
  1945.7500     91.7012      0.0000    761.0913      6.1110
  1946.0000     89.6493      0.0000    763.5122      6.0511
  1946.2500     88.8683      0.0000    763.4536      5.9893
  1946.5000     90.6573      0.0000    760.3276      5.9505
  1946.7500     94.9921      0.0000    755.4517      5.9698
  1947.0000    100.2215      0.0000    750.2397      6.0602
  1947.2500    104.2306      0.0000    744.4260      6.2034
  1947.5000    105.8459      0.0000    735.9014      6.3701
  1947.7500    105.4633      0.0000    722.3066      6.5366
  1948.0000    104.5784      0.0000    703.4209      6.6765
  1948.2500    104.4348      0.0000    682.3840      6.7534
  1948.5000    104.8019      0.0000    664.1488      6.7361
  1948.7500    104.1836      0.0000    652.2382      6.6176
  1949.0000    101.3441      0.0000    646.8344      6.4101
  1949.2500     96.4865      0.0000    645.4627      6.1245
  1949.5000     90.9753      0.0000    645.0157      5.7636
  1949.7500     86.2628      0.0000    643.5772      5.3430
