~Version Information
VERS.                      2.0: CWLS Log ASCII Standard - VERSION 2.0
WRAP.                       NO: One line per depth step
~Well Information Block
STRT.FT                -2.2500: 
STOP.FT              1676.7500: 
STEP.FT                 0.2500: 
NULL.                -999.2500: 
COMP.          Pioneer Natural Resources: COMPANY
WELL.              Patten 22-2: WELL
FLD.           Purgatoire River: FIELD
LOC.           2157' FNL & 1528' FWL: LOCATION
PROV.                 Colorado: PROVINCE
CNTY.               Las Animas: COUNTRY
SRVC.                Patterson: SERVICE COMPANY
DATE.          Tue Dec 14 11:45:47 2004: LOG DATE
UWI.           05 071 08168 00: UNIQUE WELL ID
~Curve Information Block
DEPT.FT            0 000 00 00: Depth
GR.GAPI                       : Gamma Ray
CCL.                          : Casing Collar Locator
TT3.usec                      : CBL 3' Travel Time
AMP3.mV                       : CBL 3' Amplitude
~Parameter Information Block
~A  Depth        GR         CCL         TT3         AMP3    
# ...
  1538.7500     68.3395      0.0000    687.3021      6.5702
  1539.0000     64.2706      0.0000    668.7590      6.8319
  1539.2500     61.5406      0.0000    653.4078      6.9288
  1539.5000     60.0537      0.0000    644.4861      6.8575
  1539.7500     59.1949      0.0000    643.1242      6.6545
  1540.0000     58.2658      0.0000    648.6442      6.3798
  1540.2500     57.0729      0.0000    658.9548      6.0904
  1540.5000     56.1493      0.0000    670.7515      5.8195
  1540.7500     56.2433      0.0000    680.6483      5.5735
  1541.0000     57.7079      0.0000    687.0444      5.3404
  1541.2500     60.4140      0.0000    690.6762      5.1026
  1541.5000     63.9333      0.0000    692.8699      4.8488
  1541.7500     67.6651      0.0000    693.3570      4.5822
  1542.0000     70.9316      0.0000    690.3550      4.3218
  1542.2500     73.2103      0.0000    683.0350      4.0973
  1542.5000     74.5068      0.0000    673.3527      3.9374
  1542.7500     75.5328      0.0000    665.0829      3.8553
  1543.0000     77.2105      0.0000    661.5837      3.8454
  1543.2500     79.6708      0.0000    664.7555      3.8935
  1543.5000     81.6693      0.0000    675.2598      3.9883
  1543.7500     81.2499      0.0000    692.3653      4.1240
  1544.0000     77.4171      0.0000    712.8120      4.2986
  1544.2500     71.3533      0.0000    730.4771      4.5131
  1544.5000     65.7813      0.0000    738.9564      4.7729
  1544.7500     62.8570      0.0000    735.6551      5.0909
  1545.0000     62.6568      0.0000    723.2609      5.4874
  1545.2500     63.7287      0.0000    707.4310      5.9692
  1545.5000     64.9375      0.0000    694.0485      6.4949
  1545.7500     66.5207      0.0000    687.8107      6.9793
  1546.0000     69.2311      0.0000    690.3942      7.3536
  1546.2500     72.6816      0.0000    698.7912      7.6115
  1546.5000     74.9987      2.0000    707.1852      7.7841
  1546.7500     74.3732      0.0000    711.6061      7.8930
  1547.0000     70.7345     -2.0000    712.1096      7.9404
  1547.2500     65.7097      0.0000    710.4036      7.9244
  1547.5000     61.1711      0.0000    706.7695      7.8546
  1547.7500     58.1297      0.0000    700.0367      7.7597
  1548.0000     56.7588      0.0000    689.6744      7.6714
  1548.2500     56.8172      0.0000    677.3262      7.5896
  1548.5000     57.7628      0.0000    666.9317      7.4853
  1548.7500     58.8120      0.0000    663.2921      7.3634
  1549.0000     59.3908      0.0000    668.8135      7.2903
  1549.2500     59.6785      0.0000    680.6596      7.3205
  1549.5000     60.4499      0.0000    692.1923      7.4246
  1549.7500     62.1488      0.0000    698.1741      7.5240
  1550.0000     64.2044      0.0000    698.2002      7.5742
  1550.2500     65.4328      0.0000    694.9899      7.5892
  1550.5000     65.1108      0.0000    690.0790      7.6015
  1550.7500     63.5637      0.0000    681.7247      7.6252
  1551.0000     61.7317      0.0000    667.4896      7.6558
  1551.2500     60.4109      0.0000    649.3027      7.6868
  1551.5000     59.9893      0.0000    634.9312      7.7212
  1551.7500     60.4917      0.0000    632.3198      7.7669
  1552.0000     61.4379      0.0000    642.1548      7.8263
  1552.2500     61.8810      0.0000    657.3486      7.8907
  1552.5000     61.1243      0.0000    669.5004      7.9474
  1552.7500     59.5972      0.0000    674.4674      7.9881
  1553.0000     58.7387      0.0000    672.7105      8.0079
  1553.2500     59.7966      0.0000    666.9672      8.0005
  1553.5000     62.7179      0.0000    660.2310      7.9624
  1553.7500     66.1015      0.0000    654.3572      7.9016
  1554.0000     68.0868      0.0000    649.5179      7.8364
  1554.2500     67.4917      0.0000    645.0957      7.7796
  1554.5000     64.5429      0.0000    640.9729      7.7269
  1554.7500     60.8105      0.0000    637.5994      7.6658
  1555.0000     58.2830      0.0000    635.0128      7.5943
  1555.2500     57.9979      0.0000    632.0037      7.5264
  1555.5000     59.2421      0.0000    625.7107      7.4761
  1555.7500     60.2469      0.0000    611.7911      7.4405
  1556.0000     59.8902      0.0000    586.3062      7.4042
  1556.2500     58.6377      0.0000    549.4530      7.3570
  1556.5000     57.8210      0.0000    507.7533      7.3029
  1556.7500     58.3037      0.0000    471.1204      7.2508
  1557.0000     59.9465      0.0000    447.0750      7.1994
  1557.2500     62.0029      0.0000    438.3681      7.1358
  1557.5000     63.7454      0.0000    445.3692      7.0491
  1557.7500     64.8998      0.0000    467.9877      6.9416
  1558.0000     65.7483      0.0000    503.5922      6.8285
  1558.2500     66.8142      0.0000    544.5521      6.7285
  1558.5000     68.2784      0.0000    580.7057      6.6587
  1558.7500     69.6359      0.0000    605.2554      6.6337
  1559.0000     70.0175      0.0000    617.6066      6.6645
  1559.2500     68.9712      0.0000    620.9147      6.7552
  1559.5000     66.9107      0.0000    618.5311      6.8983
  1559.7500     64.7279      0.0000    613.2923      7.0775
  1560.0000     63.0314      0.0000    608.5005      7.2766
  1560.2500     61.8787      0.0000    606.9259      7.4828
  1560.5000     61.1364      0.0000    607.7128      7.6778
  1560.7500     60.7858      0.0000    606.4200      7.8286
  1561.0000     60.8041      0.0000    600.8580      7.8915
  1561.2500     60.9889      0.0000    596.0168      7.8295
  1561.5000     61.0863      0.0000    600.0435      7.6278
  1561.7500     61.0632      0.0000    615.2333      7.2954
  1562.0000     61.1942      0.0000    635.5296      6.8594
  1562.2500     61.8368      0.0000    652.9641      6.3613
  1562.5000     63.1207      0.0000    664.0939      5.8548
  1562.7500     64.8910      0.0000    670.1130      5.3954
  1563.0000     66.8767      0.0000    673.5483      5.0204
  1563.2500     68.7880      0.0000    676.3970      4.7364
  1563.5000     70.2682      0.0000    680.1539      4.5293
  1563.7500     70.8379      0.0000    685.7868      4.3835
  1564.0000     70.0366      0.0000    693.4074      4.2901
  1564.2500     67.8241      0.0000    702.4442      4.2396
  1564.5000     64.8843      0.0000    711.7726      4.2151
  1564.7500     62.3577      0.0000    719.2718      4.1942
  1565.0000     61.1446      0.0000    722.1844      4.1575
  1565.2500     61.3419      0.0000    719.3349      4.0964
  1565.5000     62.2629      0.0000    713.2128      4.0149
  1565.7500     63.0820      0.0000    709.0954      3.9263
  1566.0000     63.4552      0.0000    711.6060      3.8426
  1566.2500     63.3821      0.0000    721.5795      3.7650
  1566.5000     62.6733      0.0000    734.9793      3.6841
  1566.7500     61.0166      0.0000    744.4949      3.5903
  1567.0000     58.5453      0.0000    743.8640      3.4863
  1567.2500     55.9082      0.0000    732.2165      3.3860
  1567.5000     53.7078      0.0000    714.4142      3.3038
  1567.7500     52.1753      0.0000    697.4841      3.2424
  1568.0000     51.3616      0.0000    686.9764      3.1924
  1568.2500     51.3804      0.0000    685.1865      3.1413
  1568.5000     52.4245      0.0000    690.5482      3.0856
  1568.7500     54.5352      0.0000    698.1863      3.0353
  1569.0000     57.2559      0.0000    702.2753      3.0059
  1569.2500     59.7520      0.0000    699.3082      3.0041
  1569.5000     61.5909      0.0000    690.0061      3.0234
  1569.7500     63.1184      0.0000    678.4052      3.0495
  1570.0000     64.7959      0.0000    668.8907      3.0703
  1570.2500     66.6353      0.0000    663.5170      3.0814
  1570.5000     68.7311      0.0000    661.5335      3.0858
  1570.7500     71.8650      0.0000    660.9188      3.0882
  1571.0000     76.8546      0.0000    660.0208      3.0904
  1571.2500     83.2091      0.0000    658.0438      3.0920
  1571.5000     88.8115      0.0000    654.8138      3.0948
  1571.7500     91.2130      0.0000    650.6283      3.1012
  1572.0000     89.2626      0.0000    646.2672      3.1089
