~Version Information
VERS.                      2.0: CWLS Log ASCII Standard - VERSION 2.0
WRAP.                       NO: One line per depth step
~Well Information Block
STRT.FT               454.0000: 
STOP.FT              1389.0000: 
STEP.FT                 0.1000: 
NULL.                -999.2500: 
COMP.          Pioneer Natural Resources: COMPANY
WELL.          Lorencito 6-3-34-66: WELL
FLD.           Purgatoire River: FIELD
LOC.           2545' FNL & 1914' FWL: LOCATION
STAT.                 Colorado: State
CNTY.               Las Animas: COUNTY
CTRY. USA : Country
SECT. 3 : Section
TOWN. 34S : Township
RANG. 66W : Range
SRVC.                Patterson: SERVICE COMPANY
DATE.          Mon Sep 12 07:20:37 2005: LOG DATE
API.        05 071 08369 00: UNIQUE WELL ID
~Curve Information Block
DEPT.FT            0 000 00 00: Depth
DCAL.in                       : CDL Caliper
RHOB.g/cc                     : CDL Bulk Density
RHOC.g/cc                     : CDL Density Correction
DPOR.pu                       : CDL Density Porosity
GR.GAPI                       : Gamma Ray
NPOR.pu                       : Neutron Porosity
~Parameter Information Block
~A  Depth       DCAL        RHOB        RHOC        DPOR         GR         NPOR    
# ...
   886.0000      8.3384      2.4540      0.0422     11.8799    160.3023     29.7980
   886.1000      8.3384      2.4444      0.0439     12.4619    166.0771     29.6424
   886.2000      8.3384      2.4209      0.0172     13.8843    169.1407     30.3582
   886.3000      8.2904      2.3951     -0.0359     15.4501    168.5767     31.4381
   886.4000      8.2904      2.3780     -0.0206     16.4866    166.5127     31.9407
   886.5000      8.3151      2.3813     -0.0220     16.2854    164.3861     31.7916
   886.6000      8.3151      2.4135      0.0145     14.3349    160.4335     31.4117
   886.7000      8.3151      2.4549      0.1053     11.8223    157.0001     30.6677
   886.8000      8.3743      2.4783      0.0700     10.4087    154.5538     29.5966
   886.9000      8.3743      2.4825      0.0773     10.1504    152.1599     29.0089
   887.0000      8.3937      2.4766      0.0717     10.5070    151.6779     28.9376
   887.1000      8.3937      2.4684      0.0325     11.0073    147.3505     28.9212
   887.2000      8.3937      2.4658      0.0172     11.1623    137.6026     29.4215
   887.3000      8.2639      2.4659      0.0284     11.1602    132.3819     30.3132
   887.4000      8.2639      2.4637      0.0010     11.2886    133.9262     30.5554
   887.5000      8.2010      2.4629      0.0190     11.3386    138.0103     30.2730
   887.6000      8.2010      2.4601      0.0028     11.5120    140.7030     29.8811
   887.7000      8.2010      2.4466      0.0019     12.3245    141.4404     29.3143
   887.8000      8.2402      2.4302     -0.0105     13.3231    146.1258     28.7223
   887.9000      8.2402      2.4212      0.0110     13.8649    154.9389     28.2831
   888.0000      8.2233      2.4180      0.0155     14.0588    165.0732     27.9098
   888.1000      8.2233      2.4284     -0.0336     13.4321    174.0187     27.2115
   888.2000      8.2233      2.4609      0.0272     11.4622    176.3292     26.4430
   888.3000      8.2284      2.5016      0.0674      8.9917    170.6537     26.6398
   888.4000      8.2284      2.5388      0.0158      6.7376    163.1774     27.8434
   888.5000      8.2500      2.5743      0.0976      4.5889    156.3134     29.1058
   888.6000      8.2500      2.5994      0.0810      3.0664    147.0674     29.6450
   888.7000      8.2500      2.5995      0.1105      3.0594    140.2538     29.5583
   888.8000      8.2223      2.5754      0.0927      4.5226    141.5518     29.3441
   888.9000      8.2223      2.5474      0.0449      6.2207    146.2226     28.8622
   889.0000      8.1731      2.5276      0.0151      7.4197    147.4715     28.2808
   889.1000      8.1731      2.5056      0.0150      8.7520    147.6893     28.2023
   889.2000      8.1731      2.4738     -0.0124     10.6759    151.6184     27.9056
   889.3000      8.1105      2.4425     -0.0594     12.5758    158.1897     27.0855
   889.4000      8.1105      2.4215     -0.0115     13.8455    164.1386     26.7407
   889.5000      8.0791      2.4110     -0.0148     14.4841    165.5469     26.8676
   889.6000      8.0791      2.4081      0.0110     14.6629    160.5937     27.1894
   889.7000      8.0791      2.4039      0.0283     14.9145    152.5415     27.8016
   889.8000      8.1355      2.3952      0.0076     15.4452    145.0330     28.2181
   889.9000      8.1355      2.3943     -0.0165     15.4972    141.2056     28.2674
   890.0000      8.1532      2.4006      0.0512     15.1164    143.7416     28.3568
   890.1000      8.1532      2.3907      0.0556     15.7160    146.9408     28.4919
   890.2000      8.1532      2.3580     -0.0235     17.6971    143.0356     28.7637
   890.3000      8.1823      2.3213      0.0091     19.9222    137.0047     29.3423
   890.4000      8.1823      2.3013     -0.0774     21.1304    139.5982     29.5518
   890.5000      8.1852      2.3020     -0.0042     21.0927    148.6692     28.5775
   890.6000      8.1852      2.3036      0.0083     20.9936    154.3469     27.3752
   890.7000      8.1852      2.2932     -0.0105     21.6253    155.6505     27.1525
   890.8000      8.1917      2.2755     -0.0003     22.6955    153.4426     27.5011
   890.9000      8.1917      2.2630     -0.0421     23.4558    148.9620     27.8354
   891.0000      8.1964      2.2700     -0.0292     23.0317    150.7370     28.4130
   891.1000      8.1964      2.2938      0.0365     21.5902    157.8667     29.3399
   891.2000      8.1964      2.3182      0.0235     20.1081    157.6060     30.0198
   891.3000      8.2137      2.3396      0.0089     18.8120    150.4827     29.9691
   891.4000      8.2137      2.3575      0.0629     17.7291    146.4268     28.9648
   891.5000      8.1979      2.3652      0.0609     17.2636    146.8226     27.4364
   891.6000      8.1979      2.3696      0.0430     16.9941    147.7754     26.4334
   891.7000      8.1979      2.3880      0.0395     15.8760    143.1394     26.3238
   891.8000      8.1083      2.4214      0.0890     13.8571    131.5947     26.5278
   891.9000      8.1083      2.4476      0.1043     12.2671    122.5429     26.8728
   892.0000      8.1182      2.4536      0.0643     11.9001    123.5798     27.6298
   892.1000      8.1182      2.4477      0.0560     12.2614    130.8250     28.3564
   892.2000      8.1182      2.4304      0.1121     13.3084    135.4154     28.5611
   892.3000      8.0923      2.4012      0.0528     15.0788    136.7128     28.7690
   892.4000      8.0923      2.3806      0.0521     16.3276    142.5114     29.3347
   892.5000      8.0780      2.3852      0.0821     16.0459    152.8528     29.6821
   892.6000      8.0780      2.4137      0.0557     14.3212    154.6924     29.5050
   892.7000      8.0780      2.4585      0.0905     11.6090    142.1249     29.2315
   892.8000      8.0432      2.5128      0.1151      8.3123    130.0508     29.3544
   892.9000      8.0432      2.5659      0.1740      5.0973    132.8426     29.9674
   893.0000      8.0619      2.5958      0.1949      3.2859    141.7985     30.6718
   893.1000      8.0619      2.5946      0.1939      3.3557    142.5632     31.0446
   893.2000      8.0619      2.5827      0.1750      4.0801    138.8003     31.0232
   893.3000      8.1463      2.5778      0.2198      4.3767    139.9873     30.5999
   893.4000      8.1463      2.5755      0.1569      4.5162    145.9484     29.8994
   893.5000      8.1177      2.5665      0.1154      5.0632    150.0426     29.3886
   893.6000      8.1177      2.5561      0.0785      5.6905    147.1277     29.2026
   893.7000      8.1177      2.5548      0.0755      5.7726    139.6178     28.7019
   893.8000      8.0653      2.5588      0.0650      5.5276    132.5248     27.9545
   893.9000      8.0653      2.5529      0.0668      5.8826    129.1647     27.8879
   894.0000      8.1159      2.5354     -0.0223      6.9475    130.4623     28.4759
   894.1000      8.1159      2.5183      0.0618      7.9819    132.6061     28.8577
   894.2000      8.1159      2.4993      0.0601      9.1323    134.5388     28.4076
   894.3000      8.1254      2.4778      0.0099     10.4362    139.0088     27.2338
   894.4000      8.1254      2.4681      0.0177     11.0250    141.6631     26.5260
   894.5000      8.1116      2.4746      0.0014     10.6277    140.8515     27.2410
   894.6000      8.1116      2.4876      0.0195      9.8439    143.2754     28.4423
   894.7000      8.1116      2.4984      0.0441      9.1908    145.5300     28.5915
   894.8000      8.0871      2.5065      0.0402      8.6954    138.9309     27.8197
   894.9000      8.0871      2.5111      0.0630      8.4159    130.0387     27.0579
   895.0000      8.0716      2.5125      0.0271      8.3347    128.7970     26.6930
   895.1000      8.0716      2.5118      0.0692      8.3727    129.0726     26.6244
   895.2000      8.0716      2.5122      0.0418      8.3544    125.2731     26.5937
   895.3000      8.0327      2.5254      0.0632      7.5525    124.5361     26.7241
   895.4000      8.0327      2.5474      0.0898      6.2161    132.5714     26.9686
   895.5000      8.0699      2.5489      0.1000      6.1283    144.8671     27.0135
