~Version Information
VERS.                      2.0: CWLS Log ASCII Standard - VERSION 2.0
WRAP.                       NO: One line per depth step
~Well Information Block
STRT.FT                15.0000: 
STOP.FT              2565.5000: 
STEP.FT                 0.2500: 
NULL.                -999.2500: 
COMP.          Pioneer Natural Resources: COMPANY
WELL.           Costello 44-24: WELL
FLD.           Purgatoire River: FIELD
LOC.           327' FSL & 378' FEL: LOCATION
PROV.                 Colorado: PROVINCE
CNTY.               Las Animas: COUNTRY
SRVC.                Patterson: SERVICE COMPANY
DATE.          Mon Jul 25 10:15:19 2005: LOG DATE
UWI.           05 071 08413 00: UNIQUE WELL ID
~Curve Information Block
DEPT.FT            0 000 00 00: Depth
GR.GAPI                       : Gamma Ray
CCL.                          : Casing Collar Locator
TT3.usec                      : CBL 3' Travel Time
AMP3.mV                       : CBL 3' Amplitude
~Parameter Information Block
~A  Depth        GR         CCL         TT3         AMP3    
# ...
  1187.5000    122.0834      0.0000    697.5732      6.0611
  1187.7500    118.2580      0.0000    703.8307      6.0560
  1188.0000    114.4172      0.0000    709.5941      6.0504
  1188.2500    111.5357      0.0000    712.3047      6.0426
  1188.5000    110.9799      0.0000    711.9301      6.0204
  1188.7500    113.4385      0.0000    711.0163      5.9725
  1189.0000    118.3751      0.0000    711.7540      5.9015
  1189.2500    124.4079      0.0000    714.5568      5.8241
  1189.5000    130.1602      0.0000    718.6365      5.7588
  1189.7500    134.7581      0.0000    722.2269      5.7153
  1190.0000    137.6079      0.0000    722.9565      5.6959
  1190.2500    138.0902      0.0000    719.5804      5.7047
  1190.5000    135.9756      0.0000    713.3260      5.7452
  1190.7500    132.1317      0.0000    706.9816      5.8090
  1191.0000    128.3975      0.0000    702.9009      5.8748
  1191.2500    126.4459      0.0000    701.8631      5.9233
  1191.5000    126.5495      0.0000    703.1618      5.9508
  1191.7500    127.4270      0.0000    705.2534      5.9669
  1192.0000    127.6757      0.0000    706.6641      5.9785
  1192.2500    127.5197      0.0000    706.9624      5.9821
  1192.5000    128.7066      0.0000    706.7599      5.9680
  1192.7500    132.4852      0.0000    706.2487      5.9289
  1193.0000    138.0528      0.0000    704.2618      5.8649
  1193.2500    143.0141      0.0000    699.5410      5.7865
  1193.5000    145.0726      0.0000    692.4465      5.7114
  1193.7500    143.6147      0.0000    684.8135      5.6547
  1194.0000    140.3453      0.0000    678.4880      5.6216
  1194.2500    138.3354      0.0000    674.2969      5.6112
  1194.5000    139.8394      0.0000    672.0270      5.6197
  1194.7500    144.6932      0.0000    670.9534      5.6430
  1195.0000    150.6796      0.0000    670.3750      5.6783
  1195.2500    155.1680      0.0000    669.8717      5.7253
  1195.5000    156.5340      0.0000    669.3469      5.7795
  1195.7500    154.7619      0.0000    668.9769      5.8246
  1196.0000    151.3882      0.0000    669.1205      5.8384
  1196.2500    148.7319      0.0000    670.0507      5.8088
  1196.5000    148.3068      0.0000    671.4173      5.7410
  1196.7500    149.4895      0.0000    671.6199      5.6479
  1197.0000    150.0188      0.0000    667.7181      5.5400
  1197.2500    148.0809      0.0000    656.3023      5.4241
  1197.5000    143.7892      0.0000    634.9941      5.3099
  1197.7500    138.6527      0.0000    604.5363      5.2167
  1198.0000    134.0122      0.0000    571.1840      5.1713
  1198.2500    130.2658      0.0000    546.3653      5.1917
  1198.5000    127.2656      0.0000    540.0977      5.2683
  1198.7500    124.8947      0.0000    552.0054      5.3669
  1199.0000    123.1482      0.0000    570.0969      5.4528
  1199.2500    121.9129      0.0000    580.5085      5.5114
  1199.5000    120.9028      0.0000    578.6343      5.5486
  1199.7500    119.8130      0.0000    571.0517      5.5802
  1200.0000    118.4302      0.0000    568.2623      5.6258
  1200.2500    116.4904      0.0000    576.5516      5.7012
  1200.5000    113.5585      0.0000    595.3303      5.8050
  1200.7500    109.4224      0.0000    619.3757      5.9144
  1201.0000    104.8801      0.0000    642.5662      6.0019
  1201.2500    101.9011      0.0000    660.8268      6.0569
  1201.5000    102.4116      0.0000    672.8822      6.0859
  1201.7500    106.5475      0.0000    679.0536      6.0917
  1202.0000    112.0893      0.0000    680.2330      6.0611
  1202.2500    115.8303      0.0000    678.0763      5.9767
  1202.5000    115.8546      0.0000    675.0418      5.8435
  1202.7500    112.8519      0.0000    673.3683      5.6962
  1203.0000    109.4224      0.0000    673.9708      5.5759
  1203.2500    108.0989      0.0000    676.3998      5.5019
  1203.5000    109.8480      0.0000    679.6870      5.4636
  1203.7500    114.1395      0.0000    682.9526      5.4381
  1204.0000    120.0302      0.0000    684.6763      5.4120
  1204.2500    126.7779      0.0000    681.8863      5.3893
  1204.5000    133.4586      0.0000    672.2004      5.3777
  1204.7500    138.7586      0.0000    657.9854      5.3709
  1205.0000    141.7428      0.0000    646.6906      5.3459
  1205.2500    142.4690      0.0000    644.7026      5.2811
  1205.5000    141.5003      0.0000    651.3826      5.1792
  1205.7500    139.1361      0.0000    660.6071      5.0698
  1206.0000    135.2182      0.0000    667.3641      4.9836
  1206.2500    129.2823      0.0000    671.5047      4.9246
  1206.5000    120.9245      0.0000    675.9670      4.8734
  1206.7500    110.5475      0.0000    683.1937      4.8139
  1207.0000     99.7456      0.0000    693.3279      4.7501
  1207.2500     90.4784      0.0000    704.3267      4.6939
  1207.5000     83.7607      0.0000    712.8852      4.6432
  1207.7500     79.2685      0.0000    716.0720      4.5792
  1208.0000     76.0134      0.0000    713.4454      4.4898
  1208.2500     73.1000      0.0000    707.7936      4.3989
  1208.5000     70.0318      0.0000    703.3383      4.3661
  1208.7500     66.8740      0.0000    703.0620      4.4417
  1209.0000     64.3747      0.0000    707.2463      4.6186
  1209.2500     63.7028      0.0000    713.5775      4.8362
  1209.5000     65.8353      0.0000    718.6119      5.0323
  1209.7500     71.0620      0.0000    719.6932      5.1739
  1210.0000     78.9342      0.0000    715.4664      5.2440
  1210.2500     88.5501      0.0000    705.2796      5.2262
  1210.5000     98.8603      0.0000    690.1498      5.1240
  1210.7500    108.7430      0.0000    674.4215      4.9820
  1211.0000    116.9027      0.0000    663.7593      4.8688
  1211.2500    122.0023      0.0000    660.2585      4.8337
  1211.5000    123.3711      0.0000    661.2427      4.8729
  1211.7500    121.9243      0.0000    663.5145      4.9322
  1212.0000    120.1711     -2.3676    666.9007      4.9472
  1212.2500    120.6467     -2.4655    672.5933      4.8915
  1212.5000    123.9179      0.0000    679.7189      4.7891
  1212.7500    128.2708      0.0000    685.2953      4.6904
  1213.0000    131.5479      0.0000    686.8481      4.6443
  1213.2500    133.0741      0.0000    683.5284      4.6820
  1213.5000    133.6998      0.0000    674.7011      4.7993
  1213.7500    134.5432      0.0000    658.8470      4.9510
  1214.0000    136.1436      0.0000    635.1155      5.0840
  1214.2500    138.3504      0.0000    606.0146      5.1746
  1214.5000    140.3946      0.0000    577.7062      5.2215
  1214.7500    141.1678      0.0000    557.3038      5.2223
  1215.0000    139.9047      0.0000    549.8699      5.1796
  1215.2500    136.8024      0.0000    556.3583      5.1170
  1215.5000    132.9324      0.0000    572.5679      5.0647
  1215.7500    129.4027      0.0000    590.7874      5.0318
  1216.0000    126.3064      0.0000    604.1015      5.0022
  1216.2500    122.4941      0.0000    609.2213      4.9603
  1216.5000    116.9411      0.0000    605.5103      4.9111
  1216.7500    110.5525      0.0000    593.3597      4.8760
  1217.0000    106.0310      0.0000    575.1355      4.8724
  1217.2500    105.5775      0.0000    557.0661      4.8987
  1217.5000    108.9921      0.0000    547.8405      4.9383
  1217.7500    114.2554      0.0000    553.3821      4.9760
  1218.0000    119.7059      0.0000    572.1874      5.0089
  1218.2500    125.3242      0.0000    595.5966      5.0417
  1218.5000    131.9750      0.0000    612.7186      5.0719
  1218.7500    139.8790      0.0000    616.5687      5.0863
  1219.0000    148.0850      0.0000    607.9137      5.0732
  1219.2500    154.9624      0.0000    594.3325      5.0347
  1219.5000    158.7242      0.0000    584.0874      4.9887
  1219.7500    157.9172      0.0000    579.3975      4.9568
  1220.0000    152.2294      0.0000    575.7589      4.9483
  1220.2500    143.0816      0.0000    567.6365      4.9508
  1220.5000    133.1510      0.0000    553.9767      4.9433
  1220.7500    124.9030      0.0000    538.4346      4.9202
