~Version Information
VERS.                      2.0: CWLS Log ASCII Standard - VERSION 2.0
WRAP.                       NO: One line per depth step
~Well Information Block
STRT.FT               652.0000: 
STOP.FT              1880.5000: 
STEP.FT                 0.2500: 
NULL.                -999.2500: 
COMP.          Pioneer Natural Resources: COMPANY
WELL.          Corkscrew 33-12 Tr: WELL
FLD.           Purgatoire River: FIELD
LOC.           1870' FSL & 1706' FEL: LOCATION
PROV.                 Colorado: PROVINCE
CNTY.               Las Animas: COUNTRY
SRVC.                Patterson: SERVICE COMPANY
DATE.          Mon Mar 28 22:58:28 2005: LOG DATE
UWI.           05 071 08295 00: UNIQUE WELL ID
~Curve Information Block
DEPT.FT            0 000 00 00: Depth
SN.Ohm-m                      : IEL Short Normal
SP.mV                         : IEL Spontaneous Potential
DIR.Ohm-m                     : IEL Induction Resistivity
GR.GAPI                       : Gamma Ray
~Parameter Information Block
~A  Depth        SN          SP         DIR          GR     
# ...
  1389.0000     25.4298     -4.7555     10.4266     82.7533
  1389.2500     23.3497     -4.7008      9.9628     84.7630
  1389.5000     21.4608     -4.7011      9.6412     90.6224
  1389.7500     19.8527     -4.7487      9.4504     96.3571
  1390.0000     18.5504     -4.8384      9.3656    106.5593
  1390.2500     17.4476     -4.9643      9.3481    113.4794
  1390.5000     16.3837     -5.1134      9.3528    123.1140
  1390.7500     15.2766     -5.2640      9.3418    129.1337
  1391.0000     14.1685     -5.3925      9.2964    137.7579
  1391.2500     13.1567     -5.4836      9.2208    142.7773
  1391.5000     12.3019     -5.5371      9.1334    147.9471
  1391.7500     11.6051     -5.5667      9.0530    149.4810
  1392.0000     11.0588     -5.5910      8.9878    149.2069
  1392.2500     10.6885     -5.6211      8.9324    147.6477
  1392.5000     10.5263     -5.6545      8.8738    143.9602
  1392.7500     10.5635     -5.6786      8.7996    141.2949
  1393.0000     10.7525     -5.6773      8.7053    138.5165
  1393.2500     11.0324     -5.6340      8.5990    138.0384
  1393.5000     11.3412     -5.5342      8.5011    138.7478
  1393.7500     11.6268     -5.3732      8.4415    138.9295
  1394.0000     11.8349     -5.1627      8.4496    136.4186
  1394.2500     11.9044     -4.9267      8.5449    132.0345
  1394.5000     11.8109     -4.6868      8.7286    121.3293
  1394.7500     11.5853     -4.4481      8.9817    112.3401
  1395.0000     11.2860     -4.1967      9.2674     98.8683
  1395.2500     11.0011     -3.9106      9.5407     91.5051
  1395.5000     10.8845     -3.5740      9.7642     84.3142
  1395.7500     11.1122     -3.1849      9.9210     82.1009
  1396.0000     11.7180     -2.7587     10.0167     81.9463
  1396.2500     12.5065     -2.3317     10.0687     83.4585
  1396.5000     13.1921     -1.9534     10.0927     87.6002
  1396.7500     13.5920     -1.6626     10.0924     91.5973
  1397.0000     13.6687     -1.4665     10.0591     99.6339
  1397.2500     13.4724     -1.3435      9.9809    106.2443
  1397.5000     13.0955     -1.2648      9.8553    117.0815
  1397.7500     12.6395     -1.2165      9.6957    123.9291
  1398.0000     12.1997     -1.2040      9.5269    131.7385
  1398.2500     11.8637     -1.2366      9.3754    134.7049
  1398.5000     11.6979     -1.3033      9.2618    136.6182
  1398.7500     11.7314     -1.3624      9.1984    137.4650
  1399.0000     11.9297     -1.3603      9.1900    139.4254
  1399.2500     12.1609     -1.2685      9.2359    140.6269
  1399.5000     12.2351     -1.1054      9.3309    139.9218
  1399.7500     12.0415     -0.9231      9.4685    136.9087
  1400.0000     11.6673     -0.7744      9.6462    129.2299
  1400.2500     11.3873     -0.6898      9.8727    123.2189
  1400.5000     11.5499     -0.6711     10.1701    114.7362
  1400.7500     12.4455     -0.6969     10.5676    109.8280
  1401.0000     14.1679     -0.7331     11.0911    103.1839
  1401.2500     16.4763     -0.7456     11.7538     98.9105
  1401.5000     18.8742     -0.7087     12.5517     92.9394
  1401.7500     20.9694     -0.6104     13.4611     89.7623
  1402.0000     22.6896     -0.4560     14.4375     86.8858
  1402.2500     24.1407     -0.2706     15.4216     86.1967
  1402.5000     25.4252     -0.0897     16.3562     86.5264
  1402.7500     26.5559      0.0585     17.2062     87.4329
  1403.0000     27.4454      0.1649     17.9610     89.4951
  1403.2500     27.9826      0.2364     18.6196     90.9464
  1403.5000     28.1124      0.2834     19.1753     92.4021
  1403.7500     27.8698      0.3100     19.6198     92.7499
  1404.0000     27.3947      0.3108     19.9633     92.8478
  1404.2500     26.9002      0.2755     20.2507     92.8094
  1404.5000     26.5757      0.1954     20.5574     91.7899
  1404.7500     26.5055      0.0723     20.9538     89.7185
  1405.0000     26.6691     -0.0751     21.4618     84.3578
  1405.2500     26.9902     -0.2189     22.0226     80.0897
  1405.5000     27.4032     -0.3481     22.5023     74.3973
  1405.7500     27.8873     -0.4829     22.7511     71.6677
  1406.0000     28.4130     -0.6591     22.6924     69.3412
  1406.2500     28.8846     -0.8955     22.3679     68.7582
  1406.5000     29.1696     -1.1785     21.8901     68.7523
  1406.7500     29.1616     -1.4691     21.3472     69.0798
  1407.0000     28.8038     -1.7219     20.7485     70.1028
  1407.2500     28.0676     -1.9033     20.0486     71.3597
  1407.5000     26.9235     -2.0013     19.2167     74.6320
  1407.7500     25.3556     -2.0238     18.2855     78.1073
  1408.0000     23.4441     -1.9909     17.3378     85.8124
  1408.2500     21.4070     -1.9274     16.4587     92.5983
  1408.5000     19.5088     -1.8575     15.7022    104.1822
  1408.7500     17.9361     -1.7983     15.0897    111.7165
  1409.0000     16.7683     -1.7577     14.6234    121.0144
  1409.2500     16.0105     -1.7375     14.2962    125.5144
  1409.5000     15.5796     -1.7388     14.0915    129.7920
  1409.7500     15.3173     -1.7660     13.9817    130.8319
  1410.0000     15.1348     -1.8266     13.9353    128.9597
  1410.2500     15.0869     -1.9304     13.9296    125.3267
  1410.5000     15.2320     -2.0876     13.9589    117.1829
  1410.7500     15.5374     -2.3056     14.0285    110.7923
  1411.0000     15.9528     -2.5861     14.1410    101.0368
  1411.2500     16.4754     -2.9203     14.2924     94.8934
  1411.5000     17.1240     -3.2859     14.4801     86.6314
  1411.7500     17.8756     -3.6463     14.7110     82.0544
  1412.0000     18.6239     -3.9592     14.9990     77.5289
  1412.2500     19.2270     -4.1923     15.3505     76.5639
  1412.5000     19.6177     -4.3374     15.7506     77.9516
  1412.7500     19.8369     -4.4130     16.1580     79.8632
  1413.0000     19.9664     -4.4522     16.5133     82.0185
  1413.2500     20.0733     -4.4844     16.7622     81.8227
  1413.5000     20.2142     -4.5245     16.8828     77.9647
  1413.7500     20.4726     -4.5727     16.8985     73.1343
  1414.0000     20.9459     -4.6237     16.8624     64.2728
  1414.2500     21.6493     -4.6734     16.8275     58.9881
  1414.5000     22.4819     -4.7180     16.8295     54.6217
  1414.7500     23.3594     -4.7481     16.8923     54.5973
  1415.0000     24.3218     -4.7467     17.0422     57.6416
  1415.2500     25.4102     -4.6945     17.3121     60.3180
  1415.5000     26.5252     -4.5783     17.7277     63.1422
  1415.7500     27.5372     -4.3960     18.2887     63.5768
  1416.0000     28.4766     -4.1588     18.9622     62.2283
  1416.2500     29.5299     -3.8924     19.6970     60.8112
  1416.5000     30.8568     -3.6303     20.4472     59.8866
  1416.7500     32.4403     -3.4014     21.1846     60.9269
  1417.0000     34.1063     -3.2142     21.8823     65.0062
  1417.2500     35.6301     -3.0507     22.4859     68.6109
  1417.5000     36.8071     -2.8735     22.9080     73.3855
  1417.7500     37.5144     -2.6439     23.0694     75.1690
  1418.0000     37.7670     -2.3450     22.9655     75.0633
  1418.2500     37.6992     -1.9931     22.6941     73.3849
  1418.5000     37.4695     -1.6300     22.4088     69.3314
  1418.7500     37.1658     -1.3007     22.2400     65.9343
  1419.0000     36.7899     -1.0330     22.2457     60.0325
  1419.2500     36.3371     -0.8301     22.4158     55.9167
  1419.5000     35.8671     -0.6749     22.7064     50.7868
  1419.7500     35.4912     -0.5396     23.0703     48.8396
  1420.0000     35.2889     -0.4007     23.4593     48.4982
  1420.2500     35.2144     -0.2512     23.8070     49.5767
  1420.5000     35.1044     -0.1029     24.0357     52.2090
  1420.7500     34.8108      0.0262     24.1056     54.4523
  1421.0000     34.2992      0.1257     24.0574     58.8098
  1421.2500     33.6293      0.1940     23.9885     62.3576
  1421.5000     32.9002      0.2240     23.9749     67.7191
  1421.7500     32.1976      0.1890     24.0128     70.5032
  1422.0000     31.5631      0.0516     24.0256     72.3511
  1422.2500     31.0349     -0.2100     23.9320     71.6881
