~Version Information
VERS.                      2.0: CWLS Log ASCII Standard - VERSION 2.0
WRAP.                       NO: One line per depth step
~Well Information Block
STRT.FT               491.0000: 
STOP.FT              1056.0000: 
STEP.FT                 0.2500: 
NULL.                -999.2500: 
COMP.          Evergreen Operating Corporation: COMPANY
WELL.              Sunset 24-3: WELL
FLD.           Purgatorie River: FIELD
LOC.           467' FSL & 2262' FWL: LOCATION
PROV.                 Colorado: PROVINCE
CNTY.               Las Animas: COUNTRY
SRVC.                         : SERVICE COMPANY
DATE.          Wed Sep 22 11:23:45 2004: LOG DATE
UWI.           05 071 08158 00: UNIQUE WELL ID
~Curve Information Block
DEPT.FT            0 000 00 00: Depth
SN.Ohm-m                      : IEL Short Normal
SP.mV                         : IEL Spontaneous Potential
DIR.Ohm-m                     : IEL Induction Resistivity
GR.GAPI                       : Gamma Ray
~Parameter Information Block
~A  Depth        SN          SP         DIR          GR     
# ...
   692.0000     10.9799    -26.5400      9.7308    121.0759
   692.2500     11.1484    -26.5484      9.8409    120.0149
   692.5000     11.3651    -26.5148     10.0120    119.2782
   692.7500     11.6182    -26.4357     10.2328    118.7434
   693.0000     11.8995    -26.3097     10.4945    116.4042
   693.2500     12.2050    -26.1382     10.7949    113.6284
   693.5000     12.5347    -25.9267     11.1406    108.9359
   693.7500     12.8949    -25.6843     11.5463    106.5081
   694.0000     13.2988    -25.4237     12.0291    104.6758
   694.2500     13.7679    -25.1593     12.6034    104.2194
   694.5000     14.3306    -24.9055     13.2750    103.2680
   694.7500     15.0186    -24.6748     14.0387    101.9487
   695.0000     15.8617    -24.4766     14.8747     98.9479
   695.2500     16.8827    -24.3166     15.7476     96.2884
   695.5000     18.0907    -24.1971     16.6059     90.5715
   695.7500     19.4719    -24.1174     17.3876     85.0081
   696.0000     20.9752    -24.0742     18.0316     73.9619
   696.2500     22.4973    -24.0616     18.4931     65.5495
   696.5000     23.8802    -24.0715     18.7567     53.2317
   696.7500     24.9339    -24.0933     18.8394     46.2185
   697.0000     25.4863    -24.1147     18.7838     39.0627
   697.2500     25.4423    -24.1230     18.6439     37.4753
   697.5000     24.8217    -24.1069     18.4697     41.1957
   697.7500     23.7559    -24.0581     18.2937     48.0250
   698.0000     22.4433    -23.9735     18.1222     63.9168
   698.2500     21.0877    -23.8550     17.9349     76.8151
   698.5000     19.8487    -23.7095     17.6987     95.9104
   698.7500     18.8203    -23.5465     17.3891    106.3882
   699.0000     18.0358    -23.3764     17.0064    116.7788
   699.2500     17.4879    -23.2071     16.5763    120.2313
   699.5000     17.1501    -23.0432     16.1394    121.8889
   699.7500     16.9916    -22.8847     15.7391    121.9944
   700.0000     16.9839    -22.7277     15.4141    122.4558
   700.2500     17.1022    -22.5660     15.1946    123.3465
   700.5000     17.3255    -22.3933     15.1025    125.1719
   700.7500     17.6368    -22.2047     15.1517    126.1334
   701.0000     18.0235    -21.9990     15.3489    126.0229
   701.2500     18.4745    -21.7790     15.6936    124.4389
   701.5000     18.9768    -21.5514     16.1771    119.9559
   701.7500     19.5102    -21.3258     16.7791    116.3376
   702.0000     20.0474    -21.1130     17.4622    111.9094
   702.2500     20.5588    -20.9237     18.1692    110.3999
   702.5000     21.0226    -20.7672     18.8332    109.8342
   702.7500     21.4326    -20.6503     19.4011    109.5066
   703.0000     21.7990    -20.5771     19.8567    107.7838
   703.2500     22.1390    -20.5491     20.2219    106.0055
   703.5000     22.4653    -20.5651     20.5377    103.3143
   703.7500     22.7790    -20.6213     20.8421    101.4640
   704.0000     23.0721    -20.7120     21.1568     97.5609
   704.2500     23.3357    -20.8301     21.4837     93.9043
   704.5000     23.5664    -20.9672     21.8072     87.8180
   704.7500     23.7677    -21.1150     22.1042     84.3066
   705.0000     23.9461    -21.2656     22.3589     80.5587
   705.2500     24.1070    -21.4127     22.5723     78.7734
   705.5000     24.2540    -21.5511     22.7609     76.5292
   705.7500     24.3902    -21.6777     22.9452     75.3420
   706.0000     24.5191    -21.7911     23.1377     74.3374
   706.2500     24.6439    -21.8914     23.3373     74.1137
   706.5000     24.7650    -21.9809     23.5324     73.8971
   706.7500     24.8781    -22.0634     23.7080     73.5409
   707.0000     24.9744    -22.1441     23.8526     72.4282
   707.2500     25.0431    -22.2296     23.9588     71.1894
   707.5000     25.0755    -22.3263     24.0187     68.4902
   707.7500     25.0677    -22.4400     24.0234     66.3119
   708.0000     25.0204    -22.5739     23.9714     63.3000
   708.2500     24.9374    -22.7279     23.8799     62.0403
   708.5000     24.8238    -22.8973     23.7823     61.8246
   708.7500     24.6855    -23.0733     23.7031     62.6558
   709.0000     24.5283    -23.2442     23.6327     64.4109
   709.2500     24.3584    -23.3971     23.5251     65.2760
   709.5000     24.1812    -23.5207     23.3310     65.6329
   709.7500     24.0010    -23.6082     23.0408     65.4282
   710.0000     23.8206    -23.6582     22.6995     65.0796
   710.2500     23.6413    -23.6764     22.3787     65.0778
   710.5000     23.4642    -23.6740     22.1335     65.5121
   710.7500     23.2905    -23.6671     21.9785     65.9444
   711.0000     23.1232    -23.6735     21.8930     66.3986
   711.2500     22.9665    -23.7111     21.8430     66.5073
   711.5000     22.8253    -23.7956     21.8002     66.8737
   711.7500     22.7027    -23.9386     21.7497     67.6428
   712.0000     22.5992    -24.1471     21.6823     69.5461
   712.2500     22.5137    -24.4229     21.5837     70.7148
   712.5000     22.4451    -24.7624     21.4335     71.0870
   712.7500     22.3936    -25.1578     21.2197     70.1681
   713.0000     22.3588    -25.5972     20.9619     67.6260
   713.2500     22.3366    -26.0669     20.7144     65.7479
   713.5000     22.3168    -26.5517     20.5388     63.5222
   713.7500     22.2838    -27.0367     20.4657     62.7071
   714.0000     22.2215    -27.5078     20.4765     62.3596
   714.2500     22.1186    -27.9528     20.5205     62.3644
   714.5000     21.9732    -28.3613     20.5476     62.3896
   714.7500     21.7933    -28.7256     20.5310     62.6495
   715.0000     21.5937    -29.0410     20.4672     64.0820
   715.2500     21.3917    -29.3060     20.3647     65.8331
   715.5000     21.2038    -29.5234     20.2394     69.0845
   715.7500     21.0432    -29.6993     20.1137     71.1173
   716.0000     20.9197    -29.8433     20.0116     73.0297
   716.2500     20.8392    -29.9675     19.9458     73.1861
   716.5000     20.8039    -30.0843     19.9108     71.8369
   716.7500     20.8121    -30.2055     19.8904     70.4055
   717.0000     20.8596    -30.3397     19.8734     68.6342
   717.2500     20.9396    -30.4919     19.8644     68.1350
   717.5000     21.0434    -30.6619     19.8801     68.3993
   717.7500     21.1600    -30.8455     19.9374     68.9012
   718.0000     21.2769    -31.0350     20.0410     69.3835
   718.2500     21.3813    -31.2205     20.1782     69.2773
   718.5000     21.4631    -31.3921     20.3232     68.7384
   718.7500     21.5189    -31.5409     20.4493     68.5466
   719.0000     21.5539    -31.6602     20.5435     68.8600
   719.2500     21.5824    -31.7456     20.6132     69.2112
   719.5000     21.6233    -31.7953     20.6818     69.3447
   719.7500     21.6956    -31.8096     20.7767     69.2452
   720.0000     21.8145    -31.7908     20.9201     69.6416
   720.2500     21.9904    -31.7426     21.1251     70.5930
   720.5000     22.2293    -31.6704     21.3973     72.5483
   720.7500     22.5336    -31.5806     21.7350     73.4936
   721.0000     22.9013    -31.4804     22.1307     73.5483
   721.2500     23.3246    -31.3770     22.5720     72.8127
   721.5000     23.7902    -31.2767     23.0432     71.4592
   721.7500     24.2797    -31.1839     23.5251     70.7528
   722.0000     24.7721    -31.1006     23.9942     69.7454
   722.2500     25.2468    -31.0256     24.4206     68.6908
   722.5000     25.6853    -30.9554     24.7663     66.1224
   722.7500     26.0705    -30.8845     24.9878     63.8172
   723.0000     26.3843    -30.8067     25.0477     59.8400
   723.2500     26.6052    -30.7162     24.9356     57.1190
   723.5000     26.7072    -30.6080     24.6796     53.6364
   723.7500     26.6639    -30.4791     24.3309     52.2863
   724.0000     26.4570    -30.3285     23.9283     52.6556
   724.2500     26.0846    -30.1574     23.4707     54.6674
   724.5000     25.5661    -29.9693     22.9244     59.5387
   724.7500     24.9372    -29.7696     22.2623     63.1725
   725.0000     24.2391    -29.5651     21.5051     68.2564
   725.2500     23.5089    -29.3628     20.7251     71.5460
