~Version Information
VERS.                      2.0: CWLS Log ASCII Standard - VERSION 2.0
WRAP.                       NO: One line per depth step
~Well Information Block
STRT.FT                -8.2500: 
STOP.FT               836.2500: 
STEP.FT                 0.2500: 
NULL.                -999.2500: 
COMP.          Pioneer Natural Res.: COMPANY
WELL.            Hustler 12-17: WELL
FLD.           Purgatorie River: FIELD
LOC.           2150' FNL & 450' FWL----------: LOCATION
PROV.                       CO: PROVINCE
CNTY.               Las Animas: COUNTRY
SRVC.                Patterson: SERVICE COMPANY
DATE.          Wed Dec 29 13:37:10 2004: LOG DATE
UWI.           05 071 08236 00: UNIQUE WELL ID
~Curve Information Block
DEPT.FT            0 000 00 00: Depth
AMP3.mV                       : CBL 3' Amplitude
CCL.                          : Casing Collar Locator
GR.GAPI                       : Gamma Ray
TT3.usec                      : CBL 3' Travel Time
~Parameter Information Block
~A  Depth       AMP3        CCL          GR         TT3     
# ...
   360.2500      5.0661      0.0000    109.7402    776.0709
   360.5000      4.9776      0.0000    107.8934    774.2012
   360.7500      4.8816      0.0000    108.5147    770.8967
   361.0000      4.7709      0.0000    111.4053    767.1943
   361.2500      4.6502      0.0000    115.2173    763.6307
   361.5000      4.5433      0.0000    117.7382    759.5823
   361.7500      4.4803      0.0000    117.1093    754.6840
   362.0000      4.4808      0.0000    113.6046    749.8553
   362.2500      4.5355      0.0000    109.8010    746.4993
   362.5000      4.5991      0.0000    108.4224    745.4615
   362.7500      4.6220      0.0000    110.0498    747.2409
   363.0000      4.5988      0.0000    112.9276    752.5090
   363.2500      4.5770      0.0000    114.5866    761.5086
   363.5000      4.6088      0.0000    113.4618    773.0248
   363.7500      4.6999      0.0000    109.4245    785.1002
   364.0000      4.8264      0.0000    103.4889    797.3278
   364.2500      4.9929      0.0000     97.2224    811.3415
   364.5000      5.2316      0.0000     92.1056    828.2162
   364.7500      5.5332      0.0000     89.1014    846.3971
   365.0000      5.8228      0.0000     88.5861    862.7701
   365.2500      6.0285     -2.0000     90.3376    874.4128
   365.5000      6.1448     -2.0000     93.4176    878.5166
   365.7500      6.2167      0.0000     96.3743    872.5999
   366.0000      6.2839      0.0000     98.0396    857.2252
   366.2500      6.3561      0.0000     98.2757    837.8957
   366.5000      6.4240      0.0000     97.8314    821.6026
   366.7500      6.4692      0.0000     97.4588    810.7606
   367.0000      6.4694      0.0000     97.2726    801.8880
   367.2500      6.4045      0.0000     96.9595    790.5963
   367.5000      6.2619      0.0000     96.3727    776.5499
   367.7500      6.0418      0.0000     95.7363    763.1115
   368.0000      5.7660      0.0000     95.3677    753.4846
   368.2500      5.4798      0.0000     95.3538    748.2806
   368.5000      5.2418      0.0000     95.3672    746.1445
   368.7500      5.1035      0.0000     94.6713    745.4808
   369.0000      5.0889      0.0000     92.5320    745.3354
   369.2500      5.1798      0.0000     88.9719    745.3243
   369.5000      5.3109      0.0000     85.0767    745.3116
   369.7500      5.3976      0.0000     82.4481    745.2545
   370.0000      5.3917      0.0000     82.3486    745.1764
   370.2500      5.3130      0.0000     85.0173    745.1434
   370.5000      5.2220      0.0000     89.3549    745.2007
   370.7500      5.1688      0.0000     93.5641    745.3293
   371.0000      5.1690      0.0000     96.7530    745.4545
   371.2500      5.2117      0.0000     99.9658    745.4944
   371.5000      5.2693      0.0000    105.1824    745.4203
   371.7500      5.3071      0.0000    113.1232    745.2799
   372.0000      5.3006      0.0000    122.1573    745.1451
   372.2500      5.2447      0.0000    129.3401    745.0402
   372.5000      5.1457      0.0000    132.4135    744.9470
   372.7500      5.0171      0.0000    131.1440    744.8749
   373.0000      4.8855      0.0000    127.3967    744.8865
   373.2500      4.7850      0.0000    124.1934    745.0688
   373.5000      4.7394      0.0000    124.2269    745.5381
   373.7500      4.7479      0.0000    128.4730    746.5149
   374.0000      4.7850      0.0000    135.5020    748.2801
   374.2500      4.8151      0.0000    141.9393    750.7949
   374.5000      4.8150      0.0000    144.1720    753.2704
   374.7500      4.7906      0.0000    140.5185    754.4563
   375.0000      4.7687      0.0000    132.2776    753.7530
   375.2500      4.7651      0.0000    122.7921    751.9341
   375.5000      4.7655      0.0000    115.3147    750.5598
   375.7500      4.7462      0.0000    111.2755    750.7784
   376.0000      4.7078      0.0000    110.0890    752.5909
   376.2500      4.6761      0.0000    110.2725    754.8202
   376.5000      4.6706      0.0000    110.4441    755.7811
   376.7500      4.6788      0.0000    109.5901    754.4610
   377.0000      4.6700      0.0000    107.4228    751.1697
   377.2500      4.6278      0.0000    104.9011    746.9344
   377.5000      4.5557      0.0000    103.7445    742.5573
   377.7500      4.4642      0.0000    104.8887    738.4089
   378.0000      4.3709      0.0000    107.7727    734.5198
   378.2500      4.3046      0.0000    111.3990    730.4202
   378.5000      4.2889      0.0000    115.4234    725.4127
   378.7500      4.3198      0.0000    119.7100    719.5618
   379.0000      4.3701      0.0000    123.3638    714.1476
   379.2500      4.4133      0.0000    124.8681    710.8897
   379.5000      4.4377      0.0000    123.1657    710.9804
   379.7500      4.4459      0.0000    118.5843    714.7084
   380.0000      4.4533      0.0000    112.8008    721.3162
   380.2500      4.4781      0.0000    107.6914    729.0121
   380.5000      4.5181      0.0000    103.9569    735.6782
   380.7500      4.5450      0.0000    100.8913    740.0269
   381.0000      4.5286      0.0000     97.3207    742.1023
   381.2500      4.4595      0.0000     92.5793    742.7539
   381.5000      4.3503      0.0000     87.0766    742.8297
   381.7500      4.2281      0.0000     82.3536    742.7928
   382.0000      4.1225      0.0000     80.1798    742.7773
   382.2500      4.0533      0.0000     81.0303    742.7873
   382.5000      4.0215      0.0000     83.4367    742.8502
   382.7500      4.0155      0.0000     85.0197    743.0376
   383.0000      4.0280      0.0000     84.3437    743.3651
   383.2500      4.0609      0.0000     81.9517    743.7138
   383.5000      4.1076      0.0000     79.7179    743.8936
   383.7500      4.1430      0.0000     79.2929    743.7986
   384.0000      4.1445      0.0000     81.0973    743.4659
   384.2500      4.1212      0.0000     84.4897    742.9495
   384.5000      4.1122      0.0000     88.5485    742.1190
   384.7500      4.1510      0.0000     92.6640    740.6750
   385.0000      4.2348      0.0000     96.6884    738.5765
   385.2500      4.3273      0.0000    100.7212    736.5342
   385.5000      4.3844      0.0000    104.6433    735.7620
   385.7500      4.3896      0.0000    107.9350    736.8953
   386.0000      4.3704      0.0000    110.3652    739.2979
   386.2500      4.3706      0.0000    112.8141    741.6750
   386.5000      4.4076      0.0000    117.1365    743.1859
   386.7500      4.4642      0.0000    125.1041    743.7659
   387.0000      4.5202      0.0000    136.9626    743.6389
   387.2500      4.5713      0.0000    150.1692    742.8139
   387.5000      4.6165      0.0000    160.0071    741.0589
   387.7500      4.6456      0.0000    163.0067    738.2902
   388.0000      4.6508      0.0000    160.1784    734.9254
   388.2500      4.6321      0.0000    155.8563    731.6563
   388.5000      4.5813      0.0000    153.1403    728.8791
   388.7500      4.4888      0.0000    151.5960    726.8037
   389.0000      4.3729      0.0000    149.6616    726.1312
   389.2500      4.2813      0.0000    147.8657    727.7870
   389.5000      4.2507      0.0000    148.6697    731.5885
   389.7500      4.2771      0.0000    153.9177    735.8137
   390.0000      4.3305      0.0000    163.4008    738.3978
   390.2500      4.3837      0.0000    175.4656    738.2166
   390.5000      4.4167      0.0000    188.0770    735.2997
   390.7500      4.4121      0.0000    199.2272    730.3975
   391.0000      4.3627      0.0000    207.3286    724.4620
   391.2500      4.2797      0.0000    212.0623    718.1846
   391.5000      4.1893      0.0000    214.7834    711.8911
   391.7500      4.1243      0.0000    217.3843    705.9281
   392.0000      4.1131      0.0000    220.3410    701.3621
   392.2500      4.1670      0.0000    222.0819    700.5677
   392.5000      4.2744      0.0000    220.5893    706.5880
   392.7500      4.4127      0.0000    215.3319    720.5756
   393.0000      4.5673      0.0000    207.2647    739.5630
   393.2500      4.7324      0.0000    197.4482    757.8262
   393.5000      4.8946      0.0000    186.3014    770.9005
