~Version Information
VERS.                      2.0: CWLS Log ASCII Standard - VERSION 2.0
WRAP.                       NO: One line per depth step
~Well Information Block
STRT.FT               840.0000: 
STOP.FT              2450.0000: 
STEP.FT                 0.1000: 
NULL.                -999.2500: 
COMP.          Petrogulf Corporation: COMPANY
WELL.             Leier 17-42V: WELL
FLD.           Purgatorie River: FIELD
LOC.           2309' FNL & 1062' FEL SENE 17 33S 67W: LOCATION
PROV.                 Colorado: PROVINCE
CNTY.               Las Animas: COUNTRY
SRVC.                Patterson: SERVICE COMPANY
DATE.          Thu Sep 22 09:35:36 2005: LOG DATE
UWI.           071 08409 : UNIQUE WELL ID
~Curve Information Block
DEPT.FT            0 000 00 00: Depth
DCAL.in                       : CDL Caliper
RHOB.g/cc                     : CDL Bulk Density
RHOC.g/cc                     : CDL Density Correction
DPOR.pu                       : CDL Density Porosity
GR.GAPI                       : Gamma Ray
NPOR.pu                       : Neutron Porosity
~Parameter Information Block
~A  Depth       DCAL        RHOB        RHOC        DPOR         GR         NPOR    
# ...
  2116.8000      7.7566      3.3061      0.2495    -39.7643     80.0064     28.9202
  2116.9000      7.7566      3.2680      0.1851    -37.4574     73.4023     28.8727
  2117.0000      7.7450      3.2087      0.1468    -33.8601     70.6510     28.5737
  2117.1000      7.7450      3.1348      0.0518    -29.3844     66.7117     28.2942
  2117.2000      7.7450      3.0553     -0.0836    -24.5630     60.0109     28.2210
  2117.3000      7.8229      2.9786     -0.0616    -19.9124     54.3237     28.0851
  2117.4000      7.8229      2.8962     -0.1379    -14.9187     53.2529     27.5320
  2117.5000      7.8910      2.8010     -0.1631     -9.1523     56.7727     26.9500
  2117.6000      7.8910      2.7017     -0.1320     -3.1340     62.5210     26.9112
  2117.7000      7.8910      2.6222     -0.1482      1.6844     68.3015     27.3207
  2117.8000      7.8946      2.5806     -0.1478      4.2050     71.7245     27.5281
  2117.9000      7.8946      2.5625     -0.1198      5.3050     71.3899     27.0783
  2118.0000      7.8980      2.5422     -0.1452      6.5340     71.7961     26.4938
  2118.1000      7.8980      2.5209     -0.1035      7.8227     78.9628     26.2632
  2118.2000      7.8980      2.5173     -0.0311      8.0431     90.9348     26.2261
  2118.3000      7.8730      2.5360      0.0797      6.9070    100.7878     26.3108
  2118.4000      7.8730      2.5655      0.0987      5.1237    104.4558     26.5247
  2118.5000      7.7987      2.5908      0.1751      3.5894    102.6149     26.7246
  2118.6000      7.7987      2.6005      0.1653      3.0019     99.0020     26.8625
  2118.7000      7.7987      2.6018      0.1046      2.9211     96.8479     27.0643
  2118.8000      7.8301      2.6012      0.1630      2.9596     96.6743     27.2639
  2118.9000      7.8301      2.5860      0.0809      3.8815     98.1631     27.3259
  2119.0000      7.9083      2.5505      0.1050      6.0312    100.7661     27.3346
  2119.1000      7.9083      2.5061      0.0207      8.7199    103.9768     27.4364
  2119.2000      7.9083      2.4758      0.0127     10.5572    107.9374     27.6922
  2119.3000      7.9360      2.4722      0.0264     10.7774    111.6245     28.0486
  2119.4000      7.9360      2.4861      0.0379      9.9329    113.0132     28.5167
  2119.5000      7.9343      2.4969      0.1073      9.2795    111.6921     28.8821
  2119.6000      7.9343      2.4876      0.0540      9.8438    109.0182     28.7235
  2119.7000      7.9343      2.4667      0.0342     11.1078    106.7761     28.0675
  2119.8000      7.9333      2.4573      0.0125     11.6783    105.9233     27.3498
  2119.9000      7.9333      2.4602      0.0767     11.5031    105.5771     26.9149
  2120.0000      7.9373      2.4523      0.0788     11.9840    104.0327     27.0603
  2120.1000      7.9373      2.4278      0.0119     13.4682    102.2700     27.7918
  2120.2000      7.9373      2.4041      0.0175     14.9046    103.1572     28.5646
  2120.3000      7.9376      2.3895      0.0272     15.7860    106.6344     28.9291
  2120.4000      7.9376      2.3870     -0.0190     15.9386    109.0535     28.9761
  2120.5000      7.9363      2.3986      0.0427     15.2378    109.2307     29.1037
  2120.6000      7.9363      2.4134      0.0266     14.3414    110.9037     29.2884
  2120.7000      7.9363      2.4154      0.0844     14.2191    117.7688     29.2435
  2120.8000      7.9435      2.3974      0.0169     15.3066    124.8303     29.1968
  2120.9000      7.9435      2.3662      0.0387     17.1983    124.5447     29.4325
  2121.0000      7.9507      2.3304      0.0417     19.3676    118.6021     29.8088
  2121.1000      7.9507      2.2969      0.0335     21.4024    112.2097     30.1415
  2121.2000      7.9507      2.2714      0.0434     22.9441    108.1535     30.3357
  2121.3000      7.9317      2.2519      0.0354     24.1301    108.2983     30.5471
  2121.4000      7.9317      2.2283      0.0183     25.5594    111.0782     30.9145
  2121.5000      7.9400      2.1892      0.0622     27.9283    112.7285     31.0080
  2121.6000      7.9400      2.1328      0.0028     31.3452    113.9965     30.6082
  2121.7000      7.9400      2.0775     -0.0066     34.6947    115.4203     30.3593
  2121.8000      7.9480      2.0437      0.0102     36.7440    112.9828     30.6769
  2121.9000      7.9480      2.0368      0.0010     37.1623    105.4900     31.0128
  2122.0000      7.9445      2.0557      0.0232     36.0180     96.1637     30.9620
  2122.1000      7.9445      2.0924      0.0796     33.7936     89.4698     30.8844
  2122.2000      7.9445      2.1268      0.1289     31.7120     87.7510     30.9538
  2122.3000      7.9495      2.1461      0.0884     30.5407     87.0969     31.0029
  2122.4000      7.9495      2.1583      0.0926     29.8008     84.2062     31.0997
  2122.5000      7.9544      2.1743      0.0994     28.8330     81.8598     31.3136
  2122.6000      7.9544      2.1999      0.1114     27.2796     83.4975     31.4234
  2122.7000      7.9544      2.2414      0.0572     24.7613     87.5971     31.1832
  2122.8000      7.9572      2.2960      0.0881     21.4546     90.4933     30.7528
  2122.9000      7.9572      2.3423      0.1236     18.6499     91.6750     30.5191
  2123.0000      7.9935      2.3582      0.1553     17.6828     93.4883     30.7201
  2123.1000      7.9935      2.3446      0.1184     18.5070     96.0158     31.1966
  2123.2000      7.9935      2.3238      0.1580     19.7672     98.2578     31.5198
  2123.3000      8.1951      2.3104      0.2492     20.5826    101.5754     31.7230
  2123.4000      8.1951      2.2970      0.2472     21.3910    105.5588     31.9467
  2123.5000      8.6319      2.2836      0.2113     22.2034    107.5808     31.9487
  2123.6000      8.6319      2.2960      0.1910     21.4559    106.6925     31.7853
  2123.7000      8.6319      2.3548      0.2373     17.8890    104.9980     31.6350
  2123.8000      8.7380      2.4445      0.3371     12.4533    105.7785     31.4436
  2123.9000      8.7380      2.5228      0.4399      7.7077    107.6732     31.2679
  2124.0000      8.3139      2.5559      0.4256      5.7054    107.3276     31.3059
  2124.1000      8.3139      2.5376      0.4044      6.8151    105.7836     31.5017
  2124.2000      8.3139      2.4808      0.3439     10.2532    105.5657     31.5557
  2124.3000      8.2340      2.4042      0.2751     14.8953    106.5892     31.4835
  2124.4000      8.2340      2.3259      0.1768     19.6442    107.6560     31.5107
  2124.5000      8.2356      2.2647      0.0733     23.3487    109.4028     31.5416
  2124.6000      8.2356      2.2296      0.1093     25.4792    112.0413     31.3757
  2124.7000      8.2356      2.2123      0.0678     26.5295    113.5777     31.2549
  2124.8000      8.3403      2.2149      0.0874     26.3699    113.2646     31.5722
  2124.9000      8.3403      2.2609      0.1313     23.5825    112.3313     32.2768
  2125.0000      8.4085      2.3482      0.3836     18.2922    111.0125     32.9864
  2125.1000      8.4085      2.4273      0.3636     13.4988    109.1426     33.1625
  2125.2000      8.4085      2.4681      0.3379     11.0261    107.8959     32.6658
  2125.3000      8.5777      2.4895      0.3301      9.7298    107.7544     31.9523
  2125.4000      8.5777      2.5130      0.3470      8.3028    109.9814     31.5756
  2125.5000      8.6167      2.5261      0.3995      7.5093    114.2254     31.7216
  2125.6000      8.6167      2.5074      0.2998      8.6439    115.4951     32.0987
  2125.7000      8.6167      2.4739      0.1976     10.6700    112.3394     32.2534
  2125.8000      8.3830      2.4621      0.1746     11.3905    109.3219     31.9437
  2125.9000      8.3830      2.4785      0.1515     10.3930    109.8322     31.4439
  2126.0000      8.1924      2.4972      0.1589      9.2619    114.0116     31.0314
  2126.1000      8.1924      2.4943      0.1137      9.4338    118.6679     30.6429
  2126.2000      8.1924      2.4705      0.0999     10.8759    118.3372     30.3506
  2126.3000      8.0099      2.4440      0.0348     12.4863    113.1729     30.1200
