~Version Information
VERS.                      2.0: CWLS Log ASCII Standard - VERSION 2.0
WRAP.                       NO: One line per depth step
~Well Information Block
STRT.FT               -12.5000: 
STOP.FT              2284.7500: 
STEP.FT                 0.2500: 
NULL.                -999.2500: 
COMP.          Pioneer Natural Resources: COMPANY
WELL.          Hill Climb 22-2: WELL
FLD.           Purgatorie River: FIELD
LOC.           1820' FNL & 2193' FWL--: LOCATION
PROV.                       CO: PROVINCE
CNTY.               Las Animas: COUNTRY
SRVC.                         : SERVICE COMPANY
DATE.          Fri Oct 22 11:44:16 2004: LOG DATE
UWI.                          : UNIQUE WELL ID
~Curve Information Block
DEPT.FT            0 000 00 00: Depth
GR.GAPI                       : Gamma Ray
CCL.                          : Casing Collar Locator
TT3.usec                      : CBL 3' Travel Time
AMP3.mV                       : CBL 3' Amplitude
~Parameter Information Block
~A  Depth        GR         CCL         TT3         AMP3    
# ...
  1361.0000    104.8399      0.0000    279.6502     48.2968
  1361.2500    106.3823      0.0000    280.4933     48.0871
  1361.5000    109.2490      0.0000    277.1785     50.6862
  1361.7500    112.2349      0.0000    271.2722     55.4717
  1362.0000    113.9840      0.0000    265.5734     60.8192
  1362.2500    114.3812      0.0000    261.8074     65.2772
  1362.5000    114.6850      0.0000    259.9860     68.2668
  1362.7500    115.9677      0.0000    259.3215     69.9592
  1363.0000    117.7071      0.0000    259.1361     70.8045
  1363.2500    118.4016      0.0000    259.0996     71.1867
  1363.5000    117.4188      0.0000    259.1039     71.3275
  1363.7500    115.7889      0.0000    259.1270     71.3333
  1364.0000    115.1137      0.0000    259.1621     71.2584
  1364.2500    115.8341      0.0000    259.2028     71.1383
  1364.5000    116.5920      0.0000    259.2379     71.0083
  1364.7500    115.5012      0.0000    259.2575     70.9144
  1365.0000    112.1813      0.0000    259.2596     70.9034
  1365.2500    108.4303      0.0000    259.2506     70.9991
  1365.5000    106.7506      0.0000    259.2404     71.1835
  1365.7500    108.3518      0.0000    259.2346     71.4030
  1366.0000    112.5536      0.0000    259.2324     71.5978
  1366.2500    117.6533      0.0000    259.2303     71.7288
  1366.5000    122.1170      0.0000    259.2267     71.7868
  1366.7500    125.4492      0.0000    259.2227     71.7893
  1367.0000    128.3660      0.0000    259.2197     71.7713
  1367.2500    131.9112      0.0000    259.2186     71.7670
  1367.5000    136.2318      0.0000    259.2201     71.7865
  1367.7500    140.2517      0.0000    259.2239     71.8080
  1368.0000    142.3109      0.0000    259.2292     71.7967
  1368.2500    140.9625      0.0000    259.2361     71.7368
  1368.5000    135.7462      0.0000    259.2447     71.6473
  1368.7500    127.7931      0.0000    259.2569     71.5708
  1369.0000    119.4365      0.0000    259.2810     71.5475
  1369.2500    112.7263      0.0000    259.3381     71.5917
  1369.5000    108.2168      0.0000    259.4548     71.6824
  1369.7500    105.2037      0.0000    259.6325     71.7782
  1370.0000    103.0621      0.0000    259.8129     71.8444
  1370.2500    102.1774      0.0000    259.8959     71.8735
  1370.5000    103.4085      0.0000    259.8226     71.8800
  1370.7500    106.7487      0.0000    259.6365     71.8783
  1371.0000    110.7900      0.0000    259.4424     71.8630
  1371.2500    113.5826      0.0000    259.3149     71.8136
  1371.5000    113.9453      0.0000    259.2586     71.7271
  1371.7500    112.1017      0.0000    259.2392     71.6355
  1372.0000    109.3820      0.0000    259.2273     71.5826
  1372.2500    107.3065      0.0000    259.2137     71.5873
  1372.5000    106.5740      0.0000    259.2021     71.6374
  1372.7500    106.8347      0.0000    259.1977     71.7097
  1373.0000    107.4349      0.0000    259.2008     71.7791
  1373.2500    107.9568      0.0000    259.2049     71.8203
  1373.5000    107.7666      0.0000    259.1998     71.8254
  1373.7500    105.6769      0.0000    259.1787     71.8210
  1374.0000    100.9101      0.0000    259.1440     71.8492
  1374.2500     94.4109      0.0000    259.1069     71.9240
  1374.5000     88.8701      0.0000    259.0803     72.0125
  1374.7500     87.4622      0.0000    259.0721     72.0585
  1375.0000     92.1345      0.0000    259.0815     72.0243
  1375.2500    101.9792      0.0000    259.0995     71.9228
  1375.5000    112.9193      0.0000    259.1110     71.8126
  1375.7500    119.9931      0.0000    259.1011     71.7534
  1376.0000    120.9117      0.0000    259.0654     71.7606
  1376.2500    117.3925      0.0000    259.0172     71.8061
  1376.5000    112.9766      0.0000    258.9799     71.8561
  1376.7500    110.1116      0.0000    258.9695     71.8981
  1377.0000    109.3455      0.0000    258.9833     71.9347
  1377.2500    110.0776      0.0000    259.0068     71.9666
  1377.5000    111.0954      0.0000    259.0253     71.9908
  1377.7500    111.0428      0.0000    259.0311     72.0145
  1378.0000    109.4815      0.0000    259.0261     72.0562
  1378.2500    107.5202      0.0000    259.0199     72.1215
  1378.5000    106.8929      0.0000    259.0245     72.1755
  1378.7500    108.3892      0.0000    259.0475     72.1619
  1379.0000    111.3975      0.0000    259.0874     72.0629
  1379.2500    114.7908      0.0000    259.1333     71.9292
  1379.5000    117.8190      0.0000    259.1674     71.8329
  1379.7500    120.0707      0.0000    259.1749     71.8029
  1380.0000    121.1912      0.0000    259.1542     71.8171
  1380.2500    121.1343      0.0000    259.1175     71.8385
  1380.5000    120.4070      0.0000    259.0819     71.8429
  1380.7500    119.6632      0.0000    259.0608     71.8238
  1381.0000    119.1990      0.0000    259.0586     71.7915
  1381.2500    118.9601      0.0000    259.0696     71.7699
  1381.5000    118.8155      0.0000    259.0829     71.7862
  1381.7500    118.6524      0.0000    259.0929     71.8526
  1382.0000    118.3464      0.0000    259.1031     71.9488
  1382.2500    117.9144      0.0000    259.1191     72.0217
  1382.5000    117.6656      0.0000    259.1401     72.0192
  1382.7500    117.9009      0.0000    259.1602     71.9366
  1383.0000    118.5275      0.0000    259.1721     71.8240
  1383.2500    119.3216      0.0000    259.1691     71.7421
  1383.5000    120.4283      0.0000    259.1472     71.7162
  1383.7500    122.1627      0.0000    259.1100     71.7313
  1384.0000    124.5514      0.0000    259.0710     71.7584
  1384.2500    127.5097      0.0000    259.0451     71.7815
  1384.5000    131.2138      0.0000    259.0386     71.8031
  1384.7500    135.7191      0.0000    259.0462     71.8301
  1385.0000    140.3503      0.0000    259.0573     71.8568
  1385.2500    143.8720      0.0000    259.0636     71.8683
  1385.5000    145.1715      0.0000    259.0623     71.8619
  1385.7500    143.6134      0.0000    259.0534     71.8569
  1386.0000    139.1708      0.0000    259.0373     71.8795
  1386.2500    132.7388      0.0000    259.0156     71.9454
  1386.5000    126.2795      0.0000    258.9924     72.0561
  1386.7500    122.3158      0.0000    258.9737     72.1979
  1387.0000    122.8300      0.0000    258.9650     72.3407
  1387.2500    128.2291      0.0000    258.9684     72.4502
  1387.5000    137.4314      0.0000    258.9810     72.5090
  1387.7500    149.1878      0.0000    258.9953     72.5217
  1388.0000    162.6581      0.0000    259.0019     72.5059
  1388.2500    175.8235      0.0000    258.9939     72.4809
  1388.5000    184.0782      0.0000    258.9721     72.4575
  1388.7500    182.3530      0.0000    258.9478     72.4329
  1389.0000    169.5353      0.0000    258.9372     72.4006
  1389.2500    150.0913      0.0000    258.9491     72.3695
  1389.5000    130.8215      0.0000    258.9776     72.3631
  1389.7500    116.2822      0.0000    259.0072     72.4008
  1390.0000    107.1604      0.0000    259.0251     72.4824
  1390.2500    101.9003      0.0000    259.0259     72.5885
  1390.5000     99.0386      0.0000    259.0107     72.6908
  1390.7500     98.2525      0.0000    258.9843     72.7699
  1391.0000     99.8725      0.0000    258.9527     72.8287
  1391.2500    103.8249      0.0000    258.9210     72.8839
  1391.5000    109.2249      0.0000    258.8903     72.9443
  1391.7500    114.8457      0.0000    258.8600     73.0029
  1392.0000    119.6754      0.0000    258.8310     73.0482
  1392.2500    123.0896      0.0000    258.8074     73.0801
  1392.5000    124.8258      0.0000    258.7939     73.1124
  1392.7500    124.7245      0.0000    258.7908     73.1630
  1393.0000    122.4182      0.0000    258.7921     73.2367
  1393.2500    117.7863      0.0000    258.7900     73.3221
  1393.5000    112.0870      0.0000    258.7814     73.4081
  1393.7500    108.1466      0.0000    258.7698     73.4920
  1394.0000    108.7301      0.0000    258.7623     73.5595
  1394.2500    114.4444      0.0000    258.7638     73.5754
