~Version Information
VERS.                      2.0: CWLS Log ASCII Standard - VERSION 2.0
WRAP.                       NO: One line per depth step
~Well Information Block
STRT.FT               920.0000: 
STOP.FT              3300.2000: 
STEP.FT                 0.1000: 
NULL.                -999.2500: 
COMP.          Pioneer Natural Resources: COMPANY
WELL.              Vespar 43-7: WELL
FLD.           Purgatoire River: FIELD
LOC.           2338' FSL & 1141' FEL: LOCATION
PROV.                 Colorado: PROVINCE
CNTY.               Las Animas: COUNTRY
SRVC.                Patterson: SERVICE COMPANY
DATE.          Wed Jan 26 13:38:02 2005: LOG DATE
UWI.           05 071 07955 00: UNIQUE WELL ID
~Curve Information Block
DEPT.FT            0 000 00 00: Depth
DCAL.in                       : CDL Caliper
RHOB.g/cc                     : CDL Bulk Density
RHOC.g/cc                     : CDL Density Correction
DPOR.pu                       : CDL Density Porosity
NPOR.pu                       : Neutron Porosity
GR.GAPI                       : Gamma Ray
~Parameter Information Block
~A  Depth       DCAL        RHOB        RHOC        DPOR        NPOR         GR     
   920.0000      8.0806      2.2834     -0.2333     22.2192     43.1364     41.0060
   920.1000      8.0806      2.2863     -0.1998     22.0405     42.9306     40.3189
   920.2000      8.0806      2.2788     -0.1899     22.4968     42.6752     41.8533
   920.3000      8.0822      2.2670     -0.2409     23.2141     42.6041     45.4688
   920.4000      8.0822      2.2576     -0.1965     23.7826     42.7073     48.1271
   920.5000      8.0806      2.2534     -0.2444     24.0366     42.9353     47.0189
   920.6000      8.0806      2.2534     -0.1910     24.0339     43.1064     43.3527
   920.7000      8.0806      2.2509     -0.1966     24.1866     42.8098     41.9593
   920.8000      8.0792      2.2449     -0.1770     24.5495     42.2024     45.3680
   920.9000      8.0792      2.2425     -0.2005     24.7000     41.7818     50.6554
   921.0000      8.0790      2.2499     -0.2614     24.2469     41.7078     53.1564
   921.1000      8.0790      2.2624     -0.1821     23.4928     41.8930     51.9802
   921.2000      8.0790      2.2713     -0.2452     22.9527     42.1980     50.8178
   921.3000      8.0779      2.2822     -0.2109     22.2898     42.6291     51.4538
   921.4000      8.0779      2.2922     -0.1984     21.6873     42.8659     50.4697
   921.5000      8.0776      2.2880     -0.2028     21.9397     42.5695     46.7761
   921.6000      8.0776      2.2759     -0.2547     22.6732     42.2568     45.3596
   921.7000      8.0776      2.2764     -0.2302     22.6425     42.3843     48.8127
   921.8000      8.0788      2.2926     -0.1777     21.6635     42.5997     52.4673
   921.9000      8.0788      2.3097     -0.1723     20.6214     42.7136     52.6508
   922.0000      8.0784      2.3126     -0.1698     20.4507     42.9160     50.5731
   922.1000      8.0784      2.2991     -0.1863     21.2655     43.0549     47.4247
   922.2000      8.0784      2.2867     -0.2523     22.0154     43.0213     45.1855
   922.3000      8.0735      2.2881     -0.1977     21.9306     42.8959     45.8449
   922.4000      8.0735      2.2984     -0.2328     21.3081     42.7240     47.3055
   922.5000      8.0587      2.3088     -0.1365     20.6780     42.5782     47.5943
   922.6000      8.0587      2.3120     -0.2036     20.4854     42.4546     48.6307
   922.7000      8.0587      2.3051     -0.1826     20.9054     42.4800     51.0575
   922.8000      8.0481      2.2858     -0.1705     22.0714     42.6887     52.7090
   922.9000      8.0481      2.2621     -0.1951     23.5065     42.7587     51.9401
   923.0000      8.0617      2.2526     -0.2296     24.0848     42.5254     48.5602
   923.1000      8.0617      2.2659     -0.2378     23.2812     41.8804     44.4384
   923.2000      8.0617      2.2910     -0.1699     21.7573     40.9060     41.2982
   923.3000      8.0756      2.3053     -0.1755     20.8927     40.2206     38.7419
   923.4000      8.0756      2.2925     -0.1835     21.6645     40.0905     37.3007
   923.5000      8.0761      2.2599     -0.2202     23.6445     40.3375     36.6417
   923.6000      8.0761      2.2338     -0.2853     25.2224     40.7963     35.4199
   923.7000      8.0761      2.2276     -0.2304     25.5998     41.1485     35.5392
   923.8000      8.0750      2.2336     -0.2672     25.2388     41.1072     37.9821
   923.9000      8.0750      2.2435     -0.1987     24.6364     40.9475     39.1814
   924.0000      8.0767      2.2481     -0.2390     24.3553     41.3024     37.6624
   924.1000      8.0767      2.2383     -0.1981     24.9528     42.0002     36.1355
   924.2000      8.0767      2.2166     -0.2705     26.2691     42.3046     36.1198
   924.3000      8.0775      2.2049     -0.2856     26.9728     42.1306     36.6968
   924.4000      8.0775      2.2183     -0.2455     26.1626     41.8596     38.0135
   924.5000      8.0780      2.2469     -0.2829     24.4307     41.7145     39.7885
   924.6000      8.0780      2.2726     -0.2038     22.8734     41.5576     39.6421
   924.7000      8.0780      2.2795     -0.1669     22.4543     41.2239     38.3121
   924.8000      8.0782      2.2696     -0.1913     23.0548     40.8988     38.2055
   924.9000      8.0782      2.2644     -0.2529     23.3695     40.8429     38.3130
   925.0000      8.0773      2.2709     -0.2155     22.9773     41.2409     38.8208
   925.1000      8.0773      2.2725     -0.1999     22.8776     41.9128     40.6777
   925.2000      8.0773      2.2561     -0.1838     23.8740     42.3505     42.4081
   925.3000      8.0755      2.2270     -0.2349     25.6360     42.4236     42.5697
   925.4000      8.0755      2.2075     -0.2642     26.8198     42.2019     41.6384
   925.5000      8.0748      2.2124     -0.2446     26.5238     41.7739     41.2148
   925.6000      8.0748      2.2226     -0.1776     25.9000     41.3390     41.9927
   925.7000      8.0748      2.2124     -0.2659     26.5224     41.0418     42.8645
   925.8000      8.0775      2.1945     -0.2851     27.6064     41.0989     43.0975
   925.9000      8.0775      2.1986     -0.2999     27.3586     41.3656     43.9595
   926.0000      8.0796      2.2235     -0.1761     25.8512     41.4195     45.7613
   926.1000      8.0796      2.2442     -0.2511     24.5966     41.4133     46.5662
   926.2000      8.0796      2.2505     -0.1854     24.2147     41.6622     44.5892
   926.3000      8.0783      2.2525     -0.2660     24.0926     41.7974     40.7727
   926.4000      8.0783      2.2600     -0.1998     23.6365     41.4686     39.2007
   926.5000      8.0760      2.2626     -0.1642     23.4792     41.2512     41.8942
   926.6000      8.0760      2.2557     -0.2317     23.8963     41.6866     45.9345
   926.7000      8.0760      2.2530     -0.2586     24.0580     42.5475     49.4744
   926.8000      8.0748      2.2578     -0.2221     23.7669     43.3619     52.7614
   926.9000      8.0748      2.2680     -0.2518     23.1524     43.9185     54.5313
   927.0000      8.0764      2.2829     -0.1974     22.2455     44.2849     55.0468
   927.1000      8.0764      2.2882     -0.1665     21.9255     44.5531     56.0712
   927.2000      8.0764      2.2812     -0.2433     22.3530     44.8577     58.6353
   927.3000      8.0777      2.2792     -0.2410     22.4734     45.2577     61.5162
   927.4000      8.0777      2.2744     -0.1880     22.7612     45.7247     60.7943
   927.5000      8.0774      2.2487     -0.2323     24.3201     46.1113     57.1552
   927.6000      8.0774      2.2199     -0.3102     26.0667     46.0916     57.3060
   927.7000      8.0774      2.2115     -0.2492     26.5754     45.7403     61.1380
   927.8000      8.0770      2.2181     -0.2422     26.1730     45.4886     63.6547
   927.9000      8.0770      2.2292     -0.2278     25.5046     45.4781     66.0668
   928.0000      8.0765      2.2447     -0.2554     24.5613     45.5352     69.3617
   928.1000      8.0765      2.2623     -0.2280     23.4972     45.3948     71.2439
   928.2000      8.0765      2.2707     -0.2517     22.9857     45.1360     72.4725
   928.3000      8.0762      2.2654     -0.2383     23.3069     45.1451     73.4538
   928.4000      8.0762      2.2487     -0.2544     24.3199     45.4968     73.3698
   928.5000      8.0771      2.2303     -0.2937     25.4342     45.7992     72.9273
   928.6000      8.0771      2.2223     -0.2820     25.9189     45.8570     72.1247
   928.7000      8.0771      2.2189     -0.2385     26.1257     46.0616     70.8188
   928.8000      8.0780      2.2100     -0.2484     26.6646     46.6484     70.5836
   928.9000      8.0780      2.2118     -0.2935     26.5580     47.2596     72.9524
   929.0000      8.0783      2.2445     -0.2150     24.5768     47.3720     77.0273
   929.1000      8.0783      2.2936     -0.2051     21.5997     46.8675     81.2716
   929.2000      8.0783      2.3277     -0.1593     19.5322     46.2838     82.3711
   929.3000      8.0803      2.3249     -0.1721     19.7047     46.0787     78.0629
   929.4000      8.0803      2.2876     -0.2029     21.9621     46.1588     74.7636
   929.5000      8.0836      2.2506     -0.2858     24.2066     46.3964     75.8823
