~Version Information
VERS.                      2.0: CWLS Log ASCII Standard - VERSION 2.0
WRAP.                       NO: One line per depth step
~Well Information Block
STRT.FT               440.0000: 
STOP.FT              1001.5000: 
STEP.FT                 0.1000: 
NULL.                -999.2500: 
COMP.          Pioneer Natural Resources: COMPANY
WELL.              Dylan 42-25: WELL
FLD.           Purgatoire River: FIELD
LOC.           2160' FNL & 855' FEL: LOCATION
PROV.                 Colorado: PROVINCE
CNTY.               Las Animas: COUNTRY
SRVC.                Patterson: SERVICE COMPANY
DATE.          Mon Apr 25 09:31:16 2005: LOG DATE
UWI.           05 071 08229 00: UNIQUE WELL ID
~Curve Information Block
DEPT.FT            0 000 00 00: Depth
DCAL.in                       : CDL Caliper
RHOB.g/cc                     : CDL Bulk Density
RHOC.g/cc                     : CDL Density Correction
DPOR.pu                       : CDL Density Porosity
GR.GAPI                       : Gamma Ray
NPOR.pu                       : Neutron Porosity
~Parameter Information Block
~A  Depth       DCAL        RHOB        RHOC        DPOR         GR         NPOR    
# ...
   584.0000      7.8750      2.4722     -0.0030     10.7770     96.6786     25.2261
   584.1000      7.8750      2.5183      0.0892      7.9790     96.5961     26.8145
   584.2000      7.8750      2.5556      0.1196      5.7192     98.0370     27.0534
   584.3000      7.8811      2.5528      0.1706      5.8919    100.6968     25.9617
   584.4000      7.8811      2.5123      0.1716      8.3425    103.0131     25.0105
   584.5000      7.8474      2.4322      0.1881     13.1971    104.7752     25.3407
   584.6000      7.8474      2.3049      0.1511     20.9149    105.8420     26.5626
   584.7000      7.8474      2.1524      0.0728     30.1590    102.8591     27.5388
   584.8000      7.7498      2.0166     -0.0150     38.3853     95.3073     27.7162
   584.9000      7.7498      1.9171     -0.0369     44.4198     90.8775     27.7550
   585.0000      7.7518      1.8489     -0.0826     48.5497     92.0288     28.5528
   585.1000      7.7518      1.8113     -0.0632     50.8280     92.3341     29.4900
   585.2000      7.7518      1.8139     -0.0872     50.6749     91.8285     29.9577
   585.3000      7.8600      1.8631      0.0614     47.6923     93.7022     30.3819
   585.4000      7.8600      1.9400      0.1551     43.0281     93.8790     31.1159
   585.5000      7.9719      2.0185      0.1797     38.2729     89.2128     31.7046
   585.6000      7.9719      2.0999      0.1325     33.3379     84.8858     31.4393
   585.7000      7.9719      2.1923      0.1520     27.7392     87.2420     30.7064
   585.8000      8.0224      2.2800      0.1626     22.4224     96.4514     30.3156
   585.9000      8.0224      2.3492      0.0680     18.2330    107.1239     30.1540
   586.0000      8.0219      2.4056      0.0785     14.8142    114.3999     29.6945
   586.1000      8.0219      2.4527      0.0305     11.9548    118.6109     29.0500
   586.2000      8.0219      2.4848      0.0688     10.0128    125.5881     28.7612
   586.3000      8.0189      2.5000      0.0438      9.0939    133.8567     28.6958
   586.4000      8.0189      2.5074      0.0555      8.6436    134.9869     28.2138
   586.5000      8.0074      2.5149      0.0687      8.1897    130.9022     27.6108
   586.6000      8.0074      2.5173      0.0874      8.0445    131.9529     27.5948
   586.7000      8.0074      2.5106      0.0634      8.4479    138.6649     28.0236
   586.8000      8.0176      2.4997      0.0827      9.1094    142.9601     28.3764
   586.9000      8.0176      2.4867      0.1098      9.8985    141.3128     28.5948
   587.0000      8.0145      2.4817      0.0202     10.2012    135.9777     28.7001
   587.1000      8.0145      2.4946      0.0364      9.4206    132.6105     28.6815
   587.2000      8.0145      2.5134      0.0309      8.2774    134.6768     28.9684
   587.3000      7.9890      2.5212      0.1213      7.8046    140.0312     29.8601
   587.4000      7.9890      2.5142      0.0688      8.2320    145.8470     30.8479
   587.5000      7.9870      2.5053      0.0985      8.7674    150.8556     31.1377
   587.6000      7.9870      2.5044      0.0506      8.8257    152.4987     30.7258
   587.7000      7.9870      2.5024      0.0835      8.9449    149.2740     30.2815
   587.8000      8.0211      2.4847      0.0503     10.0208    144.5824     29.8577
   587.9000      8.0211      2.4545      0.0590     11.8485    142.6449     29.1543
   588.0000      8.0310      2.4226      0.0438     13.7821    144.9495     28.6333
   588.1000      8.0310      2.3874      0.0487     15.9168    149.2813     28.7691
   588.2000      8.0310      2.3475     -0.0070     18.3347    152.9596     29.2730
   588.3000      8.0510      2.3166     -0.0409     20.2070    156.2769     29.6901
   588.4000      8.0510      2.3116     -0.0239     20.5104    159.0882     29.8989
   588.5000      8.0383      2.3284      0.0376     19.4896    156.7113     29.9515
   588.6000      8.0383      2.3484     -0.0051     18.2773    146.2339     29.5760
   588.7000      8.0383      2.3640      0.0372     17.3352    133.7194     28.9681
   588.8000      8.0211      2.3784      0.0571     16.4603    127.8642     29.0929
   588.9000      8.0211      2.3905      0.0971     15.7300    128.8077     30.0668
   589.0000      8.0156      2.3968      0.0604     15.3459    130.8414     30.6178
   589.1000      8.0156      2.4023      0.0603     15.0139    129.8372     30.0528
   589.2000      8.0156      2.4174     -0.0065     14.0953    127.6036     29.1133
   589.3000      7.9779      2.4393      0.1020     12.7720    128.6919     28.5187
   589.4000      7.9779      2.4554      0.0106     11.7919    131.5347     28.4652
   589.5000      7.9570      2.4698      0.0380     10.9192    130.1841     28.9038
   589.6000      7.9570      2.4806      0.0650     10.2677    125.0949     29.4293
   589.7000      7.9570      2.4814      0.0389     10.2167    120.9066     29.8023
   589.8000      7.9543      2.4796      0.0577     10.3261    119.6221     29.9327
   589.9000      7.9543      2.4836      0.0252     10.0836    121.9733     29.6693
   590.0000      7.9344      2.4969      0.0576      9.2783    124.8168     29.3428
   590.1000      7.9344      2.5070      0.0966      8.6646    124.9328     29.2854
   590.2000      7.9344      2.4932      0.0812      9.5007    126.2412     29.1774
   590.3000      7.9315      2.4618      0.0074     11.4058    132.6109     28.8034
   590.4000      7.9315      2.4373      0.0233     12.8920    139.4566     28.6817
   590.5000      7.9351      2.4231      0.0518     13.7520    140.7041     29.2390
   590.6000      7.9351      2.4129     -0.0288     14.3686    135.3185     30.0151
   590.7000      7.9351      2.4149     -0.0421     14.2493    126.9207     30.3599
   590.8000      7.9477      2.4282      0.0080     13.4438    121.9623     30.0428
   590.9000      7.9477      2.4388      0.0364     12.7992    125.2382     29.0065
   591.0000      7.9456      2.4445      0.0582     12.4534    134.6057     27.5961
   591.1000      7.9456      2.4470      0.0636     12.3021    141.3603     26.7030
   591.2000      7.9456      2.4402      0.0749     12.7154    142.3883     26.8399
   591.3000      7.9560      2.4246      0.0059     13.6604    137.0752     27.6725
   591.4000      7.9560      2.4067      0.0379     14.7426    124.8272     28.1929
   591.5000      7.9445      2.3810      0.0443     16.3020    114.0667     28.0540
   591.6000      7.9445      2.3405      0.0549     18.7585    111.7855     27.8548
   591.7000      7.9445      2.2932      0.0281     21.6216    115.5586     27.7975
   591.8000      7.9501      2.2603      0.0068     23.6198    118.5245     27.9401
   591.9000      7.9501      2.2545      0.0559     23.9707    116.2144     28.2598
   592.0000      7.9091      2.2731      0.0046     22.8437    114.4610     28.4701
   592.1000      7.9091      2.3105      0.0803     20.5761    117.1072     28.7328
   592.2000      7.9091      2.3568      0.0985     17.7674    117.5819     29.4428
   592.3000      7.8864      2.4018      0.1190     15.0398    114.6588     30.0638
   592.4000      7.8864      2.4387      0.1551     12.8043    113.1406     29.7123
   592.5000      7.8936      2.4650      0.1576     11.2140    112.6713     28.6753
   592.6000      7.8936      2.4909      0.1064      9.6447    108.8463     27.9641
   592.7000      7.8936      2.5196      0.1390      7.9042    103.1709     27.7469
   592.8000      7.9359      2.5362      0.0682      6.8944    102.1947     27.1981
   592.9000      7.9359      2.5373      0.0623      6.8326    105.4983     25.8673
   593.0000      7.9540      2.5288      0.0559      7.3463    108.8056     24.7314
   593.1000      7.9540      2.5091      0.0442      8.5411    112.3870     24.4757
   593.2000      7.9540      2.4836      0.0072     10.0827    117.6842     24.3173
   593.3000      7.9535      2.4741     -0.0153     10.6590    119.7714     23.7329
   593.4000      7.9535      2.4888      0.0605      9.7675    112.8337     23.4523
   593.5000      7.9559      2.5082      0.0965      8.5969    104.3188     24.0162
