~Version Information
VERS.                      2.0: CWLS Log ASCII Standard - VERSION 2.0
WRAP.                       NO: One line per depth step
~Well Information Block
STRT.FT               650.0000: 
STOP.FT              2000.5000: 
STEP.FT                 0.1000: 
NULL.                -999.2500: 
COMP.          Pioneer Natural Resources: COMPANY
WELL.           Firehawk 34-26: WELL
FLD.           Purgatoire River: FIELD
LOC.           1196' FSL & 1595' FEL--: LOCATION
STAT.                 Colorado: State
CNTY.               Las Animas: COUNTY
CTRY. USA : Country
SECT. 26 : Section
TOWN. 32S : Township
RANG. 66W : Range
SRVC.                Patterson: SERVICE COMPANY
DATE.          Mon Oct 17 07:23:34 2005: LOG DATE
API.           05 071 08389 00: UNIQUE WELL ID
~Curve Information Block
DEPT.FT            0 000 00 00: Depth
DCAL.in                       : CDL Caliper
RHOB.g/cc                     : CDL Bulk Density
RHOC.g/cc                     : CDL Density Correction
DPOR.pu                       : CDL Density Porosity
NPOR.pu                       : Neutron Porosity
GR.GAPI                       : Gamma Ray
~Parameter Information Block
~A  Depth       DCAL        RHOB        RHOC        DPOR        NPOR         GR     
# ...
  1965.2000      7.8316      2.4891      0.0350      9.7503     17.5628    116.1936
  1965.3000      7.8366      2.4800      0.0161     10.3023     17.2917    128.7818
  1965.4000      7.8366      2.4853     -0.0119      9.9813     17.3131    129.9608
  1965.5000      7.8370      2.5085      0.0757      8.5750     17.7616    116.1406
  1965.6000      7.8370      2.5286      0.0659      7.3567     18.2307    100.7687
  1965.7000      7.8370      2.5331      0.0609      7.0862     18.4183     94.6262
  1965.8000      7.8362      2.5216      0.0854      7.7792     18.2821     93.3972
  1965.9000      7.8362      2.5005      0.0360      9.0591     18.0303     89.2521
  1966.0000      7.8327      2.4814      0.0471     10.2191     17.7217     83.7397
  1966.1000      7.8327      2.4690      0.0425     10.9679     17.5398     81.2803
  1966.2000      7.8327      2.4606      0.0472     11.4777     17.6310     77.8760
  1966.3000      7.8222      2.4536      0.0430     11.9046     17.6653     61.7656
  1966.4000      7.8222      2.4532      0.0296     11.9282     17.5700     33.5805
  1966.5000      7.8009      2.4675      0.0467     11.0619     17.6025     11.0597
  1966.6000      7.8009      2.4900      0.0817      9.6988     17.7699      2.0638
  1966.7000      7.8009      2.5087      0.0999      8.5641     18.1269      0.2106
  1966.8000      7.7752      2.5236      0.1102      7.6601     18.8575      0.0113
  1966.9000      7.7752      2.5392      0.1289      6.7172     19.5174      0.0000
  1967.0000      7.7548      2.5548      0.1174      5.7687     19.4609   -999.2500
  1967.1000      7.7548      2.5645      0.1695      5.1788     18.9418   -999.2500
  1967.2000      7.7548      2.5618      0.1559      5.3448     18.6836   -999.2500
  1967.3000      7.7461      2.5493      0.0898      6.1006     18.6582   -999.2500
  1967.4000      7.7461      2.5350      0.0695      6.9694     18.2843   -999.2500
  1967.5000      7.7450      2.5223      0.0564      7.7416     17.8534   -999.2500
  1967.6000      7.7450      2.5108      0.0337      8.4348     18.2019   -999.2500
  1967.7000      7.7450      2.5003      0.0242      9.0698     19.0494   -999.2500
  1967.8000      7.7459      2.4954      0.0117      9.3676     19.2853   -999.2500
  1967.9000      7.7459      2.5035      0.0079      8.8797     18.8593   -999.2500
  1968.0000      7.7440      2.5166      0.0543      8.0869     18.7962   -999.2500
  1968.1000      7.7440      2.5140      0.0569      8.2440     19.2741   -999.2500
  1968.2000      7.7440      2.4979      0.0128      9.2162     19.8149   -999.2500
  1968.3000      7.7394      2.4881      0.0606      9.8104     20.2968   -999.2500
  1968.4000      7.7394      2.4861      0.0374      9.9353     20.7042   -999.2500
  1968.5000      7.7373      2.4837      0.0606     10.0774     21.0841   -999.2500
  1968.6000      7.7373      2.4796      0.0607     10.3281     21.6466   -999.2500
  1968.7000      7.7373      2.4765      0.0399     10.5126     22.1812   -999.2500
  1968.8000      7.7383      2.4761      0.0447     10.5403     22.1174   -999.2500
  1968.9000      7.7383      2.4748      0.0724     10.6209     21.8456   -999.2500
  1969.0000      7.7429      2.4721      0.0525     10.7840     21.8807   -999.2500
  1969.1000      7.7429      2.4742      0.0315     10.6529     21.8024   -999.2500
  1969.2000      7.7429      2.4796      0.0524     10.3252     21.4778   -999.2500
  1969.3000      7.7506      2.4741      0.0476     10.6597     21.1179   -999.2500
  1969.4000      7.7506      2.4562      0.0219     11.7452     20.8173   -999.2500
  1969.5000      7.7606      2.4423      0.0154     12.5907     20.8637   -999.2500
  1969.6000      7.7606      2.4378      0.0503     12.8598     21.2250   -999.2500
  1969.7000      7.7606      2.4422     -0.0141     12.5954     21.5402   -999.2500
  1969.8000      7.7689      2.4582      0.0308     11.6251     21.5660   -999.2500
  1969.9000      7.7689      2.4717      0.0789     10.8046     21.4028   -999.2500
  1970.0000      7.7706      2.4697      0.0338     10.9279     21.3998   -999.2500
  1970.1000      7.7706      2.4624      0.0421     11.3696     21.4919   -999.2500
  1970.2000      7.7706      2.4615      0.0430     11.4224     21.4677   -999.2500
  1970.3000      7.7687      2.4671      0.0568     11.0859     21.3658   -999.2500
  1970.4000      7.7687      2.4760      0.0489     10.5457     21.0985   -999.2500
  1970.5000      7.7677      2.4878      0.0701      9.8320     20.8538   -999.2500
  1970.6000      7.7677      2.4946      0.0985      9.4183     21.0515   -999.2500
  1970.7000      7.7677      2.4887      0.0693      9.7729     21.4781   -999.2500
  1970.8000      7.7678      2.4795      0.0695     10.3352     21.5625   -999.2500
  1970.9000      7.7678      2.4754      0.0622     10.5791     20.9390   -999.2500
  1971.0000      7.7668      2.4733      0.0465     10.7108     20.0694   -999.2500
  1971.1000      7.7668      2.4715      0.0473     10.8187     19.7539   -999.2500
  1971.2000      7.7668      2.4687      0.0644     10.9853     19.8342   -999.2500
  1971.3000      7.7662      2.4563      0.0741     11.7394     19.8134   -999.2500
  1971.4000      7.7662      2.4363      0.0245     12.9515     19.8903   -999.2500
  1971.5000      7.7653      2.4273      0.0262     13.4943     20.5615   -999.2500
  1971.6000      7.7653      2.4405      0.0131     12.6956     21.6770   -999.2500
  1971.7000      7.7653      2.4666      0.0387     11.1158     23.9520   -999.2500
  1971.8000      7.7627      2.4825      0.0747     10.1528     30.3911   -999.2500
  1971.9000      7.7627      2.4755      0.0412     10.5764     40.6648   -999.2500
  1972.0000      7.7617      2.4579      0.0324     11.6426     48.3100   -999.2500
  1972.1000      7.7617      2.4477      0.0284     12.2602     51.1346   -999.2500
  1972.2000      7.7617      2.4510      0.0279     12.0577     51.6955   -999.2500
  1972.3000      7.7618      2.4588      0.0524     11.5889     51.7553   -999.2500
  1972.4000      7.7618      2.4578      0.0565     11.6469     51.7587   -999.2500
  1972.5000      7.7599      2.4488      0.0310     12.1934   -999.2500   -999.2500
  1972.6000      7.7599      2.4434      0.0444     12.5211   -999.2500   -999.2500
  1972.7000      7.7599      2.4507      0.0297     12.0777   -999.2500   -999.2500
  1972.8000      7.7567      2.4673      0.0519     11.0714   -999.2500   -999.2500
  1972.9000      7.7567      2.4788      0.0921     10.3741   -999.2500   -999.2500
  1973.0000      7.7541      2.4777      0.0705     10.4405   -999.2500   -999.2500
  1973.1000      7.7541      2.4707      0.0630     10.8692   -999.2500   -999.2500
  1973.2000      7.7541      2.4636      0.0650     11.2995   -999.2500   -999.2500
  1973.3000      7.7539      2.4568      0.0325     11.7082   -999.2500   -999.2500
  1973.4000      7.7539      2.4507      0.0215     12.0789   -999.2500   -999.2500
  1973.5000      7.7557      2.4464      0.0038     12.3370   -999.2500   -999.2500
  1973.6000      7.7557      2.4443      0.0446     12.4649   -999.2500   -999.2500
  1973.7000      7.7557      2.4403      0.0361     12.7083   -999.2500   -999.2500
  1973.8000      7.7560      2.4348      0.0244     13.0396   -999.2500   -999.2500
  1973.9000      7.7560      2.4388      0.0207     12.7985   -999.2500   -999.2500
  1974.0000      7.7568      2.4538      0.0560     11.8924   -999.2500   -999.2500
  1974.1000      7.7568      2.4660      0.0588     11.1544   -999.2500   -999.2500
  1974.2000      7.7568      2.4729      0.0296     10.7357   -999.2500   -999.2500
  1974.3000      7.7588      2.4816      0.0481     10.2039   -999.2500   -999.2500
  1974.4000      7.7588      2.4880      0.0581      9.8163   -999.2500   -999.2500
  1974.5000      7.7597      2.4859      0.0563      9.9426   -999.2500   -999.2500
  1974.6000      7.7597      2.4789      0.0516     10.3712   -999.2500   -999.2500
  1974.7000      7.7597      2.4745      0.0517     10.6345   -999.2500   -999.2500
