~Version Information
 VERS.                                  2.0 : CWLS LAS VERSION
 WRAP.                                   NO : WRAPING MODE
 SWARE .                 MController 2.5.0J : SOFTWARE VERSION
~Well Information
 WELL.                    Oink-Oink 14-36Tr : WELL
 COMP.    Pioneer Natural Resources USA Inc : COMPANY
 FLD.                      Purgatoire River : FIELD
 LOC.                SW/SW Sec 36 T32S R67W : LOCATION
 DATE.                         6/09-10/2005 : DATE(S) LOGGED
 SRVC.       Blanco Geological Services LLC : SERVICE COMPANY
 STAT.                                   CO : STATE
 CNTY.                           Las Animas : COUNTY
 CTRY.                                  USA : COUNTRY
 API.                       05-071-08393-00 : API NUMBER
 STRT.FT                             231.00 : START DEPTH
 STOP.FT                            1924.00 : STOP DEPTH
 STEP.FT                               1.00 : DEPTH INCREMENT
 NULL.                                -9999 : NULL VALUE
~Curve information
 DEPTH.FT                                   :
 ROP.MIN/FT                                 :
 GAS.UNITS                                  :
~ASCII Log data
# ...
      1631.0         0.17        309.1 
      1632.0         0.17        300.6 
      1633.0         0.20        292.8 
      1634.0         0.22        287.4 
      1635.0         0.17        284.0 
      1636.0         0.13        281.8 
      1637.0         0.17        278.4 
      1638.0         0.33        274.8 
      1639.0         0.27        271.8 
      1640.0         0.27        271.2 
      1641.0         0.27        268.3 
      1642.0         0.30        263.3 
      1643.0         0.33        253.9 
      1644.0         0.27        243.6 
      1645.0         0.23        234.5 
      1646.0         2.08        178.8 
      1647.0         0.80        477.0 
      1648.0         0.47       1217.5 
      1649.0         0.30       1360.4 
      1650.0         0.23       1332.3 
      1651.0         0.25       1227.6 
      1652.0         0.27       1072.2 
      1653.0         0.23        914.5 
      1654.0         0.27        736.9 
      1655.0         0.23        666.2 
      1656.0         0.23        571.4 
      1657.0         0.23        504.6 
      1658.0         0.30        460.8 
      1659.0         0.27        440.0 
      1660.0         0.37        289.4 
      1661.0         0.37        258.7 
      1662.0         0.27        253.7 
      1663.0         0.28        259.9 
      1664.0         0.20        267.8 
      1665.0         0.23        277.7 
      1666.0         0.33        287.1 
      1667.0         0.30        280.1 
      1668.0         0.37        256.8 
      1669.0         0.27        237.0 
      1670.0         0.37        236.9 
      1671.0         0.33        253.2 
      1672.0         0.27        264.6 
      1673.0         0.23        268.3 
      1674.0         0.23        262.8 
      1675.0         0.22        259.0 
      1676.0         1.93        190.5 
      1677.0         0.60        334.2 
      1678.0         0.37        845.5 
      1679.0         0.28       1213.9 
      1680.0         0.30       1513.5 
      1681.0         0.27       1613.7 
      1682.0         0.30       1546.9 
      1683.0         0.27       1364.4 
      1684.0         0.23       1181.5 
      1685.0         0.33        937.1 
      1686.0         0.30        749.0 
      1687.0         0.27        633.5 
      1688.0         0.30        494.8 
      1689.0         0.30        445.7 
      1690.0         0.33        440.0 
      1691.0         0.35        313.4 
      1692.0         0.23        299.6 
      1693.0         0.27        289.1 
      1694.0         0.20        285.5 
      1695.0         0.20        282.8 
      1696.0         0.23        281.3 
      1697.0         0.20        279.9 
      1698.0         0.20        276.3 
      1699.0         0.20        273.9 
      1700.0         0.20        271.2 
      1701.0         0.17        268.1 
      1702.0         0.20        262.3 
      1703.0         0.20        257.7 
      1704.0         0.17        254.6 
      1705.0         0.17        251.8 
      1706.0         1.92        185.8 
      1707.0         0.50        251.9 
      1708.0         0.37        436.7 
      1709.0         0.37       1076.1 
      1710.0         0.30       1377.8 
      1711.0         0.28       1473.0 
      1712.0         0.23       1423.9 
      1713.0         0.27       1284.2 
      1714.0         0.30       1091.5 
      1715.0         0.33        826.9 
      1716.0         0.33        603.1 
      1717.0         0.30        480.1 
      1718.0         0.37        440.0 
      1719.0         0.23        327.6 
      1720.0         0.30        316.7 
      1721.0         0.33        306.0 
      1722.0         0.38        292.0 
      1723.0         0.43        272.0 
      1724.0         0.30        264.2 
      1725.0         0.40        274.6 
      1726.0         0.43        289.2 
      1727.0         0.47        289.9 
      1728.0         0.43        281.8 
      1729.0         0.43        282.5 
      1730.0         0.30        280.7 
      1731.0         0.35        281.2 
      1732.0         0.27        281.3 
      1733.0         0.20        280.4 
      1734.0         0.23        277.2 
      1735.0         0.27        266.9 
      1736.0         3.12       1156.3 
      1737.0         0.20       1420.3 
      1738.0         0.27       1624.4 
      1739.0         0.33       1590.8 
      1740.0         0.27       1384.3 
      1741.0         0.43       1055.9 
      1742.0         0.30        871.4 
      1743.0         0.33        730.4 
      1744.0         0.35        596.9 
      1745.0         0.40        465.4 
      1746.0         0.47        440.0 
      1747.0         0.47        277.7 
      1748.0         0.37        267.6 
      1749.0         0.30        266.1 
      1750.0         0.27        267.0 
      1751.0         0.37        269.6 
      1752.0         0.33        265.6 
      1753.0         0.35        257.9 
      1754.0         0.30        250.2 
      1755.0         0.30        250.2 
      1756.0         0.37        253.4 
      1757.0         0.30        254.1 
      1758.0         0.40        250.9 
      1759.0         0.30        248.7 
      1760.0         0.20        248.3 
      1761.0         0.17        247.5 
      1762.0         0.20        246.5 
      1763.0         0.20        247.0 
      1764.0         0.17        249.2 
      1765.0         0.17        254.6 
      1766.0         2.35        254.4 
      1767.0         0.47        482.7 
      1768.0         0.23       1006.1 
      1769.0         0.33       1475.3 
      1770.0         0.35       1934.3 
      1771.0         0.27       2074.0 
      1772.0         0.30       1968.6 
      1773.0         0.23       1737.3 
      1774.0         0.23       1501.1 
      1775.0         0.23       1237.1 
      1776.0         0.20       1100.0 
      1777.0         0.20        962.0 
      1778.0         0.20        842.2 
      1779.0         0.23        732.0 
      1780.0         0.23        631.6 
      1781.0         0.23        555.0 
      1782.0         0.20        498.4 
      1783.0         0.17        450.0 
      1784.0         0.18        440.0 
      1785.0         0.17        440.0 
      1786.0         0.23        440.0 
      1787.0         0.20        327.5 
      1788.0         0.30        310.5 
      1789.0         0.23        293.2 
      1790.0         0.27        273.0 
      1791.0         0.20        266.8 
      1792.0         0.23        274.6 
      1793.0         0.23        290.1 
      1794.0         0.23        303.9 
      1795.0         0.20        312.2 
      1796.0         2.38        236.2 
      1797.0         0.63        849.8 
      1798.0         0.33       1322.5 
      1799.0         0.30       1790.3 
      1800.0         0.23       2073.3 
      1801.0         0.23       2202.2 
      1802.0         0.35       2034.4 
      1803.0         0.23       1777.2 
      1804.0         0.20       1549.2 
      1805.0         0.30       1266.5 
      1806.0         0.47        930.2 
      1807.0         0.43        708.4 
      1808.0         0.27        601.1 
      1809.0         0.33        498.7 
      1810.0         0.17        461.8 
      1811.0         0.13        483.7 
      1812.0         0.20        444.1 
      1813.0         0.27        440.0 
      1814.0         0.38        311.1 
      1815.0         0.20        305.7 
      1816.0         0.20        300.4 
      1817.0         0.20        294.9 
      1818.0         0.13        292.1 
      1819.0         0.17        289.2 
      1820.0         0.07        288.5 
      1821.0         0.13        286.5 
      1822.0         0.17        285.6 
      1823.0         0.10        286.0 
      1824.0         0.20        288.0 
      1825.0         0.20        288.8 
      1826.0         1.98        195.6 
      1827.0         0.47        244.9 
      1828.0         0.30        375.3 
      1829.0         0.27        813.4 
      1830.0         0.20       1097.1 
