~Version Information
VERS.                      2.0: CWLS Log ASCII Standard - VERSION 2.0
WRAP.                       NO: One line per depth step
~Well Information Block
STRT.FT               640.0000: 
STOP.FT               927.0000: 
STEP.FT                 0.2500: 
NULL.                -999.2500: 
COMP.          Pioneer Natural Resources: COMPANY
WELL.          Claim Jumper 41-22: WELL
FLD.           Purgatoire River: FIELD
LOC.           1120' FNL & 977' FEL: LOCATION
PROV.                 Colorado: PROVINCE
CNTY.               Las Animas: COUNTRY
SRVC.                Patterson: SERVICE COMPANY
DATE.          Wed Jun 22 15:44:21 2005: LOG DATE
UWI.           05-071-08405-00: UNIQUE WELL ID
~Curve Information Block
DEPT.FT            0 000 00 00: Depth
DIR.Ohm-m                     : IEL Induction Resistivity
GR.GAPI                       : Gamma Ray
~Parameter Information Block
~A  Depth       DIR          GR     
# ...
   807.2500     20.5078     83.6230
   807.5000     20.8773     83.1771
   807.7500     21.3572     83.4826
   808.0000     21.9405     84.6126
   808.2500     22.5977     85.2214
   808.5000     23.2702     85.0595
   808.7500     23.8785     84.3057
   809.0000     24.3501     83.1362
   809.2500     24.6543     83.0046
   809.5000     24.8164     84.5591
   809.7500     24.8959     86.6956
   810.0000     24.9502     90.4527
   810.2500     25.0119     92.5066
   810.5000     25.0922     94.0626
   810.7500     25.1989     94.0461
   811.0000     25.3466     92.9199
   811.2500     25.5509     91.8724
   811.5000     25.8102     90.4938
   811.7500     26.0940     89.8191
   812.0000     26.3517     88.9130
   812.2500     26.5395     88.1492
   812.5000     26.6455     86.5976
   812.7500     26.6950     85.3601
   813.0000     26.7394     83.4616
   813.2500     26.8403     82.2920
   813.5000     27.0587     80.6100
   813.7500     27.4462     79.3373
   814.0000     28.0344     77.1493
   814.2500     28.8205     75.8515
   814.5000     29.7528     74.8305
   814.7500     30.7306     74.7758
   815.0000     31.6297     75.0444
   815.2500     32.3475     75.1478
   815.5000     32.8346     75.1622
   815.7500     33.0851     75.2926
   816.0000     33.1021     76.0401
   816.2500     32.8866     76.9111
   816.5000     32.4645     78.3442
   816.7500     31.9142     79.0528
   817.0000     31.3427     79.4923
   817.2500     30.8247     79.5577
   817.5000     30.3648     80.0766
   817.7500     29.9217     81.0822
   818.0000     29.4667     83.4720
   818.2500     29.0195     85.1929
   818.5000     28.6256     87.2037
   818.7500     28.3099     87.9677
   819.0000     28.0558     88.2070
   819.2500     27.8261     87.8528
   819.5000     27.5974     86.9225
   819.7500     27.3730     86.2575
   820.0000     27.1615     85.3973
   820.2500     26.9489     85.0139
   820.5000     26.6960     84.7455
   820.7500     26.3729     84.4655
   821.0000     25.9998     83.0809
   821.2500     25.6496     81.4483
   821.5000     25.4057     78.9462
   821.7500     25.3109     77.9357
   822.0000     25.3547     77.6485
   822.2500     25.5022     77.9802
   822.5000     25.7293     78.9992
   822.7500     26.0246     80.1023
   823.0000     26.3600     82.1814
   823.2500     26.6719     83.3912
   823.5000     26.8881     84.2427
   823.7500     26.9806     84.1105
   824.0000     26.9886     83.1744
   824.2500     26.9840     82.2776
   824.5000     27.0078     80.9156
   824.7500     27.0347     80.2760
   825.0000     26.9927     80.2083
   825.2500     26.8310     80.9753
   825.5000     26.5753     83.3697
   825.7500     26.3149     85.4761
   826.0000     26.1342     88.4313
   826.2500     26.0519     89.7939
   826.5000     26.0131     90.8376
   826.7500     25.9273     91.2662
   827.0000     25.7254     92.6514
   827.2500     25.4005     94.6300
   827.5000     25.0092     99.1560
   827.7500     24.6363    102.5672
   828.0000     24.3515    106.9114
   828.2500     24.1886    108.8309
   828.5000     24.1542    110.1719
   828.7500     24.2520    110.1581
   829.0000     24.4965    108.8705
   829.2500     24.8989    107.2214
   829.5000     25.4334    103.9830
   829.7500     26.0159    101.7172
   830.0000     26.5323     98.7564
   830.2500     26.9207     97.2796
   830.5000     27.2405     96.0301
   830.7500     27.6523     95.8816
   831.0000     28.3152     96.3772
   831.2500     29.2783     96.7472
   831.5000     30.4376     96.6408
   831.7500     31.5772     96.0467
   832.0000     32.4731     94.8731
   832.2500     32.9944     94.3218
   832.5000     33.1403     94.2511
   832.7500     33.0170     94.6440
   833.0000     32.7849     95.4121
   833.2500     32.6035     95.7536
   833.5000     32.5950     95.7610
   833.7500     32.8386     95.4213
   834.0000     33.3708     94.4932
   834.2500     34.1664     93.7015
   834.5000     35.1033     92.6954
   834.7500     35.9565     92.6967
   835.0000     36.4577     94.8758
   835.2500     36.4141     98.0047
   835.5000     35.8065    104.0102
   835.7500     34.7895    107.6704
   836.0000     33.5872    111.2062
   836.2500     32.3806    111.9938
   836.5000     31.2670    110.6364
   836.7500     30.2859    108.1159
   837.0000     29.4530    103.1387
   837.2500     28.7708    100.2523
   837.5000     28.2258     98.0234
   837.7500     27.7956     97.7860
   838.0000     27.4605     97.7059
   838.2500     27.2010     96.9390
   838.5000     26.9853     94.6550
   838.7500     26.7711     93.2671
   839.0000     26.5266     93.0490
   839.2500     26.2513     94.2070
   839.5000     25.9712     96.1413
   839.7500     25.7146     96.3845
   840.0000     25.4938     95.0680
   840.2500     25.3063     94.2700
   840.5000     25.1465     95.4480
   840.7500     25.0149     98.0534
   841.0000     24.9131    103.0045
   841.2500     24.8313    105.6380
   841.5000     24.7403    107.4093
   841.7500     24.5962    107.4997
   842.0000     24.3558    107.5404
   842.2500     23.9927    108.0054
   842.5000     23.5096    108.6947
   842.7500     22.9481    108.4118
   843.0000     22.3886    106.6640
   843.2500     21.9301    105.3767
   843.5000     21.6540    104.8609
   843.7500     21.5910    105.6917
   844.0000     21.7092    107.5601
   844.2500     21.9289    108.3389
   844.5000     22.1595    108.2139
   844.7500     22.3413    107.4932
   845.0000     22.4668    106.0366
   845.2500     22.5680    104.9485
   845.5000     22.6867    102.9821
   845.7500     22.8566    101.3622
   846.0000     23.1066     98.7994
   846.2500     23.4692     97.4378
   846.5000     23.9768     96.5149
   846.7500     24.6432     96.6637
   847.0000     25.4514     97.5262
   847.2500     26.3592     98.0994
   847.5000     27.3142     98.4535
   847.7500     28.2511     98.3843
   848.0000     29.0699     98.3975
   848.2500     29.6399     98.9038
   848.5000     29.8736    100.7787
   848.7500     29.8101    102.5700
   849.0000     29.6015    105.0413
   849.2500     29.4030    105.9250
   849.5000     29.2840    105.8836
   849.7500     29.2233    105.4222
   850.0000     29.1571    105.2713
   850.2500     29.0314    106.0041
   850.5000     28.8372    108.4643
   850.7500     28.6217    110.7379
   851.0000     28.4657    114.3116
   851.2500     28.4295    116.3418
   851.5000     28.5088    118.6283
   851.7500     28.6329    120.0085
   852.0000     28.7147    122.7067
   852.2500     28.7062    124.8171
   852.5000     28.6215    126.6430
   852.7500     28.5229    125.6557
   853.0000     28.4966    120.4507
   853.2500     28.6203    115.8511
   853.5000     28.9215    110.6914
   853.7500     29.3466    109.5595
   854.0000     29.7763    110.6090
   854.2500     30.0886    111.7830
   854.5000     30.2230    112.2822
   854.7500     30.1917    111.4440
   855.0000     30.0436    109.0742
   855.2500     29.8319    107.3156
   855.5000     29.6042    105.0504
   855.7500     29.3996    104.1152
   856.0000     29.2398    104.2950
   856.2500     29.1183    105.5797
   856.5000     28.9980    107.9930
   856.7500     28.8236    108.6580
   857.0000     28.5410    106.9333
   857.2500     28.1162    104.3364
   857.5000     27.5484    100.4023
   857.7500     26.8772     99.1307
   858.0000     26.1739    100.4047
   858.2500     25.5157    102.9811
   858.5000     24.9564    107.5349
   858.7500     24.5114    109.9531
   859.0000     24.1674    111.9510
   859.2500     23.9055    112.5532
   859.5000     23.7161    113.6146
   859.7500     23.5959    114.8771
   860.0000     23.5375    117.1644
   860.2500     23.5284    118.2147
   860.5000     23.5601    118.2446
   860.7500     23.6392    117.4366
   861.0000     23.7860    116.0119
   861.2500     24.0173    115.2195
   861.5000     24.3243    113.6867
   861.7500     24.6594    111.8796
   862.0000     24.9501    107.9852
   862.2500     25.1338    105.3745
   862.5000     25.1881    103.0036
   862.7500     25.1330    102.6856
