~Version Information
VERS.                      2.0: CWLS Log ASCII Standard - VERSION 2.0
WRAP.                       NO: One line per depth step
~Well Information Block
STRT.FT                -8.2500: 
STOP.FT              1795.0000: 
STEP.FT                 0.2500: 
NULL.                -999.2500: 
COMP.          Petrogulf Corporation: COMPANY
WELL.           Montoya 7-21 R: WELL
FLD.           Purgatoire River: FIELD
LOC.           445' FNL & 1942' FWL----: LOCATION
PROV.                 Colorado: PROVINCE
CNTY.               Las Animas: COUNTRY
SRVC.                         : SERVICE COMPANY
DATE.          Fri Sep 30 15:33:54 2005: LOG DATE
UWI.                          : UNIQUE WELL ID
~Curve Information Block
DEPT.FT            0 000 00 00: Depth
GR.GAPI                       : Gamma Ray
CCL.                          : Casing Collar Locator
TT3.usec                      : CBL 3' Travel Time
AMP3.mV                       : CBL 3' Amplitude
~Parameter Information Block
~A  Depth        GR         CCL         TT3         AMP3    
# ...
  1063.7500     41.6089      0.0000    534.9390      8.0295
  1064.0000     42.4534      0.0000    551.4156      8.3633
  1064.2500     44.4095      0.0000    573.3362      8.9126
  1064.5000     47.4905      0.0000    595.7436      9.6589
  1064.7500     51.8820      0.0000    608.4301     10.5244
  1065.0000     57.7099      0.0000    601.5912     11.4351
  1065.2500     64.8347      0.0000    571.9489     12.4162
  1065.5000     72.7007      0.0000    524.1461     13.6239
  1065.7500     80.3822      0.0000    467.6103     15.2836
  1066.0000     87.1192      0.0000    412.4253     17.6069
  1066.2500     93.0949      0.0000    366.0989     20.7514
  1066.5000     99.4865      0.0000    331.8548     24.7854
  1066.7500    107.4034      0.0000    309.0884     29.5705
  1067.0000    116.7249      0.0000    295.3022     34.5913
  1067.2500    125.9350      0.0000    287.7406     38.9462
  1067.5000    132.9821      0.0000    284.0497     41.6892
  1067.7500    136.5269      0.0000    282.4744     42.3700
  1068.0000    136.9123      0.0000    281.9709     41.2885
  1068.2500    136.1400      0.0000    282.1671     39.1699
  1068.5000    136.5152      0.0000    283.2177     36.5845
  1068.7500    138.9510      0.0000    285.5970     33.7035
  1069.0000    142.5694      0.0000    289.8220     30.5206
  1069.2500    145.7421      0.0000    296.4880     27.1361
  1069.5000    147.1661      0.0000    307.2389     23.7773
  1069.7500    146.2299      0.0000    326.5063     20.6465
  1070.0000    143.0615      0.0000    361.7715     17.8381
  1070.2500    138.5108      0.0000    419.4541     15.3875
  1070.5000    133.7717      0.0000    497.4503     13.3519
  1070.7500    129.5690      0.0000    581.2123     11.8348
  1071.0000    125.7509      0.0000    649.4456     10.9495
  1071.2500    121.9073      0.0000    685.0677     10.7740
  1071.5000    118.2233      0.0000    681.0928     11.3363
  1071.7500    115.6161      0.0000    639.2653     12.6307
  1072.0000    115.5097      0.0000    568.2601     14.6336
  1072.2500    119.4533      0.0000    483.7757     17.3008
  1072.5000    128.0537      0.0000    404.9756     20.5621
  1072.7500    139.8298      0.0000    345.9971     24.3364
  1073.0000    151.5732      0.0000    310.1528     28.5611
  1073.2500    160.2003      0.0000    292.0588     33.2072
  1073.5000    164.3893      0.0000    283.7729     38.2526
  1073.7500    164.8099      0.0000    279.0453     43.6000
  1074.0000    163.0639      0.0000    274.3963     48.9619
  1074.2500    160.3882      0.0000    268.8493     53.8170
  1074.5000    157.3551      0.0000    263.3997     57.5551
  1074.7500    154.6637      0.0000    259.9958     59.7767
  1075.0000    153.7121      0.0000    260.1077     60.5191
  1075.2500    155.8871      0.0000    263.6373     60.2140
  1075.5000    161.1642      0.0000    268.9421     59.4410
  1075.7500    167.5583      0.0000    273.8353     58.6874
  1076.0000    172.2090      0.0000    276.6675     58.2447
  1076.2500    173.2236      0.0000    276.6898     58.2285
  1076.5000    170.7261      0.0000    273.8560     58.6519
  1076.7500    166.3586      0.0000    268.7452     59.4878
  1077.0000    161.8546      0.0000    262.6105     60.6978
  1077.2500    158.0829      0.0000    256.9863     62.2503
  1077.5000    155.1911      0.0000    252.9035     64.1345
  1077.7500    152.9334      0.0000    250.4875     66.3319
  1078.0000    150.4516      0.0000    249.2646     68.7432
  1078.2500    146.5067      0.0000    248.6894     71.1530
  1078.5000    140.8283      0.0000    248.4121     73.3056
  1078.7500    134.9355      0.0000    248.2677     75.0372
  1079.0000    131.0572      0.0000    248.1887     76.3368
  1079.2500    130.4674      0.0000    248.1465     77.2929
  1079.5000    133.0770      0.0000    248.1297     77.9912
  1079.7500    137.9491      0.0000    248.1419     78.4340
  1080.0000    143.4142      0.0000    248.2286     78.4870
  1080.2500    146.9650      0.0000    248.5501     77.8499
  1080.5000    146.2377      0.0000    249.4939     76.0978
  1080.7500    140.7145      0.0000    251.6987     72.8417
  1081.0000    132.1810      0.0000    255.7797     67.9407
  1081.2500    123.3791      0.0000    261.8324     61.6226
  1081.5000    116.3815      0.0000    269.3813     54.4316
  1081.7500    111.9409      0.0000    278.3072     47.0647
  1082.0000    109.6901      0.0000    290.0282     40.1920
  1082.2500    108.5666      0.0000    307.1124     34.3168
  1082.5000    107.3024      0.0000    330.7091     29.7016
  1082.7500    105.1276      0.0000    358.0300     26.3815
  1083.0000    102.3332      0.0000    382.6997     24.2460
  1083.2500    100.0690      0.0000    397.6195     23.1439
  1083.5000     99.7035      0.0000    397.7894     22.9708
  1083.7500    102.4150      0.0000    382.3946     23.6921
  1084.0000    108.8187      0.0000    356.1609     25.2742
  1084.2500    118.4061      0.0000    327.8668     27.5657
  1084.5000    129.3244      0.0000    305.5585     30.2363
  1084.7500    138.8336      0.0000    292.6405     32.7896
  1085.0000    144.3866      0.0000    288.1079     34.6124
  1085.2500    145.0177      0.0000    289.0413     35.1257
  1085.5000    142.0110      0.0000    292.2597     34.0933
  1085.7500    137.7744      0.0000    295.0153     31.8358
  1086.0000    133.8502      0.0000    295.8939     29.0441
  1086.2500    130.2834      0.0000    295.4098     26.3491
  1086.5000    126.6446      0.0000    295.1882     24.0753
  1086.7500    122.9925      0.0000    296.2495     22.2983
  1087.0000    119.8793      0.0000    298.0320     21.0220
  1087.2500    117.8767      0.0000    299.0129     20.3045
  1087.5000    117.1783     -1.2976    298.2248     20.2831
  1087.7500    117.6317      0.0000    296.0690     21.1346
  1088.0000    119.2589      0.0000    293.6381     23.0054
  1088.2500    122.4535      0.0000    291.5542     25.8813
  1088.5000    127.1661      0.0000    289.6801     29.4588
  1088.7500    132.0714      0.0000    287.7092     33.2083
  1089.0000    135.0409      0.0000    285.6684     36.6376
  1089.2500    134.6375      0.0000    283.8510     39.4341
  1089.5000    131.2993      0.0000    282.5032     41.3569
  1089.7500    127.2389      0.0000    281.7237     42.1664
  1090.0000    124.9971      0.0000    281.6280     41.7169
  1090.2500    125.6676      0.0000    282.5901     39.9880
  1090.5000    128.3279      0.0000    285.2999     37.0257
  1090.7500    131.2016      0.0000    290.3886     33.0225
  1091.0000    133.1554      0.0000    297.7036     28.4800
  1091.2500    133.9646      0.0000    305.9356     24.1283
  1091.5000    133.5467      0.0000    313.4089     20.5682
  1091.7500    131.4077      0.0000    319.5931     17.9930
  1092.0000    126.7975      0.0000    325.9615     16.2277
  1092.2500    119.1776      0.0000    334.9698     14.9867
  1092.5000    108.6941      0.0000    347.1859     14.1025
  1092.7500     96.5520      0.0000    358.8375     13.5811
  1093.0000     85.0415      0.0000    363.4343     13.5207
  1093.2500     77.0341      0.0000    357.3092     14.0288
  1093.5000     75.0480      0.0000    342.9434     15.2112
  1093.7500     80.1877      0.0000    326.0766     17.1644
  1094.0000     91.3802      0.0000    310.9264     19.8968
  1094.2500    105.4687      0.0000    298.9641     23.2650
  1094.5000    118.4345      0.0000    290.3765     27.0491
  1094.7500    127.2474      0.0000    284.9618     31.1073
  1095.0000    131.1537      0.0000    282.0837     35.4230
  1095.2500    131.5341      0.0000    280.7723     39.9948
  1095.5000    130.7048      0.0000    280.0663     44.7101
  1095.7500    130.6974      0.0000    279.0969     49.3356
  1096.0000    132.4786      0.0000    277.0208     53.6300
  1096.2500    135.5937      0.0000    273.1721     57.4711
  1096.5000    138.6097      0.0000    267.5657     60.8662
  1096.7500    140.3106      0.0000    261.1964     63.8606
  1097.0000    140.4537      0.0000    255.5483     66.4876
