~Version Information
VERS.                      2.0: CWLS Log ASCII Standard - VERSION 2.0
WRAP.                       NO: One line per depth step
~Well Information Block
STRT.FT               768.0000: 
STOP.FT              2635.5000: 
STEP.FT                 0.1000: 
NULL.                -999.2500: 
COMP.          Pioneer Natural Resources: COMPANY
WELL.               Zink 44-10: WELL
FLD.           Purgatoire River: FIELD
LOC.           548' FSL & 473' FEL: LOCATION
PROV.                 Colorado: PROVINCE
CNTY.               Las Animas: COUNTRY
SRVC.                Patterson: SERVICE COMPANY
DATE.          Tue May 31 07:05:25 2005: LOG DATE
UWI.           05 071 08380 00: UNIQUE WELL ID
~Curve Information Block
DEPT.FT            0 000 00 00: Depth
DCAL.in                       : CDL Caliper
RHOB.g/cc                     : CDL Bulk Density
RHOC.g/cc                     : CDL Density Correction
DPOR.pu                       : CDL Density Porosity
GR.GAPI                       : Gamma Ray
NPOR.pu                       : Neutron Porosity
~Parameter Information Block
~A  Depth       DCAL        RHOB        RHOC        DPOR         GR         NPOR    
   768.0000      5.0478      0.0834     -0.5918    155.5485    115.0862     24.2327
   768.1000      5.0478      0.0943     -0.5595    154.8925    110.6870     24.3117
   768.2000      5.0478      0.1138     -0.5877    153.7101    104.4101     24.2498
   768.3000      5.0502      0.1415     -0.5212    152.0284     99.7034     23.8314
   768.4000      5.0502      0.1686     -0.4877    150.3869     99.7166     22.5128
   768.5000      5.0556      0.1884     -0.4931    149.1858    104.5655     20.5731
   768.6000      5.0556      0.2077     -0.4729    148.0202    110.6981     19.2603
   768.7000      5.0556      0.2374     -0.4870    146.2205    114.6675     19.1055
   768.8000      5.0618      0.2814     -0.4506    143.5501    114.0736     19.5163
   768.9000      5.0618      0.3312     -0.4314    140.5363    107.1865     19.4949
   769.0000      5.0622      0.3716     -0.3913    138.0879     97.3391     18.9887
   769.1000      5.0622      0.3951     -0.4250    136.6627     90.2623     18.3598
   769.2000      5.0622      0.4105     -0.4134    135.7245     88.0834     17.5542
   769.3000      5.0611      0.4375     -0.4414    134.0901     90.0070     17.3555
   769.4000      5.0611      0.4915     -0.3712    130.8168     93.6357     18.4723
   769.5000      5.0680      0.5701     -0.2657    126.0522     94.7764     20.0748
   769.6000      5.0680      0.6595     -0.1970    120.6390     93.6514     21.2236
   769.7000      5.0680      0.7507     -0.1093    115.1094     95.2143     21.6850
   769.8000      5.0574      0.8434     -0.0828    109.4907     97.5701     21.2348
   769.9000      5.0574      0.9416     -0.0509    103.5399     95.3248     19.8978
   770.0000      5.0631      1.0467     -0.0206     97.1679     90.5245     18.4873
   770.1000      5.0631      1.1558      0.0136     90.5604     87.6681     17.8861
   770.2000      5.0631      1.2686      0.0460     83.7196     88.0296     18.0852
   770.3000      5.0704      1.3946      0.0777     76.0868     90.2009     18.6679
   770.4000      5.0704      1.5466      0.1688     66.8737     92.9721     19.3731
   770.5000      5.0728      1.7370      0.2897     55.3318     97.6427     19.7666
   770.6000      5.0728      1.9808      0.3866     40.5600    104.5294     19.6020
   770.7000      5.0728      2.2846      0.5197     22.1484    109.9040     19.4373
   770.8000      5.0677      2.6179      0.6703      1.9479    111.7259     19.7294
   770.9000      5.0677      2.9142      0.8057    -16.0124    112.0537     20.2727
   771.0000      5.0704      3.1281      0.8355    -28.9743    111.0474     21.2843
   771.1000      5.0704      3.2683      0.8509    -37.4742    111.4857     22.5682
   771.2000      5.0704      3.3409      0.9291    -41.8712    116.8336     22.8615
   771.3000      5.0838      3.3073      0.8751    -39.8360    125.7763     22.3211
   771.4000      5.0838      3.1507      0.6386    -30.3452    136.0293     22.2388
   771.5000      5.0998      2.9260      0.3193    -16.7278    140.3831     22.7136
   771.6000      5.0998      2.7149      0.0409     -3.9351    131.5659     23.2333
   771.7000      5.0998      2.5637     -0.1169      5.2275    117.9831     23.4976
   771.8000      5.1036      2.4655     -0.1278     11.1846    110.9083     23.5905
   771.9000      5.1036      2.4017     -0.2193     15.0458    109.4485     23.7888
   772.0000      5.0983      2.3736     -0.2994     16.7534    111.6442     24.1863
   772.1000      5.0983      2.3637     -0.2806     17.3518    119.5899     24.7738
   772.2000      5.0983      2.3376     -0.3003     18.9345    130.2692     25.3189
   772.3000      5.1126      2.2916     -0.3352     21.7198    137.2179     25.4668
   772.4000      5.1126      2.2595     -0.3709     23.6665    138.6292     25.2880
   772.5000      7.1808      2.2789     -0.3668     22.4907    135.4615     25.0227
   772.6000      7.1808      2.3471     -0.3236     18.3588    130.7263     24.7857
   772.7000      7.1808      2.4279     -0.3260     13.4616    130.4545     24.4046
   772.8000     20.7601      2.4969     -0.2550      9.2767    134.9037     24.0993
   772.9000     20.7601      2.5355     -0.2096      6.9411    137.4328     24.6260
   773.0000     10.0195      2.5217     -0.2000      7.7747    136.4051     25.6767
   773.1000     10.0195      2.4468     -0.2127     12.3170    136.6109     26.2047
   773.2000     10.0195      2.3291     -0.4219     19.4513    138.1182     26.1252
   773.3000      8.2919      2.2213     -0.5483     25.9792    135.8586     26.1997
   773.4000      8.2919      2.1759     -0.6585     28.7317    130.5424     26.7160
   773.5000      8.2873      2.1846     -0.4964     28.2072    128.1684     26.8796
   773.6000      8.2873      2.1963     -0.5598     27.4961    130.8850     26.2861
   773.7000      8.2873      2.2058     -0.5535     26.9200    134.7223     25.5861
   773.8000      8.2867      2.2270     -0.4590     25.6374    132.9371     25.0260
   773.9000      8.2867      2.2366     -0.4958     25.0539    126.3424     24.6959
   774.0000      8.2857      2.2217     -0.5420     25.9564    124.1805     24.9032
   774.1000      8.2857      2.2077     -0.5669     26.8053    128.6051     25.1213
   774.2000      8.2857      2.2126     -0.5258     26.5064    134.8428     24.7020
   774.3000      8.2821      2.2138     -0.4258     26.4386    139.3637     24.1536
   774.4000      8.2821      2.1888     -0.5132     27.9529    138.8542     24.3103
   774.5000      8.2802      2.1577     -0.5489     29.8380    131.0275     24.8552
   774.6000      8.2802      2.1445     -0.5377     30.6377    117.6025     24.8025
   774.7000      8.2802      2.1458     -0.4503     30.5584    107.4700     24.0141
   774.8000      8.2822      2.1513     -0.5238     30.2269    110.1091     23.3223
   774.9000      8.2822      2.1741     -0.5252     28.8423    121.3479     23.4643
   775.0000      8.2760      2.2240     -0.4358     25.8164    128.9324     24.3429
   775.1000      8.2760      2.2681     -0.3930     23.1444    130.7191     25.3473
   775.2000      8.2760      2.2733     -0.4362     22.8331    129.3260     26.1418
   775.3000      8.2838      2.2476     -0.4505     24.3869    123.2976     26.6305
   775.4000      8.2838      2.2172     -0.5238     26.2324    116.8058     26.4466
   775.5000      8.2780      2.1930     -0.5066     27.6957    116.0472     25.5691
   775.6000      8.2780      2.1741     -0.4888     28.8452    120.0133     24.6136
   775.7000      8.2780      2.1718     -0.5562     28.9803    124.2175     24.3269
   775.8000      8.2767      2.1927     -0.5547     27.7130    127.0495     24.6510
   775.9000      8.2767      2.2240     -0.5108     25.8196    130.2912     25.0556
   776.0000      8.2775      2.2581     -0.4848     23.7494    133.9094     25.3988
   776.1000      8.2775      2.2751     -0.3892     22.7199    135.3513     25.8089
   776.2000      8.2775      2.2469     -0.4268     24.4295    131.0220     26.2183
   776.3000      8.2771      2.2102     -0.6267     26.6574    122.4431     26.2464
   776.4000      8.2771      2.2218     -0.5127     25.9521    118.0704     26.0734
   776.5000      8.2758      2.2624     -0.4111     23.4905    120.2465     26.1850
   776.6000      8.2758      2.2872     -0.4651     21.9876    121.3675     26.3086
   776.7000      8.2758      2.2957     -0.4649     21.4713    119.4451     26.1826
   776.8000      8.2742      2.2953     -0.4238     21.4952    120.7236     26.1581
   776.9000      8.2742      2.2840     -0.4493     22.1813    125.0584     26.1635
   777.0000      8.2767      2.2768     -0.4729     22.6159    127.1182     25.7397
   777.1000      8.2767      2.2904     -0.4566     21.7935    127.0414     25.2208
   777.2000      8.2767      2.3018     -0.3818     21.1007    128.9520     25.2166
   777.3000      8.2771      2.2782     -0.4237     22.5362    134.0771     25.6669
   777.4000      8.2771      2.2294     -0.4628     25.4934    137.4269     26.0813
   777.5000      8.2763      2.1837     -0.5396     28.2611    132.3555     25.9704
