~Version Information
VERS.                      2.0: CWLS Log ASCII Standard - VERSION 2.0
WRAP.                       NO: One line per depth step
~Well Information Block
STRT.FT                -8.5000: 
STOP.FT              2286.0000: 
STEP.FT                 0.2500: 
NULL.                -999.2500: 
COMP.          Pioneer Natural Resources: COMPANY
WELL.             Culver 14-12: WELL
FLD.           Purgatorie River: FIELD
LOC.           913' FSL & 1140' FWL--: LOCATION
PROV.                       CO: PROVINCE
CNTY.               Las Animas: COUNTRY
SRVC.          Patterson Wireline: SERVICE COMPANY
DATE.          Wed Jun 15 13:05:36 2005: LOG DATE
UWI.           05 071 08386 00: UNIQUE WELL ID
~Curve Information Block
DEPT.FT            0 000 00 00: Depth
CCL.                          : Casing Collar Locator
TT3.usec                      : CBL 3' Travel Time
AMP3.mV                       : CBL 3' Amplitude
GR.GAPI                       : Gamma Ray
~Parameter Information Block
~A  Depth       CCL         TT3         AMP3         GR     
# ...
   293.0000      0.0000    858.8126      3.5580     88.9594
   293.2500      0.0000    852.4091      3.5675     87.4877
   293.5000      0.0000    841.2606      3.5792     87.5703
   293.7500      0.0000    827.2764      3.6269     89.2858
   294.0000      0.0000    812.3976      3.6874     93.0017
   294.2500      0.0000    798.4282      3.7053     98.6207
   294.5000      0.0000    787.7548      3.6711    104.2850
   294.7500      0.0000    783.0816      3.6344    106.7010
   295.0000      0.0000    784.8775      3.6346    103.3986
   295.2500      0.0000    789.4426      3.6528     94.7289
   295.5000      0.0000    790.9122      3.6518     83.4503
   295.7500      0.0000    785.5721      3.6311     72.5993
   296.0000      0.0000    774.2708      3.6103     64.0385
   296.2500      0.0000    761.1724      3.5806     58.5089
   296.5000      0.0000    750.4193      3.5136     56.0831
   296.7500      0.0000    743.7003      3.4169     56.2649
   297.0000      0.0000    740.3209      3.3386     58.1814
   297.2500      0.0000    738.7723      3.3045     60.9830
   297.5000      0.0000    737.9063      3.2868     63.7548
   297.7500      0.0000    737.1767      3.2533     65.1333
   298.0000      0.0000    736.4001      3.2157     63.8874
   298.2500      0.0000    735.5551      3.1985     60.1202
   298.5000      0.0000    734.6863      3.1883     55.3124
   298.7500      0.0000    733.9078      3.1545     51.1158
   299.0000      0.0000    733.3739      3.1068     48.5516
   299.2500      0.0000    733.2035      3.0865     48.1786
   299.5000      0.0000    733.3976      3.0986     50.2901
   299.7500      0.0000    733.8367      3.0989     54.5764
   300.0000      0.0000    734.3696      3.0627     59.8745
   300.2500      0.0000    734.9034      3.0271     64.7693
   300.5000      0.0000    735.4077      3.0373     68.5426
   300.7500      0.0000    735.8701      3.0847     71.3321
   301.0000      0.0000    736.2773      3.1298     73.4599
   301.2500      0.0000    736.6287      3.1625     74.8581
   301.5000      0.0000    736.9413      3.1987     74.9749
   301.7500      0.0000    737.2399      3.2316     73.1219
   302.0000      0.0000    737.5483      3.2305     69.2694
   302.2500      0.0000    737.8802      3.1923     64.5910
   302.5000      0.0000    738.2194      3.1576     60.7624
   302.7500      0.0000    738.5154      3.1588     58.4891
   303.0000      0.0000    738.7114      3.1814     56.9864
   303.2500      0.0000    738.7805      3.1951     55.1089
   303.5000      0.0000    738.7338      3.1962     52.7733
   303.7500      0.0000    738.5974      3.1938     51.0178
   304.0000      0.0000    738.3983      3.1793     50.7427
   304.2500      0.0000    738.2051      3.1461     51.5735
   304.5000      0.0000    738.3182      3.1235     52.0048
   304.7500      0.0000    739.5811      3.1486     50.7986
   305.0000      0.0000    743.6675      3.2053     48.3507
   305.2500      0.0000    752.7488      3.2340     46.4575
   305.5000      0.0000    767.8409      3.2117     46.5626
   305.7500      0.0000    786.6318      3.1888     48.3908
   306.0000      0.0000    803.6431      3.2232     50.3442
   306.2500      0.0000    813.9625      3.3023     51.0194
   306.5000      0.0000    816.8945      3.3613     50.1732
   306.7500      0.0000    815.3745      3.3696     48.4611
   307.0000      0.0000    812.5129      3.3598     46.6638
   307.2500      0.0000    809.6415      3.3639     45.2481
   307.5000      0.0000    807.2028      3.3643     44.3152
   307.7500      0.0000    806.3798      3.3336     43.6509
   308.0000      0.0000    808.8027      3.2952     42.9596
   308.2500      0.0000    814.0830      3.3023     42.3167
   308.5000      0.0000    818.1904      3.3597     42.3467
   308.7500      0.0000    815.5268      3.4048     43.7774
   309.0000      0.0000    802.9794      3.3799     46.8746
   309.2500      0.0000    781.9252      3.2972     51.3585
   309.5000      0.0000    757.3743      3.2074     56.5570
   309.7500      0.0000    735.8171      3.1241     61.3701
   310.0000      0.0000    722.8841      3.0169     64.3653
   310.2500      0.0000    721.8680      2.8818     64.3449
   310.5000      0.0000    733.5583      2.7720     61.0314
   310.7500      0.0000    756.3601      2.7370     55.4356
   311.0000      0.0000    785.8159      2.7704     49.6545
   311.2500      0.0000    814.7437      2.8422     45.8329
   311.5000      0.0000    835.8243      2.9432     44.8114
   311.7500      0.0000    845.8940      3.0606     45.8927
   312.0000      2.0000    847.7393      3.1421     47.9717
   312.2500      0.0000    846.6709      3.1366     50.4573
   312.5000      0.0000    845.1314      3.0667     53.0429
   312.7500      0.0000    840.9950      3.0231     55.2240
   313.0000      0.0000    830.8906      3.0730     56.4636
   313.2500      0.0000    814.6006      3.1959     56.6219
   313.5000      0.0000    795.6461      3.3209     55.9269
   313.7500      0.0000    777.7903      3.4073     54.6517
   314.0000      0.0000    762.2734      3.4694     53.1228
   314.2500      0.0000    748.8770      3.5292     52.1550
   314.5000      0.0000    738.7150      3.5739     53.2111
   314.7500      0.0000    735.0016      3.5748     57.5888
   315.0000      0.0000    740.6809      3.5389     65.1367
   315.2500      0.0000    755.2075      3.5140     74.0350
   315.5000      0.0000    774.2987      3.5330     82.2049
   315.7500      0.0000    793.6588      3.5673     88.7937
   316.0000      0.0000    812.3973      3.5593     94.0932
   316.2500      0.0000    831.8628      3.4956     98.2803
   316.5000      0.0000    851.9855      3.4210    100.8551
   316.7500      0.0000    870.1642      3.3729    101.5552
   317.0000      0.0000    883.2856      3.3313    101.1681
   317.2500      0.0000    889.4692      3.2582    100.8576
   317.5000      0.0000    888.3531      3.1648    100.9218
   317.7500      0.0000    881.2696      3.1008    100.5166
   318.0000      0.0000    871.1758      3.0799     98.4064
   318.2500      0.0000    861.3030      3.0540     94.0509
   318.5000      0.0000    853.4177      2.9756     88.3249
   318.7500      0.0000    847.2115      2.8578     83.1392
   319.0000      0.0000    841.1976      2.7523     80.0670
   319.2500      0.0000    834.2740      2.6825     79.2634
   319.5000      0.0000    826.7257      2.6233     79.6850
   319.7500      0.0000    819.7517      2.5482     80.1846
   320.0000      0.0000    814.1542      2.4699     80.4338
   320.2500      0.0000    809.7267      2.4181     80.9261
   320.5000      0.0000    806.0862      2.3943     82.1174
   320.7500      0.0000    803.9037      2.3752     83.6466
   321.0000      0.0000    805.2119      2.3558     84.5331
   321.2500      0.0000    812.1042      2.3591     84.0180
   321.5000      0.0000    824.2712      2.3956     82.0713
   321.7500      0.0000    837.0951      2.4395     79.3525
   322.0000      0.0000    842.9453      2.4644     76.9951
   322.2500      0.0000    835.8567      2.4922     76.3532
   322.5000      0.0000    815.2867      2.5817     78.3915
   322.7500      0.0000    786.1436      2.7635     82.8914
   323.0000      0.0000    757.5581      2.9989     88.3246
   323.2500      0.0000    740.7355      3.2209     92.6445
   323.5000      0.0000    742.3968      3.4078     94.2888
   323.7500      0.0000    757.1301      3.5956     92.8789
   324.0000      0.0000    768.6868      3.8152     89.4475
   324.2500      0.0000    761.5971      4.0352     85.7612
   324.5000      0.0000    732.3141      4.1858     82.7607
   324.7500      0.0000    690.3868      4.2368     79.7050
   325.0000      0.0000    650.3492      4.2343     75.4704
   325.2500      0.0000    622.0323      4.2503     70.6802
   325.5000      0.0000    606.8695      4.3030     67.8322
   325.7500      0.0000    601.1898      4.3459     68.8815
   326.0000      0.0000    601.6124      4.3421     72.9990
   326.2500      0.0000    608.1008      4.3271     77.3122
