~Version Information
VERS.                      2.0: CWLS Log ASCII Standard - VERSION 2.0
WRAP.                       NO: One line per depth step
~Well Information Block
STRT.FT               500.0000: 
STOP.FT              2732.5000: 
STEP.FT                 0.1000: 
NULL.                -999.2500: 
COMP.          Pioneer Natural Resources: COMPANY
WELL.          Dude Canyon 22-32: WELL
FLD.           Purgatoire River: FIELD
LOC.           1662' FNL & 2446' FWL----: LOCATION
PROV.                 Colorado: PROVINCE
CNTY.               Las Animas: COUNTRY
SRVC.                Patterson: SERVICE COMPANY
DATE.          Thu Mar 10 07:06:34 2005: LOG DATE
UWI.           05 071 08257 00: UNIQUE WELL ID
~Curve Information Block
DEPT.FT            0 000 00 00: Depth
GR.GAPI                       : Gamma Ray
DCAL.in                       : CDL Caliper
DPOR.pu                       : CDL Density Porosity
NPOR.pu                       : Neutron Porosity
RHOB.g/cc                     : CDL Bulk Density
RHOC.g/cc                     : CDL Density Correction
~Parameter Information Block
~A  Depth        GR         DCAL        DPOR        NPOR        RHOB        RHOC    
# ...
  1680.8000    124.1469      2.0223     35.4155     22.4609      2.0656      0.3075
  1680.9000    121.7424      2.0223     34.2062     22.1093      2.0856      0.3295
  1681.0000    124.5448      2.0220     32.1457     21.9068      2.1196      0.3356
  1681.1000    126.7421      2.0220     29.5263     21.8566      2.1628      0.3391
  1681.2000    128.2108      2.0220     26.7300     21.8723      2.2090      0.3677
  1681.3000    129.4879      2.0230     24.0305     21.9409      2.2535      0.3778
  1681.4000    132.4695      2.0230     21.2291     22.0618      2.2997      0.3907
  1681.5000    139.2433      2.0263     17.8554     22.1707      2.3554      0.3834
  1681.6000    147.2352      2.0263     13.7174     22.4694      2.4237      0.3855
  1681.7000    151.5847      2.0263      9.4170     22.9307      2.4946      0.4116
  1681.8000    151.1200      2.0312      6.3049     22.8704      2.5460      0.4081
  1681.9000    148.6424      2.0312      5.1792     22.1528      2.5645      0.3818
  1682.0000    141.7314      2.0375      5.5871     21.6982      2.5578      0.3686
  1682.1000    128.1720      2.0375      6.9564     22.1710      2.5352      0.3241
  1682.2000    118.3852      2.0375      8.8933     23.1496      2.5033      0.2819
  1682.3000    121.9569      2.0430     10.4154     23.7683      2.4781      0.2068
  1682.4000    133.0228      2.0430     11.0923     24.0370      2.4670      0.2460
  1682.5000    140.4140      2.0474     11.6573     24.5837      2.4577      0.2495
  1682.6000    140.1072      2.0474     12.1471     25.3503      2.4496      0.2175
  1682.7000    132.2388      2.0474     12.2937     25.8069      2.4472      0.2141
  1682.8000    122.3273      2.0506     12.8635     25.9106      2.4378      0.2107
  1682.9000    119.1482      2.0506     14.3983     26.0641      2.4124      0.1956
  1683.0000    123.3248      2.0529     16.4092     26.4906      2.3792      0.2039
  1683.1000    131.3590      2.0529     18.1006     27.1938      2.3513      0.1245
  1683.2000    136.2498      2.0529     19.2233     27.9393      2.3328      0.1915
  1683.3000    134.3981      2.0524     20.4694     28.1181      2.3123      0.1871
  1683.4000    129.7037      2.0524     22.2253     27.6682      2.2833      0.1724
  1683.5000    126.9621      2.0502     23.8142     27.2512      2.2571      0.1520
  1683.6000    129.7323      2.0502     24.7981     27.5026      2.2408      0.1801
  1683.7000    137.2701      2.0502     25.7705     28.1188      2.2248      0.1905
  1683.8000    144.5057      2.0488     27.5420     28.0987      2.1956      0.1626
  1683.9000    146.3351      2.0488     30.1377     27.3983      2.1527      0.1410
  1684.0000    140.1273      2.0461     32.3581     26.9807      2.1161      0.1275
  1684.1000    130.7227      2.0461     32.7612     27.1289      2.1094      0.1195
  1684.2000    124.7233      2.0461     31.5707     27.0507      2.1291      0.1975
  1684.3000    123.2601      2.0423     30.7420     26.4098      2.1428      0.2276
  1684.4000    129.5758      2.0423     31.5170     26.0273      2.1300      0.2297
  1684.5000    140.8179      2.0379     33.5333     26.4572      2.0967      0.2204
  1684.6000    142.5438      2.0379     36.4189     27.4403      2.0491      0.2392
  1684.7000    133.0469      2.0379     40.0239     28.4127      1.9896      0.1755
  1684.8000    127.5910      2.0316     43.3774     28.8812      1.9343      0.1568
  1684.9000    129.9267      2.0316     45.2327     28.7686      1.9037      0.1422
  1685.0000    132.7040      2.0237     45.4639     28.2486      1.8998      0.1943
  1685.1000    136.7803      2.0237     44.9908     27.6399      1.9077      0.2105
  1685.2000    145.7887      2.0237     44.5014     27.4007      1.9157      0.2288
  1685.3000    151.0933      2.0188     44.1812     27.6991      1.9210      0.2379
  1685.4000    147.1439      2.0188     44.1333     28.1650      1.9218      0.2419
  1685.5000    143.7685      2.0169     44.3756     28.4367      1.9178      0.2631
  1685.6000    146.1600      2.0169     44.8942     28.6254      1.9092      0.2643
  1685.7000    151.2234      2.0169     45.7494     28.6989      1.8951      0.2361
  1685.8000    158.9283      2.0150     47.0123     28.4692      1.8743      0.2528
  1685.9000    167.7281      2.0150     48.4597     28.4591      1.8504      0.2177
  1686.0000    166.4863      2.0120     49.6418     29.2584      1.8309      0.2396
  1686.1000    151.5729      2.0120     50.4222     30.1556      1.8180      0.2255
  1686.2000    139.8926      2.0120     50.7644     30.3103      1.8124      0.2140
  1686.3000    140.6417      2.0090     50.7214     30.1109      1.8131      0.2285
  1686.4000    143.0438      2.0090     50.6812     29.9838      1.8138      0.2561
  1686.5000    143.8291      2.0096     50.8922     29.5430      1.8103      0.2357
  1686.6000    149.7504      2.0096     51.3239     28.5092      1.8032      0.2371
  1686.7000    159.7444      2.0096     52.0901     27.4254      1.7905      0.2142
  1686.8000    163.6035      2.0107     53.4180     27.1685      1.7686      0.2440
  1686.9000    153.9857      2.0107     55.2831     27.7109      1.7378      0.1922
  1687.0000    137.4997      2.0077     57.0137     28.1783      1.7093      0.2206
  1687.1000    130.7758      2.0077     57.7123     28.0715      1.6977      0.1888
  1687.2000    141.0450      2.0077     56.9418     27.8670      1.7105      0.1926
  1687.3000    155.5744      2.0035     54.8492     28.2542      1.7450      0.2113
  1687.4000    162.3545      2.0035     51.8286     28.8329      1.7948      0.2274
  1687.5000    164.2210      2.0029     48.5907     28.7666      1.8483      0.2753
  1687.6000    163.5867      2.0029     46.0390     28.4209      1.8904      0.2585
  1687.7000    157.0602      2.0029     44.8734     28.5107      1.9096      0.2735
  1687.8000    144.7068      2.0052     45.9205     28.5436      1.8923      0.2984
  1687.9000    133.1852      2.0052     49.0036     27.9595      1.8414      0.2247
  1688.0000    127.8586      2.0073     52.0123     27.5051      1.7918      0.2059
  1688.1000    127.7171      2.0073     52.9418     27.9342      1.7765      0.1852
  1688.2000    132.1614      2.0073     51.7198     28.7206      1.7966      0.2082
  1688.3000    141.0819      2.0100     49.5535     29.1291      1.8324      0.2316
  1688.4000    149.7540      2.0100     46.5466     29.0000      1.8820      0.2201
  1688.5000    153.9914      2.0137     41.4729     28.6474      1.9657      0.2984
  1688.6000    150.4345      2.0137     34.5048     28.4467      2.0807      0.3191
  1688.7000    139.2538      2.0137     28.4342     28.3148      2.1808      0.3778
  1688.8000    126.1686      2.0168     27.2508     28.0786      2.2004      0.4099
  1688.9000    119.3681      2.0168     32.6383     28.0618      2.1115      0.3430
  1689.0000    129.5934      2.0148     40.5465     28.6098      1.9810      0.2755
  1689.1000    149.3094      2.0148     41.8408     29.2588      1.9596      0.1214
  1689.2000    157.6785      2.0148     30.3324     29.3214      2.1495      0.1988
  1689.3000    148.6233      2.0080     11.6576     28.5769      2.4576      0.4126
  1689.4000    134.6084      2.0080     -2.5543     27.3809      2.6921      0.5216
  1689.5000    129.4385      2.0107     -7.0561     26.7068      2.7664      0.5340
  1689.6000    133.9149      2.0107     -2.5972     27.1769      2.6929      0.5582
  1689.7000    141.7314      2.0107      7.4889     28.3328      2.5264      0.3622
  1689.8000    150.0372      2.2276     14.2161     29.1590      2.4154      0.0282
  1689.9000    159.1387      2.2276     10.5935     29.2521      2.4752      0.1384
  1690.0000    166.0800      3.5813      1.9060     29.1344      2.6186      0.2280
  1690.1000    165.7263      3.5813     -3.5636     29.2360      2.7088      0.2547
  1690.2000    160.8887      3.5813     -3.7087     29.1158      2.7112      0.2474
  1690.3000    159.6004      6.0572     -0.3207     28.3863      2.6553      0.1191
