~Version Information
VERS.                      2.0: CWLS Log ASCII Standard - VERSION 2.0
WRAP.                       NO: One line per depth step
~Well Information Block
STRT.FT               720.0000: 
STOP.FT              2265.7000: 
STEP.FT                 0.1000: 
NULL.                -999.2500: 
COMP.          Pioneer Natural Resources: COMPANY
WELL.          Casablanca 11-28 Tr: WELL
FLD.           Purgatoire River: FIELD
LOC.           422' FNL & 215' FWL----: LOCATION
PROV.                 Colorado: PROVINCE
CNTY.               Las Animas: COUNTRY
SRVC.                Patterson: SERVICE COMPANY
DATE.          Mon Mar 07 07:16:34 2005: LOG DATE
UWI.           05 071 08314 00: UNIQUE WELL ID
~Curve Information Block
DEPT.FT            0 000 00 00: Depth
DCAL.in                       : CDL Caliper
RHOB.g/cc                     : CDL Bulk Density
RHOC.g/cc                     : CDL Density Correction
DPOR.pu                       : CDL Density Porosity
NPOR.pu                       : Neutron Porosity
GR.GAPI                       : Gamma Ray
~Parameter Information Block
~A  Depth       DCAL        RHOB        RHOC        DPOR        NPOR         GR     
# ...
   825.6000      8.1261      2.5239      0.0351      7.6439     30.8488    111.8991
   825.7000      8.1261      2.5326      0.0776      7.1132     30.7272    116.4577
   825.8000      8.1254      2.5204     -0.0134      7.8530     30.2435    120.9206
   825.9000      8.1254      2.4966      0.0508      9.2978     29.5281    125.2133
   826.0000      8.1248      2.4843     -0.0271     10.0421     28.9404    129.1685
   826.1000      8.1248      2.4957      0.0698      9.3513     29.0114    132.3496
   826.2000      8.1248      2.5130      0.0871      8.3018     29.9312    133.1866
   826.3000      8.1256      2.5264      0.0476      7.4927     31.0155    132.7559
   826.4000      8.1256      2.5480      0.0801      6.1792     31.7810    132.3813
   826.5000      8.1294      2.5743      0.1005      4.5872     32.5235    128.7245
   826.6000      8.1294      2.5838      0.1036      4.0121     33.1069    122.7924
   826.7000      8.1294      2.5539      0.0962      5.8217     32.9231    121.9029
   826.8000      8.1425      2.4704      0.0760     10.8818     31.7567    127.1098
   826.9000      8.1425      2.3488     -0.0916     18.2567     29.8419    133.9470
   827.0000      8.1785      2.2274     -0.1028     25.6115     27.6340    139.2917
   827.1000      8.1785      2.1162     -0.1335     32.3518     25.6338    142.9986
   827.2000      8.1785      1.9958     -0.1555     39.6489     24.0935    145.5295
   827.3000      8.2420      1.8648     -0.1991     47.5903     22.7626    144.8461
   827.4000      8.2420      1.7500     -0.2529     54.5463     21.3283    141.5133
   827.5000      8.3246      1.6744     -0.1844     59.1285     20.0344    140.6252
   827.6000      8.3246      1.6576     -0.1601     60.1432     19.1391    145.3443
   827.7000      8.3246      1.7404     -0.0531     55.1244     18.7285    152.2198
   827.8000      8.4571      1.9298      0.2513     43.6485     18.8874    154.1003
   827.9000      8.4571      2.1403      0.6178     30.8929     19.5586    148.1418
   828.0000      8.7053      2.2650      0.6339     23.3345     20.6836    138.7082
   828.1000      8.7053      2.2767      0.5736     22.6226     21.9449    132.9877
   828.2000      8.7053      2.2216      0.4119     25.9625     22.5369    134.4863
   828.3000      8.9516      2.1625      0.2206     29.5446     22.0055    139.5705
   828.4000      8.9516      2.1355      0.2079     31.1823     20.8232    141.5250
   828.5000      8.8974      2.1361      0.1756     31.1473     19.9056    140.1262
   828.6000      8.8974      2.1531      0.1033     30.1138     19.5388    140.5963
   828.7000      8.8974      2.1919      0.1146     27.7649     19.3734    141.9754
   828.8000      8.5955      2.2575      0.1664     23.7896     19.0357    141.4687
   828.9000      8.5955      2.3466      0.1589     18.3893     18.4746    144.0891
   829.0000      8.3998      2.4441      0.2507     12.4798     18.3231    149.9065
   829.1000      8.3998      2.5155      0.2738      8.1512     19.1321    152.6911
   829.2000      8.3998      2.5379      0.2027      6.7964     20.6263    151.9518
   829.3000      8.3563      2.5349      0.1015      6.9769     22.0596    149.1131
   829.4000      8.3563      2.5409      0.1280      6.6137     22.9515    144.6573
   829.5000      8.3518      2.5473      0.2043      6.2270     23.4759    138.2519
   829.6000      8.3518      2.5293      0.1061      7.3167     24.3332    131.9451
   829.7000      8.3518      2.4959      0.0424      9.3365     25.8184    129.9360
   829.8000      8.3495      2.4778     -0.0170     10.4378     27.2328    131.3590
   829.9000      8.3495      2.4857      0.0409      9.9604     27.5856    134.1080
   830.0000      8.3431      2.5050      0.0178      8.7893     27.0275    138.9844
   830.1000      8.3431      2.5226      0.0594      7.7235     26.7522    144.2294
   830.2000      8.3431      2.5304      0.0478      7.2458     27.2779    144.6276
   830.3000      8.3322      2.5312     -0.0140      7.2001     27.8643    139.1585
   830.4000      8.3322      2.5325      0.0856      7.1232     28.0753    133.1858
   830.5000      8.3248      2.5266      0.0723      7.4761     28.4417    132.0679
   830.6000      8.3248      2.5138      0.0643      8.2551     29.0537    135.5687
   830.7000      8.3248      2.5094      0.0665      8.5215     29.2980    138.6160
   830.8000      8.3249      2.5174      0.0531      8.0383     29.1832    138.1146
   830.9000      8.3249      2.5245      0.0983      7.6084     29.2652    135.6705
   831.0000      8.3336      2.5226      0.0415      7.7229     29.5127    133.0071
   831.1000      8.3336      2.5150      0.0517      8.1829     29.6548    132.6731
   831.2000      8.3336      2.5087      0.0007      8.5653     29.6023    137.9641
   831.3000      8.3474      2.5128      0.0108      8.3149     29.2585    147.5246
   831.4000      8.3474      2.5234      0.0194      7.6729     28.6957    153.3837
   831.5000      8.3636      2.5278      0.0222      7.4046     28.0269    151.1397
   831.6000      8.3636      2.5284     -0.0029      7.3706     27.4001    145.8441
   831.7000      8.3636      2.5324      0.0213      7.1265     27.1995    143.2066
   831.8000      8.3886      2.5317      0.0154      7.1710     27.3988    143.0596
   831.9000      8.3886      2.5147      0.0226      8.1991     27.7199    140.5679
   832.0000      8.4153      2.4814     -0.0230     10.2157     28.2292    135.6771
   832.1000      8.4153      2.4379      0.0010     12.8537     28.6214    135.6847
   832.2000      8.4153      2.3982     -0.0508     15.2609     28.3100    145.1182
   832.3000      8.4288      2.3837     -0.0617     16.1399     27.5003    155.4831
   832.4000      8.4288      2.4000     -0.0239     15.1524     26.6116    158.9260
   832.5000      8.4326      2.4281      0.0302     13.4499     25.8078    160.7563
   832.6000      8.4326      2.4462      0.0506     12.3507     25.1917    164.1233
   832.7000      8.4326      2.4456      0.0996     12.3894     24.7664    165.2469
   832.8000      8.4332      2.4228      0.0870     13.7702     24.6908    164.0716
   832.9000      8.4332      2.3887      0.0501     15.8347     24.9321    165.3742
   833.0000      8.4253      2.3790      0.0197     16.4239     25.2772    169.1967
   833.1000      8.4253      2.4158      0.1015     14.1961     25.7120    169.4200
   833.2000      8.4253      2.4650      0.1963     11.2124     26.1126    165.7493
   833.3000      8.4167      2.4613      0.2200     11.4339     26.3214    163.5278
   833.4000      8.4167      2.3824      0.0631     16.2152     26.4515    164.3662
   833.5000      8.4315      2.2710     -0.0015     22.9710     26.4474    165.6242
   833.6000      8.4315      2.1763     -0.0611     28.7082     26.1264    164.5302
   833.7000      8.4315      2.1093     -0.0446     32.7700     25.2707    163.4672
   833.8000      8.4782      2.0534     -0.0701     36.1562     23.8258    162.9448
   833.9000      8.4782      2.0031     -0.0771     39.2067     22.0412    161.1362
   834.0000      8.5367      1.9617     -0.0785     41.7157     20.2719    160.0713
   834.1000      8.5367      1.9057     -0.0210     45.1099     18.7643    161.3850
   834.2000      8.5367      1.8077     -0.0137     51.0456     17.3557    161.2701
   834.3000      8.6406      1.7041     -0.0735     57.3277     15.9383    153.9669
   834.4000      8.6406      1.6717     -0.0036     59.2929     14.7774    143.8705
   834.5000      8.9168      1.7260      0.2434     56.0002     14.2380    141.5117
   834.6000      8.9168      1.8092      0.3834     50.9578     14.5604    148.0601
   834.7000      8.9168      1.8744      0.4250     47.0073     15.5971    157.8234
   834.8000      9.3599      1.9290      0.4636     43.6996     16.9796    163.4682
   834.9000      9.3599      2.0113      0.3822     38.7085     18.5351    159.2296
   835.0000      9.6786      2.1420      0.4853     30.7857     20.1237    150.3968
   835.1000      9.6786      2.2871      0.6119     21.9937     21.5642    145.3470
