~Version Information
VERS.                      2.0: CWLS Log ASCII Standard - VERSION 2.0
WRAP.                       NO: One line per depth step
~Well Information Block
STRT.FT               440.0000: 
STOP.FT              1001.5000: 
STEP.FT                 0.1000: 
NULL.                -999.2500: 
COMP.          Pioneer Natural Resources: COMPANY
WELL.              Dylan 42-25: WELL
FLD.           Purgatoire River: FIELD
LOC.           2160' FNL & 855' FEL: LOCATION
PROV.                 Colorado: PROVINCE
CNTY.               Las Animas: COUNTRY
SRVC.                Patterson: SERVICE COMPANY
DATE.          Mon Apr 25 09:31:16 2005: LOG DATE
UWI.           05 071 08229 00: UNIQUE WELL ID
~Curve Information Block
DEPT.FT            0 000 00 00: Depth
DCAL.in                       : CDL Caliper
RHOB.g/cc                     : CDL Bulk Density
RHOC.g/cc                     : CDL Density Correction
DPOR.pu                       : CDL Density Porosity
GR.GAPI                       : Gamma Ray
NPOR.pu                       : Neutron Porosity
~Parameter Information Block
~A  Depth       DCAL        RHOB        RHOC        DPOR         GR         NPOR    
# ...
   843.2000      7.9566      2.4545      0.0046     11.8467     49.9438     16.6788
   843.3000      7.9782      2.4664      0.0352     11.1274     50.0242     16.5448
   843.4000      7.9782      2.4850      0.0020     10.0000     51.2604     16.3274
   843.5000      7.9593      2.5000      0.0161      9.0886     53.7324     16.2553
   843.6000      7.9593      2.5043      0.0615      8.8289     56.7283     16.1471
   843.7000      7.9593      2.5012      0.0359      9.0169     58.7865     16.0630
   843.8000      7.9311      2.5053      0.0302      8.7716     60.3918     16.8879
   843.9000      7.9311      2.5226      0.0419      7.7187     62.5913     18.4215
   844.0000      7.9311      2.5397      0.0846      6.6825     63.1596     19.0119
   844.1000      7.9311      2.5463      0.0838      6.2849     62.2901     18.1481
   844.2000      7.9311      2.5565      0.0547      5.6661     62.2576     17.0264
   844.3000      7.9255      2.5727      0.1590      4.6863     62.3554     16.3313
   844.4000      7.9255      2.5736      0.0472      4.6329     61.6594     15.8949
   844.5000      7.9139      2.5573      0.0458      5.6184     61.2885     15.7503
   844.6000      7.9139      2.5317      0.0417      7.1685     60.2737     15.7921
   844.7000      7.9139      2.5052     -0.0218      8.7736     55.8376     15.7545
   844.8000      7.9133      2.4986     -0.0037      9.1747     51.1788     15.6652
   844.9000      7.9133      2.5174      0.0076      8.0358     51.6830     15.5589
   845.0000      7.9329      2.5362      0.0722      6.8970     54.8037     15.3561
   845.1000      7.9329      2.5323      0.0863      7.1322     56.0622     14.8510
   845.2000      7.9329      2.5214      0.0211      7.7942     56.5712     13.8644
   845.3000      7.9297      2.5232      0.0407      7.6878     58.1168     13.1098
   845.4000      7.9297      2.5255      0.0657      7.5439     59.6326     13.3876
   845.5000      7.9027      2.5223      0.0345      7.7410     60.0642     14.4485
   845.6000      7.9027      2.5249      0.0695      7.5823     60.3014     15.4479
   845.7000      7.9027      2.5292      0.0877      7.3236     61.2285     15.8159
   845.8000      7.8981      2.5271      0.0540      7.4481     62.5620     15.6247
   845.9000      7.8981      2.5270      0.0707      7.4548     62.2214     15.2915
   846.0000      7.9104      2.5316      0.0662      7.1773     58.6245     15.1435
   846.1000      7.9104      2.5320      0.0924      7.1521     53.9725     15.3562
   846.2000      7.9104      2.5245      0.1123      7.6059     51.8358     15.9463
   846.3000      7.9083      2.5117      0.0704      8.3848     52.5085     16.8208
   846.4000      7.9083      2.4964      0.0199      9.3104     53.4932     17.5133
   846.5000      7.9035      2.4786      0.0628     10.3907     53.4070     17.5634
   846.6000      7.9035      2.4656     -0.0023     11.1778     52.2150     17.3772
   846.7000      7.9035      2.4696      0.0647     10.9329     50.0397     17.5169
   846.8000      7.9072      2.4810      0.0572     10.2451     47.8027     17.9473
   846.9000      7.9072      2.4873      0.0557      9.8629     46.3032     18.4880
   847.0000      7.9229      2.4958      0.0174      9.3482     45.8093     18.6885
   847.1000      7.9229      2.5146      0.0369      8.2079     46.8595     18.3456
   847.2000      7.9229      2.5328      0.0900      7.1038     48.2420     17.7677
   847.3000      7.9333      2.5340      0.0705      7.0294     48.0785     17.3643
   847.4000      7.9333      2.5221      0.0685      7.7512     47.4547     17.4209
   847.5000      7.9451      2.5113      0.0640      8.4048     48.2246     17.6482
   847.6000      7.9451      2.5095      0.0406      8.5127     50.5747     18.0199
   847.7000      7.9451      2.5177      0.0496      8.0177     53.2797     18.7249
   847.8000      7.9243      2.5251      0.1088      7.5725     55.5760     19.0685
   847.9000      7.9243      2.5204      0.0356      7.8561     58.4665     18.6860
   848.0000      7.9311      2.5121      0.0051      8.3582     62.4644     18.5358
   848.1000      7.9311      2.5049      0.0805      8.7921     66.5094     19.1192
   848.2000      7.9311      2.4898      0.0611      9.7073     68.8519     19.8040
   848.3000      7.9405      2.4712      0.0552     10.8373     68.5771     20.3394
   848.4000      7.9405      2.4610      0.0421     11.4520     66.2962     20.9431
   848.5000      7.9406      2.4597      0.0454     11.5333     63.5347     21.4667
   848.6000      7.9406      2.4593      0.0299     11.5603     61.7755     21.6036
   848.7000      7.9406      2.4584      0.0357     11.6091     60.0762     21.1144
   848.8000      7.9428      2.4640      0.0534     11.2744     57.3955     20.3336
   848.9000      7.9428      2.4750      0.0660     10.6078     55.4833     20.4191
   849.0000      7.9427      2.4841      0.0390     10.0538     55.8763     21.5457
   849.1000      7.9427      2.4909      0.0331      9.6455     58.1638     22.2266
   849.2000      7.9427      2.4926      0.0344      9.5412     60.2078     21.7736
   849.3000      7.9380      2.4842      0.0455     10.0481     62.0942     21.4287
   849.4000      7.9380      2.4664      0.0790     11.1261     65.6024     21.6377
   849.5000      7.9241      2.4438      0.0311     12.4962     68.9363     21.5546
   849.6000      7.9241      2.4311      0.0119     13.2694     70.1399     21.3206
   849.7000      7.9241      2.4357      0.0454     12.9869     69.7991     21.2413
   849.8000      7.9217      2.4414     -0.0214     12.6418     67.7087     20.7745
   849.9000      7.9217      2.4428      0.0068     12.5584     64.8778     19.9152
   850.0000      7.9187      2.4561     -0.0069     11.7499     63.4487     19.2056
   850.1000      7.9187      2.4798      0.0797     10.3153     63.3074     18.6767
   850.2000      7.9187      2.4924      0.0403      9.5530     64.4744     18.2123
   850.3000      7.9502      2.4918      0.0168      9.5857     66.2878     18.4282
   850.4000      7.9502      2.4865      0.0753      9.9094     66.5561     19.3698
   850.5000      7.9547      2.4733      0.0453     10.7111     65.2005     19.6998
   850.6000      7.9547      2.4600     -0.0207     11.5129     63.4190     19.2926
   850.7000      7.9547      2.4611      0.0368     11.4457     60.3553     19.2535
   850.8000      7.9462      2.4686      0.0414     10.9965     55.2779     19.6958
   850.9000      7.9462      2.4711      0.0189     10.8409     52.1641     20.1460
   851.0000      7.9550      2.4700      0.0610     10.9070     53.4694     20.1033
   851.1000      7.9550      2.4685      0.0463     10.9992     56.1787     19.6980
   851.2000      7.9550      2.4672      0.1015     11.0802     57.5984     19.3825
   851.3000      7.9636      2.4631      0.0362     11.3254     58.0887     18.7898
   851.4000      7.9636      2.4593      0.0193     11.5575     59.6373     17.8673
   851.5000      7.9519      2.4604      0.0276     11.4924     62.4542     17.3861
   851.6000      7.9519      2.4696      0.0683     10.9336     63.7232     17.4992
   851.7000      7.9519      2.4920      0.0511      9.5729     60.7467     17.4293
   851.8000      7.9373      2.5206      0.1015      7.8414     54.2847     16.9906
   851.9000      7.9373      2.5306      0.0978      7.2339     49.1202     16.8254
   852.0000      7.9306      2.5149      0.0808      8.1855     48.4378     16.9776
   852.1000      7.9306      2.4995      0.0516      9.1201     49.6931     17.1499
   852.2000      7.9306      2.5059      0.0484      8.7342     49.8852     17.5184
   852.3000      7.9379      2.5195      0.0972      7.9065     52.0860     18.3065
   852.4000      7.9379      2.5187      0.0526      7.9554     58.5465     18.8286
   852.5000      7.9441      2.5111      0.0309      8.4160     63.9673     18.1336
   852.6000      7.9441      2.5057      0.0613      8.7440     64.0639     16.7340
   852.7000      7.9441      2.5054      0.0353      8.7658     61.3653     15.6500
