~Version Information
VERS.                      2.0: CWLS Log ASCII Standard - VERSION 2.0
WRAP.                       NO: One line per depth step
~Well Information Block
STRT.FT               395.0000: 
STOP.FT              1998.0000: 
STEP.FT                 0.2500: 
NULL.                -999.2500: 
COMP.          Pioneer Natural Resources: COMPANY
WELL.          Easton 12-30 Tr: WELL
FLD.           Purgatoire River: FIELD
LOC.           549' FWL & 2416' FNL--: LOCATION
PROV.                 Colorado: PROVINCE
CNTY.               Las Animas: COUNTRY
SRVC.                Patterson: SERVICE COMPANY
DATE.          Wed Jun 01 17:36:02 2005: LOG DATE
UWI.           05 071 08379 00: UNIQUE WELL ID
~Curve Information Block
DEPT.FT            0 000 00 00: Depth
SN.Ohm-m                      : IEL Short Normal
SP.mV                         : IEL Spontaneous Potential
DIR.Ohm-m                     : IEL Induction Resistivity
GR.GAPI                       : Gamma Ray
~Parameter Information Block
~A  Depth        SN          SP         DIR          GR     
# ...
  1232.5000   2000.0000   -999.2500     12.0361    110.7778
  1232.7500   2000.0000   -999.2500     11.7905    115.1334
  1233.0000   2000.0000   -999.2500     11.5241    119.7588
  1233.2500   2000.0000   -999.2500     11.2492    120.8603
  1233.5000   2000.0000   -999.2500     10.9858    119.8723
  1233.7500   2000.0000   -999.2500     10.7567    118.3779
  1234.0000   2000.0000   -999.2500     10.5824    116.4209
  1234.2500   2000.0000   -999.2500     10.4771    115.6475
  1234.5000   2000.0000   -999.2500     10.4467    115.1335
  1234.7500   2000.0000   -999.2500     10.4884    115.1659
  1235.0000   2000.0000   -999.2500     10.5927    116.0876
  1235.2500   2000.0000   -999.2500     10.7452    117.4761
  1235.5000   2000.0000   -999.2500     10.9298    120.4909
  1235.7500   2000.0000   -999.2500     11.1303    122.6432
  1236.0000   2000.0000   -999.2500     11.3315    125.2066
  1236.2500   2000.0000   -999.2500     11.5188    126.2168
  1236.5000   2000.0000   -999.2500     11.6803    126.6606
  1236.7500   2000.0000   -999.2500     11.8091    126.1902
  1237.0000   2000.0000   -999.2500     11.9069    123.7882
  1237.2500   2000.0000   -999.2500     11.9853    120.6328
  1237.5000   2000.0000   -999.2500     12.0620    113.4693
  1237.7500   2000.0000   -999.2500     12.1540    107.7046
  1238.0000   2000.0000   -999.2500     12.2693     99.6829
  1238.2500   2000.0000   -999.2500     12.4027     96.1230
  1238.5000   2000.0000   -999.2500     12.5359     95.0461
  1238.7500   2000.0000   -999.2500     12.6425     97.3288
  1239.0000   2000.0000   -999.2500     12.6938    104.1933
  1239.2500   2000.0000   -999.2500     12.6662    109.8351
  1239.5000   2000.0000   -999.2500     12.5473    117.4731
  1239.7500   2000.0000   -999.2500     12.3418    121.0150
  1240.0000   2000.0000   -999.2500     12.0716    123.7019
  1240.2500   2000.0000   -999.2500     11.7717    124.1591
  1240.5000   2000.0000   -999.2500     11.4802    123.5338
  1240.7500   2000.0000   -999.2500     11.2289    122.4251
  1241.0000   2000.0000   -999.2500     11.0373    120.2010
  1241.2500   2000.0000   -999.2500     10.9111    118.8955
  1241.5000   2000.0000   -999.2500     10.8445    117.9452
  1241.7500   2000.0000   -999.2500     10.8233    117.9327
  1242.0000   2000.0000   -999.2500     10.8276    118.3709
  1242.2500   2000.0000   -999.2500     10.8344    118.9625
  1242.5000   2000.0000   -999.2500     10.8215    120.7307
  1242.7500   2000.0000   -999.2500     10.7732    122.4384
  1243.0000   2000.0000   -999.2500     10.6841    124.5509
  1243.2500   2000.0000   -999.2500     10.5599    124.7094
  1243.5000   2000.0000   -999.2500     10.4134    122.5393
  1243.7500   2000.0000   -999.2500     10.2594    120.0798
  1244.0000   2000.0000   -999.2500     10.1103    116.4950
  1244.2500   2000.0000   -999.2500      9.9745    114.8741
  1244.5000   2000.0000   -999.2500      9.8554    114.0985
  1244.7500   2000.0000   -999.2500      9.7513    114.6490
  1245.0000   2000.0000   -999.2500      9.6560    116.5928
  1245.2500   2000.0000   -999.2500      9.5613    118.2993
  1245.5000   2000.0000   -999.2500      9.4590    121.2866
  1245.7500   2000.0000   -999.2500      9.3450    123.5903
  1246.0000   2000.0000   -999.2500      9.2200    127.2499
  1246.2500   2000.0000   -999.2500      9.0901    129.5198
  1246.5000   2000.0000   -999.2500      8.9665    132.5506
  1246.7500   2000.0000   -999.2500      8.8625    134.5882
  1247.0000   2000.0000   -999.2500      8.7917    138.0601
  1247.2500   2000.0000   -999.2500      8.7650    140.5428
  1247.5000   2000.0000   -999.2500      8.7907    143.8344
  1247.7500   2000.0000   -999.2500      8.8751    145.2256
  1248.0000   2000.0000   -999.2500      9.0231    145.4206
  1248.2500   2000.0000   -999.2500      9.2377    144.3101
  1248.5000   2000.0000   -999.2500      9.5181    141.7665
  1248.7500   2000.0000   -999.2500      9.8602    140.2472
  1249.0000   2000.0000   -999.2500     10.2575    138.7558
  1249.2500   2000.0000   -999.2500     10.7046    137.8216
  1249.5000   2000.0000   -999.2500     11.1991    134.7294
  1249.7500   2000.0000   -999.2500     11.7421    130.5360
  1250.0000   2000.0000   -999.2500     12.3370    120.7088
  1250.2500   2000.0000   -999.2500     12.9894    112.7766
  1250.5000   2000.0000   -999.2500     13.7065    101.8002
  1250.7500   2000.0000   -999.2500     14.4996     96.6370
  1251.0000   2000.0000   -999.2500     15.3850     92.7821
  1251.2500   2000.0000   -999.2500     16.3803     92.0534
  1251.5000   2000.0000   -999.2500     17.4948     92.1488
  1251.7500   2000.0000   -999.2500     18.7159     92.7867
  1252.0000   2000.0000   -999.2500     20.0015     95.3378
  1252.2500   2000.0000   -999.2500     21.2866     98.3669
  1252.5000   2000.0000   -999.2500     22.5024    103.8732
  1252.7500   2000.0000   -999.2500     23.5968    106.7945
  1253.0000   2000.0000   -999.2500     24.5413    107.5622
  1253.2500   2000.0000   -999.2500     25.3286    104.9691
  1253.5000   2000.0000   -999.2500     25.9740     97.3612
  1253.7500   2000.0000   -999.2500     26.5181     91.3200
  1254.0000   2000.0000   -999.2500     27.0183     83.3492
  1254.2500   2000.0000   -999.2500     27.5266     79.4485
  1254.5000   2000.0000   -999.2500     28.0669     75.5821
  1254.7500   2000.0000   -999.2500     28.6258     74.0432
  1255.0000   2000.0000   -999.2500     29.1549     73.0444
  1255.2500   2000.0000   -999.2500     29.5796     73.0761
  1255.5000   2000.0000   -999.2500     29.8119     73.5162
  1255.7500   2000.0000   -999.2500     29.7713     73.6718
  1256.0000   2000.0000   -999.2500     29.4104     73.6700
  1256.2500   2000.0000   -999.2500     28.7342     74.0229
  1256.5000   2000.0000   -999.2500     27.8015     76.3440
  1256.7500   2000.0000   -999.2500     26.7092     79.5156
  1257.0000   2000.0000   -999.2500     25.5669     86.2207
  1257.2500   2000.0000   -999.2500     24.4748     91.0570
  1257.5000   2000.0000   -999.2500     23.5095     97.0851
  1257.7500   2000.0000   -999.2500     22.7196     99.7415
  1258.0000   2000.0000   -999.2500     22.1264    102.0815
  1258.2500   2000.0000   -999.2500     21.7285    103.3094
  1258.5000   2000.0000   -999.2500     21.5077    105.8435
  1258.7500   2000.0000   -999.2500     21.4380    108.1595
  1259.0000   2000.0000   -999.2500     21.4945    111.9361
  1259.2500   2000.0000   -999.2500     21.6575    114.0648
  1259.5000   2000.0000   -999.2500     21.9094    115.7102
  1259.7500   2000.0000   -999.2500     22.2283    115.2571
  1260.0000   2000.0000   -999.2500     22.5879    111.4974
  1260.2500   2000.0000   -999.2500     22.9678    106.7823
  1260.5000   2000.0000   -999.2500     23.3690     97.1503
  1260.7500   2000.0000   -999.2500     23.8194     90.0928
  1261.0000   2000.0000   -999.2500     24.3573     80.5294
  1261.2500   2000.0000   -999.2500     25.0020     75.3603
  1261.5000   2000.0000   -999.2500     25.7278     68.9436
  1261.7500   2000.0000   -999.2500     26.4647     65.0432
  1262.0000   2000.0000   -999.2500     27.1225     59.5531
  1262.2500   2000.0000   -999.2500     27.6245     56.4695
  1262.5000   2000.0000   -999.2500     27.9226     53.5504
  1262.7500   2000.0000   -999.2500     27.9977     53.1868
  1263.0000   2000.0000   -999.2500     27.8573     55.5413
  1263.2500   2000.0000   -999.2500     27.5372     59.1479
  1263.5000   2000.0000   -999.2500     27.0907     67.3743
  1263.7500   2000.0000   -999.2500     26.5696     74.3386
  1264.0000   2000.0000   -999.2500     26.0089     85.8293
  1264.2500   2000.0000   -999.2500     25.4297     93.2650
  1264.5000   2000.0000   -999.2500     24.8499    102.5101
  1264.7500   2000.0000   -999.2500     24.2931    106.7883
  1265.0000   2000.0000   -999.2500     23.7903    110.2474
  1265.2500   2000.0000   -999.2500     23.3768    111.0128
  1265.5000   2000.0000   -999.2500     23.0870    110.8755
  1265.7500   2000.0000   -999.2500     22.9476    110.2611
