~Version Information
VERS.                      2.0: CWLS Log ASCII Standard - VERSION 2.0
WRAP.                       NO: One line per depth step
~Well Information Block
STRT.FT               675.0000: 
STOP.FT              2371.5000: 
STEP.FT                 0.1000: 
NULL.                -999.2500: 
COMP.          Pioneer Natural Resources: COMPANY
WELL.            Harrier 44-33: WELL
FLD.           Purgatoire River: FIELD
LOC.           456' FSL & 930' FEL: LOCATION
PROV.                 Colorado: PROVINCE
CNTY.               Las Animas: COUNTRY
SRVC.                Patterson: SERVICE COMPANY
DATE.          Mon Jun 20 10:36:59 2005: LOG DATE
UWI.           05 071 08398 00: UNIQUE WELL ID
~Curve Information Block
DEPT.FT            0 000 00 00: Depth
DCAL.in                       : CDL Caliper
RHOB.g/cc                     : CDL Bulk Density
RHOC.g/cc                     : CDL Density Correction
DPOR.pu                       : CDL Density Porosity
GR.GAPI                       : Gamma Ray
NPOR.pu                       : Neutron Porosity
~Parameter Information Block
~A  Depth       DCAL        RHOB        RHOC        DPOR         GR         NPOR    
# ...
  2019.0000      7.9572      2.5979      0.0340      3.1550     76.9210     18.0491
  2019.1000      7.9572      2.5930      0.0686      3.4555     66.2226     16.7432
  2019.2000      7.9572      2.5817      0.0795      4.1383     58.9452     15.9239
  2019.3000      7.9732      2.5576      0.0572      5.6005     56.7751     15.9746
  2019.4000      7.9732      2.5288      0.0552      7.3479     58.2706     16.4264
  2019.5000      7.9783      2.5060      0.0309      8.7278     63.9071     17.2608
  2019.6000      7.9783      2.4993      0.0094      9.1322     70.0935     18.4841
  2019.7000      7.9783      2.5163     -0.0172      8.1041     73.1861     19.1193
  2019.8000      7.9790      2.5452      0.0743      6.3533     76.1870     18.8944
  2019.9000      7.9790      2.5611      0.0438      5.3877     78.1600     19.0448
  2020.0000      7.9889      2.5587      0.0525      5.5340     73.4995     19.8407
  2020.1000      7.9889      2.5530      0.0419      5.8766     65.4539     20.0887
  2020.2000      7.9889      2.5520      0.0525      5.9370     61.9630     19.3504
  2020.3000      7.9934      2.5545      0.0774      5.7891     62.0275     19.0024
  2020.4000      7.9934      2.5729      0.0131      4.6731     61.1779     19.8666
  2020.5000      7.9557      2.6056      0.1032      2.6882     57.8694     20.7937
  2020.6000      7.9557      2.6177      0.1110      1.9556     53.8658     21.1098
  2020.7000      7.9557      2.6010      0.0747      2.9705     54.9536     21.5620
  2020.8000      7.9471      2.5833      0.0195      4.0431     62.7778     22.1149
  2020.9000      7.9471      2.5805      0.0275      4.2119     71.0919     22.1714
  2021.0000      7.9434      2.5846      0.0501      3.9632     73.5004     21.4636
  2021.1000      7.9434      2.5794      0.0760      4.2786     71.9394     20.3296
  2021.2000      7.9434      2.5562      0.0604      5.6861     72.6220     19.7009
  2021.3000      7.9485      2.5204      0.0463      7.8552     75.5178     19.8622
  2021.4000      7.9485      2.4872      0.0081      9.8691     75.4086     20.0652
  2021.5000      7.9714      2.4711      0.0220     10.8411     72.1777     20.1343
  2021.6000      7.9714      2.4737     -0.0064     10.6874     69.9301     20.6383
  2021.7000      7.9714      2.4866      0.0256      9.9031     69.6273     21.1879
  2021.8000      7.9864      2.5032      0.0668      8.8943     69.7570     20.6602
  2021.9000      7.9864      2.5231      0.0402      7.6880     69.6430     19.2511
  2022.0000      7.9971      2.5474      0.0767      6.2203     69.8594     18.4749
  2022.1000      7.9971      2.5718      0.1120      4.7396     70.1095     18.9578
  2022.2000      7.9971      2.5891      0.1068      3.6901     69.4536     19.9106
  2022.3000      7.9690      2.5919      0.1056      3.5233     68.9025     20.5758
  2022.4000      7.9690      2.5865      0.0765      3.8503     67.2725     20.5027
  2022.5000      7.9508      2.5954      0.0711      3.3117     61.1199     19.4721
  2022.6000      7.9508      2.6160      0.1357      2.0615     53.9758     18.1709
  2022.7000      7.9508      2.6209      0.0961      1.7660     51.7756     17.6709
  2022.8000      7.9380      2.6056      0.1037      2.6879     54.9552     18.1489
  2022.9000      7.9380      2.5867      0.1314      3.8376     61.0844     18.1933
  2023.0000      7.9476      2.5805      0.0490      4.2116     67.8937     16.9832
  2023.1000      7.9476      2.5959      0.0888      3.2780     70.9363     15.9759
  2023.2000      7.9476      2.6115      0.1432      2.3342     66.7683     16.2113
  2023.3000      7.9459      2.5973      0.1214      3.1927     60.9554     16.8835
  2023.4000      7.9459      2.5576      0.0555      5.6028     60.0253     16.9535
  2023.5000      7.9453      2.5218      0.0049      7.7668     63.0957     16.6569
  2023.6000      7.9453      2.5063      0.0194      8.7071     66.4398     16.6997
  2023.7000      7.9453      2.5056      0.0148      8.7486     65.9148     17.1876
  2023.8000      7.9455      2.5067      0.0161      8.6850     60.4242     17.3005
  2023.9000      7.9455      2.5048     -0.0022      8.8007     53.0000     16.6149
  2024.0000      7.9538      2.5131     -0.0008      8.2994     48.5905     16.3458
  2024.1000      7.9538      2.5348      0.0565      6.9816     50.2617     16.6831
  2024.2000      7.9538      2.5594      0.0316      5.4924     55.0586     16.4493
  2024.3000      7.9540      2.5793      0.0725      4.2844     59.4785     15.4263
  2024.4000      7.9540      2.5828      0.0918      4.0701     63.5517     14.4822
  2024.5000      7.9476      2.5702      0.0536      4.8345     66.1339     14.5193
  2024.6000      7.9476      2.5660      0.0353      5.0935     64.3346     15.1651
  2024.7000      7.9476      2.5791      0.0790      4.2956     58.4495     15.2866
  2024.8000      7.9278      2.5854      0.0946      3.9130     50.7673     15.0194
  2024.9000      7.9278      2.5766      0.0652      4.4492     44.8070     14.9945
  2025.0000      7.9217      2.5806      0.0634      4.2035     44.4867     15.0523
  2025.1000      7.9217      2.6129      0.0994      2.2498     48.4924     14.8851
  2025.2000      7.9217      2.6500      0.1461     -0.0010     51.6511     14.6734
  2025.3000      7.9252      2.6645      0.1457     -0.8792     53.3140     14.7544
  2025.4000      7.9252      2.6621      0.0965     -0.7320     55.9707     15.0457
  2025.5000      7.9144      2.6575      0.1253     -0.4562     58.7315     15.0538
  2025.6000      7.9144      2.6399      0.0858      0.6097     59.9117     14.8450
  2025.7000      7.9144      2.6003      0.0243      3.0115     59.5660     15.0107
  2025.8000      7.9153      2.5567     -0.0078      5.6527     58.3608     15.4437
  2025.9000      7.9153      2.5298     -0.0248      7.2874     57.6224     15.3275
  2026.0000      7.9289      2.5218      0.0202      7.7688     56.3856     14.4704
  2026.1000      7.9289      2.5288      0.0143      7.3427     54.1630     13.7691
  2026.2000      7.9289      2.5442      0.0436      6.4150     53.2661     14.2356
  2026.3000      7.9464      2.5538      0.0156      5.8299     53.1628     15.9656
  2026.4000      7.9464      2.5576     -0.0167      5.5984     51.5280     17.6166
  2026.5000      7.9464      2.5721      0.0152      4.7235     49.8837     18.1198
  2026.6000      7.9464      2.6046      0.0527      2.7515     52.0954     18.0325
  2026.7000      7.9464      2.6414      0.0771      0.5232     57.8021     18.0750
  2026.8000      7.9535      2.6572      0.1066     -0.4379     60.5332     18.2812
  2026.9000      7.9535      2.6399      0.0591      0.6093     57.7354     18.3561
  2027.0000      7.9470      2.6053      0.0410      2.7064     54.8663     18.0712
  2027.1000      7.9470      2.5767      0.0334      4.4415     54.4209     17.0096
  2027.2000      7.9470      2.5609      0.0517      5.4005     54.9918     15.6375
  2027.3000      7.9426      2.5528      0.0367      5.8928     57.2132     15.2629
  2027.4000      7.9426      2.5472      0.0214      6.2305     62.0397     16.0487
  2027.5000      7.9462      2.5384      0.0640      6.7658     67.4586     16.9209
  2027.6000      7.9462      2.5267      0.0209      7.4723     72.0674     16.9050
  2027.7000      7.9462      2.5208      0.0206      7.8307     78.9774     16.7167
  2027.8000      7.9382      2.5207      0.0160      7.8383     86.1216     17.8616
  2027.9000      7.9382      2.5212      0.0640      7.8067     87.3455     20.1467
  2028.0000      7.9497      2.5254      0.0477      7.5515     84.7639     21.6586
  2028.1000      7.9497      2.5344      0.0745      7.0057     81.9830     21.5181
  2028.2000      7.9497      2.5367      0.0906      6.8675     79.5513     21.0249
  2028.3000      7.9416      2.5324     -0.0048      7.1294     81.6475     21.6595
  2028.4000      7.9416      2.5346      0.0799      6.9954     88.8030     23.2730
  2028.5000      7.9459      2.5384      0.0833      6.7666     94.5169     24.5148
