~Version Information
 VERS.                                  2.0 : CWLS LAS VERSION
 WRAP.                                   NO : WRAPING MODE
 SWARE .                 MController 2.5.0J : SOFTWARE VERSION
~Well Information
 WELL.                          Tonto 42-23 : WELL
 COMP.    Pioneer Natural Resources USA Inc : COMPANY
 FLD.                      Purgatoire River : FIELD
 LOC.                SE/NE Sec 23 T32S R66W : LOCATION
 DATE.                              4/16/05 : DATE(S) LOGGED
 SRVC.       Blanco Geological Services LLC : SERVICE COMPANY
 STAT.                                   CO : STATE
 CNTY.                           Las Animas : COUNTY
 CTRY.                                  USA : COUNTRY
 API.                       05-071-08335-00 : API NUMBER
 STRT.FT                             892.00 : START DEPTH
 STOP.FT                            2270.00 : STOP DEPTH
 STEP.FT                               1.00 : DEPTH INCREMENT
 NULL.                                -9999 : NULL VALUE
~Curve information
 DEPTH.FT                                   :
 ROP.MIN/FT                                 :
 GAS.UNITS                                  :
~ASCII Log data
# ...
      1292.0         0.43         73.4 
      1293.0         0.43         67.9 
      1294.0         0.12         67.6 
      1295.0         0.10         67.5 
      1296.0         0.13         67.0 
      1297.0         0.10         66.2 
      1298.0         0.20         65.7 
      1299.0         0.23         62.9 
      1300.0         0.23         62.1 
      1301.0         0.27         67.0 
      1302.0         0.23         70.4 
      1303.0         0.23         70.9 
      1304.0         0.20         70.0 
      1305.0         0.13         65.1 
      1306.0         0.10         57.5 
      1307.0         0.10         50.2 
      1308.0         0.17         42.7 
      1309.0         0.20         34.8 
      1310.0         0.20         36.4 
      1311.0         0.17         46.5 
      1312.0         0.32         87.9 
      1313.0         0.27        140.7 
      1314.0         0.30        212.7 
      1315.0         0.43        278.0 
      1316.0         1.27        278.2 
      1317.0         0.67        127.3 
      1318.0         0.48         95.6 
      1319.0         0.47         88.0 
      1320.0         0.43         93.1 
      1321.0         0.47        108.6 
      1322.0         0.53        109.9 
      1323.0         0.33        106.0 
      1324.0         0.20        100.5 
      1325.0         0.17         97.4 
      1326.0         0.27         94.6 
      1327.0         0.25         91.5 
      1328.0         0.30         90.0 
      1329.0         0.27         87.9 
      1330.0         0.30         85.6 
      1331.0         0.27         82.9 
      1332.0         0.23         82.1 
      1333.0         0.30         82.5 
      1334.0         0.43         83.5 
      1335.0         0.60         85.9 
      1336.0         0.53         87.4 
      1337.0         0.48         86.6 
      1338.0         0.30         83.9 
      1339.0         0.27         69.4 
      1340.0         0.33         52.1 
      1341.0         0.27         59.4 
      1342.0         0.27         88.8 
      1343.0         0.23        127.2 
      1344.0         0.40        215.8 
      1345.0         0.33        330.1 
      1346.0         3.28        378.3 
      1347.0         0.48        108.2 
      1348.0         0.37        103.0 
      1349.0         0.33        100.3 
      1350.0         0.30         98.2 
      1351.0         0.27         96.3 
      1352.0         0.23         94.4 
      1353.0         0.23         90.8 
      1354.0         0.17         87.9 
      1355.0         0.20         86.5 
      1356.0         0.30         85.5 
      1357.0         0.33         84.0 
      1358.0         0.30         82.0 
      1359.0         0.28         79.0 
      1360.0         0.23         73.7 
      1361.0         0.17         67.6 
      1362.0         0.17         65.0 
      1363.0         0.20         61.9 
      1364.0         0.23         59.4 
      1365.0         0.23         57.9 
      1366.0         0.33         54.3 
      1367.0         0.17         39.9 
      1368.0         0.17         36.3 
      1369.0         0.17         36.2 
      1370.0         0.20         40.6 
      1371.0         0.17         51.1 
      1372.0         0.20         71.7 
      1373.0         0.27        114.6 
      1374.0         0.22        168.4 
      1375.0         0.23        229.2 
      1376.0         2.37        245.3 
      1377.0         0.33         77.5 
      1378.0         0.32         71.9 
      1379.0         0.27         70.3 
      1380.0         0.30         69.7 
      1381.0         0.20         66.1 
      1382.0         0.20         64.4 
      1383.0         0.17         63.0 
      1384.0         0.23         61.5 
      1385.0         0.17         59.6 
      1386.0         0.23         58.7 
      1387.0         0.20         58.7 
      1388.0         0.23         57.6 
      1389.0         0.30         55.7 
      1390.0         0.20         55.1 
      1391.0         0.20         54.6 
      1392.0         0.17         53.9 
      1393.0         0.17         53.5 
      1394.0         0.18         50.3 
      1395.0         0.17         39.7 
      1396.0         0.17         31.3 
      1397.0         0.20         27.1 
      1398.0         0.17         29.0 
      1399.0         0.13         31.0 
      1400.0         0.27         40.2 
      1401.0         0.13         48.7 
      1402.0         0.13         59.7 
      1403.0         0.13         75.6 
      1404.0         0.17        102.4 
      1405.0         0.23        154.3 
      1406.0         1.27        240.1 
      1407.0         0.15        158.0 
      1408.0         0.70        132.9 
      1409.0         0.33         72.4 
      1410.0         0.33         66.0 
      1411.0         0.27         63.4 
      1412.0         0.23         63.1 
      1413.0         0.20         62.8 
      1414.0         0.20         62.9 
      1415.0         0.20         63.1 
      1416.0         0.20         62.8 
      1417.0         0.17         61.1 
      1418.0         0.13         60.3 
      1419.0         0.23         59.3 
      1420.0         0.25         57.3 
      1421.0         0.20         54.4 
      1422.0         0.17         53.1 
      1423.0         0.20         53.0 
      1424.0         0.20         52.7 
      1425.0         0.20         52.1 
      1426.0         0.20         52.5 
      1427.0         0.23         49.5 
      1428.0         0.17         36.3 
      1429.0         0.20         29.1 
      1430.0         0.20         26.4 
      1431.0         0.17         29.5 
      1432.0         0.17         35.1 
      1433.0         0.17         45.7 
      1434.0         0.13         58.2 
      1435.0         0.17         79.7 
      1436.0         1.88        251.8 
      1437.0         0.30        134.2 
      1438.0         0.37        104.3 
      1439.0         0.33         80.6 
      1440.0         0.30         69.1 
      1441.0         0.30         64.2 
      1442.0         0.28         62.3 
      1443.0         0.27         60.9 
      1444.0         0.30         58.0 
      1445.0         0.23         54.7 
      1446.0         0.20         54.6 
      1447.0         0.20         55.6 
      1448.0         0.23         56.9 
      1449.0         0.23         57.3 
      1450.0         0.23         57.2 
      1451.0         0.20         56.9 
      1452.0         0.23         56.0 
      1453.0         0.20         54.8 
      1454.0         0.20         54.3 
      1455.0         0.20         54.3 
      1456.0         0.20         53.7 
      1457.0         0.22         52.1 
      1458.0         0.20         40.2 
      1459.0         0.23         30.3 
      1460.0         0.20         27.6 
      1461.0         0.17         35.9 
      1462.0         0.17         48.0 
      1463.0         0.17         64.7 
      1464.0         0.20         95.6 
      1465.0         0.23        142.2 
      1466.0         2.28        265.1 
      1467.0         0.43         69.0 
      1468.0         0.33         60.5 
      1469.0         0.33         58.5 
      1470.0         0.23         57.7 
      1471.0         0.23         58.3 
      1472.0         0.20         61.1 
      1473.0         0.20         62.3 
      1474.0         0.20         63.0 
      1475.0         0.20         63.1 
      1476.0         0.25         62.7 
      1477.0         0.17         61.0 
      1478.0         0.13         59.6 
      1479.0         0.23         58.5 
      1480.0         0.20         57.6 
      1481.0         0.20         56.8 
      1482.0         0.20         54.2 
      1483.0         0.20         52.8 
      1484.0         0.20         52.0 
      1485.0         0.23         49.9 
      1486.0         0.23         38.2 
      1487.0         0.23         24.7 
      1488.0         0.27         27.1 
      1489.0         0.23         34.0 
      1490.0         0.17         43.7 
      1491.0         0.13         53.6 
