~Version Information
VERS.                      2.0: CWLS Log ASCII Standard - VERSION 2.0
WRAP.                       NO: One line per depth step
~Well Information Block
STRT.FT               482.2000: 
STOP.FT              2349.0000: 
STEP.FT                 0.1000: 
NULL.                -999.2500: 
COMP.          Pioneer Natural Resources: COMPANY
WELL.          Hill Climb 22-2: WELL
FLD.           Purgatoire River: FIELD
LOC.           1820' FNL & 2193' FWL: LOCATION
PROV.                 Colorado: PROVINCE
CNTY.               Las Animas: COUNTRY
SRVC.                Patterson: SERVICE COMPANY
DATE.          Wed Oct 20 09:25:25 2004: LOG DATE
UWI.           05 071 08175 00: UNIQUE WELL ID
~Curve Information Block
DEPT.FT            0 000 00 00: Depth
DCAL.in                       : CDL Caliper
DPOR.pu                       : CDL Density Porosity
NPOR.pu                       : Neutron Porosity
RHOB.g/cc                     : CDL Bulk Density
RHOC.g/cc                     : CDL Density Correction
GR.GAPI                       : Gamma Ray
~Parameter Information Block
~A  Depth       DCAL        DPOR        NPOR        RHOB        RHOC         GR     
# ...
  1490.2000      7.9726      6.2562     18.5761      2.5468      0.0731     88.9893
  1490.3000      7.9707      6.5938     18.7425      2.5412      0.0587     93.8769
  1490.4000      7.9707      7.1223     19.0873      2.5325      0.0650     89.7132
  1490.5000      7.9723      7.6057     19.1155      2.5245      0.0474     84.0810
  1490.6000      7.9723      8.1326     18.9033      2.5158      0.0574     78.7962
  1490.7000      7.9723      8.7128     18.8270      2.5062      0.0188     73.5216
  1490.8000      7.9798      8.6897     18.6142      2.5066      0.0142     71.3404
  1490.9000      7.9798      8.2844     17.8699      2.5133      0.0411     75.5285
  1491.0000      7.9792      8.4451     17.0727      2.5107      0.0069     81.0968
  1491.1000      7.9792      9.0803     16.9163      2.5002     -0.0231     82.8676
  1491.2000      7.9792      9.5067     17.4591      2.4931     -0.0282     82.0012
  1491.3000      7.9678      9.1206     18.3159      2.4995     -0.0253     83.5695
  1491.4000      7.9678      7.4071     19.1354      2.5278     -0.0018     90.0743
  1491.5000      7.9532      4.8825     19.5783      2.5694      0.0421     98.1083
  1491.6000      7.9532      3.0862     19.5847      2.5991      0.0511     99.0603
  1491.7000      7.9532      3.1404     19.5413      2.5982      0.0828     91.6519
  1491.8000      7.9453      4.4802     19.5810      2.5761     -0.0079     91.1638
  1491.9000      7.9453      5.5949     19.6379      2.5577      0.0150    103.5280
  1492.0000      7.9452      6.2435     19.8067      2.5470      0.0642    115.2360
  1492.1000      7.9452      7.2632     20.3436      2.5302      0.0722    118.6580
  1492.2000      7.9452      9.4550     21.6069      2.4940      0.0682    117.6649
  1492.3000      7.9517     12.9532     23.0346      2.4363      0.0122    116.1757
  1492.4000      7.9517     16.9110     23.8489      2.3710      0.0035    114.5987
  1492.5000      7.9563     20.1839     24.5134      2.3170     -0.0214    111.9082
  1492.6000      7.9563     21.6193     25.6043      2.2933     -0.0819    115.3485
  1492.7000      7.9563     20.5921     26.8713      2.3102     -0.0142    132.7381
  1492.8000      7.9610     17.6152     27.6138      2.3593      0.0045    150.2722
  1492.9000      7.9610     13.8147     27.5704      2.4221      0.1159    151.8602
  1493.0000      7.9883     10.3412     27.1481      2.4794      0.1552    146.2009
  1493.1000      7.9883      7.4790     26.4746      2.5266      0.1513    142.0310
  1493.2000      7.9883      5.1732     25.3538      2.5646      0.2293    140.5074
  1493.3000      8.1043      4.1847     24.4972      2.5810      0.2755    139.7377
  1493.4000      8.1043      5.1087     24.8207      2.5657      0.2772    135.5816
  1493.5000      8.3102      6.6973     25.7597      2.5395      0.1460    132.9805
  1493.6000      8.3102      6.9677     26.2818      2.5350      0.1209    133.5499
  1493.7000      8.3102      6.1504     26.3718      2.5485      0.1042    135.1117
  1493.8000      8.4424      6.2966     26.3445      2.5461      0.1044    135.9280
  1493.9000      8.4424      8.6405     26.4457      2.5074      0.0510    130.1595
  1494.0000      8.4331     12.8515     26.9130      2.4380     -0.0121    119.8051
  1494.1000      8.4331     18.2317     27.6187      2.3492     -0.0123    119.7606
  1494.2000      8.4331     24.8031     28.1998      2.2407     -0.0120    135.1573
  1494.3000      8.3615     32.8568     28.6117      2.1079     -0.0538    152.7830
  1494.4000      8.3615     40.8173     29.0673      1.9765     -0.1377    158.9429
  1494.5000      8.2621     45.5034     29.3930      1.8992     -0.1391    150.9868
  1494.6000      8.2621     45.3471     29.4702      1.9018     -0.1057    137.8288
  1494.7000      8.2621     41.5589     29.5209      1.9643     -0.0246    131.2415
  1494.8000      8.1673     36.3370     29.4636      2.0504      0.0337    133.3828
  1494.9000      8.1673     30.8424     29.2778      2.1411      0.1391    138.0681
  1495.0000      8.1209     25.6136     29.2342      2.2274      0.2787    138.5833
  1495.1000      8.1209     21.1710     29.0889      2.3007      0.3660    132.7901
  1495.2000      8.1209     17.1397     28.4267      2.3672      0.3159    129.3129
  1495.3000      8.1255     13.2130     27.4739      2.4320      0.2596    130.7366
  1495.4000      8.1255     10.8628     26.7441      2.4708      0.2375    125.7459
  1495.5000      8.1347     10.7494     26.1680      2.4726      0.0600    112.6816
  1495.6000      8.1347     10.6913     25.3743      2.4736      0.0025    105.5663
  1495.7000      8.1347      9.1843     24.7166      2.4985     -0.0005    111.3515
  1495.8000      8.1112      7.1108     24.5266      2.5327      0.0046    117.8721
  1495.9000      8.1112      5.8054     24.4710      2.5542      0.0562    117.0464
  1496.0000      8.1003      5.8045     24.2903      2.5542      0.0099    117.5052
  1496.1000      8.1003      6.7371     24.0325      2.5388      0.0144    124.8673
  1496.2000      8.1003      7.7299     23.9027      2.5225      0.0111    129.7279
  1496.3000      8.1121      7.8697     23.8143      2.5202      0.0448    125.1441
  1496.4000      8.1121      7.1854     23.8537      2.5314      0.0399    116.1084
  1496.5000      8.1139      6.7055     24.1926      2.5394      0.0401    108.2735
  1496.6000      8.1139      7.0606     24.2606      2.5335      0.0478    104.9520
  1496.7000      8.1139      7.6927     23.7192      2.5231      0.0083    108.4145
  1496.8000      8.1203      7.6423     23.1468      2.5239      0.0180    118.6237
  1496.9000      8.1203      6.7167     23.0713      2.5392     -0.0064    134.0220
  1497.0000      8.1441      5.8219     23.1426      2.5539      0.0639    144.7775
  1497.1000      8.1441      6.1475     23.1907      2.5486      0.0473    143.2133
  1497.2000      8.1441      7.4031     23.5170      2.5278      0.0019    135.8568
  1497.3000      8.1723      8.6188     23.9848      2.5078      0.0067    124.2681
  1497.4000      8.1723     10.6342     24.4207      2.4745      0.0315    108.8343
  1497.5000      8.2072     15.3295     25.2761      2.3971     -0.0241     98.4925
  1497.6000      8.2072     22.4968     26.8227      2.2788     -0.0600    100.9044
  1497.7000      8.2072     29.2373     28.6380      2.1676     -0.1468    114.2692
  1497.8000      8.2517     32.5741     29.8419      2.1125     -0.1520    127.6739
  1497.9000      8.2517     31.9626     29.7167      2.1226     -0.1030    132.9329
  1498.0000      8.2893     29.0297     28.7142      2.1710     -0.0784    131.0198
  1498.1000      8.2893     25.8448     28.0591      2.2236      0.0153    123.5779
  1498.2000      8.2893     23.2516     28.1535      2.2663      0.0542    109.6581
  1498.3000      8.3356     20.5131     28.4008      2.3115      0.1027     94.4987
  1498.4000      8.3356     17.4346     28.1988      2.3623      0.2447     90.2637
  1498.5000      8.4111     15.3746     27.3331      2.3963      0.3154    104.0165
  1498.6000      8.4111     15.3061     26.2684      2.3975      0.2933    126.0516
  1498.7000      8.4111     16.9241     25.9027      2.3708      0.1888    134.8253
  1498.8000      8.4125     18.6950     26.2444      2.3415     -0.0223    125.6941
  1498.9000      8.4125     18.6299     26.5126      2.3426     -0.0280    119.3548
  1499.0000      8.2810     16.9738     26.6763      2.3699     -0.0100    128.9192
  1499.1000      8.2810     15.5272     27.3059      2.3938     -0.0135    148.8741
  1499.2000      8.2810     15.0280     28.3507      2.4020      0.0373    161.6886
  1499.3000      8.2239     15.3715     29.2825      2.3964      0.0432    157.8583
  1499.4000      8.2239     16.0461     29.8776      2.3852      0.0409    144.9539
  1499.5000      8.3436     16.2380     30.5850      2.3821      0.0409    138.1185
  1499.6000      8.3436     16.0381     31.6137      2.3854      0.1069    150.0037
  1499.7000      8.3436     17.0213     32.6687      2.3691      0.1231    161.5557
