~Version Information
VERS.                      2.0: CWLS Log ASCII Standard - VERSION 2.0
WRAP.                       NO: One line per depth step
~Well Information Block
STRT.FT               450.0000: 
STOP.FT              2753.5000: 
STEP.FT                 0.1000: 
NULL.                -999.2500: 
COMP.          Pioneer Natural Resources: COMPANY
WELL.             Squeal 11-26: WELL
FLD.           Purgatoire River: FIELD
LOC.           1186' FNL & 152' FWL: LOCATION
PROV.                 Colorado: PROVINCE
CNTY.               Las Animas: COUNTRY
SRVC.                Patterson: SERVICE COMPANY
DATE.          Wed Jun 15 09:11:52 2005: LOG DATE
UWI.           05 071 08404 00: UNIQUE WELL ID
~Curve Information Block
DEPT.FT            0 000 00 00: Depth
DCAL.in                       : CDL Caliper
RHOB.g/cc                     : CDL Bulk Density
RHOC.g/cc                     : CDL Density Correction
DPOR.pu                       : CDL Density Porosity
GR.GAPI                       : Gamma Ray
NPOR.pu                       : Neutron Porosity
~Parameter Information Block
~A  Depth       DCAL        RHOB        RHOC        DPOR         GR         NPOR    
# ...
   910.8000      8.1838      1.8100     -0.0161     50.9090    138.9116     25.7174
   910.9000      8.1838      1.7096     -0.0661     56.9946    140.7050     25.9285
   911.0000      8.1965      1.6610     -0.0139     59.9384    132.5150     26.6935
   911.1000      8.1965      1.6625      0.1598     59.8470    122.9438     28.0980
   911.2000      8.1965      1.6695      0.0554     59.4241    121.2036     29.8317
   911.3000      8.1924      1.6654      0.0281     59.6735    124.6145     31.2568
   911.4000      8.1924      1.6701     -0.0369     59.3849    126.2690     32.2066
   911.5000      8.2463      1.7081      0.0113     57.0836    122.9374     32.4111
   911.6000      8.2463      1.7786      0.1107     52.8106    115.8465     31.2489
   911.7000      8.2463      1.8684      0.1275     47.3667    108.7488     29.4073
   911.8000      8.2203      1.9784      0.1732     40.7018    105.7801     28.4722
   911.9000      8.2203      2.1089      0.2360     32.7925    106.8759     28.9469
   912.0000      8.2211      2.2428      0.2209     24.6802    108.6092     29.8938
   912.1000      8.2211      2.3555      0.2716     17.8486    107.5273     30.1073
   912.2000      8.2211      2.4356      0.1983     12.9910    103.1403     29.5172
   912.3000      8.2247      2.4894      0.1646      9.7348    102.7293     28.5407
   912.4000      8.2247      2.5190      0.1133      7.9420    109.6094     27.2676
   912.5000      8.1504      2.5289      0.0375      7.3386    117.2108     26.3895
   912.6000      8.1504      2.5350      0.0617      6.9693    122.4771     26.3908
   912.7000      8.1504      2.5431      0.0339      6.4810    126.0984     26.2672
   912.8000      8.0973      2.5483      0.0628      6.1632    127.5892     25.6753
   912.9000      8.0973      2.5494      0.0556      6.0949    130.0538     25.4255
   913.0000      8.0778      2.5511      0.0796      5.9911    136.1363     25.3475
   913.1000      8.0778      2.5640      0.0129      5.2103    141.7191     24.8069
   913.2000      8.0778      2.5922      0.1121      3.5025    142.0951     24.4274
   913.3000      8.0973      2.6108      0.1120      2.3781    139.0577     25.0012
   913.4000      8.0973      2.5958      0.0897      3.2865    138.4864     25.9382
   913.5000      8.1025      2.5601      0.0223      5.4485    141.3190     25.9937
   913.6000      8.1025      2.5367     -0.0063      6.8696    143.9643     25.0583
   913.7000      8.1025      2.5428      0.0079      6.4954    146.6489     24.0354
   913.8000      8.1058      2.5637      0.0625      5.2308    150.3809     23.1135
   913.9000      8.1058      2.5752      0.0311      4.5363    153.0326     22.2143
   914.0000      8.1034      2.5720      0.0402      4.7298    154.1500     22.0072
   914.1000      8.1034      2.5660     -0.0110      5.0925    154.6438     22.5744
   914.2000      8.1034      2.5724      0.0249      4.7034    154.6783     22.9383
   914.3000      8.0961      2.5899      0.0816      3.6444    152.7251     22.5089
   914.4000      8.0961      2.6031      0.0515      2.8447    149.2712     22.1618
   914.5000      8.0998      2.6056      0.0746      2.6907    148.0015     22.6265
   914.6000      8.0998      2.5952      0.0431      3.3238    146.6510     23.5909
   914.7000      8.0998      2.5757      0.0048      4.5041    140.1091     25.1883
   914.8000      8.1075      2.5676      0.0015      4.9962    130.3184     26.8969
   914.9000      8.1075      2.5817      0.0361      4.1424    123.9303     27.0680
   915.0000      8.1096      2.6016      0.0739      2.9341    124.1763     25.5842
   915.1000      8.1096      2.6041      0.0565      2.7797    127.0482     24.2755
   915.2000      8.1096      2.5876      0.0501      3.7841    128.6345     23.9182
   915.3000      8.1120      2.5772      0.0226      4.4120    129.3307     24.2973
   915.4000      8.1120      2.5962     -0.0019      3.2606    129.2778     25.3813
   915.5000      8.1161      2.6283      0.0681      1.3180    130.5952     25.9856
   915.6000      8.1161      2.6370      0.0521      0.7902    134.3304     24.7815
   915.7000      8.1161      2.6272     -0.0125      1.3809    135.3476     23.0852
   915.8000      8.1237      2.6345      0.0506      0.9387    134.4372     23.1571
   915.9000      8.1237      2.6634      0.0622     -0.8101    136.2387     24.7412
   916.0000      8.1218      2.6839      0.1142     -2.0535    140.3102     25.7582
   916.1000      8.1218      2.6741      0.0799     -1.4617    142.9624     25.4615
   916.2000      8.1218      2.6466      0.0741      0.2046    140.9654     25.0037
   916.3000      8.1176      2.6239      0.0505      1.5792    137.4541     24.9937
   916.4000      8.1176      2.6103      0.0442      2.4038    136.2201     24.9551
   916.5000      8.1163      2.5996      0.0290      3.0525    137.3865     24.7466
   916.6000      8.1163      2.5840      0.0736      3.9987    139.3016     24.2456
   916.7000      8.1163      2.5579      0.0421      5.5834    139.1114     23.0732
   916.8000      8.1169      2.5351     -0.0726      6.9620    133.7157     21.7806
   916.9000      8.1169      2.5360      0.0173      6.9089    124.8558     20.9197
   917.0000      8.1186      2.5501      0.0372      6.0538    119.2261     20.3183
   917.1000      8.1186      2.5534      0.0018      5.8525    123.9910     19.9213
   917.2000      8.1186      2.5456     -0.0328      6.3270    136.5570     19.7862
   917.3000      8.1185      2.5413      0.0093      6.5850    146.0832     19.9837
   917.4000      8.1185      2.5396      0.0632      6.6924    147.9258     20.6103
   917.5000      8.1201      2.5347      0.0305      6.9864    142.6900     21.5229
   917.6000      8.1201      2.5380      0.0354      6.7909    134.9814     21.8727
   917.7000      8.1201      2.5526      0.0559      5.9008    129.5895     21.2547
   917.8000      8.0759      2.5591      0.0884      5.5073    125.8456     20.6401
   917.9000      8.0759      2.5595     -0.0365      5.4875    123.4542     20.8027
   918.0000      8.0694      2.5794      0.0539      4.2787    123.3665     21.2129
   918.1000      8.0694      2.6080      0.0517      2.5473    125.6366     21.0402
   918.2000      8.0694      2.6158      0.0718      2.0720    127.4268     20.6056
   918.3000      8.0586      2.6000      0.0776      3.0275    124.4385     20.5577
   918.4000      8.0586      2.5724      0.0743      4.7020    117.8476     20.0051
   918.5000      8.0688      2.5499      0.0303      6.0659    113.9350     18.5357
   918.6000      8.0688      2.5515      0.0567      5.9691    113.7247     17.6321
   918.7000      8.0688      2.5765      0.0510      4.4549    111.6256     17.9491
   918.8000      8.0652      2.6068      0.1180      2.6181    106.7661     18.5519
   918.9000      8.0652      2.6310      0.0792      1.1526    103.1111     18.8386
   919.0000      8.0390      2.6624      0.0606     -0.7537    103.7574     19.3762
   919.1000      8.0390      2.7152      0.0786     -3.9498    108.4690     19.9318
   919.2000      8.0390      2.7745      0.1001     -7.5459    111.6906     19.4713
   919.3000      8.0272      2.8213      0.1832    -10.3832    110.7039     18.7271
   919.4000      8.0272      2.8567      0.1750    -12.5269    110.4755     19.1596
   919.5000      8.0227      2.8841      0.2306    -14.1889    111.6346     20.5756
   919.6000      8.0227      2.8874      0.1810    -14.3870    108.9657     21.6622
   919.7000      8.0227      2.8573      0.0682    -12.5659    104.3120     21.4684
   919.8000      8.0211      2.8092      0.0807     -9.6466    102.6314     20.8430
   919.9000      8.0211      2.7536      0.0822     -6.2765     99.7350     21.0125
   920.0000      8.0226      2.7027     -0.0476     -3.1966     91.7451     21.5087
   920.1000      8.0226      2.6818     -0.0278     -1.9302     84.7722     21.6891
   920.2000      8.0226      2.6996      0.0225     -3.0035     84.1605     21.4615
   920.3000      8.0184      2.7524     -0.0181     -6.2054     85.7777     20.8229
