~Version Information
VERS.                      2.0: CWLS Log ASCII Standard - VERSION 2.0
WRAP.                       NO: One line per depth step
~Well Information Block
STRT.FT               860.0000: 
STOP.FT              2733.7000: 
STEP.FT                 0.1000: 
NULL.                -999.2500: 
COMP.          Pioneer Natural Resources: COMPANY
WELL.          Beacon 11-18 Tr: WELL
FLD.           Purgatoire River: FIELD
LOC.           409' FNL & 203' FWL: LOCATION
PROV.                 Colorado: PROVINCE
CNTY.               Las Animas: COUNTRY
SRVC.                Patterson: SERVICE COMPANY
DATE.          Mon Jan 17 07:36:09 2005: LOG DATE
UWI.           05 071 08251 00: UNIQUE WELL ID
~Curve Information Block
DEPT.FT            0 000 00 00: Depth
DCAL.in                       : CDL Caliper
RHOB.g/cc                     : CDL Bulk Density
RHOC.g/cc                     : CDL Density Correction
DPOR.pu                       : CDL Density Porosity
NPOR.pu                       : Neutron Porosity
GR.GAPI                       : Gamma Ray
~Parameter Information Block
~A  Depth       DCAL        RHOB        RHOC        DPOR        NPOR         GR     
# ...
  2703.2000      7.8564      2.4947      0.0472      9.4135     25.6122   -999.2500
  2703.3000      7.8502      2.5329      0.0999      7.0976     25.3186   -999.2500
  2703.4000      7.8502      2.5497      0.0370      6.0805     24.8064   -999.2500
  2703.5000      7.8409      2.5421      0.0748      6.5410     24.7598   -999.2500
  2703.6000      7.8409      2.5131      0.0212      8.2965     25.2448   -999.2500
  2703.7000      7.8409      2.4834     -0.0539     10.0969     25.8693   -999.2500
  2703.8000      7.8300      2.4793     -0.0243     10.3446     26.1320   -999.2500
  2703.9000      7.8300      2.4968     -0.0255      9.2851     25.9151   -999.2500
  2704.0000      7.8190      2.5164      0.0083      8.1000     25.6298   -999.2500
  2704.1000      7.8190      2.5284      0.0444      7.3687     25.5739   -999.2500
  2704.2000      7.8190      2.5397      0.0267      6.6834     25.3872   -999.2500
  2704.3000      7.8097      2.5611      0.0405      5.3889     24.7606   -999.2500
  2704.4000      7.8097      2.5808      0.0920      4.1929     24.1531   -999.2500
  2704.5000      7.8044      2.5739      0.0321      4.6098     24.0256   -999.2500
  2704.6000      7.8044      2.5428      0.0044      6.4969     24.0838   -999.2500
  2704.7000      7.8044      2.5158      0.0109      8.1310     23.8297   -999.2500
  2704.8000      7.8025      2.5139     -0.0207      8.2488     23.5089   -999.2500
  2704.9000      7.8025      2.5271      0.0177      7.4513     23.8691   -999.2500
  2705.0000      7.8085      2.5251      0.0216      7.5675     24.8168   -999.2500
  2705.1000      7.8085      2.5052     -0.0469      8.7731     25.3402   -999.2500
  2705.2000      7.8085      2.4926     -0.0553      9.5403     24.9880   -999.2500
  2705.3000      7.8169      2.4934      0.0256      9.4907     24.4220   -999.2500
  2705.4000      7.8169      2.4998     -0.0370      9.1034     24.4818   -999.2500
  2705.5000      7.8138      2.5121      0.0052      8.3559     25.1165   -999.2500
  2705.6000      7.8138      2.5274      0.0036      7.4319     25.5514   -999.2500
  2705.7000      7.8138      2.5433      0.0452      6.4693     25.4720   -999.2500
  2705.8000      7.8059      2.5575      0.0519      5.6045     25.3061   -999.2500
  2705.9000      7.8059      2.5571      0.0611      5.6282     25.2842   -999.2500
  2706.0000      7.8011      2.5368     -0.0283      6.8621     25.1026   -999.2500
  2706.1000      7.8011      2.5137     -0.0150      8.2627     24.6665   -999.2500
  2706.2000      7.8011      2.4988      0.0130      9.1646     24.4537   -999.2500
  2706.3000      7.8014      2.4887     -0.0569      9.7756     24.6744   -999.2500
  2706.4000      7.8014      2.4845     -0.0290     10.0276     24.9643   -999.2500
  2706.5000      7.8028      2.4895     -0.0166      9.7260     24.8138   -999.2500
  2706.6000      7.8028      2.4984      0.0103      9.1852     23.9221   -999.2500
  2706.7000      7.8028      2.5026     -0.0072      8.9315     22.4612   -999.2500
  2706.8000      7.8020      2.4983      0.0098      9.1924     21.6489   -999.2500
  2706.9000      7.8020      2.4910     -0.0581      9.6357     23.8223   -999.2500
  2707.0000      7.7997      2.4964     -0.0366      9.3072     31.3979   -999.2500
  2707.1000      7.7997      2.5212     -0.0116      7.8040     42.2845   -999.2500
  2707.2000      7.7997      2.5536      0.0362      5.8410     49.7610   -999.2500
  2707.3000      7.7993      2.5787     -0.0046      4.3242     52.4090   -999.2500
  2707.4000      7.7993      2.5894      0.0039      3.6745     52.9250   -999.2500
  2707.5000      7.8014      2.5786      0.0516      4.3282     52.9795   -999.2500
  2707.6000      7.8014      2.5466     -0.0216      6.2688     52.9826   -999.2500
  2707.7000      7.8014      2.5182     -0.0523      7.9849   -999.2500   -999.2500
  2707.8000      7.7929      2.5123     -0.0248      8.3444   -999.2500   -999.2500
  2707.9000      7.7929      2.5153     -0.0280      8.1634   -999.2500   -999.2500
  2708.0000      7.7700      2.5123     -0.0244      8.3428   -999.2500   -999.2500
  2708.1000      7.7700      2.5119     -0.0099      8.3714   -999.2500   -999.2500
  2708.2000      7.7700      2.5334     -0.0406      7.0648   -999.2500   -999.2500
  2708.3000      7.7544      2.5733      0.0773      4.6476   -999.2500   -999.2500
  2708.4000      7.7544      2.5999      0.0399      3.0391   -999.2500   -999.2500
  2708.5000      7.7493      2.5985      0.0385      3.1219   -999.2500   -999.2500
  2708.6000      7.7493      2.5810      0.0334      4.1847   -999.2500   -999.2500
  2708.7000      7.7493      2.5661     -0.0079      5.0849   -999.2500   -999.2500
  2708.8000      7.7485      2.5685      0.0071      4.9374   -999.2500   -999.2500
  2708.9000      7.7485      2.5914     -0.0163      3.5489   -999.2500   -999.2500
  2709.0000      7.7493      2.6221     -0.0139      1.6935   -999.2500   -999.2500
  2709.1000      7.7493      2.6263      0.0377      1.4374   -999.2500   -999.2500
  2709.2000      7.7493      2.5928     -0.0579      3.4691   -999.2500   -999.2500
  2709.3000      7.7469      2.5559     -0.0271      5.7027   -999.2500   -999.2500
  2709.4000      7.7469      2.5368      0.0165      6.8611   -999.2500   -999.2500
  2709.5000      7.7449      2.5256     -0.0481      7.5365   -999.2500   -999.2500
  2709.6000      7.7449      2.5131     -0.0167      8.2988   -999.2500   -999.2500
  2709.7000      7.7449      2.5050     -0.0457      8.7903   -999.2500   -999.2500
  2709.8000      7.7467      2.5043      0.0256      8.8290   -999.2500   -999.2500
  2709.9000      7.7467      2.4902      0.0021      9.6827   -999.2500   -999.2500
  2710.0000      7.7467      2.4556     -0.0682     11.7826   -999.2500   -999.2500
  2710.1000      7.7467      2.4240     -0.0703     13.6968   -999.2500   -999.2500
  2710.2000      7.7467      2.4129     -0.0416     14.3690   -999.2500   -999.2500
  2710.3000      7.7449      2.4226     -0.0359     13.7797   -999.2500   -999.2500
  2710.4000      7.7449      2.4516     -0.0722     12.0257   -999.2500   -999.2500
  2710.5000      7.7442      2.4886      0.0101      9.7817   -999.2500   -999.2500
  2710.6000      7.7442      2.5101      0.0078      8.4803   -999.2500   -999.2500
  2710.7000      7.7442      2.5141     -0.0015      8.2351   -999.2500   -999.2500
  2710.8000      7.7446      2.5206      0.0162      7.8435   -999.2500   -999.2500
  2710.9000      7.7446      2.5320      0.0656      7.1543   -999.2500   -999.2500
  2711.0000      7.7468      2.5407     -0.0186      6.6267   -999.2500   -999.2500
  2711.1000      7.7468      2.5568     -0.0106      5.6469   -999.2500   -999.2500
  2711.2000      7.7468      2.5829      0.0358      4.0683   -999.2500   -999.2500
  2711.3000      7.7479      2.5968      0.0449      3.2237   -999.2500   -999.2500
  2711.4000      7.7479      2.5873     -0.0287      3.8017   -999.2500   -999.2500
  2711.5000      7.7467      2.5688     -0.0344      4.9229   -999.2500   -999.2500
  2711.6000      7.7467      2.5461     -0.0173      6.2984   -999.2500   -999.2500
  2711.7000      7.7467      2.5205     -0.0921      7.8480   -999.2500   -999.2500
  2711.8000      7.7465      2.5194     -0.1225      7.9146   -999.2500   -999.2500
  2711.9000      7.7465      2.5539     -0.0199      5.8246   -999.2500   -999.2500
  2712.0000      7.7479      2.5857      0.0337      3.8977   -999.2500   -999.2500
  2712.1000      7.7479      2.5776      0.0249      4.3902   -999.2500   -999.2500
  2712.2000      7.7479      2.5405     -0.0639      6.6344   -999.2500   -999.2500
  2712.3000      7.7433      2.5110     -0.0788      8.4255   -999.2500   -999.2500
  2712.4000      7.7433      2.5019     -0.0824      8.9753   -999.2500   -999.2500
  2712.5000      7.7332      2.4963     -0.0449      9.3137   -999.2500   -999.2500
  2712.6000      7.7332      2.4743     -0.0529     10.6478   -999.2500   -999.2500
  2712.7000      7.7332      2.4421     -0.0659     12.5990   -999.2500   -999.2500
