~Version Information
VERS.                      2.0: CWLS Log ASCII Standard - VERSION 2.0
WRAP.                       NO: One line per depth step
~Well Information Block
STRT.FT               390.0000: 
STOP.FT               902.2000: 
STEP.FT                 0.1000: 
NULL.                -999.2500: 
COMP.          Pioneer Natural Resources: COMPANY
WELL.              Venom 32-22: WELL
FLD.           Purgatoire River: FIELD
LOC.           2307' FNL & 2024' FEL----: LOCATION
PROV.                 Colorado: PROVINCE
CNTY.               Las Animas: COUNTRY
SRVC.                Patterson: SERVICE COMPANY
DATE.          Wed May 11 08:31:39 2005: LOG DATE
UWI.           05 071 08361 00: UNIQUE WELL ID
~Curve Information Block
DEPT.FT            0 000 00 00: Depth
DCAL.in                       : CDL Caliper
RHOB.g/cc                     : CDL Bulk Density
RHOC.g/cc                     : CDL Density Correction
DPOR.pu                       : CDL Density Porosity
NPOR.pu                       : Neutron Porosity
GR.GAPI                       : Gamma Ray
~Parameter Information Block
~A  Depth       DCAL        RHOB        RHOC        DPOR        NPOR         GR     
# ...
   870.0000      7.8577      2.4807      0.0978     10.2580     21.5593     66.7678
   870.1000      7.8577      2.5062      0.1124      8.7139     21.3534     33.3171
   870.2000      7.8577      2.5255      0.0997      7.5473     21.6248     10.4320
   870.3000      7.8583      2.5374      0.1170      6.8258     22.1681      1.8937
   870.4000      7.8583      2.5390      0.0932      6.7280     22.7085      0.1903
   870.5000      7.8583      2.5412      0.0705      6.5930     23.2121      0.0101
   870.6000      7.8583      2.5490      0.1254      6.1196     23.7184      0.0000
   870.7000      7.8583      2.5458      0.0764      6.3159     24.3996   -999.2500
   870.8000      7.8587      2.5260      0.0612      7.5125     24.7222   -999.2500
   870.9000      7.8587      2.5112     -0.0023      8.4142     24.4313   -999.2500
   871.0000      7.8587      2.5229      0.0612      7.7042     24.3292   -999.2500
   871.1000      7.8587      2.5492      0.0875      6.1065     24.5176   -999.2500
   871.2000      7.8587      2.5622      0.0717      5.3189     24.5260   -999.2500
   871.3000      7.8576      2.5599      0.0462      5.4584     24.2784   -999.2500
   871.4000      7.8576      2.5550      0.0634      5.7566     24.0798   -999.2500
   871.5000      7.8546      2.5473      0.0738      6.2235     24.2254   -999.2500
   871.6000      7.8546      2.5462      0.0257      6.2938     24.5834   -999.2500
   871.7000      7.8546      2.5664      0.0657      5.0652     25.0388   -999.2500
   871.8000      7.8504      2.5913      0.1213      3.5583     25.6908   -999.2500
   871.9000      7.8504      2.5969      0.0776      3.2198     26.2243   -999.2500
   872.0000      7.8454      2.5868      0.0749      3.8307     26.4530   -999.2500
   872.1000      7.8454      2.5747      0.0496      4.5611     26.5817   -999.2500
   872.2000      7.8454      2.5686      0.0758      4.9360     26.3922   -999.2500
   872.3000      7.8445      2.5719      0.0763      4.7345     25.8585   -999.2500
   872.4000      7.8445      2.5868      0.0605      3.8276     25.2517   -999.2500
   872.5000      7.8518      2.6071      0.1283      2.5977     24.7894   -999.2500
   872.6000      7.8518      2.6197      0.0784      1.8364     24.5856   -999.2500
   872.7000      7.8518      2.6214      0.1183      1.7334     24.2147   -999.2500
   872.8000      7.8576      2.6172      0.0913      1.9866     23.3989   -999.2500
   872.9000      7.8576      2.6165      0.1001      2.0276     22.5002   -999.2500
   873.0000      7.8591      2.6163      0.1129      2.0442     21.7167   -999.2500
   873.1000      7.8591      2.5997      0.0971      3.0480     21.0275   -999.2500
   873.2000      7.8591      2.5700      0.0749      4.8512     20.8159   -999.2500
   873.3000      7.8586      2.5556      0.0354      5.7200     21.3429   -999.2500
   873.4000      7.8586      2.5697      0.0779      4.8695     22.1052   -999.2500
   873.5000      7.8604      2.5859      0.0781      3.8834     22.3759   -999.2500
   873.6000      7.8604      2.5815      0.0376      4.1543     21.7986   -999.2500
   873.7000      7.8604      2.5689      0.0302      4.9139     20.5250   -999.2500
   873.8000      7.8612      2.5654      0.0452      5.1256     19.0246   -999.2500
   873.9000      7.8612      2.5565      0.1062      5.6659     18.0262   -999.2500
   874.0000      7.8580      2.5253      0.0146      7.5569     18.0633   -999.2500
   874.1000      7.8580      2.4962     -0.0241      9.3200     18.9283   -999.2500
   874.2000      7.8580      2.4957      0.0263      9.3524     20.1659   -999.2500
   874.3000      7.8551      2.5176      0.0165      8.0231     21.4824   -999.2500
   874.4000      7.8551      2.5462      0.0386      6.2937     22.4027   -999.2500
   874.5000      7.8564      2.5683      0.0800      4.9541     22.4730   -999.2500
   874.6000      7.8564      2.5802      0.0484      4.2326     21.8702   -999.2500
   874.7000      7.8564      2.5932      0.0554      3.4404     20.9336   -999.2500
   874.8000      7.8592      2.6152      0.0640      2.1102     19.7705   -999.2500
   874.9000      7.8592      2.6324      0.1440      1.0694     18.9464   -999.2500
   875.0000      7.8631      2.6279      0.1119      1.3390     19.0403   -999.2500
   875.1000      7.8631      2.6098      0.0511      2.4392     19.7280   -999.2500
   875.2000      7.8631      2.5964      0.0611      3.2477     20.4702   -999.2500
   875.3000      7.8679      2.5912      0.0890      3.5644     21.2801   -999.2500
   875.4000      7.8679      2.5867      0.0769      3.8392     23.6627   -999.2500
   875.5000      7.8630      2.5707      0.0957      4.8050     30.3773   -999.2500
   875.6000      7.8630      2.5402      0.0329      6.6527     40.3012   -999.2500
   875.7000      7.8630      2.5123      0.0440      8.3466     47.3816   -999.2500
   875.8000      7.8553      2.5009      0.0720      9.0362     49.9598   -999.2500
   875.9000      7.8553      2.5115      0.0011      8.3911     50.4681   -999.2500
   876.0000      7.8546      2.5373      0.0817      6.8332     50.5220   -999.2500
   876.1000      7.8546      2.5597      0.0455      5.4712     50.5250   -999.2500
   876.2000      7.8546      2.5784      0.0671      4.3393   -999.2500   -999.2500
   876.3000      7.8571      2.5922      0.0859      3.5027   -999.2500   -999.2500
   876.4000      7.8571      2.5862      0.0975      3.8668   -999.2500   -999.2500
   876.5000      7.8561      2.5613      0.0332      5.3778   -999.2500   -999.2500
   876.6000      7.8561      2.5375      0.0505      6.8176   -999.2500   -999.2500
   876.7000      7.8561      2.5214      0.0807      7.7917   -999.2500   -999.2500
   876.8000      7.8452      2.5038      0.0455      8.8615   -999.2500   -999.2500
   876.9000      7.8452      2.4886      0.0371      9.7830   -999.2500   -999.2500
   877.0000      7.8277      2.4900      0.0487      9.6951   -999.2500   -999.2500
   877.1000      7.8277      2.5068      0.0933      8.6814   -999.2500   -999.2500
   877.2000      7.8277      2.5224      0.0884      7.7353   -999.2500   -999.2500
   877.3000      7.8189      2.5289      0.0786      7.3365   -999.2500   -999.2500
   877.4000      7.8189      2.5330      0.0881      7.0904   -999.2500   -999.2500
   877.5000      7.8300      2.5397      0.0823      6.6834   -999.2500   -999.2500
   877.6000      7.8300      2.5461      0.0733      6.2993   -999.2500   -999.2500
   877.7000      7.8300      2.5486      0.0646      6.1448   -999.2500   -999.2500
   877.8000      7.8461      2.5476      0.0652      6.2064   -999.2500   -999.2500
   877.9000      7.8461      2.5486      0.0341      6.1451   -999.2500   -999.2500
   878.0000      7.8556      2.5559      0.0267      5.7025   -999.2500   -999.2500
   878.1000      7.8556      2.5576      0.1007      5.6027   -999.2500   -999.2500
   878.2000      7.8556      2.5427      0.0632      6.5013   -999.2500   -999.2500
   878.3000      7.8604      2.5219      0.0207      7.7631   -999.2500   -999.2500
   878.4000      7.8604      2.5055      0.0310      8.7555   -999.2500   -999.2500
   878.5000      7.8629      2.4937      0.0245      9.4722   -999.2500   -999.2500
   878.6000      7.8629      2.4896      0.0335      9.7231   -999.2500   -999.2500
   878.7000      7.8629      2.5009      0.0093      9.0363   -999.2500   -999.2500
   878.8000      7.8664      2.5213      0.0808      7.8013   -999.2500   -999.2500
   878.9000      7.8664      2.5288      0.0637      7.3435   -999.2500   -999.2500
   879.0000      7.8692      2.5252      0.0030      7.5610   -999.2500   -999.2500
   879.1000      7.8692      2.5299      0.0684      7.2785   -999.2500   -999.2500
   879.2000      7.8692      2.5432      0.0977      6.4712   -999.2500   -999.2500
   879.3000      7.8664      2.5568      0.0717      5.6514   -999.2500   -999.2500
   879.4000      7.8664      2.5655      0.0766      5.1220   -999.2500   -999.2500
   879.5000      7.8671      2.5618      0.1288      5.3432   -999.2500   -999.2500
