~Version Information
VERS.                      2.0: CWLS Log ASCII Standard - VERSION 2.0
WRAP.                       NO: One line per depth step
~Well Information Block
STRT.FT               742.0000: 
STOP.FT              2582.0000: 
STEP.FT                 0.2500: 
NULL.                -999.2500: 
COMP.          Petrogulf Corporation: COMPANY
WELL.            Montoya 7-12V: WELL
FLD.           Purgatorie River: FIELD
LOC.           728' FWL & 1764' FNL: LOCATION
CNTY.               Las Animas: COUNTY
SRVC.                         : SERVICE COMPANY
DATE.          Thu Feb 19 20:58:32 2004: LOG DATE
UWI.           05-071-07887-00: UNIQUE WELL ID
STAT.                 Colorado: STATE
~Curve Information Block
DEPT.FT            0 000 00 00: Depth
SP.mV                         : DIL Spontaneous Potential
RILD.Ohm-m                    : DIL Deep Resistivity
RILM.Ohm-m                    : DIL Medium Resistivity
RLL3.Ohm-m                    : DIL Shallow Resistivity
GR.GAPI                       : Gamma Ray
~Parameter Information Block
~A  Depth        SP         RILD        RILM        RLL3         GR     
# ...
  2310.0000    -10.1021     16.8266     15.5810     19.2366     82.2961
  2310.2500     -9.6688     17.4312     16.4126     20.6978     79.3050
  2310.5000     -9.5264     18.1588     17.2954     21.9099     73.9531
  2310.7500     -9.7216     19.0132     18.2186     22.6286     70.0195
  2311.0000    -10.2453     19.9757     19.1804     22.7349     64.6981
  2311.2500    -11.0354     21.0036     20.1870     22.3188     62.3035
  2311.5000    -12.0023     22.0416     21.2478     21.6646     61.0882
  2311.7500    -13.0607     23.0367     22.3688     21.1871     61.6072
  2312.0000    -14.1537     23.9515     23.5450     21.3907     63.0625
  2312.2500    -15.2618     24.7696     24.7532     22.8818     63.6006
  2312.5000    -16.3991     25.4934     25.9452     26.3572     62.7812
  2312.7500    -17.6034     26.1354     27.0464     32.3657     61.0027
  2313.0000    -18.9208     26.7089     27.9673     40.6813     56.8325
  2313.2500    -20.3857     27.2219     28.6277     49.6028     53.5770
  2313.5000    -22.0034     27.6785     28.9885     56.0874     49.2006
  2313.7500    -23.7419     28.0816     29.0738     57.3011     47.2364
  2314.0000    -25.5364     28.4376     28.9722     52.6375     46.3618
  2314.2500    -27.3051     28.7578     28.8121     44.2692     47.2911
  2314.5000    -28.9668     29.0577     28.7226     35.5883     50.3944
  2314.7500    -30.4552     29.3553     28.8011     29.0808     52.6444
  2315.0000    -31.7279     29.6719     29.0991     25.4389     54.4313
  2315.2500    -32.7720     30.0319     29.6271     24.0800     54.1946
  2315.5000    -33.6022     30.4593     30.3715     24.0604     52.6331
  2315.7500    -34.2506     30.9680     31.3146     24.6294     51.5836
  2316.0000    -34.7490     31.5543     32.4488     25.3621     50.6742
  2316.2500    -35.1121     32.1980     33.7788     26.0815     50.5540
  2316.5000    -35.3309     32.8761     35.3125     26.7352     51.0923
  2316.7500    -35.3755     33.5766     37.0474     27.3202     51.8752
  2317.0000    -35.2032     34.3021     38.9606     27.8976     53.3285
  2317.2500    -34.7653     35.0629     41.0060     28.6429     54.2125
  2317.5000    -34.0102     35.8622     43.1132     29.8063     55.1277
  2317.7500    -32.8873     36.6817     45.1868     31.5426     55.4325
  2318.0000    -31.3521     37.4661     47.1026     33.8122     55.4833
  2318.2500    -29.3770     38.1105     48.7013     36.7332     55.2535
  2318.5000    -26.9602     38.4605     49.7796     41.4758     54.3783
  2318.7500    -24.1308     38.3475     50.0903     51.0388     53.3588
  2319.0000    -20.9493     37.6597     49.3880     69.5892     51.2812
  2319.2500    -17.5048     36.4064     47.5253     99.4865     49.7056
  2319.5000    -13.9062     34.7198     44.5413    137.2528     47.2000
  2319.7500    -10.2645     32.7930     40.6733    172.1631     45.4328
  2320.0000     -6.6758     30.8076     36.2985    190.4743     43.1017
  2320.2500     -3.2195     28.8935     31.8454    183.4984     42.5290
  2320.5000      0.0274     27.1240     27.6960    153.3104     44.7518
  2320.7500      2.9745     25.5303     24.1073    111.3072     48.8626
  2321.0000      5.5193     24.1195     21.1850     71.0460     58.8467
  2321.2500      7.5687     22.8872     18.9138     41.2729     67.2962
  2321.5000      9.0727     21.8211     17.2079     23.7259     80.2743
  2321.7500     10.0478     20.9003     15.9554     15.4910     87.5093
  2322.0000     10.5715     20.1001     15.0463     12.5672     94.6563
  2322.2500     10.7520     19.4027     14.3883     11.9850     97.1398
  2322.5000     10.6958     18.8078     13.9154     12.1527     98.7194
  2322.7500     10.4902     18.3316     13.5893     12.3964     98.9499
  2323.0000     10.2006     17.9949     13.3947     12.5024     98.8022
  2323.2500      9.8741     17.8084     13.3303     12.4853     98.8302
  2323.5000      9.5396     17.7666     13.3980     12.4861     99.5389
  2323.7500      9.2059     17.8518     13.5948     12.6799    100.2379
  2324.0000      8.8614     18.0443     13.9088     13.1659    100.6184
  2324.2500      8.4768     18.3304     14.3208     13.8876     99.9589
  2324.5000      8.0090     18.7051     14.8119     14.6423     97.6914
  2324.7500      7.4073     19.1666     15.3703     15.1867     95.9331
  2325.0000      6.6212     19.7121     15.9960     15.3721     94.5098
  2325.2500      5.6073     20.3352     16.7000     15.2201     95.1640
  2325.5000      4.3329     21.0252     17.5016     14.9059     98.4987
  2325.7500      2.7779     21.7664     18.4248     14.6793    101.1085
  2326.0000      0.9384     22.5376     19.4928     14.7758    102.5327
  2326.2500     -1.1683     23.3140     20.7188     15.3570    100.5325
  2326.5000     -3.5002     24.0719     22.0937     16.4890     93.2560
  2326.7500     -5.9901     24.7897     23.5761     18.1424     86.9220
  2327.0000     -8.5446     25.4476     25.0911     20.1817     78.0452
  2327.2500    -11.0527     26.0296     26.5396     22.3416     73.5484
  2327.5000    -13.4039     26.5319     27.8179     24.2430     69.0798
  2327.7500    -15.5112     26.9707     28.8422     25.5163     67.2089
  2328.0000    -17.3261     27.3812     29.5669     25.9902     65.2185
  2328.2500    -18.8382     27.8037     29.9903     25.7705     63.9667
  2328.5000    -20.0613     28.2615     30.1456     25.1068     61.6452
  2328.7500    -21.0161     28.7405     30.0887     24.1879     59.7786
  2329.0000    -21.7219     29.1848     29.8890     23.1007     56.9414
  2329.2500    -22.1987     29.5138     29.6256     21.9759     55.3784
  2329.5000    -22.4729     29.6506     29.3782     21.0997     53.8916
  2329.7500    -22.5743     29.5407     29.2065     20.8156     53.3512
  2330.0000    -22.5283     29.1500     29.1243     21.3218     52.5905
  2330.2500    -22.3485     28.4550     29.0757     22.5809     51.9286
  2330.5000    -22.0370     27.4454     28.9296     24.3622     51.1278
  2330.7500    -21.5904     26.1367     28.5087     26.2798     51.0847
  2331.0000    -21.0083     24.5746     27.6628     27.7956     51.7270
  2331.2500    -20.2997     22.8236     26.3516     28.3166     52.2365
  2331.5000    -19.4880     20.9451     24.6741     27.4544     52.7063
  2331.7500    -18.6139     18.9826     22.8169     25.2876     53.1746
  2332.0000    -17.7350     16.9613     20.9683     22.3555     55.4892
  2332.2500    -16.9191     14.9013     19.2627     19.3350     58.6191
  2332.5000    -16.2311     12.8399     17.7705     16.6922     65.1260
  2332.7500    -15.7138     10.8471     16.5143     14.5996     69.8651
  2333.0000    -15.3703      9.0202     15.4905     13.0512     76.6499
  2333.2500    -15.1540      7.4518     14.6871     11.9505     80.7803
  2333.5000    -14.9794      6.1964     14.0945     11.1424     86.0496
  2333.7500    -14.7533      5.2606     13.7086     10.5026     88.6238
  2334.0000    -14.4136      4.6198     13.5288     10.0642     90.7645
  2334.2500    -13.9494      4.2425     13.5548     10.0351     91.1470
  2334.5000    -13.3882      4.1131     13.7822     10.6565     90.5879
  2334.7500    -12.7608      4.2549     14.1988     12.0304     89.6727
  2335.0000    -12.0732      4.7748     14.7806     14.0648     87.6508
  2335.2500    -11.3084      5.9999     15.4904     16.5434     85.9367
  2335.5000    -10.4553      9.1067     16.2812     19.1946     83.0427
  2335.7500     -9.5436     22.1874     17.1078     21.6729     81.0506
  2336.0000     -8.6530 100000.0000     17.9405     23.5435     78.2246
  2336.2500     -7.8878 100000.0000     18.7744     24.4254     76.7423
  2336.5000     -7.3339 100000.0000     19.6284     24.2374     75.9362
  2336.7500     -7.0286 100000.0000     20.5366     23.2775     76.6382
  2337.0000     -6.9590 100000.0000     21.5397     22.0150     78.9181
  2337.2500     -7.0829 100000.0000     22.6799     20.8096     80.2854
  2337.5000     -7.3514 100000.0000     24.0046     19.8260     80.6078
  2337.7500     -7.7254 100000.0000     25.5842     19.1265     79.4949
