~Version Information
VERS.                      2.0: CWLS Log ASCII Standard - VERSION 2.0
WRAP.                       NO: One line per depth step
~Well Information Block
STRT.FT               840.0000: 
STOP.FT              2268.0000: 
STEP.FT                 0.2500: 
NULL.                -999.2500: 
COMP.          Pioneer Natural Resources: COMPANY
WELL.              Tonto 42-23: WELL
FLD.           Purgatoire River: FIELD
LOC.           2217' FNL & 423' FEL: LOCATION
PROV.                 Colorado: PROVINCE
CNTY.               Las Animas: COUNTRY
SRVC.                Patterson: SERVICE COMPANY
DATE.          Sun Apr 17 01:24:47 2005: LOG DATE
UWI.           05 071 08335 00: UNIQUE WELL ID
~Curve Information Block
DEPT.FT            0 000 00 00: Depth
SN.Ohm-m                      : IEL Short Normal
SP.mV                         : IEL Spontaneous Potential
DIR.Ohm-m                     : IEL Induction Resistivity
GR.GAPI                       : Gamma Ray
~Parameter Information Block
~A  Depth        SN          SP         DIR          GR     
# ...
  1108.0000     23.0722   -124.1108     30.4022     70.1598
  1108.2500     23.4172   -124.2089     30.5084     68.3229
  1108.5000     23.7626   -124.2636     30.7224     66.5733
  1108.7500     23.9780   -124.2306     30.9801     66.2923
  1109.0000     23.9041   -124.0989     31.1585     67.0121
  1109.2500     23.5744   -123.9073     31.1369     67.8165
  1109.5000     23.2235   -123.7166     30.8507     68.6771
  1109.7500     23.0286   -123.5730     30.2875     68.7368
  1110.0000     22.9614   -123.4957     29.4394     68.0937
  1110.2500     22.9107   -123.4847     28.2759     67.4516
  1110.5000     22.8382   -123.5289     26.7674     66.7256
  1110.7500     22.8186   -123.6052     24.9385     66.5853
  1111.0000     23.0132   -123.6766     22.9002     66.9284
  1111.2500     23.5147   -123.7022     20.8335     67.4628
  1111.5000     24.1564   -123.6560     18.9314     68.5703
  1111.7500     24.5372   -123.5385     17.3389     69.5145
  1112.0000     24.2896   -123.3743     16.1238     71.7245
  1112.2500     23.3816   -123.2015     15.2804     74.3279
  1112.5000     22.1261   -123.0626     14.7494     81.0925
  1112.7500     20.8813   -122.9944     14.4479     87.8114
  1113.0000     19.8737   -123.0137     14.3151    100.1256
  1113.2500     19.2429   -123.1059     14.3773    108.1301
  1113.5000     18.9862   -123.2305     14.8198    116.2352
  1113.7500     18.9087   -123.3401     16.0854    117.6738
  1114.0000     18.7767   -123.4008     19.1892    114.4624
  1114.2500     18.5237   -123.4013     27.2550    110.8372
  1114.5000     18.3035   -123.3520     59.0415    107.9032
  1114.7500     18.2939   -123.2786 100000.0000    109.4430
  1115.0000     18.4537   -123.2143 100000.0000    116.8304
  1115.2500     18.5429   -123.1850 100000.0000    123.6266
  1115.5000     18.3713   -123.1898 100000.0000    133.6826
  1115.7500     18.0161   -123.1913 100000.0000    138.9582
  1116.0000     17.7166   -123.1341 100000.0000    143.2328
  1116.2500     17.5442   -122.9817 100000.0000    143.3602
  1116.5000     17.3183   -122.7383 100000.0000    140.1498
  1116.7500     16.8540   -122.4395 100000.0000    136.6925
  1117.0000     16.2353   -122.1247 100000.0000    131.6013
  1117.2500     15.8188   -121.8199 100000.0000    129.3587
  1117.5000     15.8937   -121.5365 100000.0000    128.4736
  1117.7500     16.4201   -121.2794 100000.0000    129.1284
  1118.0000     17.1879   -121.0603 100000.0000    130.6625
  1118.2500     17.9457   -120.9088 100000.0000    131.5627
  1118.5000     18.2902   -120.8700 100000.0000    132.6340
  1118.7500     17.8578   -120.9843 100000.0000    133.3077
  1119.0000     16.7763   -121.2651 100000.0000    134.4555
  1119.2500     15.6357   -121.7042 100000.0000    135.2402
  1119.5000     14.8912   -122.3088 100000.0000    135.8936
  1119.7500     14.5265   -123.1578 100000.0000    135.7589
  1120.0000     14.3241   -124.4507 100000.0000    135.4968
  1120.2500     14.1620   -126.5508 100000.0000    136.3381
  1120.5000     13.9713   -130.0402 100000.0000    140.3264
  1120.7500     13.6226   -135.8006      3.8378    144.4485
  1121.0000     12.9647   -145.1131      1.5227    150.7169
  1121.2500     11.9004   -159.6925      0.8627    153.4899
  1121.5000     10.4271   -181.4426      0.5821    153.5039
  1121.7500      8.7206   -211.6338      0.4403    150.0248
  1122.0000      7.1379   -249.4597      0.3610    139.3239
  1122.2500      6.0196   -290.7765      0.3125    129.0941
  1122.5000      5.5238   -328.4664      0.2808    111.2413
  1122.7500      5.5709   -354.9402      0.2617     99.2131
  1123.0000      5.8629   -365.2701      0.2558     83.1168
  1123.2500      6.1191   -358.8588      0.2659     74.4141
  1123.5000      6.4141   -339.0622      0.2964     65.0787
  1123.7500      7.4315   -311.5428      0.3543     61.4394
  1124.0000     10.6270   -282.2677      0.4517     59.1059
  1124.2500     17.7047   -255.8974      0.6135     58.5960
  1124.5000     29.0297   -235.0629      0.8962     57.4434
  1124.7500     42.6840   -220.5269      1.4505     55.8348
  1125.0000     55.5715   -211.8779      2.7921     52.4966
  1125.2500     65.0271   -208.3435      8.1516     50.2276
  1125.5000     69.5430   -209.3436 100000.0000     47.4917
  1125.7500     68.8864   -214.6312 100000.0000     46.3407
  1126.0000     63.4749   -224.1681 100000.0000     46.1305
  1126.2500     53.7945   -237.9037 100000.0000     47.5025
  1126.5000     41.0846   -255.3137 100000.0000     52.8353
  1126.7500     27.8814   -274.5190 100000.0000     59.0075
  1127.0000     17.0500   -291.4463     18.0751     72.1613
  1127.2500     10.1916   -300.2381      3.3130     82.8346
  1127.5000      6.9583   -295.6161      1.4683     99.3276
  1127.7500      5.9179   -276.0153      0.8410    108.8933
  1128.0000      5.9043   -245.0561      0.5586    118.6588
  1128.2500      6.5116   -209.9474      0.4175    121.6544
  1128.5000      7.6628   -177.8770      0.3506    121.9121
  1128.7500      9.0850   -153.0300      0.3322    120.3970
  1129.0000     10.4434   -136.0335      0.3532    117.3167
  1129.2500     11.7436   -125.3555      0.4152    115.3019
  1129.5000     13.1651   -118.9726      0.5299    112.6384
  1129.7500     14.6521   -115.2668      0.7261    111.1410
  1130.0000     15.9487   -113.1881      1.0703    109.6556
  1130.2500     16.9327   -112.1155      1.7350    109.4255
  1130.5000     17.7210   -111.6798      3.2774    110.0447
  1130.7500     18.4368   -111.6473      8.7731    110.5735
  1131.0000     19.0947   -111.8809 100000.0000    110.5802
  1131.2500     19.7259   -112.3498 100000.0000    109.7196
  1131.5000     20.3703   -113.1255 100000.0000    106.7816
  1131.7500     21.0094   -114.3221 100000.0000    103.6120
  1132.0000     21.6796   -116.0096 100000.0000     97.3551
  1132.2500     22.5512   -118.1777 100000.0000     92.7173
  1132.5000     23.7634   -120.7698 100000.0000     85.8967
  1132.7500     25.2440   -123.7428 100000.0000     81.5185
  1133.0000     26.8477   -127.1003 100000.0000     74.9661
  1133.2500     28.5775   -130.8970 100000.0000     70.7451
  1133.5000     30.4314   -135.2332 100000.0000     65.6426
  1133.7500     32.1561   -140.2454 100000.0000     63.7904
  1134.0000     33.4412   -146.0948 100000.0000     64.0292
  1134.2500     34.2590   -152.9550 100000.0000     65.9792
  1134.5000     34.7754   -160.9976 100000.0000     70.1045
  1134.7500     35.0472   -170.3780 100000.0000     80.1542
  1135.0000     34.9908   -181.2278 100000.0000     82.1189
  1135.2500     34.5563   -193.6660     19.0278     81.9447
  1135.5000     33.7539   -207.8258      2.4293     80.0669
  1135.7500     32.4797   -223.8551      1.1569     85.4913
  1136.0000     30.4647   -241.8464      0.7406     81.1149
  1136.2500     27.4882   -261.6938      0.5614     77.6854
  1136.5000     23.5581   -283.0309      0.4848     72.9245
  1136.7500     18.9547   -305.3475      0.4636     70.8336
  1137.0000     14.3113   -328.0117      0.4699     69.7952
  1137.2500     10.5100   -349.8934      0.4754     70.0309
  1137.5000      8.1174   -369.0901      0.4514     70.4292
  1137.7500      6.9411   -383.6259      0.3863     70.0410
  1138.0000      6.4405   -392.7471      0.2964     67.7356
  1138.2500      6.4356   -397.3680      0.2084     64.9853
  1138.5000      7.1705   -399.2294      0.1395     59.9311
  1138.7500      8.8482   -399.8204      0.0938     56.9724
  1139.0000     11.0704   -399.9674      0.0666     54.8127
  1139.2500     12.6993   -399.9960      0.0515     55.3090
  1139.5000     12.6638   -399.9986      0.0434     58.9406
  1139.7500     10.9540   -399.9833      0.0392     63.2580
  1140.0000      8.6098   -399.8966      0.0369     72.4827
  1140.2500      6.7637   -399.5134      0.0353     80.0035
  1140.5000      5.8040   -398.1644      0.0338     91.6799
  1140.7500      5.4532   -394.3601      0.0321     98.6091
  1141.0000      5.3945   -385.7151      0.0304    106.1910
  1141.2500      5.6069   -369.7723      0.0290    108.7216
