~Version Information
VERS.                      2.0: CWLS Log ASCII Standard - VERSION 2.0
WRAP.                       NO: One line per depth step
~Well Information Block
STRT.FT                -6.5000: 
STOP.FT              2698.5000: 
STEP.FT                 0.2500: 
NULL.                -999.2500: 
COMP.          Pioneer Natural Resources: COMPANY
WELL.              Cluck 21-25: WELL
FLD.           Purgatorie River: FIELD
LOC.           91' FNL & 1834' FWL--: LOCATION
PROV.                       CO: PROVINCE
CNTY.               Las Animas: COUNTRY
SRVC.          Patterson Wireline: SERVICE COMPANY
DATE.          Mon Jun 13 14:54:35 2005: LOG DATE
UWI.           05 071 08397 00: UNIQUE WELL ID
~Curve Information Block
DEPT.FT            0 000 00 00: Depth
CCL.                          : Casing Collar Locator
TT3.usec                      : CBL 3' Travel Time
AMP3.mV                       : CBL 3' Amplitude
GR.GAPI                       : Gamma Ray
~Parameter Information Block
~A  Depth       CCL         TT3         AMP3         GR     
# ...
  2137.5000      0.0000    814.5809      3.2792    123.2905
  2137.7500      0.0000    824.6657      3.1258    121.9706
  2138.0000      0.0000    823.4018      3.0018    122.0869
  2138.2500      0.0000    806.3792      2.9144    123.7663
  2138.5000      0.0000    771.7628      2.8570    126.9261
  2138.7500      0.0000    725.4609      2.8445    130.7358
  2139.0000      0.0000    682.8047      2.9125    134.2808
  2139.2500      0.0000    659.7118      3.0725    137.7719
  2139.5000      0.0000    660.0836      3.2883    142.0021
  2139.7500      0.0000    673.7007      3.4979    146.1720
  2140.0000      0.0000    686.1686      3.6450    147.4375
  2140.2500      0.0000    689.0048      3.6944    143.6786
  2140.5000      0.0000    682.3834      3.6433    136.1163
  2140.7500      0.0000    672.8378      3.5242    128.2887
  2141.0000      0.0000    668.5425      3.3889    122.7536
  2141.2500      0.0000    673.4073      3.2740    119.3547
  2141.5000      0.0000    684.2324      3.1669    116.3763
  2141.7500      0.0000    693.8193      3.0155    112.9401
  2142.0000      0.0000    695.6675      2.7981    110.2120
  2142.2500      0.0000    685.3761      2.5835    110.2674
  2142.5000      0.0000    660.6112      2.4950    113.8122
  2142.7500      0.0000    623.2878      2.5956    119.1592
  2143.0000      0.0000    581.8806      2.8177    123.3803
  2143.2500      0.0000    549.0737      3.0229    124.3993
  2143.5000      0.0000    535.3356      3.1293    122.3337
  2143.7500      0.0000    543.5090      3.1643    119.3334
  2144.0000      0.0000    567.6392      3.1997    118.1339
  2144.2500      0.0000    596.6209      3.2670    120.2001
  2144.5000      0.0000    621.2229      3.3456    124.8016
  2144.7500      0.0000    638.5931      3.3938    129.6913
  2145.0000      0.0000    649.8662      3.3738    132.6224
  2145.2500      0.0000    656.2967      3.2797    132.4225
  2145.5000      0.0000    660.5410      3.1565    129.2743
  2145.7500      0.0000    668.2471      3.0707    124.4851
  2146.0000      0.0000    683.3602      3.0518    119.7823
  2146.2500      0.0000    703.0212      3.0749    116.4128
  2146.5000      0.0000    720.6567      3.0988    114.5708
  2146.7500      0.0000    732.8665      3.1116    113.2835
  2147.0000      0.0000    740.0320      3.1428    110.8494
  2147.2500      0.0000    741.8409      3.2357    106.0097
  2147.5000      0.0000    736.9747      3.4053     99.0380
  2147.7500      0.0000    727.7701      3.6133     91.4291
  2148.0000      2.0000    721.5209      3.7820     84.5930
  2148.2500      2.0000    724.7063      3.8432     79.2646
  2148.5000      0.0000    736.3575      3.7813     75.8632
  2148.7500      0.0000    747.9929      3.6291     74.5716
  2149.0000      0.0000    750.7263      3.4267     74.9736
  2149.2500      0.0000    742.8694      3.2030     76.1481
  2149.5000      0.0000    730.6913      2.9965     77.5732
  2149.7500      0.0000    721.8771      2.8676     80.0518
  2150.0000      0.0000    718.6686      2.8637     85.5072
  2150.2500      0.0000    717.4009      2.9601     95.2117
  2150.5000      0.0000    714.0188      3.0574    107.7542
  2150.7500      0.0000    708.7625      3.0591    119.1432
  2151.0000      0.0000    704.9881      2.9601    125.7521
  2151.2500      0.0000    704.8100      2.8576    127.2718
  2151.5000      0.0000    707.3164      2.8689    126.2052
  2151.7500      0.0000    710.3289      3.0276    124.5677
  2152.0000      0.0000    712.4727      3.2582    122.1203
  2152.2500      0.0000    713.5552      3.4516    118.1345
  2152.5000      0.0000    713.9586      3.5623    113.8721
  2152.7500      0.0000    714.1894      3.6268    112.5131
  2153.0000      0.0000    714.8116      3.6960    116.6215
  2153.2500      0.0000    716.5400      3.7716    125.6253
  2153.5000      0.0000    720.0477      3.8180    135.7844
  2153.7500      0.0000    725.1863      3.8100    142.9905
  2154.0000      0.0000    730.1925      3.7437    145.6781
  2154.2500      0.0000    732.3547      3.6209    144.9415
  2154.5000      0.0000    730.2557      3.4577    142.7408
  2154.7500      0.0000    725.1492      3.3060    140.8349
  2155.0000      0.0000    719.6878      3.2279    140.7052
  2155.2500      0.0000    715.6797      3.2354    142.9513
  2155.5000      0.0000    713.3677      3.2744    146.3456
  2155.7500      0.0000    712.2106      3.2711    148.2651
  2156.0000      0.0000    711.6876      3.1900    146.5178
  2156.2500      0.0000    711.4919      3.0629    140.6558
  2156.5000      0.0000    711.4418      2.9724    132.0461
  2156.7500      0.0000    711.4214      2.9892    123.5073
  2157.0000      0.0000    711.3600      3.1022    118.3593
  2157.2500      0.0000    711.0615      3.2178    118.5124
  2157.5000      0.0000    709.8196      3.2405    122.9362
  2157.7500      0.0000    706.0504      3.1532    128.2405
  2158.0000      0.0000    697.6767      3.0245    131.0573
  2158.2500      0.0000    683.9446      2.9432    130.2376
  2158.5000      0.0000    667.1900      2.9466    127.1780
  2158.7500      0.0000    651.6086      3.0113    124.1891
  2159.0000      0.0000    639.5551      3.0870    122.5168
  2159.2500      0.0000    629.7405      3.1143    121.6727
  2159.5000      0.0000    618.2842      3.0341    120.2982
  2159.7500      0.0000    599.9840      2.8317    117.5959
  2160.0000      0.0000    570.9888      2.5843    114.2369
  2160.2500      0.0000    533.7544      2.4321    111.7953
  2160.5000      0.0000    498.0563      2.4705    110.9277
  2160.7500      0.0000    475.0066      2.6692    110.4896
  2161.0000      0.0000    470.8408      2.9031    109.0535
  2161.2500      0.0000    485.4603      3.0574    106.9523
  2161.5000      0.0000    512.7399      3.1036    105.9580
  2161.7500      0.0000    541.2343      3.0935    107.1096
  2162.0000      0.0000    558.7141      3.1016    109.6550
  2162.2500      0.0000    559.5529      3.1723    111.9745
  2162.5000      0.0000    547.6149      3.2966    112.8240
  2162.7500      0.0000    532.0696      3.4218    111.9289
  2163.0000      0.0000    521.9894      3.4834    110.0071
  2163.2500      0.0000    523.8776      3.4498    108.1058
  2163.5000      0.0000    539.9006      3.3475    106.6996
  2163.7500      0.0000    566.2797      3.2370    105.4812
  2164.0000      0.0000    595.5338      3.1636    103.7143
  2164.2500      0.0000    622.0474      3.1315    100.4989
  2164.5000      0.0000    644.7877      3.1116     95.0855
  2164.7500      0.0000    664.7859      3.0672     87.3619
  2165.0000      0.0000    681.8608      2.9780     78.0451
  2165.2500      0.0000    694.6339      2.8596     68.4050
  2165.5000      0.0000    702.4594      2.7644     59.8016
  2165.7500      0.0000    706.2570      2.7517     53.2299
  2166.0000      0.0000    707.6897      2.8396     49.0559
  2166.2500      0.0000    708.1459      2.9875     47.1632
  2166.5000      0.0000    708.3710      3.1302     47.2509
  2166.7500      0.0000    708.6064      3.2171     48.8082
  2167.0000      0.0000    708.8296      3.2184     50.9386
  2167.2500      0.0000    708.9512      3.1293     52.6500
  2167.5000      0.0000    708.9271      2.9896     53.4444
  2167.7500      0.0000    708.7479      2.8769     53.3931
  2168.0000      0.0000    708.3413      2.8515     52.7516
  2168.2500      0.0000    707.4818      2.9133     51.9618
  2168.5000      0.0000    705.8982      3.0193     52.1230
  2168.7500      0.0000    703.6817      3.1324     54.9600
  2169.0000      0.0000    701.6588      3.2456     61.9015
  2169.2500      0.0000    701.0438      3.3718     72.9908
  2169.5000      0.0000    702.3901      3.5138     86.3953
  2169.7500      0.0000    705.0236      3.6446     98.8418
  2170.0000      0.0000    707.7125      3.7199    107.1914
  2170.2500      0.0000    709.6699      3.7083    110.5925
  2170.5000      0.0000    710.7714      3.6109    111.2114
  2170.7500      0.0000    711.1769      3.4744    112.3080
