~Version Information
VERS.                      2.0: CWLS Log ASCII Standard - VERSION 2.0
WRAP.                       NO: One line per depth step
~Well Information Block
STRT.FT               752.0000: 
STOP.FT              2474.2000: 
STEP.FT                 0.1000: 
NULL.                -999.2500: 
COMP.          Petrogulf Corporation: COMPANY
WELL.            Montoya 7-14V: WELL
FLD.           Purgatorie River: FIELD
LOC.           535' FSL & 491' FWL: LOCATION
CNTY.               Las Animas: COUNTY
SRVC.                         : SERVICE COMPANY
DATE.          Mon Aug 23 10:41:01 2004: LOG DATE
UWI.           05 071 08019 00: UNIQUE WELL ID
STAT.                 Colorado: STATE
~Curve Information Block
DEPT.FT            0 000 00 00: Depth
DCAL.in                       : CDL Caliper
RHOB.g/cc                     : CDL Bulk Density
RHOC.g/cc                     : CDL Density Correction
DPOR.pu                       : CDL Density Porosity
GR.GAPI                       : Gamma Ray
NPOR.pu                       : Neutron Porosity
~Parameter Information Block
~A  Depth       DCAL        RHOB        RHOC        DPOR         GR         NPOR    
# ...
   761.6000   -999.2500   -999.2500   -999.2500   -999.2500    253.3636     42.9215
   761.7000   -999.2500   -999.2500   -999.2500   -999.2500    241.9896     42.8617
   761.8000   -999.2500   -999.2500   -999.2500   -999.2500    234.3805     42.7076
   761.9000   -999.2500   -999.2500   -999.2500   -999.2500    233.6456     42.7905
   762.0000   -999.2500   -999.2500   -999.2500   -999.2500    237.8623     42.9630
   762.1000   -999.2500   -999.2500   -999.2500   -999.2500    242.0643     42.8591
   762.2000   -999.2500   -999.2500   -999.2500   -999.2500    245.8445     42.6816
   762.3000   -999.2500   -999.2500   -999.2500   -999.2500    248.0809     42.8165
   762.4000   -999.2500   -999.2500   -999.2500   -999.2500    245.5175     43.1202
   762.5000   -999.2500   -999.2500   -999.2500   -999.2500    242.3436     43.3214
   762.6000   -999.2500   -999.2500   -999.2500   -999.2500    243.7015     43.4465
   762.7000   -999.2500   -999.2500   -999.2500   -999.2500    248.2512     43.4738
   762.8000   -999.2500   -999.2500   -999.2500   -999.2500    253.2205     43.4695
   762.9000   -999.2500   -999.2500   -999.2500   -999.2500    257.3969     43.5989
   763.0000   -999.2500   -999.2500   -999.2500   -999.2500    261.6316     43.7558
   763.1000   -999.2500   -999.2500   -999.2500   -999.2500    264.0707     43.8311
   763.2000   -999.2500   -999.2500   -999.2500   -999.2500    260.6082     43.7838
   763.3000   -999.2500   -999.2500   -999.2500   -999.2500    253.3173     43.4895
   763.4000   -999.2500   -999.2500   -999.2500   -999.2500    247.8717     42.9946
   763.5000   -999.2500   -999.2500   -999.2500   -999.2500    246.1719     42.6343
   763.6000   -999.2500   -999.2500   -999.2500   -999.2500    245.4592     42.5962
   763.7000   -999.2500   -999.2500   -999.2500   -999.2500    242.5441     42.6515
   763.8000   -999.2500   -999.2500   -999.2500   -999.2500    236.8308     42.6696
   763.9000   -999.2500   -999.2500   -999.2500   -999.2500    228.8588     42.8030
   764.0000   -999.2500   -999.2500   -999.2500   -999.2500    222.2840     42.9906
   764.1000   -999.2500   -999.2500   -999.2500   -999.2500    219.1991     43.0614
   764.2000   -999.2500   -999.2500   -999.2500   -999.2500    214.6575     43.1076
   764.3000   -999.2500   -999.2500   -999.2500   -999.2500    206.0838     43.2294
   764.4000   -999.2500   -999.2500   -999.2500   -999.2500    196.9247     43.3059
   764.5000   -999.2500   -999.2500   -999.2500   -999.2500    191.7360     43.3035
   764.6000   -999.2500   -999.2500   -999.2500   -999.2500    191.5323     43.3524
   764.7000   -999.2500   -999.2500   -999.2500   -999.2500    193.5534     43.5336
   764.8000      2.4924   -999.2500      0.2660   -999.2500    192.5767     43.7503
   764.9000      2.4924   -999.2500      0.2609   -999.2500    188.6415     43.8927
   765.0000      2.4974   -999.2500      0.2698   -999.2500    188.8033     44.0199
   765.1000      2.4974   -999.2500      0.2874   -999.2500    193.0959     44.2268
   765.2000      2.4974   -999.2500      0.2897   -999.2500    190.7263     44.2843
   765.3000      2.4979      2.0377      0.3051     37.1113    180.3499     43.9235
   765.4000      2.4979      2.0694      0.3142     35.1889    174.6998     43.5205
   765.5000      2.4977      2.1010      0.3274     33.2697    180.2966     43.5568
   765.6000      2.4977      2.1350      0.3064     31.2109    191.0306     43.7409
   765.7000      2.4977      2.1771      0.3387     28.6597    200.7883     43.6323
   765.8000      2.4888      2.2211      0.3713     25.9939    208.5481     43.4337
   765.9000      2.4888      2.2540      0.3915     23.9980    215.3554     43.4398
   766.0000      2.4895      2.2707      0.3874     22.9905    218.8869     43.5275
   766.1000      2.4895      2.2727      0.3925     22.8663    217.5333     43.5089
   766.2000      2.4895      2.2646      0.3789     23.3575    215.7871     43.3974
   766.3000      2.4930      2.2514      0.3741     24.1567    213.9669     43.2822
   766.4000      2.4930      2.2319      0.3772     25.3399    205.6600     43.1017
   766.5000      2.4952      2.2024      0.3448     27.1300    193.6383     42.8530
   766.6000      2.4952      2.1670      0.3628     29.2745    189.8186     42.7440
   766.7000      2.4952      2.1303      0.3705     31.4962    195.2989     42.7653
   766.8000      2.4906      2.0929      0.3428     33.7649    201.0309     42.8117
   766.9000      2.4906      2.0579      0.3312     35.8821    203.3451     43.0954
   767.0000      2.4943      2.0320      0.3228     37.4562    206.5177     43.6349
   767.1000      2.4943      2.0180      0.3283     38.3052    213.9103     43.9495
   767.2000      2.4943      2.0124      0.3183     38.6411    219.1695     43.7962
   767.3000      2.4955      2.0127      0.3308     38.6251    218.1566     43.5387
   767.4000      2.4955      2.0195      0.3355     38.2136    216.2292     43.6198
   767.5000      2.4989      2.0337      0.3514     37.3508    216.2889     43.9418
   767.6000      2.4989      2.0551      0.3591     36.0520    216.1984     44.0720
   767.7000      2.4989      2.0812      0.3813     34.4726    215.7962     44.0245
   767.8000      2.4953      2.1083      0.3753     32.8331    216.2991     44.1135
   767.9000      2.4953      2.1344      0.3931     31.2512    220.7688     44.2579
   768.0000      2.4964      2.1620      0.3892     29.5748    230.1421     44.2160
   768.1000      2.4964      2.1953      0.4048     27.5587    238.6017     44.0283
   768.2000      2.4964      2.2315      0.4001     25.3623    245.7881     43.7181
   768.3000      2.4924      2.2653      0.4280     23.3165    254.4949     43.3715
   768.4000      2.4924      2.2938      0.4505     21.5853    259.0162     43.2334
   768.5000      2.4924      2.3169      0.4280     20.1872    259.9384     43.1653
   768.6000      2.4924      2.3353      0.4353     19.0731    266.8727     42.9233
   768.7000      2.4924      2.3479      0.4546     18.3120    279.0926     42.7473
   768.8000      2.4885      2.3525      0.4384     18.0313    285.7039     42.8942
   768.9000      2.4885      2.3513      0.4260     18.1057    282.6750     43.1385
   769.0000      2.4858      2.3484      0.4126     18.2763    281.7684     43.2045
   769.1000      2.4858      2.3450      0.4128     18.4872    291.7052     43.1121
   769.2000      2.4858      2.3422      0.4055     18.6547    303.9357     42.9328
   769.3000      2.4848      2.3433      0.4168     18.5880    314.5735     42.7662
   769.4000      2.4848      2.3469      0.4005     18.3726    330.8415     42.6973
   769.5000      2.4829      2.3502      0.3829     18.1724    349.8007     42.7566
   769.6000      2.4829      2.3514      0.3929     18.0942    363.3752     42.9409
   769.7000      2.4829      2.3519      0.3539     18.0640    369.2752     43.0906
   769.8000      2.4816      2.3568      0.3637     17.7716    364.0124     42.9544
   769.9000      2.4816      2.3665      0.3481     17.1836    352.1252     42.6711
   770.0000      2.4789      2.3790      0.3579     16.4269    343.9376     42.6489
   770.1000      2.4789      2.3895      0.3645     15.7865    339.8594     42.8854
   770.2000      2.4789      2.3895      0.3470     15.7849    333.6125     43.0143
   770.3000      2.4768      2.3744      0.3285     16.7045    322.8766     42.9943
   770.4000      2.4768      2.3514      0.2757     18.0941    309.9224     43.0416
   770.5000      2.4791      2.3368      0.2642     18.9812    299.4736     43.0497
   770.6000      2.4791      2.3360      0.2799     19.0314    292.5502     42.7976
   770.7000      2.4791      2.3380      0.2826     18.9074    285.4671     42.4353
   770.8000      2.4773      2.3314      0.2834     19.3103    278.6214     42.2165
   770.9000      2.4773      2.3156      0.2502     20.2693    276.0570     42.1060
   771.0000      2.4792      2.2982      0.2377     21.3227    277.1571     41.9095
   771.1000      2.4792      2.2841      0.2347     22.1772    277.0889     41.7378
