~Version Information
VERS.                      2.0: CWLS Log ASCII Standard - VERSION 2.0
WRAP.                       NO: One line per depth step
~Well Information Block
STRT.FT                -3.2500: 
STOP.FT              2202.2500: 
STEP.FT                 0.2500: 
NULL.                -999.2500: 
COMP.          Pioneer Natural Resources: COMPANY
WELL.           Parklane 43-34: WELL
FLD.           Purgatorie River: FIELD
LOC.           1704' FSL & 1119' FEL--: LOCATION
PROV.                       CO: PROVINCE
CNTY.               Las Animas: COUNTRY
SRVC.                         : SERVICE COMPANY
DATE.          Thu Oct 14 14:49:09 2004: LOG DATE
UWI.           005 071 08162  : UNIQUE WELL ID
~Curve Information Block
DEPT.FT            0 000 00 00: Depth
GR.GAPI                       : Gamma Ray
CCL.                          : Casing Collar Locator
TT3.usec                      : CBL 3' Travel Time
AMP3.mV                       : CBL 3' Amplitude
~Parameter Information Block
~A  Depth        GR         CCL         TT3         AMP3    
# ...
   867.7500    100.1388      0.0000    809.1186      4.3051
   868.0000    102.3896      0.0000    788.5981      4.2257
   868.2500    109.1330      0.0000    772.3576      4.1342
   868.5000    118.0980      0.0000    762.2343      4.0291
   868.7500    125.1329      0.0000    757.2918      3.9188
   869.0000    127.4945      0.0000    755.3650      3.8209
   869.2500    125.7592      0.0000    754.7427      3.7485
   869.5000    122.2794      0.0000    754.6371      3.7026
   869.7500    118.7099      0.0000    754.7385      3.6760
   870.0000    115.6710      0.0000    754.6454      3.6649
   870.2500    113.8902      0.0000    753.5383      3.6766
   870.5000    114.6033      0.0000    750.0489      3.7256
   870.7500    118.8875      0.0000    742.5505      3.8188
   871.0000    126.8323      0.0000    730.2355      3.9468
   871.2500    137.0698      0.0000    714.3821      4.0895
   871.5000    146.9731      0.0000    698.3241      4.2247
   871.7500    153.6959      0.0000    685.7013      4.3332
   872.0000    155.5970      0.0000    678.6658      4.4045
   872.2500    153.1295      0.0000    677.6749      4.4422
   872.5000    148.4787      0.0000    682.3807      4.4587
   872.7500    144.0513      0.0000    692.0625      4.4606
   873.0000    140.9743      0.0000    705.2693      4.4442
   873.2500    138.8465      0.0000    719.6414      4.4084
   873.5000    136.8780      0.0000    732.5543      4.3674
   873.7500    135.2182      0.0000    742.1776      4.3483
   874.0000    134.9637      0.0000    748.1149      4.3755
   874.2500    136.6629      0.0000    751.1748      4.4552
   874.5000    139.1000      0.0000    752.5630      4.5691
   874.7500    139.9508      0.0000    753.1915      4.6830
   875.0000    137.5334      0.0000    753.4790      4.7657
   875.2500    131.7458      0.0000    753.5070      4.8047
   875.5000    123.9606      0.0000    753.2607      4.8068
   875.7500    116.6445      0.0000    752.7949      4.7874
   876.0000    112.3406      0.0000    752.2842      4.7584
   876.2500    111.9640      0.0000    752.0875      4.7129
   876.5000    114.1888      0.0000    752.9239      4.6074
   876.7500    116.9314      0.0000    756.0449      4.3535
   877.0000    119.2875      0.0000    762.7549      3.8583
   877.2500    121.8510      0.0000    772.7576      3.1379
   877.5000    125.3572      0.0000    782.6027      2.4202
   877.7500    129.4338      0.0000    787.0726      2.0548
   878.0000    132.8754      0.0000    783.5604      2.2248
   878.2500    135.0378      0.0000    774.6216      2.7754
   878.5000    136.8231      0.0000    765.3641      3.3775
   878.7500    140.0782      0.0000    759.0873      3.8061
   879.0000    145.6479      0.0000    755.9906      4.0255
   879.2500    152.0256      0.0000    754.8008      4.0957
   879.5000    156.4253      0.0000    754.3915      4.0773
   879.7500    157.1977      0.0000    754.1935      4.0095
   880.0000    154.7731      0.0000    754.0152      3.9222
   880.2500    150.5520      0.0000    753.8785      3.8424
   880.5000    145.7108      0.0000    753.8524      3.7933
   880.7500    141.1439      0.0000    753.8608      3.7945
   881.0000    137.7395      0.0000    753.5382      3.8637
   881.2500    136.1663      0.0000    752.3927      4.0096
   881.5000    136.4917      0.0000    750.3471      4.2155
   881.7500    138.2259      0.0000    748.2136      4.4314
   882.0000    140.8220      0.0000    747.3613      4.5878
   882.2500    143.9278      0.0000    748.6288      4.6279
   882.5000    146.8163      0.0000    751.7076      4.5346
   882.7500    147.9560      0.0000    755.6317      4.3364
   883.0000    145.9339      0.0000    759.3849      4.0865
   883.2500    140.6955      0.0000    761.7877      3.8324
   883.5000    133.0742      0.0000    761.6838      3.5975
   883.7500    123.1315      0.0000    759.3180      3.3879
   884.0000    110.0789      0.0000    757.5132      3.2143
   884.2500     94.3902      0.0000    760.2602      3.1045
   884.5000     79.1515      0.0000    768.8891      3.0933
   884.7500     68.3797      0.0000    779.5335      3.2031
   885.0000     64.2118      0.0000    785.5317      3.4401
   885.2500     66.3313      0.0000    783.2239      3.8063
   885.5000     73.6002      0.0000    774.8393      4.2998
   885.7500     85.0047      0.0000    765.3927      4.9064
   886.0000     98.9656      0.0000    757.7977      5.6018
   886.2500    112.9176      0.0000    751.3329      6.3669
   886.5000    124.3699      0.0000    743.4573      7.1860
   886.7500    132.0947      0.0000    732.2904      8.0167
   887.0000    136.0706      0.0000    718.1765      8.7626
   887.2500    136.9295      0.0000    703.6662      9.2804
   887.5000    136.0685      0.0000    691.7829      9.4363
   887.7500    135.7907      0.0000    683.8649      9.1894
   888.0000    138.1539      0.0000    679.1805      8.6319
   888.2500    142.9316      0.0000    676.5106      7.9346
   888.5000    146.9200      0.0000    675.6934      7.2430
   888.7500    146.2023      0.0000    677.7090      6.6264
   889.0000    139.6590      0.0000    683.6476      6.1031
   889.2500    129.8656      0.0000    693.3802      5.6815
   889.5000    120.3970      0.0000    704.9588      5.3703
   889.7500    112.8863      0.0000    715.7857      5.1691
   890.0000    106.5846      0.0000    724.7480      5.0636
   890.2500     99.7548      0.0000    732.8766      5.0328
   890.5000     91.2590      0.0000    741.8259      5.0562
   890.7500     81.6378      0.0000    752.2578      5.1106
   891.0000     73.2354      0.0000    763.5774      5.1639
   891.2500     68.8987      0.0000    774.4596      5.1865
   891.5000     69.7232      0.0000    783.5525      5.1730
   891.7500     73.7654      0.0000    790.2577      5.1435
   892.0000     77.3887      0.0000    795.1298      5.1212
   892.2500     78.1634      0.0000    799.3624      5.1145
   892.5000     76.1770      0.0000    803.6019      5.1174
   892.7500     72.7424      0.0000    807.0406      5.1186
   893.0000     69.0421      0.0000    807.8535      5.1086
   893.2500     66.5621      0.0000    804.8421      5.0865
   893.5000     67.5407      0.0000    798.5260      5.0588
   893.7500     73.6311      0.0000    790.6655      5.0280
   894.0000     84.2558      0.0000    783.3260      4.9864
   894.2500     96.7162      0.0000    778.3196      4.9309
   894.5000    107.6385      0.0000    776.2469      4.8777
   894.7500    114.4512      0.0000    775.4838      4.8533
   895.0000    116.5825      0.0000    773.1337      4.8744
   895.2500    115.9023      0.0000    767.8822      4.9434
   895.5000    115.3747      0.0000    761.5634      5.0516
   895.7500    116.6494      0.0000    757.4075      5.1770
   896.0000    119.2153      0.0000    757.0397      5.2854
   896.2500    121.9789      0.0000    759.4217      5.3388
   896.5000    124.8367      0.0000    762.2481      5.2946
   896.7500    128.0275      0.0000    763.9069      5.1167
   897.0000    130.5491      0.0000    764.2596      4.8233
   897.2500    130.4358      0.0000    764.1276      4.5130
   897.5000    126.9485      0.0000    764.3840      4.2984
   897.7500    121.9105     -2.0000    765.2896      4.2169
   898.0000    118.5119      0.0000    766.4828      4.2339
   898.2500    118.7671      0.0000    768.1436      4.3148
   898.5000    121.9975      0.0000    771.9891      4.4699
   898.7500    125.6925      0.0000    779.5576      4.7356
   899.0000    127.8713      0.0000    788.7442      5.1135
   899.2500    128.5582      0.0000    793.7042      5.5175
   899.5000    129.1187      0.0000    789.9612      5.8031
   899.7500    130.6800      0.0000    778.9532      5.8870
   900.0000    133.4119      0.0000    766.3875      5.8186
   900.2500    136.7921      0.0000    757.0041      5.7056
   900.5000    139.9360      0.0000    751.9440      5.6051
   900.7500    141.7103      0.0000    750.0394      5.5145
   901.0000    141.1658      0.0000    749.9875      5.4286
