~Version Information
VERS.                      2.0: CWLS Log ASCII Standard - VERSION 2.0
WRAP.                       NO: One line per depth step
~Well Information Block
STRT.FT               491.0000: 
STOP.FT              1055.5000: 
STEP.FT                 0.1000: 
NULL.                -999.2500: 
COMP.          Evergreen Operating Corporation: COMPANY
WELL.              Sunset 24-3: WELL
FLD.           Purgatorie River: FIELD
LOC.           467' FSL & 2262' FWL: LOCATION
PROV.                 Colorado: PROVINCE
CNTY.               Las Animas: COUNTRY
SRVC.                         : SERVICE COMPANY
DATE.          Wed Sep 22 14:05:09 2004: LOG DATE
UWI.           05 071 08158 00: UNIQUE WELL ID
~Curve Information Block
DEPT.FT            0 000 00 00: Depth
DCAL.in                       : CDL Caliper
RHOB.g/cc                     : CDL Bulk Density
RHOC.g/cc                     : CDL Density Correction
DPOR.pu                       : CDL Density Porosity
GR.GAPI                       : Gamma Ray
NPOR.pu                       : Neutron Porosity
~Parameter Information Block
~A  Depth       DCAL        RHOB        RHOC        DPOR         GR         NPOR    
# ...
   999.8000      7.8667      2.5960      0.0780      3.2754    125.1918     19.5077
   999.9000      7.8667      2.5936      0.0848      3.4179    128.8546     19.0487
  1000.0000      7.8610      2.5846      0.0461      3.9625    131.6593     18.2056
  1000.1000      7.8610      2.5780      0.0418      4.3618    130.8648     17.6778
  1000.2000      7.8610      2.5836      0.0546      4.0230    128.4820     17.7801
  1000.3000      7.8638      2.5976      0.0679      3.1757    122.7127     18.1140
  1000.4000      7.8638      2.6097      0.0335      2.4408    114.1926     18.3662
  1000.5000      7.8936      2.6152      0.0699      2.1091    110.1047     18.4157
  1000.6000      7.8936      2.6152      0.0526      2.1115    114.7571     18.0478
  1000.7000      7.8936      2.6155      0.0846      2.0902    123.8221     17.5171
  1000.8000      7.8778      2.6172      0.0784      1.9861    128.2303     17.3591
  1000.9000      7.8778      2.6127      0.0697      2.2630    123.1361     17.6138
  1001.0000      7.8598      2.6018      0.0416      2.9200    115.7835     17.6218
  1001.1000      7.8598      2.5983      0.0389      3.1340    113.7143     17.3262
  1001.2000      7.8598      2.6124      0.0325      2.2805    116.5605     17.4920
  1001.3000      7.8566      2.6341      0.0978      0.9632    120.7182     18.2103
  1001.4000      7.8566      2.6398      0.1224      0.6161    125.4925     19.1067
  1001.5000      7.8445      2.6233      0.0700      1.6156    130.1603     20.2374
  1001.6000      7.8445      2.6031      0.0430      2.8449    128.6398     21.6254
  1001.7000      7.8445      2.5926      0.0500      3.4797    121.7594     22.7506
  1001.8000      7.8660      2.5855      0.0520      3.9111    117.8456     23.0651
  1001.9000      7.8660      2.5731      0.0083      4.6617    117.9252     22.7151
  1002.0000      7.8654      2.5608      0.0177      5.4065    119.7322     21.9785
  1002.1000      7.8654      2.5596      0.0345      5.4809    125.8375     20.8458
  1002.2000      7.8654      2.5800      0.0175      4.2426    134.4699     19.5462
  1002.3000      7.8880      2.6196      0.0923      1.8436    136.2104     18.6598
  1002.4000      7.8880      2.6528      0.1295     -0.1712    130.5573     18.4681
  1002.5000      7.8609      2.6609      0.1286     -0.6630    125.0322     18.7619
  1002.6000      7.8609      2.6548      0.0907     -0.2882    120.7812     19.0055
  1002.7000      7.8609      2.6521      0.1393     -0.1257    115.1865     18.5025
  1002.8000      7.8565      2.6502      0.1416     -0.0093    108.5853     17.5473
  1002.9000      7.8565      2.6413      0.0965      0.5280    104.0229     17.0343
  1003.0000      7.8554      2.6284      0.0926      1.3095    102.7945     16.9117
  1003.1000      7.8554      2.6159      0.0758      2.0671     99.2186     16.8759
  1003.2000      7.8554      2.6089      0.0606      2.4889     91.1488     17.0945
  1003.3000      7.8551      2.6097      0.0836      2.4436     86.1125     17.8789
  1003.4000      7.8551      2.6122      0.0858      2.2926     89.0474     19.2064
  1003.5000      7.8387      2.6146      0.0593      2.1441     96.9219     20.0681
  1003.6000      7.8387      2.6168      0.1074      2.0125    103.1582     19.9316
  1003.7000      7.8387      2.6123      0.1038      2.2821    103.6376     19.5939
  1003.8000      7.8365      2.6017      0.0851      2.9264    101.3120     19.3817
  1003.9000      7.8365      2.5895      0.0904      3.6666    103.7160     19.0557
  1004.0000      7.8979      2.5778      0.0450      4.3776    110.1394     18.6661
  1004.1000      7.8979      2.5692      0.0825      4.8963    114.2273     18.4473
  1004.2000      7.8979      2.5575      0.0774      5.6078    113.6179     18.4307
  1004.3000      7.9195      2.5381      0.0411      6.7812    110.4649     18.4270
  1004.4000      7.9195      2.5227     -0.0112      7.7152    109.8874     18.0896
  1004.5000      7.9350      2.5232      0.0346      7.6858    114.6066     17.4988
  1004.6000      7.9350      2.5381      0.0574      6.7820    121.4103     17.2608
  1004.7000      7.9350      2.5561      0.0673      5.6920    122.3885     17.4664
  1004.8000      7.8673      2.5630      0.0963      5.2726    111.2272     17.6092
  1004.9000      7.8673      2.5589      0.0449      5.5215     94.3516     17.5608
  1005.0000      7.8518      2.5621      0.0417      5.3258     85.5012     17.5654
  1005.1000      7.8518      2.5803      0.0979      4.2257     86.6821     17.7890
  1005.2000      7.8518      2.5944      0.1363      3.3696     90.6248     18.2742
  1005.3000      7.8466      2.5904      0.0767      3.6128     95.1340     18.8388
  1005.4000      7.8466      2.5801      0.1024      4.2335    102.5089     19.3710
  1005.5000      7.8590      2.5790      0.0507      4.3022    110.2415     20.0584
  1005.6000      7.8590      2.5903      0.0643      3.6194    114.1581     20.6917
  1005.7000      7.8590      2.6010      0.0654      2.9720    115.9038     20.8294
  1005.8000      7.8947      2.5961      0.0989      3.2678    117.2635     20.7897
  1005.9000      7.8947      2.5814      0.0772      4.1601    117.7889     20.9678
  1006.0000      7.8896      2.5769      0.0517      4.4289    119.4899     21.3915
  1006.1000      7.8896      2.5885      0.1069      3.7283    121.0308     22.2100
  1006.2000      7.8896      2.6001      0.1083      3.0265    120.0216     23.1902
  1006.3000      7.8463      2.5996      0.0979      3.0572    118.6968     23.6485
  1006.4000      7.8463      2.5944      0.0714      3.3721    118.0439     23.0332
  1006.5000      7.8525      2.5992      0.0922      3.0783    117.1238     21.4648
  1006.6000      7.8525      2.6184      0.0612      1.9167    114.0968     20.1702
  1006.7000      7.8525      2.6407      0.1211      0.5650    110.9132     19.7256
  1006.8000      7.8360      2.6481      0.1766      0.1164    112.4800     19.4785
  1006.9000      7.8360      2.6339      0.1659      0.9784    115.5971     19.2654
  1007.0000      7.8574      2.6093      0.0631      2.4643    116.0028     19.1951
  1007.1000      7.8574      2.5912      0.0372      3.5617    116.8203     19.1821
  1007.2000      7.8574      2.5816      0.0564      4.1428    118.2107     19.4076
  1007.3000      7.8586      2.5726      0.0770      4.6925    116.6535     19.7745
  1007.4000      7.8586      2.5672      0.0667      5.0157    114.0953     20.1787
  1007.5000      7.8543      2.5752      0.0725      4.5359    111.9621     21.1427
  1007.6000      7.8543      2.5937      0.0861      3.4098    107.2716     22.4654
  1007.7000      7.8543      2.6133      0.1168      2.2236    104.0290     22.5513
  1007.8000      7.8103      2.6269      0.1367      1.3999    108.5340     21.2245
  1007.9000      7.8103      2.6255      0.1438      1.4848    116.4407     20.4592
  1008.0000      7.8268      2.6076      0.1235      2.5670    121.2297     21.0763
  1008.1000      7.8268      2.5920      0.1175      3.5161    124.4326     21.8201
  1008.2000      7.8268      2.5928      0.1241      3.4653    128.8682     21.5337
  1008.3000      7.8038      2.5929      0.1536      3.4606    133.0319     20.6083
  1008.4000      7.8038      2.5698      0.1328      4.8627    133.3670     20.1624
  1008.5000      7.8599      2.5385      0.0384      6.7555    127.8657     20.5376
  1008.6000      7.8599      2.5320      0.0583      7.1528    120.8286     20.8046
  1008.7000      7.8599      2.5544      0.0893      5.7956    120.2451     20.3242
  1008.8000      7.9144      2.5890      0.1000      3.6982    126.6455     19.6231
  1008.9000      7.9144      2.6292      0.1533      1.2579    130.7818     18.8593
  1009.0000      7.7767      2.6730      0.2302     -1.3955    127.8595     17.9620
  1009.1000      7.7767      2.7097      0.2413     -3.6204    122.1740     17.3468
  1009.2000      7.7767      2.7319      0.2179     -4.9618    117.6647     16.9394
  1009.3000      7.7227      2.7325      0.2430     -4.9981    112.6975     16.1195
