~Version Information
VERS.                      2.0: CWLS Log ASCII Standard - VERSION 2.0
WRAP.                       NO: One line per depth step
~Well Information Block
STRT.FT               260.0000: 
STOP.FT              2269.5000: 
STEP.FT                 0.1000: 
NULL.                -999.2500: 
COMP.          Pioneer Natural Resources: COMPANY
WELL.            Moo Moo 31-36: WELL
FLD.           Purgatoire River: FIELD
LOC.           612' FNL & 2326' FEL: LOCATION
PROV.                 Colorado: PROVINCE
CNTY.               Las Animas: COUNTRY
SRVC.                Patterson: SERVICE COMPANY
DATE.          Fri Jun 17 07:04:43 2005: LOG DATE
UWI.           05 071 08395 00: UNIQUE WELL ID
~Curve Information Block
DEPT.FT            0 000 00 00: Depth
DCAL.in                       : CDL Caliper
RHOB.g/cc                     : CDL Bulk Density
RHOC.g/cc                     : CDL Density Correction
DPOR.pu                       : CDL Density Porosity
GR.GAPI                       : Gamma Ray
NPOR.pu                       : Neutron Porosity
~Parameter Information Block
~A  Depth       DCAL        RHOB        RHOC        DPOR         GR         NPOR    
# ...
  2122.4000      7.9817      2.5386      0.0374      6.7487     57.3099     15.9517
  2122.5000      7.9794      2.5476      0.0543      6.2057     60.1850     15.3858
  2122.6000      7.9794      2.5711      0.0380      4.7789     62.2277     14.7424
  2122.7000      7.9794      2.5970      0.0993      3.2139     63.5370     14.6369
  2122.8000      7.9855      2.6026      0.0848      2.8714     65.6436     14.8711
  2122.9000      7.9855      2.5887      0.0690      3.7128     67.2935     14.8285
  2123.0000      7.9882      2.5703      0.0478      4.8275     65.9348     14.7075
  2123.1000      7.9882      2.5584      0.0421      5.5492     59.8304     14.7363
  2123.2000      7.9882      2.5550      0.0540      5.7582     52.6926     14.7410
  2123.3000      7.9894      2.5581      0.0164      5.5723     50.2444     14.5629
  2123.4000      7.9894      2.5654      0.0513      5.1246     51.3437     14.2743
  2123.5000      7.9925      2.5645      0.0260      5.1829     52.9016     14.0332
  2123.6000      7.9925      2.5527      0.0078      5.8942     54.2572     13.5280
  2123.7000      7.9925      2.5442      0.0219      6.4137     53.5810     12.9494
  2123.8000      7.9924      2.5399      0.0294      6.6730     51.6973     13.1137
  2123.9000      7.9924      2.5395      0.0007      6.6975     53.0667     13.9427
  2124.0000      7.9992      2.5544      0.0096      5.7944     56.9130     14.4265
  2124.1000      7.9992      2.5858      0.0418      3.8936     58.1363     13.9913
  2124.2000      7.9992      2.6237      0.0435      1.5935     55.3393     13.3890
  2124.3000      7.9762      2.6582      0.0811     -0.4990     51.1928     13.2091
  2124.4000      7.9762      2.6768      0.1373     -1.6215     49.4008     13.1530
  2124.5000      7.9713      2.6742      0.1330     -1.4691     50.5530     12.9744
  2124.6000      7.9713      2.6574      0.1314     -0.4462     50.3766     12.8461
  2124.7000      7.9713      2.6405      0.1058      0.5774     45.7485     12.9095
  2124.8000      7.9602      2.6372      0.1230      0.7771     40.2046     13.0127
  2124.9000      7.9602      2.6438      0.1622      0.3785     38.1156     12.7442
  2125.0000      7.9627      2.6522      0.1011     -0.1311     38.5273     12.4759
  2125.1000      7.9627      2.6653      0.1125     -0.9276     38.7710     13.0467
  2125.2000      7.9627      2.6758      0.1524     -1.5665     39.5713     13.9044
  2125.3000      7.9627      2.6692      0.1117     -1.1656     41.9627     14.0209
  2125.4000      7.9627      2.6551      0.0935     -0.3099     46.1752     13.7418
  2125.5000      7.9633      2.6466      0.1012      0.2084     49.1035     13.6785
  2125.6000      7.9633      2.6233      0.0908      1.6158     47.7586     13.6297
  2125.7000      7.9633      2.5715      0.0168      4.7592     46.1567     13.3557
  2125.8000      7.9445      2.5209      0.0131      7.8267     48.1069     13.2638
  2125.9000      7.9445      2.4975      0.0374      9.2454     51.0069     13.5321
  2126.0000      7.9370      2.4876      0.0946      9.8438     52.3023     14.1386
  2126.1000      7.9370      2.4755      0.0321     10.5778     55.2475     15.0264
  2126.2000      7.9370      2.4728      0.0179     10.7402     62.1070     16.0674
  2126.3000      7.8957      2.4837      0.0855     10.0801     70.9522     17.3293
  2126.4000      7.8957      2.4924      0.0722      9.5523     78.9397     18.5843
  2126.5000      7.8763      2.4890      0.1292      9.7602     85.2516     19.6696
  2126.6000      7.8763      2.4759      0.0690     10.5509     89.7922     20.7382
  2126.7000      7.8763      2.4640      0.0798     11.2714     90.4024     21.6398
  2126.8000      7.8569      2.4555      0.1059     11.7853     87.1395     22.2881
  2126.9000      7.8569      2.4510      0.0760     12.0594     82.0589     23.2627
  2127.0000      7.9036      2.4571      0.0889     11.6929     75.5464     24.6546
  2127.1000      7.9036      2.4634      0.1582     11.3098     68.9542     25.4482
  2127.2000      7.9036      2.4517      0.0784     12.0201     64.8171     25.1216
  2127.3000      7.9566      2.4196      0.0978     13.9650     61.3996     24.6767
  2127.4000      7.9566      2.3751      0.0603     16.6599     56.5163     24.9266
  2127.5000      7.9837      2.3239      0.0744     19.7662     53.9521     25.3147
  2127.6000      7.9837      2.2544      0.0254     23.9766     56.8835     25.4738
  2127.7000      7.9837      2.1526      0.0105     30.1483     61.8034     26.0418
  2127.8000      7.9288      2.0365     -0.0982     37.1816     63.6953     27.2691
  2127.9000      7.9288      1.9453     -0.0193     42.7113     62.5770     28.2317
  2128.0000      7.9233      1.8906     -0.0058     46.0241     61.1274     28.0972
  2128.1000      7.9233      1.8513      0.0351     48.4059     59.4265     27.4719
  2128.2000      7.9233      1.8013      0.0318     51.4371     57.1316     27.4673
  2128.3000      7.9532      1.7385      0.0300     55.2451     54.6083     28.5295
  2128.4000      7.9532      1.6889     -0.0477     58.2457     52.5363     30.2456
  2128.5000      7.9739      1.6692      0.0176     59.4428     53.0632     31.9449
  2128.6000      7.9739      1.6544      0.0498     60.3413     57.6914     33.1006
  2128.7000      7.9739      1.6168      0.0519     62.6204     64.9612     33.3871
  2128.8000      7.9901      1.5740      0.0103     65.2131     71.0088     33.3800
  2128.9000      7.9901      1.5612      0.0473     65.9895     73.8509     33.4362
  2129.0000      8.0040      1.5802      0.0406     64.8364     74.3298     33.5230
  2129.1000      8.0040      1.6158      0.0153     62.6761     74.0425     33.8793
  2129.2000      8.0040      1.6666      0.0603     59.6005     75.4297     34.0344
  2129.3000      8.0726      1.7386      0.0521     55.2364     78.5343     33.3227
  2129.4000      8.0726      1.8244      0.1731     50.0346     82.0541     32.2240
  2129.5000      8.1825      1.9015      0.2064     45.3643     86.2714     31.6773
  2129.6000      8.1825      1.9728      0.1765     41.0439     89.5977     31.7789
  2129.7000      8.1825      2.0679      0.2484     35.2806     91.5312     31.9040
  2129.8000      8.3471      2.1862      0.2418     28.1064     93.7651     31.5290
  2129.9000      8.3471      2.2917      0.2158     21.7159     94.4450     31.0019
  2130.0000      8.0613      2.3621      0.1528     17.4487     92.5577     30.8167
  2130.1000      8.0613      2.4061      0.1585     14.7841     92.5468     30.6712
  2130.2000      8.0613      2.4371      0.1685     12.9045     96.3451     30.2691
  2130.3000      8.0095      2.4628      0.1032     11.3452    101.2433     29.4894
  2130.4000      8.0095      2.4842      0.1089     10.0498    106.0013     28.2204
  2130.5000      7.9822      2.4970      0.0735      9.2719    111.7580     26.8750
  2130.6000      7.9822      2.5019      0.0985      8.9778    115.8940     26.0868
  2130.7000      7.9822      2.5004      0.0722      9.0697    116.0262     25.9700
  2130.8000      7.9536      2.4967      0.0602      9.2890    114.9382     26.3358
  2130.9000      7.9536      2.4967      0.0994      9.2919    114.3452     26.4791
  2131.0000      7.9452      2.5092      0.0617      8.5358    115.3213     26.0963
  2131.1000      7.9452      2.5392      0.1062      6.7167    119.6486     25.7576
  2131.2000      7.9452      2.5627      0.1152      5.2904    124.9128     25.5252
  2131.3000      7.9358      2.5541      0.0866      5.8118    126.8396     25.0834
  2131.4000      7.9358      2.5268      0.0725      7.4665    125.6030     24.4580
  2131.5000      7.9160      2.5106     -0.0211      8.4478    123.9977     24.1935
  2131.6000      7.9160      2.5096      0.0934      8.5117    123.0117     24.4943
  2131.7000      7.9160      2.5043      0.0567      8.8322    121.0942     24.6449
  2131.8000      7.9224      2.4931      0.0383      9.5108    117.8297     24.7769
  2131.9000      7.9224      2.4869      0.0431      9.8840    117.1721     25.7214
