~Version Information
VERS.                      2.0: CWLS Log ASCII Standard - VERSION 2.0
WRAP.                       NO: One line per depth step
~Well Information Block
STRT.FT                -2.2500: 
STOP.FT              1676.7500: 
STEP.FT                 0.2500: 
NULL.                -999.2500: 
COMP.          Pioneer Natural Resources: COMPANY
WELL.              Patten 22-2: WELL
FLD.           Purgatoire River: FIELD
LOC.           2157' FNL & 1528' FWL: LOCATION
PROV.                 Colorado: PROVINCE
CNTY.               Las Animas: COUNTRY
SRVC.                Patterson: SERVICE COMPANY
DATE.          Tue Dec 14 11:45:47 2004: LOG DATE
UWI.           05 071 08168 00: UNIQUE WELL ID
~Curve Information Block
DEPT.FT            0 000 00 00: Depth
GR.GAPI                       : Gamma Ray
CCL.                          : Casing Collar Locator
TT3.usec                      : CBL 3' Travel Time
AMP3.mV                       : CBL 3' Amplitude
~Parameter Information Block
~A  Depth        GR         CCL         TT3         AMP3    
# ...
    98.2500     83.6264      0.0000    263.1148     85.7439
    98.5000     87.6418      0.0000    263.1072     85.7865
    98.7500     88.9910      0.0000    263.1198     85.8513
    99.0000     88.1219      0.0000    263.1556     85.9235
    99.2500     86.6748      0.0000    263.1949     85.9563
    99.5000     85.7559      0.0000    263.2132     85.9204
    99.7500     85.2654      0.0000    263.2065     85.8424
   100.0000     84.6691      0.0000    263.1955     85.7830
   100.2500     83.8399      0.0000    263.2016     85.7740
   100.5000     83.0696      0.0000    263.2224     85.7886
   100.7500     82.7828      0.0000    263.2348     85.7754
   101.0000     83.3701      0.0000    263.2198     85.7150
   101.2500     85.0024      0.0000    263.1804     85.6323
   101.5000     87.4548      0.0000    263.1343     85.5551
   101.7500     90.1693      0.0000    263.0936     85.4781
   102.0000     92.6606      0.0000    263.0581     85.3842
   102.2500     94.9147      0.0000    263.0282     85.2888
   102.5000     97.1874      0.0000    263.0140     85.2392
   102.7500     99.4565      0.0000    263.0276     85.2732
   103.0000    101.4593      0.0000    263.0709     85.3909
   103.2500    103.1580      0.0000    263.1305     85.5577
   103.5000    104.6061      0.0000    263.1807     85.7179
   103.7500    105.4981      0.0000    263.2006     85.8176
   104.0000    105.5339      0.0000    263.1989     85.8118
   104.2500    105.0277      0.0000    263.2557     85.5839
   104.5000    104.3939      0.0000    263.5797     84.7891
   104.7500    103.2493      0.0000    264.5796     82.7868
   105.0000    100.8398      0.0000    266.7978     78.9733
   105.2500     97.3210      0.0000    270.5313     73.4882
   105.5000     93.9972      0.0000    275.3021     67.5300
   105.7500     92.3020      0.0000    279.7812     62.5630
   106.0000     92.7851      0.0000    282.4862     59.1436
   106.2500     94.8234      0.0000    282.7239     56.8237
   106.5000     97.1073      0.0000    280.9771     55.0494
   106.7500     98.7692     -2.0000    278.4802     53.6830
   107.0000    100.2041      2.0000    276.3973     52.7482
   107.2500    102.3242      2.0000    275.2989     52.1457
   107.5000    104.9274     -2.0000    275.2718     51.7181
   107.7500    106.3539      0.0000    276.2163     51.4918
   108.0000    105.0019      0.0000    277.7377     51.8772
   108.2500    100.8984      0.0000    278.8400     53.6012
   108.5000     95.6953      0.0000    278.2570     57.1963
   108.7500     91.4549      0.0000    275.5204     62.4020
   109.0000     89.5125      0.0000    271.5261     68.1853
   109.2500     90.0129      0.0000    267.7827     73.3790
   109.5000     92.0879      0.0000    265.2332     77.2658
   109.7500     94.6759      0.0000    263.9067     79.7147
   110.0000     97.2627      0.0000    263.3708     81.0155
   110.2500     99.4556      0.0000    263.2185     81.6199
   110.5000    100.1749      0.0000    263.2255     81.9114
   110.7500     98.4274      0.0000    263.2936     82.0930
   111.0000     94.9659      0.0000    263.3726     82.2026
   111.2500     91.9503      0.0000    263.4246     82.2089
   111.5000     90.5704      0.0000    263.4350     82.1004
   111.7500     90.0034      0.0000    263.4191     81.9232
   112.0000     89.1219      0.0000    263.4104     81.7510
   112.2500     88.1541      0.0000    263.4392     81.6337
   112.5000     88.0119      0.0000    263.5154     81.5691
   112.7500     88.8740      0.0000    263.6227     81.5114
   113.0000     90.1497      0.0000    263.7254     81.4043
   113.2500     91.2874      0.0000    263.7889     81.2126
   113.5000     92.0544      0.0000    263.8046     80.9392
   113.7500     92.4245      0.0000    263.7982     80.6203
   114.0000     92.5688      0.0000    263.8069     80.3006
   114.2500     92.6303      0.0000    263.8485     80.0044
   114.5000     92.1754      0.0000    263.9083     79.7284
   114.7500     90.1785      0.0000    263.9585     79.4600
   115.0000     85.9157      0.0000    263.9872     79.1999
   115.2500     79.7537      0.0000    264.0084     78.9654
   115.5000     72.9464      0.0000    264.0441     78.7747
   115.7500     66.8501      0.0000    264.0987     78.6276
   116.0000     62.3949      0.0000    264.1500     78.5018
   116.2500     60.0192      0.0000    264.1661     78.3719
   116.5000     59.7385      0.0000    264.1323     78.2412
   116.7500     61.0695      0.0000    264.0631     78.1550
   117.0000     62.9497      0.0000    263.9890     78.1719
   117.2500     64.0231      0.0000    263.9301     78.3148
   117.5000     63.3504      0.0000    263.8813     78.5472
   117.7500     61.0815      0.0000    263.8237     78.7976
   118.0000     58.4258      0.0000    263.7503     79.0054
   118.2500     56.7549      0.0000    263.6789     79.1384
   118.5000     56.5079      0.0000    263.6360     79.1724
   118.7500     57.0048      0.0000    263.6285     79.0672
   119.0000     57.3736      0.0000    263.6338     78.7809
   119.2500     57.5603      0.0000    263.6211     78.3151
   119.5000     58.3610      0.0000    263.5817     77.7435
   119.7500     60.5158      0.0000    263.5348     77.1745
   120.0000     63.9194      0.0000    263.5069     76.6685
   120.2500     67.8139      0.0000    263.5107     76.1780
   120.5000     71.5948      0.0000    263.5431     75.5627
   120.7500     75.2259      0.0000    263.5963     74.6716
   121.0000     79.0230      0.0000    263.6651     73.4556
   121.2500     83.2090      0.0000    263.7501     72.0455
   121.5000     87.4652      0.0000    263.8536     70.7132
   121.7500     90.7745      0.0000    263.9704     69.7101
   122.0000     91.9318      0.0000    264.0793     69.1157
   122.2500     90.4928      0.0000    264.1489     68.8307
   122.5000     87.3570      0.0000    264.1599     68.7021
   122.7500     84.2792      0.0000    264.1260     68.6437
   123.0000     82.4111      0.0000    264.0893     68.6438
   123.2500     81.2693      0.0000    264.0944     68.6745
   123.5000     79.5715      0.0000    264.1608     68.6088
   123.7500     77.1647      0.0000    264.2739     68.2519
   124.0000     75.4132      0.0000    264.3993     67.4829
   124.2500     75.2864      0.0000    264.5092     66.3801
   124.5000     75.7784      0.0000    264.6000     65.1952
   124.7500     74.9423      0.0000    264.6866     64.1910
   125.0000     72.2765      0.0000    264.7777     63.4937
   125.2500     69.4369      0.0000    264.8615     63.0722
   125.5000     68.4441      0.0000    264.9148     62.8169
   125.7500     69.6442      0.0000    264.9267     62.6263
   126.0000     71.7726      0.0000    264.9114     62.4467
   126.2500     73.6760      0.0000    264.8993     62.2629
   126.5000     75.4308      0.0000    264.9149     62.0694
   126.7500     77.7229      0.0000    264.9598     61.8498
   127.0000     80.5062      0.0000    265.0137     61.5801
   127.2500     82.6330      0.0000    265.0517     61.2564
   127.5000     82.9676      0.0000    265.0600     60.9237
   127.7500     81.7316      0.0000    265.0385     60.6701
   128.0000     80.2873      0.0000    264.9966     60.5819
   128.2500     79.4738      0.0000    264.9501     60.6890
   128.5000     78.6564      0.0000    264.9196     60.9395
   128.7500     76.5499      0.0000    264.9203     61.2203
   129.0000     72.5399      0.0000    264.9477     61.4149
   129.2500     67.1669      0.0000    264.9741     61.4696
   129.5000     61.7563      0.0000    264.9664     61.4290
   129.7500     57.5835      0.0000    264.9112     61.4019
   130.0000     55.0705      0.0000    264.8250     61.4756
   130.2500     53.6126      0.0000    264.7442     61.6542
   130.5000     52.1730      0.0000    264.7048     61.8798
   130.7500     50.1811      0.0000    264.7246     62.0939
   131.0000     48.1160      0.0000    264.7945     62.2622
   131.2500     47.0925      0.0000    264.8811     62.3539
   131.5000     47.5909      0.0000    264.9422     62.3334
