~Version Information
VERS.                      2.0: CWLS Log ASCII Standard - VERSION 2.0
WRAP.                       NO: One line per depth step
~Well Information Block
STRT.FT               806.0000: 
STOP.FT              1814.0000: 
STEP.FT                 0.2500: 
NULL.                -999.2500: 
COMP.          Pioneer Natural Resources: COMPANY
WELL.            Hill 33-22 Tr: WELL
FLD.           Purgatoire River: FIELD
LOC.           1573' FSL & 1585' FEL: LOCATION
PROV.                 Colorado: PROVINCE
CNTY.               Las Animas: COUNTRY
SRVC.                Patterson: SERVICE COMPANY
DATE.          Thu Apr 14 09:13:17 2005: LOG DATE
UWI.           05 071 08316 00: UNIQUE WELL ID
~Curve Information Block
DEPT.FT            0 000 00 00: Depth
SN.Ohm-m                      : IEL Short Normal
SP.mV                         : IEL Spontaneous Potential
DIR.Ohm-m                     : IEL Induction Resistivity
GR.GAPI                       : Gamma Ray
~Parameter Information Block
~A  Depth        SN          SP         DIR          GR     
# ...
  1777.5000     32.3077     44.8992     30.5900     87.3527
  1777.7500     32.9419     45.1011     30.7385     85.3894
  1778.0000     33.6791     45.3343     30.8847     82.9036
  1778.2500     34.4118     45.5532     31.0879     81.3421
  1778.5000     35.1147     45.7175     31.4076     78.7342
  1778.7500     35.8956     45.8110     31.8568     76.7031
  1779.0000     36.8722     45.8457     32.3829     73.2360
  1779.2500     38.0129     45.8523     32.8954     70.7122
  1779.5000     39.1282     45.8636     33.3119     66.6489
  1779.7500     40.0077     45.9014     33.5893     63.7129
  1780.0000     40.5834     45.9705     33.7237     59.0472
  1780.2500     40.9703     46.0569     33.7402     56.0415
  1780.5000     41.3442     46.1373     33.6879     52.4119
  1780.7500     41.7973     46.1939     33.6374     50.8888
  1781.0000     42.3045     46.2241     33.6653     50.0561
  1781.2500     42.7992     46.2320     33.8255     50.2958
  1781.5000     43.2385     46.2141     34.1213     51.2881
  1781.7500     43.5950     46.1557     34.4892     52.0226
  1782.0000     43.8315     46.0471     34.8098     52.8481
  1782.2500     43.9253     45.9013     34.9505     53.1263
  1782.5000     43.9590     45.7580     34.8227     53.0911
  1782.7500     44.1187     45.6651     34.4123     52.7715
  1783.0000     44.4607     45.6521     33.7560     51.9333
  1783.2500     44.7973     45.7153     32.8921     51.2220
  1783.5000     44.9645     45.8243     31.8280     50.0987
  1783.7500     44.9718     45.9384     30.5512     49.4374
  1784.0000     44.7954     46.0224     29.0586     48.9495
  1784.2500     44.2640     46.0590     27.3785     49.2679
  1784.5000     43.1876     46.0557     25.5660     51.0767
  1784.7500     41.4650     46.0424     23.6848     53.1421
  1785.0000     39.0638     46.0573     21.7929     57.2059
  1785.2500     35.9864     46.1281     19.9404     60.4410
  1785.5000     32.3225     46.2569     18.1739     66.3156
  1785.7500     28.3626     46.4170     16.5399     71.2663
  1786.0000     24.5673     46.5654     15.0793     80.5508
  1786.2500     21.3011     46.6642     13.8184     87.5579
  1786.5000     18.6733     46.6996     12.7597     97.7160
  1786.7500     16.6107     46.6862     11.8835    103.5060
  1787.0000     14.9758     46.6556     11.1572    110.6543
  1787.2500     13.6778     46.6351     10.5481    114.8410
  1787.5000     12.6829     46.6342     10.0316    120.7211
  1787.7500     11.9729     46.6476      9.5923    124.1152
  1788.0000     11.5434     46.6683      9.2209    127.3760
  1788.2500     11.3629     46.6978      8.9105    127.9213
  1788.5000     11.3074     46.7431      8.6570    126.7876
  1788.7500     11.1999     46.8067      8.4599    125.6286
  1789.0000     10.9888     46.8750      8.3218    124.7684
  1789.2500     10.7945     46.9135      8.2463    125.0736
  1789.5000     10.7128     46.8787      8.2333    126.3135
  1789.7500     10.7396     46.7476      8.2762    127.0909
  1790.0000     10.8838     46.5393      8.3614    127.4035
  1790.2500     11.1560     46.3094      8.4712    126.8324
  1790.5000     11.4559     46.1191      8.5886    124.8068
  1790.7500     11.6325     46.0089      8.7019    122.8434
  1791.0000     11.6581     45.9870      8.8045    119.5050
  1791.2500     11.6097     46.0332      8.8933    117.3728
  1791.5000     11.5767     46.1102      8.9658    114.7126
  1791.7500     11.6676     46.1810      9.0203    113.3738
  1792.0000     11.9483     46.2257      9.0579    112.1547
  1792.2500     12.3499     46.2486      9.0830    112.0367
  1792.5000     12.7069     46.2735      9.1027    112.9984
  1792.7500     12.8686     46.3376      9.1237    114.1315
  1793.0000     12.8009     46.5043      9.1507    115.7218
  1793.2500     12.6050     46.9033      9.1852    116.2707
  1793.5000     12.4019     47.7673      9.2267    115.7214
  1793.7500     12.2482     49.3735      9.2711    113.7594
  1794.0000     12.1656     51.8335      9.3108    105.9210
  1794.2500     12.1308     54.8683      9.3357     95.6736
  1794.5000     12.0758     57.8460      9.3368     72.2013
  1794.7500     11.9688     60.1428      9.3097     53.5060
  1795.0000     11.8103     61.5070      9.2559     27.8301
  1795.2500     11.5540     62.0947      9.1825     15.4621
  1795.5000     11.1494     62.2337      9.0997      4.9991
  1795.7500     10.6631     62.1967      9.0193      1.9796
  1796.0000     10.3144     62.1320      8.9531      0.3754
  1796.2500     10.3270     62.0970      8.9114      0.1016
  1796.5000     10.6965     62.1193      8.9014      0.0089
  1796.7500     11.1707     62.2665      8.9242      0.0000
  1797.0000     11.4958     62.7163      8.9720   -999.2500
  1797.2500     11.6471     63.7603      9.0289   -999.2500
  1797.5000     11.7923     65.6452      9.0728   -999.2500
  1797.7500     12.0351     68.2964      9.0813   -999.2500
  1798.0000     12.2632     71.1975      9.0386   -999.2500
  1798.2500     12.2945     73.6577      8.9431   -999.2500
  1798.5000     12.1066     75.2610      8.8121   -999.2500
  1798.7500     11.8472     76.0487      8.6754   -999.2500
  1799.0000     11.6301     76.3221      8.5617   -999.2500
  1799.2500     11.4071     76.3588      8.4868   -999.2500
  1799.5000     11.1017     76.2943      8.4498   -999.2500
  1799.7500     10.7721     76.1627      8.4376   -999.2500
  1800.0000     10.5500     75.9735      8.4332   -999.2500
  1800.2500     10.5054     75.7532      8.4230   -999.2500
  1800.5000     10.6119     75.5435      8.3997   -999.2500
  1800.7500     10.7427     75.3958      8.3623   -999.2500
  1801.0000     10.7729     75.4013      8.3121   -999.2500
  1801.2500     10.7103     75.7496      8.2579   -999.2500
  1801.5000     10.6005     76.7405      8.2044   -999.2500
  1801.7500     10.4713     78.6363      8.1567   -999.2500
  1802.0000     10.4450     81.3759      8.1180   -999.2500
  1802.2500     10.6092     84.4283      8.0911   -999.2500
  1802.5000     10.8317     87.0541      8.0822   -999.2500
  1802.7500     10.9473     88.7868      8.1032   -999.2500
  1803.0000     10.9767     89.6516      8.1717   -999.2500
  1803.2500     11.0289     89.9721      8.3126   -999.2500
  1803.5000     11.1360     90.0641      8.5635   -999.2500
  1803.7500     11.2936     90.0977      8.9909   -999.2500
  1804.0000     11.5597     90.1269      9.7164   -999.2500
  1804.2500     12.0025     90.1613     10.9583   -999.2500
  1804.5000     12.5975     90.2081     13.1125   -999.2500
  1804.7500     13.2589     90.2785     16.9008   -999.2500
  1805.0000     14.0015     90.3761     23.7631   -999.2500
  1805.2500     14.9475     90.4877     36.6582   -999.2500
  1805.5000     16.1555     90.5865     61.6993   -999.2500
  1805.7500     17.5987     90.6460    110.3577   -999.2500
  1806.0000     19.2777     90.6564    197.6007   -999.2500
  1806.2500     21.2436     90.6307    325.4075   -999.2500
  1806.5000     23.4680     90.5981    473.1289   -999.2500
  1806.7500     25.7465     90.5852    652.1900   -999.2500
  1807.0000     27.8250     90.5998   1021.7001   -999.2500
  1807.2500     29.6161     90.6260   3485.6699   -999.2500
  1807.5000     31.2599     90.6334 100000.0000   -999.2500
  1807.7500     32.9415     90.5945 100000.0000   -999.2500
  1808.0000     34.6684     90.5012 100000.0000   -999.2500
  1808.2500     36.2206     90.3679 100000.0000   -999.2500
  1808.5000     37.3146     90.2221 100000.0000   -999.2500
  1808.7500     37.9180     90.0849 100000.0000   -999.2500
  1809.0000     38.3149     89.9503 100000.0000   -999.2500
  1809.2500     38.7494     89.7062 100000.0000   -999.2500
  1809.5000     39.1328     88.9297 100000.0000   -999.2500
  1809.7500     39.1999     86.5604 100000.0000   -999.2500
  1810.0000     38.7710     80.8112 100000.0000   -999.2500
  1810.2500     37.6028     69.9803 100000.0000   -999.2500
  1810.5000     35.0194     54.1470 100000.0000   -999.2500
  1810.7500     29.9220     36.1600 100000.0000   -999.2500
