~Version Information
 VERS.                                  2.0 : CWLS LAS VERSION
 WRAP.                                   NO : WRAPING MODE
 SWARE .                 MController 2.5.0J : SOFTWARE VERSION
~Well Information
 WELL.                         Sliva 01-43V : WELL
 COMP.                Petrogulf Corporation : COMPANY
 FLD.                      Purgatoire River : FIELD
 LOC.                 NE/SE Sec 1 T33S R68W : LOCATION
 DATE.                          08/26-27/05 : DATE(S) LOGGED
 SRVC.       BLANCO Geological Services LLC : SERVICE COMPANY
 STAT.                                   CO : STATE
 CNTY.                           Las Animas : COUNTY
 CTRY.                                  USA : COUNTRY
 API.                       05-071-08371-00 : API NUMBER
 STRT.FT                             503.00 : START DEPTH
 STOP.FT                            2764.00 : STOP DEPTH
 STEP.FT                               1.00 : DEPTH INCREMENT
 NULL.                                -9999 : NULL VALUE
~Curve information
 DEPTH.FT                                   :
 ROP.MIN/FT                                 :
 GAS.UNITS                                  :
~ASCII Log data
# ...
      1903.0         0.40          7.7 
      1904.0         0.37          7.5 
      1905.0         0.33          7.6 
      1906.0         0.27          7.6 
      1907.0         0.30          7.4 
      1908.0         0.28          7.5 
      1909.0         0.27          7.1 
      1910.0         0.23          7.1 
      1911.0         0.23          7.2 
      1912.0         0.23          7.3 
      1913.0         0.27          7.3 
      1914.0         0.27          7.0 
      1915.0         0.23          6.7 
      1916.0         0.20          6.8 
      1917.0         0.23          6.7 
      1918.0         0.40          7.0 
      1919.0         0.27          6.9 
      1920.0         0.23          8.1 
      1921.0         0.48         10.7 
      1922.0         2.30         18.9 
      1923.0         0.40         14.6 
      1924.0         0.42         11.0 
      1925.0         0.43          8.8 
      1926.0         0.40          8.3 
      1927.0         0.50          8.7 
      1928.0         0.43          8.0 
      1929.0         0.50          8.0 
      1930.0         0.40          7.3 
      1931.0         0.45          6.9 
      1932.0         0.50          6.4 
      1933.0         0.47          7.0 
      1934.0         0.37          7.6 
      1935.0         0.40          7.1 
      1936.0         0.27          7.2 
      1937.0         0.27          7.0 
      1938.0         0.23          7.2 
      1939.0         0.27          7.0 
      1940.0         0.20          7.1 
      1941.0         0.22          7.2 
      1942.0         0.20          7.2 
      1943.0         0.23          7.1 
      1944.0         0.23          7.0 
      1945.0         0.23          6.7 
      1946.0         0.27          6.6 
      1947.0         0.40          6.4 
      1948.0         0.30          6.7 
      1949.0         0.27          6.8 
      1950.0         0.23          7.8 
      1951.0         0.25          7.8 
      1952.0         3.25         29.1 
      1953.0         0.40         13.5 
      1954.0         0.43         10.2 
      1955.0         0.37          8.9 
      1956.0         0.33          8.5 
      1957.0         0.35          8.4 
      1958.0         0.37          7.7 
      1959.0         0.40          7.6 
      1960.0         0.33          6.9 
      1961.0         0.37          6.8 
      1962.0         0.37          6.8 
      1963.0         0.60          6.8 
      1964.0         0.58          6.9 
      1965.0         0.57          7.1 
      1966.0         0.27          7.2 
      1967.0         0.30          7.3 
      1968.0         0.23          7.3 
      1969.0         0.27          7.3 
      1970.0         0.33          8.0 
      1971.0         0.37         10.2 
      1972.0         0.30         11.0 
      1973.0         0.28         11.0 
      1974.0         0.33         10.8 
      1975.0         0.27          9.5 
      1976.0         0.30          8.9 
      1977.0         0.30          8.1 
      1978.0         0.40          7.4 
      1979.0         0.37          8.9 
      1980.0         0.40         11.3 
      1981.0         0.30         15.9 
      1982.0         3.05         46.3 
      1983.0         0.43         19.7 
      1984.0         0.45         12.3 
      1985.0         0.73          9.3 
      1986.0         0.37          8.5 
      1987.0         0.43          8.1 
      1988.0         0.50          7.6 
      1989.0         0.40          6.5 
      1990.0         0.32          6.3 
      1991.0         0.27          6.2 
      1992.0         0.27          6.1 
      1993.0         0.27          6.3 
      1994.0         0.33          6.0 
      1995.0         0.37          6.2 
      1996.0         0.33          6.5 
      1997.0         0.37          6.5 
      1998.0         0.32          6.4 
      1999.0         0.27          6.7 
      2000.0         0.30          6.8 
      2001.0         0.23          6.5 
      2002.0         0.30          6.9 
      2003.0         0.27          7.2 
      2004.0         0.30          7.0 
      2005.0         0.27          6.5 
      2006.0         0.27          5.8 
      2007.0         0.23          6.1 
      2008.0         0.25          8.3 
      2009.0         0.23         10.4 
      2010.0         0.27         13.7 
      2011.0         0.23         19.8 
      2012.0         2.88        100.6 
      2013.0         0.73         20.1 
      2014.0         0.80          8.1 
      2015.0         0.67          7.3 
      2016.0         0.57          6.9 
      2017.0         0.58          5.8 
      2018.0         0.47          5.6 
      2019.0         0.37          5.5 
      2020.0         0.53          5.5 
      2021.0         0.50          5.2 
      2022.0         0.50          5.6 
      2023.0         0.27          5.3 
      2024.0         0.28          5.6 
      2025.0         0.30          5.7 
      2026.0         0.30          5.6 
      2027.0         0.37          5.5 
      2028.0         0.30          6.2 
      2029.0         0.43          6.5 
      2030.0         0.30          6.5 
      2031.0         0.30          6.6 
      2032.0         0.30          6.5 
      2033.0         0.27          5.4 
      2034.0         0.27          5.0 
      2035.0         0.25          4.3 
      2036.0         0.30          4.2 
      2037.0         0.27          3.9 
      2038.0         0.27          6.4 
      2039.0         0.27         12.8 
      2040.0         0.27         24.3 
      2041.0         0.27         47.6 
      2042.0         2.92        236.5 
      2043.0         0.83         15.7 
      2044.0         0.77          6.7 
      2045.0         0.52          6.9 
      2046.0         0.57          6.2 
      2047.0         0.37          5.9 
      2048.0         0.40          5.6 
      2049.0         0.30          5.2 
      2050.0         0.27          4.7 
      2051.0         0.23          4.5 
      2052.0         0.40          4.2 
      2053.0         0.37          4.1 
      2054.0         0.38          4.1 
      2055.0         0.37          4.3 
      2056.0         0.37          4.4 
      2057.0         0.33          4.5 
      2058.0         0.33          5.1 
      2059.0         0.33          6.7 
      2060.0         0.30          7.1 
      2061.0         0.33          7.4 
      2062.0         0.27          7.2 
      2063.0         0.20          6.6 
      2064.0         0.32          7.0 
      2065.0         0.33          6.9 
      2066.0         0.33          6.3 
      2067.0         0.30          4.9 
      2068.0         0.30          4.7 
      2069.0         0.33         16.2 
      2070.0         0.33         41.5 
      2071.0         0.27         69.8 
      2072.0         3.42        264.6 
      2073.0         0.78         18.9 
      2074.0         0.53          7.6 
      2075.0         0.60          6.2 
      2076.0         0.60          5.5 
      2077.0         0.47          4.5 
      2078.0         0.43          4.0 
      2079.0         0.42          3.8 
      2080.0         0.40          4.0 
      2081.0         0.40          3.9 
      2082.0         0.40          4.3 
      2083.0         0.40          4.5 
      2084.0         0.37          4.2 
      2085.0         0.33          4.2 
      2086.0         0.37          4.1 
      2087.0         0.37          4.0 
      2088.0         0.35          3.6 
      2089.0         0.33          3.4 
      2090.0         0.33          3.8 
      2091.0         0.27          3.8 
      2092.0         0.23          3.5 
      2093.0         0.30          3.7 
      2094.0         0.30          3.8 
      2095.0         0.40          3.8 
      2096.0         0.43          3.7 
      2097.0         0.33          3.4 
      2098.0         0.42          3.0 
      2099.0         0.40          3.5 
      2100.0         0.33          8.7 
      2101.0         0.30         29.4 
      2102.0         4.08        199.1 
