~Version Information               
VERS.     2.0     :     CWLS LAS VERSION
WRAP.                         NO     :     WRAPING MODE
~Well Information   
API.                      :            
WELL.               Egan 9-11V     :     WELL
COMP.                    N/A     :     COMPANY
FLD.                    N/A     :     FIELD
LOC.                    N/A     :     LOCATION
CNTY.                    N/A     :     COUNTY
STATE.              N/A     :     STATE
CTRY.                    N/A     :     COUNTRY
DATE.                N/A     :     DATE (LOGGED)
UWI.                    N/A     :     UNIQUE WELL ID
SRVC.                N/A     :     SERVICE COMPANY
STAT.                           :
STRT.FT              612.00     :     START DEPTH
STOP.FT             2500.00     :     STOP DEPTH
STEP.FT                1.00     :     DEPTH INCREMENT
NULL.             -9999           :     NULL VALUE
~Curve information               
 DEPTH.FT                                   :
 ROP.MIN/FT                                 :
 GAS.UNITS                                  :     
C1.PPM          :     
C2.PPM          :
~ASCII Log data               
# ...
2372.00        0.31     7        185.1          -49995
2373.00        0.33     3        163.7          -49995
2374.00        0.30     0        141.0          -49995
2375.00        0.33     3        118.4          -49995
2376.00        0.33     3        117.0          -49995
2377.00        0.30     0        109.6          -49995
2378.00        0.33     3        108.4          -49995
2379.00        0.40     0        106.5          -49995
2380.00        0.36     7        103.6          -49995
2381.00        0.36     7        100.0          -49995
2382.00        0.35     0         95.8          -49995
2383.00        0.33     3         92.7          -49995
2384.00        0.26     7         90.5          -49995
2385.00        0.33     3         89.9          -49995
2386.00        0.26     7         87.7          -49995
2387.00        0.33     3         82.1          -49995
2388.00        0.30     0         82.1          -49995
2389.00        0.33     3         80.9          -49995
2390.00        0.30     0         46.8          -49995
2391.00        0.26     7         46.8          -49995
2392.00        0.26     7         50.1          -49995
2393.00        0.80     0         71.6          -49995
2394.00        0.50     0        150.5          -49995
2395.00        0.41     7        186.6          -49995
2396.00        0.10     0        200.0          -49995
2397.00        0.10     0        200.0          -49995
2398.00        0.10     0        196.8          -49995
2399.00        0.10     0        196.8          -49995
2400.00        0.23     3        184.3          -49995
2401.00        0.20     0        175.0          -49995
2402.00        0.26     7        164.4          -49995
2403.00        0.20     0        146.0          -49995
2404.00        0.23     3        145.7          -49995
2405.00        0.13     3        144.9          -49995
2406.00        0.13     3        144.9          -49995
2407.00        0.26     7        143.4          -49995
2408.00        0.33     3        137.8          -49995
2409.00        0.36     7        128.8          -49995
2410.00        0.35     0        126.2          -49995
2411.00        0.36     7        126.7          -49995
2412.00        0.43     3        125.2          -49995
2413.00        0.43     3        121.1          -49995
2414.00        0.33     3        125.3          -49995
2415.00        0.36     7        127.7          -49995
2416.00        0.33     3        129.9          -49995
2417.00        0.33     3        132.4          -49995
2418.00        0.33     3        133.2          -49995
2419.00        0.31     7        131.3          -49995
2420.00        0.30     0         50.1          -49995
2421.00        0.26     7         49.5          -49995
2422.00        0.26     7         50.6          -49995
2423.00        0.85     0         71.9          -49995
2424.00        0.53     3        142.1          -49995
2425.00        0.63     3        202.9          -49995
2426.00        0.66     7        199.7          -49995
2427.00        0.30     0        160.7          -49995
2428.00        0.30     0        141.3          -49995
2429.00        0.30     0        126.2          -49995
2430.00        0.35     0        109.4          -49995
2431.00        0.46     7        106.4          -49995
2432.00        0.40     0        107.5          -49995
2433.00        0.36     7        107.8          -49995
2434.00        0.36     7        105.3          -49995
2435.00        0.33     3        103.8          -49995
2436.00        0.30     0        103.2          -49995
2437.00        0.40     0        101.4          -49995
2438.00        0.36     7         99.8          -49995
2439.00        0.31     7         98.2          -49995
2440.00        0.33     3         95.1          -49995
2441.00        0.36     7         95.1          -49995
2442.00        0.26     7         91.6          -49995
2443.00        0.30     0         87.3          -49995
2444.00        0.33     3         86.7          -49995
2445.00        0.30     0         83.8          -49995
2446.00        0.33     3         79.5          -49995
2447.00        0.30     0         79.0          -49995
2448.00        0.30     0         79.0          -49995
2449.00        0.33     0         79.0          -49995
2450.00        0.35     0         79.0          -49995
2451.00        0.36     7        142.0          -49995
2452.00        0.63     3        185.5          -49995
2453.00        0.80     0        141.3          -49995
2454.00        0.71     7         97.6          -49995
2455.00        0.60     0         89.6          -49995
2456.00        0.53     3         94.5          -49995
2457.00        0.53     3         94.7          -49995
2458.00        0.56     7         95.7          -49995
2459.00        0.46     7         95.0          -49995
2460.00        0.58     3         95.0          -49995
2461.00        0.40     0        104.9          -49995
2462.00        0.40     0        106.7          -49995
2463.00        0.43     3        113.2          -49995
2464.00        0.36     7        121.6          -49995
2465.00        0.53     3        122.5          -49995
2466.00        0.43     3        120.3          -49995
2467.00        0.60     0        111.5          -49995
2468.00        0.55     0        105.7          -49995
2469.00        0.76     7         96.6          -49995
2470.00        1.06     7         90.5          -49995
2471.00        0.76     7         71.3          -49995
2472.00        0.55     0         70.7          -49995
2473.00        0.66     7         69.4          -49995
2474.00        0.53     3         73.6          -49995
2475.00        0.53     3         76.2          -49995
2476.00        0.73     3         76.7          -49995
2477.00        0.60     0         72.7          -49995
2478.00        0.51     7         67.7          -49995
2479.00        0.50     0         65.2          -49995
2480.00        0.46     7         69.0          -49995
2481.00        0.56     7         70.7          -49995
2482.00        0.50     0         70.6          -49995
2483.00        0.50     0         73.3          -49995
2484.00        0.30     0         41.0          -49995
2485.00        0.31     7         48.3          -49995
2486.00        0.98     3        172.5          -49995
2487.00        0.90     0        226.8          -49995
2488.00        0.53     3        203.3          -49995
2489.00        0.43     3        149.9          -49995
2490.00        0.40     0        148.1          -49995
2491.00        0.56     7        129.6          -49995
2492.00        0.33     3        119.0          -49995
2493.00        0.28     3        111.3          -49995
2494.00        0.36     7        106.8          -49995
2495.00        0.30     0         98.9          -49995
2496.00        0.26     7         96.1          -49995
2497.00        0.50     0         95.9          -49995
2498.00        0.50     0         90.2          -49995
2499.00        0.53     3         90.5          -49995
2500.00        0.46     7      -9999.0          -49995
