~Version Information
VERS.                      2.0: CWLS Log ASCII Standard - VERSION 2.0
WRAP.                       NO: One line per depth step
~Well Information Block
STRT.FT               902.0000: 
STOP.FT              2428.2000: 
STEP.FT                 0.1000: 
NULL.                -999.2500: 
COMP.          Pioneer Natural Resources: COMPANY
WELL.            Victory 12-14: WELL
FLD.           Purgatoire River: FIELD
LOC.           2434' FNL & 188' FWL: LOCATION
PROV.                 Colorado: PROVINCE
CNTY.               Las Animas: COUNTRY
SRVC.                Patterson: SERVICE COMPANY
DATE.          Mon Apr 18 07:24:17 2005: LOG DATE
UWI.           05 071 08332 00: UNIQUE WELL ID
~Curve Information Block
DEPT.FT            0 000 00 00: Depth
DCAL.in                       : CDL Caliper
RHOB.g/cc                     : CDL Bulk Density
RHOC.g/cc                     : CDL Density Correction
DPOR.pu                       : CDL Density Porosity
GR.GAPI                       : Gamma Ray
NPOR.pu                       : Neutron Porosity
~Parameter Information Block
~A  Depth       DCAL        RHOB        RHOC        DPOR         GR         NPOR    
# ...
  1708.4000      7.9295      2.4323     -0.0527     13.1930     57.7738     17.7654
  1708.5000      7.9412      2.4656      0.0310     11.1777     58.1742     17.7949
  1708.6000      7.9412      2.5130      0.0950      8.3060     60.2731     17.9611
  1708.7000      7.9412      2.5501      0.1333      6.0560     63.6999     18.2430
  1708.8000      7.9404      2.5658      0.1697      5.1051     67.4844     18.2052
  1708.9000      7.9404      2.5575      0.1718      5.6068     69.6338     17.8046
  1709.0000      7.9163      2.5306      0.1020      7.2370     68.5470     17.6004
  1709.1000      7.9163      2.4980      0.1485      9.2091     67.1850     17.8291
  1709.2000      7.9163      2.4716      0.1127     10.8102     67.5751     18.2248
  1709.3000      7.9026      2.4651      0.1076     11.2089     67.6661     18.5049
  1709.4000      7.9026      2.4910      0.0896      9.6388     67.3708     18.4636
  1709.5000      7.8928      2.5491      0.1157      6.1163     67.1829     18.1528
  1709.6000      7.8928      2.6125      0.2388      2.2747     64.3821     18.1502
  1709.7000      7.8928      2.6519      0.1848     -0.1181     60.2144     18.7671
  1709.8000      7.8955      2.6675      0.1688     -1.0629     60.7111     19.4427
  1709.9000      7.8955      2.6550      0.2385     -0.3032     66.1988     19.7773
  1710.0000      7.8990      2.6070      0.1617      2.6033     69.4620     19.8304
  1710.1000      7.8990      2.5501      0.0977      6.0569     67.2107     19.5844
  1710.2000      7.8990      2.5201      0.0363      7.8709     63.1586     19.2474
  1710.3000      7.8877      2.5291      0.0384      7.3282     60.3379     19.0775
  1710.4000      7.8877      2.5609      0.0998      5.4017     60.8898     18.9201
  1710.5000      7.8917      2.5763      0.0974      4.4655     65.1200     18.5698
  1710.6000      7.8917      2.5575      0.0546      5.6049     70.0730     18.2508
  1710.7000      7.8917      2.5331      0.0271      7.0864     74.4885     18.3805
  1710.8000      7.9257      2.5278      0.0124      7.4036     79.8113     19.0168
  1710.9000      7.9257      2.5352      0.0192      6.9553     85.3984     19.7387
  1711.0000      7.9416      2.5463      0.0343      6.2820     88.3403     20.0480
  1711.1000      7.9416      2.5622      0.0831      5.3229     88.6748     19.8949
  1711.2000      7.9416      2.5782      0.1203      4.3520     88.2304     19.7745
  1711.3000      7.9205      2.5854      0.0980      3.9153     87.3452     20.0854
  1711.4000      7.9205      2.5854      0.0913      3.9154     85.1853     20.5459
  1711.5000      7.8864      2.5827      0.1090      4.0816     81.8832     20.7074
  1711.6000      7.8864      2.5742      0.0695      4.5958     78.9534     20.6279
  1711.7000      7.8864      2.5599      0.0210      5.4599     78.4327     20.4564
  1711.8000      7.8826      2.5492      0.0468      6.1069     79.0139     20.1876
  1711.9000      7.8826      2.5446      0.0463      6.3861     77.7121     19.8041
  1712.0000      7.9256      2.5334      0.0635      7.0679     75.2423     19.3608
  1712.1000      7.9256      2.5140      0.0354      8.2407     75.6593     19.1298
  1712.2000      7.9256      2.5144      0.0031      8.2190     77.0566     19.5247
  1712.3000      7.9451      2.5580     -0.0032      5.5745     74.3307     20.4598
  1712.4000      7.9451      2.6260      0.0888      1.4560     70.4029     21.0635
  1712.5000      7.9432      2.6696      0.1594     -1.1905     72.0119     20.9175
  1712.6000      7.9432      2.6678      0.1174     -1.0765     78.5603     20.4898
  1712.7000      7.9432      2.6440      0.1082      0.3615     82.9374     20.0677
  1712.8000      7.9284      2.6190      0.1688      1.8765     81.5812     19.7523
  1712.9000      7.9284      2.5936      0.0524      3.4160     80.3280     19.8290
  1713.0000      7.9261      2.5717      0.0748      4.7477     84.6137     20.1410
  1713.1000      7.9261      2.5509      0.0623      6.0031     90.4071     19.9975
  1713.2000      7.9261      2.5300     -0.0229      7.2699     95.1389     19.2500
  1713.3000      7.9461      2.5170      0.0311      8.0579    100.9182     18.6443
  1713.4000      7.9461      2.5203     -0.0307      7.8633    105.6960     18.6546
  1713.5000      7.9472      2.5481      0.0657      6.1739    108.8802     19.1180
  1713.6000      7.9472      2.5857      0.0982      3.8950    113.3578     19.8079
  1713.7000      7.9472      2.6021      0.1733      2.9017    118.8946     20.6057
  1713.8000      7.9666      2.5910      0.1121      3.5778    123.9754     21.4453
  1713.9000      7.9666      2.5769      0.1034      4.4324    126.7784     22.1018
  1714.0000      7.9640      2.5730      0.0974      4.6659    125.1925     22.3959
  1714.1000      7.9640      2.5632      0.1516      5.2587    121.6193     22.3482
  1714.2000      7.9640      2.5387      0.0915      6.7466    120.5873     22.2308
  1714.3000      7.9793      2.5104      0.0853      8.4588    123.5119     22.4465
  1714.4000      7.9793      2.4846      0.0924     10.0232    128.6631     22.9264
  1714.5000      7.9978      2.4672      0.0553     11.0801    134.1961     23.1940
  1714.6000      7.9978      2.4721      0.0585     10.7842    138.3949     23.2902
  1714.7000      7.9978      2.5021      0.0737      8.9631    138.9078     23.6507
  1714.8000      8.0216      2.5387      0.0896      6.7428    134.8501     24.2079
  1714.9000      8.0216      2.5590      0.0735      5.5162    130.1599     24.6203
  1715.0000      8.0264      2.5555      0.1066      5.7294    130.5230     24.6920
  1715.1000      8.0264      2.5374      0.0764      6.8263    134.2847     24.5123
  1715.2000      8.0264      2.5217      0.0777      7.7730    136.4245     24.4192
  1715.3000      8.0234      2.5267      0.0491      7.4757    137.6184     24.3981
  1715.4000      8.0234      2.5553      0.0914      5.7414    141.2790     24.1823
  1715.5000      8.0232      2.5822      0.1663      4.1106    147.7318     23.6095
  1715.6000      8.0232      2.5811      0.1866      4.1771    152.0342     22.9122
  1715.7000      8.0232      2.5644      0.0731      5.1866    152.3994     22.6246
  1715.8000      7.9985      2.5665      0.1295      5.0624    152.3278     22.8501
  1715.9000      7.9985      2.5857      0.1685      3.8982    153.6387     23.2780
  1716.0000      7.9958      2.5939      0.1905      3.3989    155.2828     23.6324
  1716.1000      7.9958      2.5867      0.1745      3.8361    152.8522     23.5414
  1716.2000      7.9958      2.5777      0.1510      4.3792    145.6899     23.0648
  1716.3000      7.9997      2.5682      0.1394      4.9563    137.5376     22.9958
  1716.4000      7.9997      2.5482      0.1923      6.1688    130.6783     23.7305
  1716.5000      8.0157      2.5182      0.1064      7.9874    125.3343     24.6126
  1716.6000      8.0157      2.4869      0.1125      9.8850    123.0809     24.9089
  1716.7000      8.0157      2.4502      0.0594     12.1088    126.8465     24.4975
  1716.8000      8.0220      2.4154     -0.0261     14.2212    133.3987     23.9934
  1716.9000      8.0220      2.4072      0.0231     14.7144    137.5081     23.9894
  1717.0000      7.9864      2.4277      0.0710     13.4730    140.2092     24.0687
  1717.1000      7.9864      2.4550      0.0763     11.8166    144.3523     23.8849
  1717.2000      7.9864      2.4723      0.0452     10.7722    150.0212     23.7532
  1717.3000      7.9873      2.4758      0.0774     10.5600    154.6849     23.7952
  1717.4000      7.9873      2.4720      0.1060     10.7868    156.2154     23.9811
  1717.5000      7.9941      2.4753      0.0972     10.5909    155.2323     24.2895
  1717.6000      7.9941      2.4972      0.0821      9.2611    151.9636     24.6983
  1717.7000      7.9941      2.5338      0.1413      7.0415    143.9585     25.0063
  1717.8000      7.9674      2.5646      0.2044      5.1782    133.6135     24.9519
  1717.9000      7.9674      2.5766      0.1960      4.4483    129.8096     24.6524
