~Version Information
VERS.                      2.0: CWLS Log ASCII Standard - VERSION 2.0
WRAP.                       NO: One line per depth step
~Well Information Block
STRT.FT               554.1000: 
STOP.FT              2173.5000: 
STEP.FT                 0.1000: 
NULL.                -999.2500: 
COMP.          Petrogulf Corporation: COMPANY
WELL.            Montoya 6-14R: WELL
FLD.           Purgatorie River: FIELD
LOC.           867' FSL & 751' FWL: LOCATION
CNTY.               Las Animas: COUNTY
SRVC.                         : SERVICE COMPANY
DATE.          Mon Nov 15 06:14:10 2004: LOG DATE
UWI.           05 071 08242 00: UNIQUE WELL ID
STAT.                 Colorado: STATE
~Curve Information Block
DEPT.FT            0 000 00 00: Depth
DCAL.in                       : CDL Caliper
RHOB.g/cc                     : CDL Bulk Density
RHOC.g/cc                     : CDL Density Correction
DPOR.pu                       : CDL Density Porosity
GR.GAPI                       : Gamma Ray
NPOR.pu                       : Neutron Porosity
~Parameter Information Block
~A  Depth       DCAL        RHOB        RHOC        DPOR         GR         NPOR    
# ...
  1206.9000      7.9784      2.5726      0.0555      4.6893    105.8937     24.5507
  1207.0000      7.9780      2.5718      0.0514      4.7378    107.5065     24.1225
  1207.1000      7.9780      2.5708     -0.0050      4.7989    103.8244     23.6505
  1207.2000      7.9780      2.5765      0.0591      4.4530     98.0139     23.2601
  1207.3000      7.9779      2.5855      0.0633      3.9082     95.6839     23.0771
  1207.4000      7.9779      2.5941      0.0581      3.3857     96.6188     22.7800
  1207.5000      7.9777      2.6020      0.0239      2.9116     94.9757     22.5772
  1207.6000      7.9777      2.6027      0.0856      2.8687     87.5242     22.7499
  1207.7000      7.9777      2.5926      0.0253      3.4815     78.5897     22.7274
  1207.8000      7.9771      2.5797      0.0497      4.2604     73.1351     22.2932
  1207.9000      7.9771      2.5703      0.0081      4.8295     72.4861     21.9720
  1208.0000      7.9771      2.5719     -0.0051      4.7325     76.5063     21.8024
  1208.1000      7.9771      2.5864      0.0382      3.8520     82.3477     21.5494
  1208.2000      7.9771      2.5988      0.0187      3.1017     87.3536     21.4027
  1208.3000      7.9775      2.5960      0.0683      3.2732     91.8505     21.6183
  1208.4000      7.9775      2.5799      0.0396      4.2495     96.0923     22.1910
  1208.5000      7.9776      2.5635      0.0187      5.2427     99.5823     22.8982
  1208.6000      7.9776      2.5561      0.0206      5.6899    101.9985     23.3723
  1208.7000      7.9776      2.5540      0.0451      5.8168    102.8983     23.3178
  1208.8000      7.9777      2.5502      0.0088      6.0503    102.0034     23.0824
  1208.9000      7.9777      2.5442      0.0278      6.4105     99.6778     23.5642
  1209.0000      7.9777      2.5411      0.0149      6.6005     99.0149     24.8433
  1209.1000      7.9777      2.5503      0.0037      6.0425    100.3913     26.0529
  1209.2000      7.9777      2.5741      0.0286      4.6001     98.6658     26.4665
  1209.3000      7.9777      2.5962      0.0607      3.2610     96.1306     26.0769
  1209.4000      7.9777      2.5990      0.0472      3.0929     98.3079     25.4858
  1209.5000      7.9770      2.5859      0.0410      3.8857     99.7519     25.1210
  1209.6000      7.9770      2.5736      0.0378      4.6274     96.4606     24.8919
  1209.7000      7.9770      2.5736      0.0404      4.6290     92.3207     24.7182
  1209.8000      7.9750      2.5866      0.0477      3.8410     86.1075     24.1515
  1209.9000      7.9750      2.6066      0.0373      2.6285     74.9637     22.7846
  1210.0000      7.9736      2.6246      0.0481      1.5377     62.5286     21.0276
  1210.1000      7.9736      2.6321      0.0466      1.0844     55.1900     19.5345
  1210.2000      7.9736      2.6282      0.0443      1.3196     55.2167     18.5935
  1210.3000      7.9752      2.6194      0.0336      1.8553     58.7042     18.1873
  1210.4000      7.9752      2.6117      0.0514      2.3205     61.6690     18.2243
  1210.5000      7.9770      2.6060      0.0578      2.6656     64.5696     18.3181
  1210.6000      7.9770      2.5998      0.0507      3.0436     68.3394     18.2547
  1210.7000      7.9770      2.5927      0.0503      3.4734     72.1881     18.7921
  1210.8000      7.9778      2.5868      0.0205      3.8288     74.7151     20.2644
  1210.9000      7.9778      2.5786      0.0494      4.3270     75.2068     21.7284
  1211.0000      7.9785      2.5608      0.0332      5.4047     77.1869     22.3712
  1211.1000      7.9785      2.5370     -0.0117      6.8488     85.6283     22.2815
  1211.2000      7.9785      2.5185      0.0043      7.9724     97.3982     21.6642
  1211.3000      7.9811      2.5063      0.0359      8.7091    105.5038     21.2567
  1211.4000      7.9811      2.4932      0.0331      9.5034    106.1721     21.8862
  1211.5000      7.9911      2.4809      0.0165     10.2506     97.7929     23.0779
  1211.6000      7.9911      2.4767      0.0162     10.5057     84.4305     23.7693
  1211.7000      7.9911      2.4872      0.0266      9.8671     76.5027     24.0189
  1211.8000      8.0074      2.5114      0.0583      8.3984     77.2398     24.3813
  1211.9000      8.0074      2.5361      0.0727      6.9006     79.2959     24.8741
  1212.0000      8.0176      2.5554      0.0416      5.7322     78.0323     25.7389
  1212.1000      8.0176      2.5724      0.0771      4.7046     75.2503     26.7420
  1212.2000      8.0176      2.5854      0.0532      3.9160     73.1027     26.9514
  1212.3000      8.0196      2.5940      0.0743      3.3961     73.8334     26.4539
  1212.4000      8.0196      2.5978      0.0607      3.1610     79.0178     26.1814
  1212.5000      8.0203      2.5904      0.0708      3.6092     85.6749     26.3986
  1212.6000      8.0203      2.5674      0.0406      5.0050     89.5388     26.6024
  1212.7000      8.0203      2.5400      0.0074      6.6651     92.4379     26.8910
  1212.8000      8.0216      2.5255      0.0207      7.5478     96.6289     27.7416
  1212.9000      8.0216      2.5280      0.0294      7.3910     99.4634     28.5207
  1213.0000      8.0217      2.5419      0.0512      6.5541     98.5463     28.5035
  1213.1000      8.0217      2.5574      0.0686      5.6128     96.5148     28.0452
  1213.2000      8.0217      2.5582      0.0709      5.5661     97.3870     27.7011
  1213.3000      8.0225      2.5371      0.0457      6.8448    101.4968     27.6521
  1213.4000      8.0225      2.5143      0.0217      8.2258    108.2756     27.7853
  1213.5000      8.0228      2.5114      0.0178      8.3983    114.9076     27.6520
  1213.6000      8.0228      2.5302      0.0178      7.2592    115.5845     27.1886
  1213.7000      8.0228      2.5579      0.0573      5.5798    110.8517     26.8731
  1213.8000      8.0196      2.5759      0.0557      4.4904    107.7647     26.9227
  1213.9000      8.0196      2.5739      0.0696      4.6147    106.4948     27.4481
  1214.0000      8.0144      2.5584      0.0447      5.5538    103.6531     27.9972
  1214.1000      8.0144      2.5481     -0.0018      6.1762     99.7101     27.4594
  1214.2000      8.0144      2.5530      0.0223      5.8807     96.4953     26.0285
  1214.3000      8.0068      2.5679      0.0334      4.9756     95.4874     24.9370
  1214.4000      8.0068      2.5827      0.0610      4.0802     95.8462     24.4511
  1214.5000      7.9992      2.5850      0.0398      3.9402     96.2263     24.4585
  1214.6000      7.9992      2.5788      0.0252      4.3139     97.9391     25.1644
  1214.7000      7.9992      2.5846     -0.0015      3.9620    101.1169     26.1527
  1214.8000      7.9957      2.5989      0.0916      3.0997    103.6182     26.7608
  1214.9000      7.9957      2.5927      0.0990      3.4730    103.5742     26.7711
  1215.0000      7.9952      2.5651      0.0236      5.1457    101.6827     26.2854
  1215.1000      7.9952      2.5460      0.0264      6.3016     98.4228     25.8208
  1215.2000      7.9952      2.5509      0.0032      6.0060     95.5299     25.6752
  1215.3000      7.9952      2.5661      0.0674      5.0852     96.8662     25.9985
  1215.4000      7.9952      2.5701      0.0665      4.8435    101.5219     26.5853
  1215.5000      7.9957      2.5589      0.0390      5.5242    106.1972     26.7095
  1215.6000      7.9957      2.5459      0.0102      6.3063    109.3768     26.4567
  1215.7000      7.9957      2.5450      0.0496      6.3616    110.5267     26.3210
  1215.8000      7.9961      2.5623      0.0391      5.3145    111.4743     26.5674
  1215.9000      7.9961      2.5926      0.0877      3.4809    112.7668     27.2474
  1216.0000      7.9958      2.6122      0.1131      2.2930    110.6332     28.1342
  1216.1000      7.9958      2.6078      0.0757      2.5579    104.8979     28.5987
  1216.2000      7.9958      2.6009      0.0669      2.9758    101.3928     27.8509
  1216.3000      7.9954      2.6125      0.0740      2.2745    100.6380     26.0742
  1216.4000      7.9954      2.6316      0.0988      1.1170     96.6283     24.6799
