~Version Information
VERS.                      2.0: CWLS Log ASCII Standard - VERSION 2.0
WRAP.                       NO: One line per depth step
~Well Information Block
STRT.FT               494.2500: 
STOP.FT              1992.0000: 
STEP.FT                 0.2500: 
NULL.                -999.2500: 
COMP.          Petrogulf Corporation: COMPANY
WELL.               Furu 6-23R: WELL
FLD.           Purgatoire River: FIELD
LOC.           2211' FSL & 1780' FWL--: LOCATION
CNTY.               Las Animas: COUNTY
SRVC.                Patterson: SERVICE COMPANY
DATE.          Wed Jun 21 14:57:59 2006: LOG DATE
UWI.           05 071 08266 00: UNIQUE WELL ID
STAT.                 Colorado: STATE
~Curve Information Block
DEPT.FT            0 000 00 00: Depth
GR.GAPI                       : Gamma Ray
RILD.Ohm-m                    : DIL Deep Resistivity
RILM.Ohm-m                    : DIL Medium Resistivity
RLL3.Ohm-m                    : DIL Shallow Resistivity
SP.mV                         : DIL Spontaneous Potential
~Parameter Information Block
~A  Depth        GR         RILD        RILM        RLL3         SP     
# ...
   802.2500     74.8832     35.4114     40.3381   2000.0000   2020.0000
   802.5000     74.7196     36.3414     41.6380   2000.0000   2020.0000
   802.7500     75.4508     37.3965     43.0272   2000.0000   2020.0000
   803.0000     77.8618     38.5338     44.5072   2000.0000   2020.0000
   803.2500     80.1511     39.6715     46.0434   2000.0000   2020.0000
   803.5000     83.5984     40.6945     47.5615   2000.0000   2020.0000
   803.7500     85.1767     41.4813     48.9423   2000.0000   2020.0000
   804.0000     85.8024     41.9409     50.0243   2000.0000   2020.0000
   804.2500     85.2771     42.0399     50.6366   2000.0000   2020.0000
   804.5000     84.1667     41.8097     50.6687   2000.0000   2020.0000
   804.7500     83.8214     41.3369     50.1342   2000.0000   2020.0000
   805.0000     84.3041     40.7405     49.1653   2000.0000   2020.0000
   805.2500     85.1893     40.1482     47.9397   2000.0000   2020.0000
   805.5000     87.0405     39.6754     46.6048   2000.0000   2020.0000
   805.7500     88.5421     39.4099     45.2618   2000.0000   2020.0000
   806.0000     91.2055     39.4013     43.9964   2000.0000   2020.0000
   806.2500     93.1793     39.6570     42.9122   2000.0000   2020.0000
   806.5000     95.9111     40.1468     42.1337   2000.0000   2020.0000
   806.7500     97.0277     40.8159     41.7835   2000.0000   2020.0000
   807.0000     96.6042     41.5970     41.9525   2000.0000   2020.0000
   807.2500     94.6122     42.4152     42.6792   2000.0000   2020.0000
   807.5000     89.3622     43.1922     43.9398   2000.0000   2020.0000
   807.7500     84.7447     43.8602     45.6468   2000.0000   2020.0000
   808.0000     76.6938     44.3928     47.6560   2000.0000   2020.0000
   808.2500     71.1194     44.8291     49.7882   2000.0000   2020.0000
   808.5000     64.3110     45.2658     51.8666   2000.0000   2020.0000
   808.7500     61.9756     45.8136     53.7621   2000.0000   2020.0000
   809.0000     62.3290     46.5439     55.4263   2000.0000   2020.0000
   809.2500     64.3599     47.4527     56.8882   2000.0000   2020.0000
   809.5000     67.9041     48.4587     58.2041   2000.0000   2020.0000
   809.7500     69.5996     49.4289     59.3880   2000.0000   2020.0000
   810.0000     70.8864     50.2189     60.3550   2000.0000   2020.0000
   810.2500     71.6183     50.7082     60.9142   2000.0000   2020.0000
   810.5000     74.2118     50.8184     60.8313   2000.0000   2020.0000
   810.7500     77.4502     50.5117     59.9451   2000.0000   2020.0000
   811.0000     83.9914     49.7841     58.2756   2000.0000   2020.0000
   811.2500     88.5255     48.6645     56.0435   2000.0000   2020.0000
   811.5000     93.9371     47.2188     53.5810   2000.0000   2020.0000
   811.7500     96.0950     45.5434     51.1987   2000.0000   2020.0000
   812.0000     97.2661     43.7379     49.0869   2000.0000   2020.0000
   812.2500     97.1533     41.8787     47.2859   2000.0000   2020.0000
   812.5000     96.5533     40.0144     45.7133   2000.0000   2020.0000
   812.7500     96.1492     38.1841     44.2209   2000.0000   2020.0000
   813.0000     95.6808     36.4357     42.6600   2000.0000   2020.0000
   813.2500     95.6289     34.8260     40.9379   2000.0000   2020.0000
   813.5000     96.5577     33.4025     39.0501   2000.0000   2020.0000
   813.7500     98.0983     32.1833     37.0754   2000.0000   2020.0000
   814.0000    101.4082     31.1486     35.1320   2000.0000   2020.0000
   814.2500    103.5730     30.2485     33.3244   2000.0000   2020.0000
   814.5000    105.4191     29.4221     31.7075   2000.0000   2020.0000
   814.7500    105.3826     28.6162     30.2823   2000.0000   2020.0000
   815.0000    104.2144     27.7980     29.0143   2000.0000   2020.0000
   815.2500    103.7419     26.9584     27.8555   2000.0000   2020.0000
   815.5000    105.0375     26.1081     26.7603   2000.0000   2020.0000
   815.7500    107.4210     25.2695     25.6940   2000.0000   2020.0000
   816.0000    112.5079     24.4653     24.6391   2000.0000   2020.0000
   816.2500    116.3849     23.7117     23.6024   2000.0000   2020.0000
   816.5000    122.5514     23.0153     22.6155   2000.0000   2020.0000
   816.7500    126.8761     22.3750     21.7248   2000.0000   2020.0000
   817.0000    133.4937     21.7867     20.9727   2000.0000   2020.0000
   817.2500    137.6826     21.2513     20.3793   2000.0000   2020.0000
   817.5000    143.0180     20.7818     19.9368   2000.0000   2020.0000
   817.7500    145.8006     20.4023     19.6157   2000.0000   2020.0000
   818.0000    149.0424     20.1383     19.3816   2000.0000   2020.0000
   818.2500    150.7477     20.0043     19.2096   2000.0000   2020.0000
   818.5000    152.5467     19.9932     19.0880   2000.0000   2020.0000
   818.7500    153.0955     20.0758     19.0128   2000.0000   2020.0000
   819.0000    152.9789     20.2056     18.9795   2000.0000   2020.0000
   819.2500    152.4701     20.3323     18.9831   2000.0000   2020.0000
   819.5000    151.3348     20.4152     19.0240   2000.0000   2020.0000
   819.7500    150.3943     20.4310     19.1123   2000.0000   2020.0000
   820.0000    148.8767     20.3715     19.2633   2000.0000   2020.0000
   820.2500    147.9185     20.2365     19.4855   2000.0000   2020.0000
   820.5000    146.5355     20.0320     19.7673   2000.0000   2020.0000
   820.7500    145.4076     19.7722     20.0701   2000.0000   2020.0000
   821.0000    142.9595     19.4765     20.3363   2000.0000   2020.0000
   821.2500    140.9793     19.1617     20.5119   2000.0000   2020.0000
   821.5000    138.9590     18.8336     20.5725   2000.0000   2020.0000
   821.7500    139.4184     18.4876     20.5322   2000.0000   2020.0000
   822.0000    143.8365     18.1154     20.4249   2000.0000   2020.0000
   822.2500    148.7631     17.7115     20.2671   2000.0000   2020.0000
   822.5000    156.5958     17.2772     20.0292   2000.0000   2020.0000
   822.7500    160.2752     16.8203     19.6398   2000.0000   2020.0000
   823.0000    161.2885     16.3540     19.0333   2000.0000   2020.0000
   823.2500    158.9382     15.8949     18.2086   2000.0000   2020.0000
   823.5000    152.8411     15.4612     17.2432   2000.0000   2020.0000
   823.7500    148.5393     15.0693     16.2495   2000.0000   2020.0000
   824.0000    143.3124     14.7297     15.3208   2000.0000   2020.0000
   824.2500    140.8346     14.4439     14.5121   2000.0000   2020.0000
   824.5000    138.2994     14.2048     13.8501   2000.0000   2020.0000
   824.7500    137.1779     14.0009     13.3467   2000.0000   2020.0000
   825.0000    136.0763     13.8223     13.0044   2000.0000   2020.0000
   825.2500    135.5504     13.6662     12.8158   2000.0000   2020.0000
   825.5000    134.8044     13.5390     12.7622   2000.0000   2020.0000
   825.7500    134.3371     13.4532     12.8157   2000.0000   2020.0000
   826.0000    133.8580     13.4231     12.9426   2000.0000   2020.0000
   826.2500    133.7524     13.4594     13.1081   2000.0000   2020.0000
   826.5000    134.0664     13.5652     13.2826   2000.0000   2020.0000
   826.7500    134.7887     13.7354     13.4485   2000.0000   2020.0000
   827.0000    136.8064     13.9590     13.6036   2000.0000   2020.0000
   827.2500    138.5165     14.2229     13.7587   2000.0000   2020.0000
   827.5000    140.7685     14.5135     13.9295   2000.0000   2020.0000
   827.7500    141.6130     14.8168     14.1271   2000.0000   2020.0000
   828.0000    141.5647     15.1167     14.3525   2000.0000   2020.0000
   828.2500    140.8026     15.3960     14.5980   2000.0000   2020.0000
   828.5000    139.3675     15.6394     14.8536   2000.0000   2020.0000
   828.7500    138.7041     15.8371     15.1149   2000.0000   2020.0000
   829.0000    138.2801     15.9861     15.3870   2000.0000   2020.0000
   829.2500    138.0118     16.0911     15.6816   2000.0000   2020.0000
   829.5000    136.9821     16.1621     16.0103   2000.0000   2020.0000
   829.7500    135.8581     16.2115     16.3756   2000.0000   2020.0000
   830.0000    134.0418     16.2505     16.7641   2000.0000   2020.0000
