~Version Information
VERS.                      2.0: CWLS Log ASCII Standard - VERSION 2.0
WRAP.                       NO: One line per depth step
~Well Information Block
STRT.FT               480.1000: 
STOP.FT              2029.0000: 
STEP.FT                 0.1000: 
NULL.                -999.2500: 
COMP.          Petrogulf Corporation: COMPANY
WELL.            Montoya 7-12R: WELL
FLD.           Purgatorie River: FIELD
LOC.           1769' FNL & 658' FWL: LOCATION
CNTY.               Las Animas: COUNTY
SRVC.                         : SERVICE COMPANY
DATE.          Mon Nov 22 07:21:54 2004: LOG DATE
UWI.           05 071 08240 00: UNIQUE WELL ID
STAT.                 Colorado: STATE
~Curve Information Block
DEPT.FT            0 000 00 00: Depth
DCAL.in                       : CDL Caliper
RHOB.g/cc                     : CDL Bulk Density
RHOC.g/cc                     : CDL Density Correction
DPOR.pu                       : CDL Density Porosity
GR.GAPI                       : Gamma Ray
NPOR.pu                       : Neutron Porosity
~Parameter Information Block
~A  Depth       DCAL        RHOB        RHOC        DPOR         GR         NPOR    
# ...
  1008.1000      7.9474      2.5090      0.0394      8.5435     50.1462     17.2093
  1008.2000      7.9474      2.5017      0.0592      8.9891     51.2157     17.6062
  1008.3000      7.9357      2.4716      0.0457     10.8102     50.8672     17.6955
  1008.4000      7.9357      2.4309      0.0040     13.2771     48.9722     17.5322
  1008.5000      7.9591      2.4148     -0.0294     14.2549     47.4678     17.0134
  1008.6000      7.9591      2.4417     -0.0096     12.6216     48.1029     16.4415
  1008.7000      7.9591      2.4951      0.0726      9.3908     48.3715     16.2523
  1008.8000      7.9176      2.5420      0.1199      6.5481     45.5888     16.6501
  1008.9000      7.9176      2.5668      0.0596      5.0418     42.3118     17.2339
  1009.0000      7.8731      2.5802      0.0731      4.2316     42.5502     16.8578
  1009.1000      7.8731      2.5885      0.0838      3.7244     45.9609     15.6858
  1009.2000      7.8731      2.5867      0.1139      3.8385     48.7430     15.3914
  1009.3000      7.8806      2.5750      0.1334      4.5462     50.8537     16.2945
  1009.4000      7.8806      2.5639      0.0665      5.2184     53.0381     17.1482
  1009.5000      7.8754      2.5623      0.0840      5.3124     52.0829     17.3363
  1009.6000      7.8754      2.5688      0.0963      4.9184     48.8207     17.2585
  1009.7000      7.8754      2.5885      0.0698      3.7244     47.4230     17.2579
  1009.8000      7.8686      2.6345      0.0787      0.9369     47.3843     17.4748
  1009.9000      7.8686      2.6935      0.1307     -2.6367     46.2670     17.3954
  1010.0000      7.8451      2.7306      0.1605     -4.8823     44.9350     16.6735
  1010.1000      7.8451      2.7311      0.1453     -4.9135     42.3277     16.1285
  1010.2000      7.8451      2.7123      0.1502     -3.7761     38.1893     16.2574
  1010.3000      7.8579      2.6942      0.1110     -2.6764     36.7923     16.3712
  1010.4000      7.8579      2.6770      0.1333     -1.6366     38.6868     16.0862
  1010.5000      7.8526      2.6533      0.1150     -0.1980     42.7224     15.6420
  1010.6000      7.8526      2.6265      0.0413      1.4235     48.5923     15.3334
  1010.7000      7.8526      2.6036      0.0652      2.8131     52.6218     15.5065
  1010.8000      7.8544      2.5829      0.0215      4.0688     52.5222     16.1171
  1010.9000      7.8544      2.5722      0.0165      4.7174     51.4119     16.7354
  1011.0000      7.8452      2.5864      0.0005      3.8561     53.2338     17.3810
  1011.1000      7.8452      2.6197      0.0973      1.8371     58.5751     18.3389
  1011.2000      7.8452      2.6458      0.0626      0.2556     65.6792     19.4573
  1011.3000      7.8818      2.6487      0.0800      0.0816     74.2297     20.4366
  1011.4000      7.8818      2.6272      0.1090      1.3833     84.5968     21.4189
  1011.5000      7.9296      2.5911      0.0468      3.5688     95.0961     22.4415
  1011.6000      7.9296      2.5635      0.0237      5.2412    103.4714     23.3049
  1011.7000      7.9296      2.5543     -0.0000      5.7979    108.4137     24.0732
  1011.8000      8.0209      2.5499     -0.0015      6.0682    110.1855     24.8221
  1011.9000      8.0209      2.5413      0.0032      6.5868    110.3521     25.1490
  1012.0000      8.0280      2.5251      0.0284      7.5712    110.2332     24.6623
  1012.1000      8.0280      2.4884      0.0368      9.7941    110.1721     24.4255
  1012.2000      8.0280      2.4363     -0.0044     12.9489    112.4236     25.5693
  1012.3000      8.0139      2.3973     -0.0563     15.3129    117.9521     27.3736
  1012.4000      8.0139      2.3754      0.0207     16.6405    122.7823     28.9349
  1012.5000      8.0027      2.3453      0.0077     18.4681    123.3230     30.1937
  1012.6000      8.0027      2.3090     -0.0383     20.6691    121.3170     31.1298
  1012.7000      8.0027      2.3015     -0.0074     21.1235    121.4264     31.6826
  1012.8000      7.9775      2.3335      0.0982     19.1807    124.7338     31.9361
  1012.9000      7.9775      2.3827      0.1354     16.1993    128.2480     31.8813
  1013.0000      8.0205      2.4352      0.1569     13.0191    128.0624     31.5986
  1013.1000      8.0205      2.4883      0.2151      9.8023    124.4506     31.3619
  1013.2000      8.0205      2.5387      0.2212      6.7460    120.5439     31.2129
  1013.3000      8.0270      2.5874      0.2640      3.7963    115.6301     31.2172
  1013.4000      8.0270      2.6323      0.2893      1.0730    110.2880     31.1616
  1013.5000      8.0522      2.6616      0.3036     -0.7035    107.1694     30.5898
  1013.6000      8.0522      2.6610      0.1987     -0.6674    105.2599     29.9124
  1013.7000      8.0522      2.6429      0.0784      0.4328    104.9322     29.6305
  1013.8000      7.9831      2.6362      0.1305      0.8388    106.3998     29.2392
  1013.9000      7.9831      2.6347      0.1103      0.9271    106.2919     28.2322
  1014.0000      8.0154      2.6158      0.0555      2.0721    105.5951     27.2862
  1014.1000      8.0154      2.5923     -0.0390      3.4987    106.6498     26.9080
  1014.2000      8.0154      2.5818      0.0375      4.1356    109.9055     26.8196
  1014.3000      8.2067      2.5710      0.0266      4.7876    113.2128     26.7147
  1014.4000      8.2067      2.5583      0.0025      5.5557    110.6585     26.6155
  1014.5000      8.1677      2.5586     -0.0085      5.5422    102.1562     26.7891
  1014.6000      8.1677      2.5689     -0.0429      4.9149     94.0457     27.1126
  1014.7000      8.1677      2.5802     -0.0328      4.2314     88.6821     27.2796
  1014.8000      8.1190      2.5872      0.0256      3.8062     84.4806     27.4086
  1014.9000      8.1190      2.5804      0.0169      4.2180     82.7110     27.5994
  1015.0000      8.1055      2.5646      0.0090      5.1769     84.4764     27.5970
  1015.1000      8.1055      2.5651     -0.0488      5.1447     88.4909     27.2683
  1015.2000      8.1055      2.5816      0.0713      4.1480     95.5865     26.9905
  1015.3000      8.0839      2.5926      0.0122      3.4780    103.6519     27.4841
  1015.4000      8.0839      2.6010      0.0371      2.9690    106.1733     28.7032
  1015.5000      8.1286      2.6051      0.0844      2.7193    103.6232     29.6151
  1015.6000      8.1286      2.5950      0.1057      3.3346    103.0318     29.3157
  1015.7000      8.1286      2.5867      0.0567      3.8350    106.3255     28.2336
  1015.8000      8.1580      2.5937      0.0909      3.4121    110.6131     27.6015
  1015.9000      8.1580      2.5953      0.1284      3.3165    112.6603     27.7068
  1016.0000      8.1220      2.5779      0.0080      4.3679    111.6052     27.9730
  1016.1000      8.1220      2.5566     -0.0186      5.6609    110.1276     27.9921
  1016.2000      8.1220      2.5401     -0.0278      6.6588    107.6494     27.9436
  1016.3000      8.1240      2.5271     -0.0254      7.4489    103.9539     28.1646
  1016.4000      8.1240      2.5152     -0.0181      8.1695    103.1173     28.4716
  1016.5000      8.1212      2.5061     -0.0376      8.7202    103.0043     28.3456
  1016.6000      8.1212      2.5164     -0.0356      8.0968    101.2693     28.1126
  1016.7000      8.1212      2.5527      0.0233      5.8961    101.5700     28.4554
  1016.8000      8.1221      2.5868      0.0370      3.8325    104.3190     28.6793
  1016.9000      8.1221      2.5960      0.0381      3.2744    108.2427     28.1654
  1017.0000      8.0762      2.5857      0.0524      3.8970    113.3102     27.9682
  1017.1000      8.0762      2.5585      0.0285      5.5448    115.3967     28.6971
  1017.2000      8.0762      2.5281     -0.0452      7.3898    113.7306     29.3719
  1017.3000      8.0374      2.5296      0.0133      7.2998    115.0857     29.4227
  1017.4000      8.0374      2.5623      0.0699      5.3180    120.9793     29.1897
  1017.5000      8.0294      2.5932      0.0781      3.4402    125.5757     28.6690
  1017.6000      8.0294      2.6085      0.0584      2.5129    124.8079     27.8921
