~Version Information
VERS.                      2.0: CWLS Log ASCII Standard - VERSION 2.0
WRAP.                       NO: One line per depth step
~Well Information Block
STRT.FT                15.0000: 
STOP.FT              2565.5000: 
STEP.FT                 0.2500: 
NULL.                -999.2500: 
COMP.          Pioneer Natural Resources: COMPANY
WELL.           Costello 44-24: WELL
FLD.           Purgatoire River: FIELD
LOC.           327' FSL & 378' FEL: LOCATION
PROV.                 Colorado: PROVINCE
CNTY.               Las Animas: COUNTRY
SRVC.                Patterson: SERVICE COMPANY
DATE.          Mon Jul 25 10:15:19 2005: LOG DATE
UWI.           05 071 08413 00: UNIQUE WELL ID
~Curve Information Block
DEPT.FT            0 000 00 00: Depth
GR.GAPI                       : Gamma Ray
CCL.                          : Casing Collar Locator
TT3.usec                      : CBL 3' Travel Time
AMP3.mV                       : CBL 3' Amplitude
~Parameter Information Block
~A  Depth        GR         CCL         TT3         AMP3    
# ...
  1522.5000    132.2564      0.0000    640.3911      4.4334
  1522.7500    130.6596      0.0000    623.8849      4.4246
  1523.0000    130.4801      0.0000    607.1651      4.4668
  1523.2500    131.1806      0.0000    591.9013      4.5477
  1523.5000    131.4046      0.0000    577.8826      4.6451
  1523.7500    129.7493      0.0000    563.1937      4.7400
  1524.0000    125.6533      0.0000    546.0897      4.8216
  1524.2500    119.7604      0.0000    526.9369      4.8826
  1524.5000    113.5948      0.0000    509.0082      4.9177
  1524.7500    108.5786      0.0000    498.1299      4.9279
  1525.0000    104.8041      0.0000    500.6447      4.9243
  1525.2500    100.7763      0.0000    519.7797      4.9246
  1525.5000     94.9178      0.0000    552.5043      4.9416
  1525.7500     87.4093      0.0000    589.8470      4.9765
  1526.0000     80.0248      0.0000    621.5013      5.0202
  1526.2500     74.1196      0.0000    641.4520      5.0622
  1526.5000     69.4611      0.0000    650.0757      5.0960
  1526.7500     65.2145      0.0000    651.9384      5.1183
  1527.0000     61.4466      0.0000    652.0143      5.1252
  1527.2500     59.2399      0.0000    652.9413      5.1147
  1527.5000     59.6004      0.0000    654.3256      5.0901
  1527.7500     62.4041      0.0000    654.0520      5.0598
  1528.0000     66.1200      0.0000    650.4601      5.0323
  1528.2500     68.4911      0.0000    644.0297      5.0111
  1528.5000     67.9033      0.0000    637.6241      4.9961
  1528.7500     64.4656      0.0000    634.8736      4.9873
  1529.0000     59.8647      0.0000    637.5576      4.9849
  1529.2500     56.1437      0.0000    644.2856      4.9841
  1529.5000     54.5033      0.0000    651.8088      4.9771
  1529.7500     54.9042      0.0000    657.5244      4.9611
  1530.0000     56.4082      0.0000    660.7300      4.9448
  1530.2500     57.8073      0.0000    662.0700      4.9422
  1530.5000     58.1730      0.0000    662.4333      4.9596
  1530.7500     57.1917      0.0000    662.3925      4.9887
  1531.0000     55.2694      0.0000    662.2100      5.0124
  1531.2500     53.2663      0.0000    662.0048      5.0187
  1531.5000     51.8797      0.0000    661.8370      5.0085
  1531.7500     51.1449      0.0000    661.7195      4.9904
  1532.0000     50.6622      0.0000    661.6124      4.9703
  1532.2500     50.3481      0.0000    661.4106      4.9444
  1532.5000     50.7582      0.0000    660.8080      4.9017
  1532.7500     52.5712      0.0000    659.0674      4.8296
  1533.0000     56.0741      0.0000    655.0179      4.7264
  1533.2500     61.4422      0.0000    648.0687      4.6176
  1533.5000     69.2347      0.0000    640.2495      4.5481
  1533.7500     79.9937      0.0000    637.1248      4.5355
  1534.0000     93.1376      0.0000    644.7237      4.5401
  1534.2500    106.4626      0.0000    663.9626      4.5058
  1534.5000    117.1060      0.0000    688.6036      4.4187
  1534.7500    123.2864      0.0000    709.5969      4.3046
  1535.0000    125.2011      0.0000    721.1970      4.1884
  1535.2500    124.3643      3.0000    723.1592      4.0796
  1535.5000    122.3979      0.0000    718.5930      3.9848
  1535.7500    120.4927      0.0000    710.7181      3.9149
  1536.0000    119.5401      0.0000    701.3850      3.8811
  1536.2500    120.1177      0.0000    691.9163      3.8792
  1536.5000    121.9527      0.0000    684.1771      3.8741
  1536.7500    123.5149      0.0000    679.8314      3.8171
  1537.0000    122.8813      0.0000    678.8892      3.6988
  1537.2500    119.5989      0.0000    679.8574      3.5728
  1537.5000    115.3383      0.0000    681.2234      3.5087
  1537.7500    112.1645      0.0000    682.3138      3.5318
  1538.0000    110.5596      0.0000    682.7801      3.6177
  1538.2500    109.6315      0.0000    682.1014      3.7281
  1538.5000    108.8903      0.0000    680.1452      3.8406
  1538.7500    109.1960      0.0000    677.7801      3.9526
  1539.0000    112.0710      0.0000    676.1620      4.0698
  1539.2500    118.5169      0.0000    675.4330      4.1939
  1539.5000    128.3671      0.0000    674.5766      4.3165
  1539.7500    140.1759      0.0000    672.5706      4.4243
  1540.0000    151.5829      0.0000    669.4333      4.5121
  1540.2500    160.2844      0.0000    666.2039      4.5915
  1540.5000    165.0996      0.0000    664.0975      4.6834
  1540.7500    166.2308      0.0000    663.7807      4.7967
  1541.0000    164.7099      0.0000    665.3237      4.9177
  1541.2500    161.7628      0.0000    668.4639      5.0239
  1541.5000    158.4410      0.0000    672.6893      5.1080
  1541.7500    155.4937      0.0000    677.2015      5.1803
  1542.0000    153.4595      0.0000    681.0172      5.2541
  1542.2500    152.7596      0.0000    683.1940      5.3345
  1542.5000    153.5161      0.0000    683.1248      5.4186
  1542.7500    155.3672      0.0000    680.8264      5.4955
  1543.0000    157.9310      0.0000    676.9531      5.5479
  1543.2500    161.6409      0.0000    672.5636      5.5598
  1543.5000    167.4542      0.0000    668.8728      5.5231
  1543.7500    174.8719      0.0000    666.9735      5.4375
  1544.0000    180.5548      0.0000    667.4907      5.3156
  1544.2500    180.2424      0.0000    670.2294      5.1851
  1544.5000    172.6390      0.0000    673.8956      5.0754
  1544.7500    160.6870      0.0000    676.3755      5.0030
  1545.0000    148.6709      0.0000    675.9875      4.9677
  1545.2500    138.7765      0.0000    672.8213      4.9603
  1545.5000    130.6767      0.0000    668.5969      4.9659
  1545.7500    123.4588      0.0000    665.1172      4.9652
  1546.0000    116.9802      0.0000    663.0742      4.9418
  1546.2500    111.5526      0.0000    662.1878      4.8921
  1546.5000    107.1831      0.0000    661.9768      4.8268
  1546.7500    103.5874      0.0000    662.1781      4.7650
  1547.0000    100.6842      0.0000    662.6888      4.7273
  1547.2500     98.7746      0.0000    663.4661      4.7276
  1547.5000     98.3234      0.0000    664.6558      4.7631
  1547.7500     99.6229      0.0000    666.7621      4.8138
  1548.0000    102.5154      0.0000    670.4055      4.8573
  1548.2500    106.3872      0.0000    675.5984      4.8842
  1548.5000    110.5754      0.0000    681.2272      4.8978
  1548.7500    114.9005      0.0000    685.5615      4.9027
  1549.0000    119.7440      0.0000    687.5499      4.8980
  1549.2500    125.4259      0.0000    687.5800      4.8796
  1549.5000    131.4899      0.0000    686.7678      4.8467
  1549.7500    136.7715      0.0000    685.4982      4.8052
  1550.0000    140.2478      0.0000    682.9968      4.7649
  1550.2500    141.7371      0.0000    678.5561      4.7356
  1550.5000    141.8788      0.0000    672.8373      4.7218
  1550.7500    141.6561      0.0000    667.5414      4.7208
  1551.0000    141.8677      0.0000    663.9576      4.7270
  1551.2500    142.8714      0.0000    662.1659      4.7403
  1551.5000    144.7075      0.0000    661.4752      4.7661
  1551.7500    147.3058      0.0000    661.2060      4.8021
  1552.0000    150.4079      0.0000    661.0168      4.8299
  1552.2500    153.2101      0.0000    660.8156      4.8262
  1552.5000    154.2935      0.0000    660.6067      4.7842
  1552.7500    152.2321      0.0000    660.4304      4.7245
  1553.0000    146.3660      0.0000    660.3472      4.6827
  1553.2500    137.0800      0.0000    660.4427      4.6846
  1553.5000    125.7370      0.0000    660.9025      4.7323
  1553.7500    114.4176      0.0000    662.0983      4.8069
  1554.0000    105.1026      0.0000    664.4810      4.8814
  1554.2500     98.4913      0.0000    668.2446      4.9331
  1554.5000     93.6814      0.0000    673.0955      4.9585
  1554.7500     89.3884      0.0000    678.3765      4.9808
  1555.0000     85.6232      0.0000    683.3337      5.0356
  1555.2500     84.0296      0.0000    687.3015      5.1378
  1555.5000     86.2916      0.0000    689.8558      5.2644
  1555.7500     92.1058      0.0000    690.8135      5.3761
