~Version Information
VERS.                      2.0: CWLS Log ASCII Standard - VERSION 2.0
WRAP.                       NO: One line per depth step
~Well Information Block
STRT.FT               387.1000: 
STOP.FT              1748.0000: 
STEP.FT                 0.1000: 
NULL.                -999.2500: 
COMP.          Evergreen Operating Corp.: COMPANY
WELL.          Pachorek 13-31 Tr: WELL
FLD.           Cottontail Pass: FIELD
LOC.           1575' FSL & 900' FWL--API# 05-071-07019-00: LOCATION
PROV.                 Colorado: PROVINCE
CNTY.               Las Animas: COUNTRY
SRVC.          Scientific Data Systems, Inc.: SERVICE COMPANY
DATE.          Tue Aug 08 15:02:37 2000: LOG DATE
UWI.                      05071070190000:UNIQUE WELL IDENTIFICATION
~Curve Information Block
DEPT.FT            0 000 00 00: Depth
DCAL.in                       : CDL Caliper
RHOB.g/cc                     : CDL Bulk Density
RHOC.g/cc                     : CDL Density Correction
DPOR.pu                       : CDL Density Porosity
GR.GAPI                       : Gamma Ray
NPOR.pu                       : Neutron Porosity
~Parameter Information Block
~A  Depth       DCAL        RHOB        RHOC        DPOR         GR         NPOR    
# ...
  1193.5000      8.1173      2.5069      0.0196      8.6739    178.6213     25.5797
  1193.6000      8.1173      2.4960      0.0135      9.3344    178.2574     24.9450
  1193.7000      8.1173      2.4847      0.0090     10.0162    178.0981     24.2403
  1193.8000      8.1331      2.4731      0.0060     10.7184    178.1879     23.4766
  1193.9000      8.1331      2.4612      0.0041     11.4424    178.5654     22.6686
  1194.0000      8.1491      2.4488      0.0032     12.1910    179.2591     21.8339
  1194.1000      8.1491      2.4360      0.0027     12.9686    180.2831     20.9924
  1194.2000      8.1491      2.4226      0.0024     13.7797    181.6336     20.1650
  1194.3000      8.1734      2.4086      0.0019     14.6293    183.2986     19.3722
  1194.4000      8.1734      2.3939      0.0014     15.5220    185.2677     18.6328
  1194.5000      8.2099      2.3784      0.0006     16.4614    187.5321     17.9625
  1194.6000      8.2099      2.3621     -0.0001     17.4503    190.1001     17.3726
  1194.7000      8.2099      2.3449     -0.0005     18.4902    192.9843     16.8695
  1194.8000      8.2436      2.3269     -0.0003     19.5818    196.2010     16.4546
  1194.9000      8.2436      2.3080      0.0008     20.7244    199.7438     16.1241
  1195.0000      8.2652      2.2884      0.0028     21.9162    203.5729     15.8699
  1195.1000      8.2652      2.2680      0.0058     23.1541    207.5965     15.6810
  1195.2000      8.2652      2.2468      0.0096     24.4336    211.6629     15.5445
  1195.3000      8.2728      2.2252      0.0137     25.7478    215.5682     15.4475
  1195.4000      8.2728      2.2031      0.0178     27.0876    219.0620     15.3787
  1195.5000      8.2448      2.1807      0.0214     28.4407    221.8758     15.3302
  1195.6000      8.2448      2.1584      0.0241     29.7910    223.7549     15.2983
  1195.7000      8.2448      2.1365      0.0257     31.1188    224.4844     15.2843
  1195.8000      8.1778      2.1154      0.0262     32.4001    223.9131     15.2941
  1195.9000      8.1778      2.0955      0.0258     33.6078    221.9810     15.3375
  1196.0000      8.1019      2.0773      0.0250     34.7118    218.7173     15.4266
  1196.1000      8.1019      2.0613      0.0244     35.6808    214.2525     15.5739
  1196.2000      8.1019      2.0480      0.0247     36.4836    208.7991     15.7904
  1196.3000      8.0537      2.0380      0.0265     37.0911    202.6378     16.0842
  1196.4000      8.0537      2.0316      0.0303     37.4783    196.0953     16.4592
  1196.5000      8.0394      2.0292      0.0363     37.6262    189.5179     16.9148
  1196.6000      8.0394      2.0309      0.0444     37.5229    183.2447     17.4451
  1196.7000      8.0394      2.0368      0.0543     37.1652    177.5868     18.0392
  1196.8000      8.0393      2.0468      0.0654     36.5592    172.8025     18.6822
  1196.9000      8.0393      2.0606      0.0769     35.7196    169.0860     19.3546
  1197.0000      8.0400      2.0780      0.0879     34.6693    166.5557     20.0335
  1197.1000      8.0400      2.0983      0.0975     33.4383    165.2433     20.6940
  1197.2000      8.0400      2.1210      0.1052     32.0612    165.0966     21.3099
  1197.3000      8.0372      2.1455      0.1103     30.5757    165.9811     21.8567
  1197.4000      8.0372      2.1712      0.1126     29.0200    167.6930     22.3129
  1197.5000      8.0308      2.1974      0.1122     27.4306    169.9762     22.6635
  1197.6000      8.0308      2.2236      0.1093     25.8403    172.5482     22.9002
  1197.7000      8.0308      2.2494      0.1046     24.2768    175.1285     23.0240
  1197.8000      8.0368      2.2744      0.0988     22.7616    177.4681     23.0439
  1197.9000      8.0368      2.2984      0.0930     21.3097    179.3766     22.9761
  1198.0000      8.0593      2.3212      0.0883     19.9296    180.7470     22.8420
  1198.1000      8.0593      2.3427      0.0856     18.6248    181.5491     22.6664
  1198.2000      8.0593      2.3630      0.0858     17.3942    181.8300     22.4738
  1198.3000      8.0715      2.3821      0.0891     16.2341    181.6866     22.2871
  1198.4000      8.0715      2.4002      0.0957     15.1399    181.2424     22.1253
  1198.5000      8.0620      2.4172      0.1050     14.1070    180.6143     22.0032
  1198.6000      8.0620      2.4333      0.1163     13.1322    179.8932     21.9296
  1198.7000      8.0620      2.4485      0.1283     12.2145    179.1248     21.9088
  1198.8000      8.0616      2.4626      0.1401     11.3555    178.3135     21.9403
  1198.9000      8.0616      2.4758      0.1505     10.5586    177.4265     22.0202
  1199.0000      8.0688      2.4878      0.1586      9.8293    176.4130     22.1416
  1199.1000      8.0688      2.4986      0.1636      9.1736    175.2228     22.2960
  1199.2000      8.0688      2.5081      0.1651      8.5980    173.8307     22.4737
  1199.3000      8.0626      2.5162      0.1630      8.1080    172.2469     22.6646
  1199.4000      8.0626      2.5228      0.1573      7.7072    170.5229     22.8590
  1199.5000      8.0424      2.5279      0.1485      7.3975    168.7521     23.0473
  1199.6000      8.0424      2.5316      0.1369      7.1774    167.0520     23.2216
  1199.7000      8.0424      2.5338      0.1234      7.0428    165.5443     23.3759
  1199.8000      8.0084      2.5347      0.1086      6.9866    164.3378     23.5065
  1199.9000      8.0084      2.5345      0.0935      6.9990    163.5063     23.6134
  1200.0000      7.9776      2.5334      0.0786      7.0678    163.0706     23.7001
  1200.1000      7.9776      2.5315      0.0648      7.1791    163.0073     23.7740
  1200.2000      7.9776      2.5293      0.0526      7.3180    163.2428     23.8453
  1200.3000      7.9701      2.5268      0.0424      7.4689    163.6848     23.9264
  1200.4000      7.9701      2.5243      0.0345      7.6170    164.2314     24.0304
  1200.5000      7.9667      2.5222      0.0291      7.7485    164.7984     24.1691
  1200.6000      7.9667      2.5205      0.0264      7.8511    165.3256     24.3518
  1200.7000      7.9667      2.5194      0.0261      7.9154    165.7846     24.5837
  1200.8000      7.9529      2.5191      0.0284      7.9345    166.1730     24.8650
  1200.9000      7.9529      2.5196      0.0330      7.9047    166.4995     25.1907
  1201.0000      7.9390      2.5209      0.0396      7.8253    166.7780     25.5513
  1201.1000      7.9390      2.5230      0.0479      7.6987    167.0101     25.9333
  1201.2000      7.9390      2.5258      0.0575      7.5295    167.1869     26.3211
  1201.3000      7.9406      2.5291      0.0678      7.3248    167.2868     26.6985
  1201.4000      7.9406      2.5330      0.0783      7.0928    167.2879     27.0504
  1201.5000      7.9622      2.5371      0.0883      6.8429    167.1749     27.3645
  1201.6000      7.9622      2.5414      0.0973      6.5846    166.9456     27.6315
  1201.7000      7.9622      2.5456      0.1050      6.3271    166.6224     27.8461
  1201.8000      7.9881      2.5497      0.1110      6.0793    166.2495     28.0061
  1201.9000      7.9881      2.5535      0.1152      5.8493    165.8909     28.1119
  1202.0000      8.0023      2.5569      0.1177      5.6441    165.6193     28.1655
  1202.1000      8.0023      2.5597      0.1187      5.4702    165.5059     28.1703
  1202.2000      8.0023      2.5620      0.1185      5.3329    165.6110     28.1299
  1202.3000      8.0106      2.5636      0.1172      5.2363    165.9633     28.0487
  1202.4000      8.0106      2.5645      0.1152      5.1839    166.5651     27.9314
  1202.5000      8.0215      2.5646      0.1126      5.1774    167.3818     27.7834
  1202.6000      8.0215      2.5639      0.1096      5.2172    168.3531     27.6111
  1202.7000      8.0215      2.5625      0.1061      5.3015    169.4040     27.4219
  1202.8000      8.0315      2.5605      0.1023      5.4265    170.4576     27.2245
  1202.9000      8.0315      2.5578      0.0981      5.5859    171.4522     27.0288
  1203.0000      8.0358      2.5548      0.0939      5.7709    172.3546     26.8455
