~Version Information
VERS.                      2.0: CWLS Log ASCII Standard - VERSION 2.0
WRAP.                       NO: One line per depth step
~Well Information Block
STRT.FT               -10.3000: 
STOP.FT              1936.7000: 
STEP.FT                 0.1000: 
NULL.                -999.2500: 
COMP.          Petrogulf Corporation: COMPANY
WELL.              Graff 9-31R: WELL
FLD.           Purgatorie River: FIELD
LOC.           707' FNL & 1713' FEL------: LOCATION
CNTY.               Las Animas: COUNTY
SRVC.                         : SERVICE COMPANY
DATE.          Wed Nov 17 13:41:51 2004: LOG DATE
UWI.                          : UNIQUE WELL ID
STAT.                       CO: STATE
~Curve Information Block
DEPT.FT            0 000 00 00: Depth
GR.GAPI                       : Gamma Ray
CCL.                          : Casing Collar Locator
TT3.usec                      : CBL 3' Travel Time
AMP3.mV                       : CBL 3' Amplitude
~Parameter Information Block
~A  Depth        GR         CCL         TT3         AMP3    
# ...
  1785.3000    148.6737      0.0000    739.9597      5.9948
  1785.4000    148.6737      0.0000    739.9597      5.9948
  1785.5000    137.8497      0.0000    730.8804      5.6571
  1785.6000    137.8497      0.0000    730.8804      5.6571
  1785.7000    137.8497      0.0000    730.8804      5.6571
  1785.8000    129.6080      0.0000    719.8163      5.2603
  1785.9000    129.6080      0.0000    719.8163      5.2603
  1786.0000    125.5460      0.0000    709.6711      4.8333
  1786.1000    125.5460      0.0000    709.6711      4.8333
  1786.2000    125.5460      0.0000    709.6711      4.8333
  1786.3000    124.2407      0.0000    702.0319      4.4035
  1786.4000    124.2407      0.0000    702.0319      4.4035
  1786.5000    123.2962      0.0000    697.3777      3.9846
  1786.6000    123.2962      0.0000    697.3777      3.9846
  1786.7000    123.2962      0.0000    697.3777      3.9846
  1786.8000    121.0004      0.0000    696.2211      3.5794
  1786.9000    121.0004      0.0000    696.2211      3.5794
  1787.0000    116.8431      0.0000    698.8629      3.1956
  1787.1000    116.8431      0.0000    698.8629      3.1956
  1787.2000    116.8431      0.0000    698.8629      3.1956
  1787.3000    111.2805      0.0000    704.6530      2.8570
  1787.4000    111.2805      0.0000    704.6530      2.8570
  1787.5000    105.0964      0.0000    712.5778      2.5973
  1787.6000    105.0964      0.0000    712.5778      2.5973
  1787.7000    105.0964      0.0000    712.5778      2.5973
  1787.8000     99.1110      0.0000    722.3553      2.4392
  1787.9000     99.1110      0.0000    722.3553      2.4392
  1788.0000     94.6308      0.0000    734.0187      2.3784
  1788.1000     94.6308      0.0000    734.0187      2.3784
  1788.2000     94.6308      0.0000    734.0187      2.3784
  1788.3000     93.5412      0.0000    746.0958      2.3860
  1788.4000     93.5412      0.0000    746.0958      2.3860
  1788.5000     97.1900      0.0000    754.5573      2.4273
  1788.6000     97.1900      0.0000    754.5573      2.4273
  1788.7000     97.1900      0.0000    754.5573      2.4273
  1788.8000    105.2328      0.0000    754.2432      2.4846
  1788.9000    105.2328      0.0000    754.2432      2.4846
  1789.0000    115.7682      0.0000    742.1520      2.5688
  1789.1000    115.7682      0.0000    742.1520      2.5688
  1789.2000    115.7682      0.0000    742.1520      2.5688
  1789.3000    126.2013      0.0000    720.5174      2.7112
  1789.4000    126.2013      0.0000    720.5174      2.7112
  1789.5000    134.0126      0.0000    697.0377      2.9400
  1789.6000    134.0126      0.0000    697.0377      2.9400
  1789.7000    134.0126      0.0000    697.0377      2.9400
  1789.8000    137.6962      0.0000    680.5579      3.2609
  1789.9000    137.6962      0.0000    680.5579      3.2609
  1790.0000    137.6011      0.0000    674.6891      3.6486
  1790.1000    137.6011      0.0000    674.6891      3.6486
  1790.2000    137.6011      0.0000    674.6891      3.6486
  1790.3000    135.4453      0.0000    675.5414      4.0478
  1790.4000    135.4453      0.0000    675.5414      4.0478
  1790.5000    132.5168      0.0000    676.0543      4.3928
  1790.6000    132.5168      0.0000    676.0543      4.3928
  1790.7000    132.5168      0.0000    676.0543      4.3928
  1790.8000    128.5481      0.0000    672.1945      4.6454
  1790.9000    128.5481      0.0000    672.1945      4.6454
  1791.0000    122.9110      0.0000    665.0305      4.8156
  1791.1000    122.9110      0.0000    665.0305      4.8156
  1791.2000    122.9110      0.0000    665.0305      4.8156
  1791.3000    116.7987      0.0000    658.4268      4.9415
  1791.4000    116.7987      0.0000    658.4268      4.9415
  1791.5000    113.1840      0.0000    656.0593      5.0524
  1791.6000    113.1840      0.0000    656.0593      5.0524
  1791.7000    113.1840      0.0000    656.0593      5.0524
  1791.8000    114.1444      0.0000    660.1248      5.1531
  1791.9000    114.1444      0.0000    660.1248      5.1531
  1792.0000    118.9543      0.0000    671.2923      5.2294
  1792.1000    118.9543      0.0000    671.2923      5.2294
  1792.2000    118.9543      0.0000    671.2923      5.2294
  1792.3000    125.2136      0.0000    688.7689      5.2642
  1792.4000    125.2136      0.0000    688.7689      5.2642
  1792.5000    131.1148      0.0000    710.0500      5.2561
  1792.6000    131.1148      0.0000    710.0500      5.2561
  1792.7000    131.1148      0.0000    710.0500      5.2561
  1792.8000    136.1660      0.0000    730.7966      5.2351
  1792.9000    136.1660      0.0000    730.7966      5.2351
  1793.0000    140.4884      0.0000    745.7908      5.2543
  1793.1000    140.4884      0.0000    745.7908      5.2543
  1793.2000    140.4884      0.0000    745.7908      5.2543
  1793.3000    144.1277      0.0000    751.4388      5.3583
  1793.4000    144.1277      0.0000    751.4388      5.3583
  1793.5000    146.7937      0.0000    748.0872      5.5554
  1793.6000    146.7937      0.0000    748.0872      5.5554
  1793.7000    146.7937      0.0000    748.0872      5.5554
  1793.8000    147.9254      0.0000    739.6733      5.8171
  1793.9000    147.9254      0.0000    739.6733      5.8171
  1794.0000    147.2270      0.0000    730.7643      6.1000
  1794.1000    147.2270      0.0000    730.7643      6.1000
  1794.2000    147.2270      0.0000    730.7643      6.1000
  1794.3000    145.4438      0.0000    723.7667      6.3669
  1794.4000    145.4438      0.0000    723.7667      6.3669
  1794.5000    144.3639      0.0000    718.5233      6.5927
  1794.6000    144.3639      0.0000    718.5233      6.5927
  1794.7000    144.3639      0.0000    718.5233      6.5927
  1794.8000    145.4030      0.0000    713.9616      6.7590
  1794.9000    145.4030      0.0000    713.9616      6.7590
  1795.0000    147.9511      0.0000    709.9368      6.8533
  1795.1000    147.9511      0.0000    709.9368      6.8533
  1795.2000    147.9511      0.0000    709.9368      6.8533
  1795.3000    149.6252      0.0000    707.6549      6.8772
  1795.4000    149.6252      0.0000    707.6549      6.8772
  1795.5000    148.5750      0.0000    708.3165      6.8516
  1795.6000    148.5750      0.0000    708.3165      6.8516
  1795.7000    148.5750      0.0000    708.3165      6.8516
  1795.8000    145.2812      0.0000    711.2924      6.8032
  1795.9000    145.2812      0.0000    711.2924      6.8032
  1796.0000    141.8687      0.0000    713.9033      6.7380
  1796.1000    141.8687      0.0000    713.9033      6.7380
  1796.2000    141.8687      0.0000    713.9033      6.7380
  1796.3000    140.1133      0.0000    713.4587      6.6365
  1796.4000    140.1133      0.0000    713.4587      6.6365
  1796.5000    140.2890      0.0000    709.5358      6.4848
  1796.6000    140.2890      0.0000    709.5358      6.4848
  1796.7000    140.2890      0.0000    709.5358      6.4848
  1796.8000    141.3695      0.0000    703.9496      6.3030
  1796.9000    141.3695      0.0000    703.9496      6.3030
  1797.0000    142.1349      0.0000    698.5740      6.1342
  1797.1000    142.1349      0.0000    698.5740      6.1342
  1797.2000    142.1349      0.0000    698.5740      6.1342
  1797.3000    142.4151      0.0000    693.6447      6.0126
  1797.4000    142.4151      0.0000    693.6447      6.0126
  1797.5000    143.3364      0.0000    688.1662      5.9474
  1797.6000    143.3364      0.0000    688.1662      5.9474
  1797.7000    143.3364      0.0000    688.1662      5.9474
  1797.8000    146.3253      0.0000    681.6003      5.9286
  1797.9000    146.3253      0.0000    681.6003      5.9286
  1798.0000    151.9843      0.0000    675.0236      5.9388
  1798.1000    151.9843      0.0000    675.0236      5.9388
  1798.2000    151.9843      0.0000    675.0236      5.9388
  1798.3000    159.6927      0.0000    670.7542      5.9649
  1798.4000    159.6927      0.0000    670.7542      5.9649
  1798.5000    167.5352      0.0000    670.8771      6.0022
  1798.6000    167.5352      0.0000    670.8771      6.0022
