~Version Information
VERS.                      2.0: CWLS Log ASCII Standard - VERSION 2.0
WRAP.                       NO: One line per depth step
~Well Information Block
STRT.FT               846.5000: 
STOP.FT              2610.0000: 
STEP.FT                 0.2500: 
NULL.                -999.2500: 
COMP.          Petrogulf Corporation: COMPANY
WELL.            Lavedure 7-44: WELL
FLD.           Purgatoire River: FIELD
LOC.           969' FSL & 501' FEL: LOCATION
PROV.                 Colorado: PROVINCE
CNTY.               Las Animas: COUNTRY
SRVC.                Patterson: SERVICE COMPANY
DATE.          Sun Dec 07 15:26:03 2003: LOG DATE
UWI.                          : UNIQUE WELL ID
~Curve Information Block
DEPT.FT            0 000 00 00: Depth
SP.mV                         : DIL Spontaneous Potential
RILD.Ohm-m                    : DIL Deep Resistivity
RILM.Ohm-m                    : DIL Medium Resistivity
RLL3.Ohm-m                    : DIL Shallow Resistivity
GR.GAPI                       : Gamma Ray
~Parameter Information Block
~A  Depth        SP         RILD        RILM        RLL3         GR     
# ...
  2022.5000   -448.9419     15.3337     18.5046     24.0102    115.5174
  2022.7500   -447.8903     15.1262     18.3599     22.1067    115.9357
  2023.0000   -446.8385     14.9030     18.2403     20.8697    116.7070
  2023.2500   -445.9801     14.6760     18.1273     20.3332    116.5029
  2023.5000   -445.4172     14.4461     17.9666     20.2453    115.0324
  2023.7500   -445.1132     14.2074     17.7006     20.2824    114.1787
  2024.0000   -444.9372     13.9520     17.3033     20.1318    115.1979
  2024.2500   -444.7522     13.6718     16.7948     19.5832    118.0977
  2024.5000   -444.4827     13.3593     16.2297     18.6459    125.1703
  2024.7500   -444.1320     13.0130     15.6710     17.5518    130.6142
  2025.0000   -443.7536     12.6468     15.1673     16.5966    138.1877
  2025.2500   -443.4115     12.2936     14.7433     15.9663    142.3964
  2025.5000   -443.1571     11.9956     14.3998     15.6901    147.1957
  2025.7500   -443.0271     11.7847     14.1210     15.7033    149.3150
  2026.0000   -443.0447     11.6673     13.8840     15.9129    151.1519
  2026.2500   -443.2153     11.6243     13.6688     16.2108    151.8473
  2026.5000   -443.5268     11.6264     13.4658     16.4648    152.4242
  2026.7500   -443.9633     11.6541     13.2800     16.5399    152.4363
  2027.0000   -444.5135     11.7061     13.1293     16.3546    151.8838
  2027.2500   -445.1575     11.7940     13.0403     15.9327    151.2951
  2027.5000   -445.8409     11.9269     13.0420     15.4176    150.3573
  2027.7500   -446.4661     12.1016     13.1598     15.0524    149.7239
  2028.0000   -446.9181     12.3019     13.4091     15.1297    148.4453
  2028.2500   -447.1121     12.5076     13.7893     15.8750    146.9178
  2028.5000   -447.0325     12.7043     14.2790     17.2661    142.4824
  2028.7500   -446.7411     12.8869     14.8369     18.9410    137.5331
  2029.0000   -446.3478     13.0563     15.4096     20.3650    127.2877
  2029.2500   -445.9613     13.2119     15.9453     21.1837    119.5586
  2029.5000   -445.6443     13.3490     16.4076     21.4501    108.6896
  2029.7500   -445.3937     13.4617     16.7782     21.5292    102.5174
  2030.0000   -445.1523     13.5486     17.0486     21.8024     94.9743
  2030.2500   -444.8448     13.6162     17.2081     22.4106     91.3495
  2030.5000   -444.4201     13.6754     17.2397     23.1574     89.0050
  2030.7500   -443.8760     13.7330     17.1303     23.5870     89.7847
  2031.0000   -443.2549     13.7831     16.8883     23.2283     94.0189
  2031.2500   -442.6221     13.8059     16.5551     21.9103     98.5219
  2031.5000   -442.0473     13.7756     16.1986     19.9317    107.4809
  2031.7500   -441.5971     13.6772     15.8911     17.9177    114.5955
  2032.0000   -441.3280     13.5192     15.6854     16.4728    125.5488
  2032.2500   -441.2605     13.3312     15.5991     15.9260    131.8063
  2032.5000   -441.3499     13.1453     15.6116     16.3189    137.6114
  2032.7500   -441.4934     12.9770     15.6715     17.5160    138.4461
  2033.0000   -441.5894     12.8219     15.7130     19.2350    135.6008
  2033.2500   -441.5974     12.6697     15.6781     20.9913    132.1970
  2033.5000   -441.5439     12.5200     15.5374     22.1613    127.6346
  2033.7500   -441.4758     12.3868     15.2996     22.2783    126.1085
  2034.0000   -441.4171     12.2903     15.0047     21.3345    126.2551
  2034.2500   -441.3644     12.2469     14.7053     19.7591    127.4026
  2034.5000   -441.3124     12.2639     14.4474     18.0965    130.0259
  2034.7500   -441.2760     12.3382     14.2598     16.7204    132.3734
  2035.0000   -441.2914     12.4558     14.1529     15.7924    136.4305
  2035.2500   -441.3999     12.5925     14.1239     15.3606    138.6327
  2035.5000   -441.6251     12.7191     14.1621     15.4300    139.4064
  2035.7500   -441.9544     12.8119     14.2536     15.9626    137.8537
  2036.0000   -442.3315     12.8630     14.3854     16.8605    133.2928
  2036.2500   -442.6648     12.8840     14.5484     17.9599    129.5934
  2036.5000   -442.8568     12.8998     14.7395     19.0212    124.0346
  2036.7500   -442.8535     12.9370     14.9609     19.7524    120.6964
  2037.0000   -442.6866     13.0127     15.2189     19.9509    117.2680
  2037.2500   -442.4705     13.1304     15.5205     19.7318    116.8911
  2037.5000   -442.3403     13.2823     15.8691     19.5884    119.7971
  2037.7500   -442.3801     13.4545     16.2558     20.0971    123.0725
  2038.0000   -442.5896     13.6300     16.6506     21.4393    126.5648
  2038.2500   -442.8932     13.7896     17.0015     23.1652    126.5615
  2038.5000   -443.1690     13.9129     17.2483     24.4542    124.1537
  2038.7500   -443.2864     13.9846     17.3470     24.6873    122.9501
  2039.0000   -443.1431     14.0004     17.2910     23.8489    124.0777
  2039.2500   -442.6872     13.9684     17.1110     22.4308    126.5598
  2039.5000   -441.9259     13.9009     16.8564     20.9985    130.9675
  2039.7500   -440.9295     13.8040     16.5711     19.8497    133.4524
  2040.0000   -439.8280     13.6728     16.2819     18.9946    136.0966
  2040.2500   -438.7845     13.4969     15.9999     18.3351    137.4033
  2040.5000   -437.9463     13.2704     15.7296     17.8135    139.4134
  2040.7500   -437.3932     13.0014     15.4759     17.4411    141.1032
  2041.0000   -437.1125     12.7118     15.2437     17.2435    144.0056
  2041.2500   -437.0133     12.4315     15.0306     17.1973    145.6283
  2041.5000   -436.9691     12.1904     14.8211     17.2010    146.5508
  2041.7500   -436.8643     12.0110     14.5906     17.1079    146.0016
  2042.0000   -436.6338     11.9026     14.3215     16.8192    143.9879
  2042.2500   -436.2912     11.8606     14.0229     16.3652    142.3182
  2042.5000   -435.9187     11.8701     13.7344     15.8810    140.1671
  2042.7500   -435.6102     11.9132     13.5111     15.4913    139.5144
  2043.0000   -435.4185     11.9749     13.3998     15.2381    140.1653
  2043.2500   -435.3485     12.0445     13.4235     15.1244    141.3404
  2043.5000   -435.3813     12.1136     13.5763     15.1965    142.9423
  2043.7500   -435.5008     12.1716     13.8263     15.5467    143.2243
  2044.0000   -435.7144     12.2063     14.1228     16.2266    141.9158
  2044.2500   -436.0597     12.2093     14.4071     17.1639    140.0576
  2044.5000   -436.5735     12.1841     14.6267     18.1587    136.9207
  2044.7500   -437.2287     12.1480     14.7483     18.9498    135.4198
  2045.0000   -437.9024     12.1237     14.7632     19.3129    134.7732
  2045.2500   -438.4209     12.1248     14.6845     19.1542    135.1960
  2045.5000   -438.6441     12.1450     14.5383     18.5464    136.2513
  2045.7500   -438.5250     12.1583     14.3569     17.6845    136.9232
  2046.0000   -438.1198     12.1342     14.1722     16.8066    137.6848
  2046.2500   -437.5587     12.0604     14.0124     16.1268    137.7692
  2046.5000   -436.9888     11.9566     13.8973     15.7702    136.5383
  2046.7500   -436.5089     11.8633     13.8349     15.7178    134.6084
  2047.0000   -436.1248     11.8151     13.8205     15.8284    130.7107
  2047.2500   -435.7537     11.8203     13.8396     15.9510    128.4777
  2047.5000   -435.2769     11.8622     13.8761     16.0312    127.8184
  2047.7500   -434.6052     11.9168     13.9206     16.1177    129.8737
  2048.0000   -433.7177     11.9703     13.9729     16.2857    136.0649
  2048.2500   -432.6625     12.0237     14.0377     16.5648    141.0244
  2048.5000   -431.5419     12.0853     14.1179     16.9230    147.2075
  2048.7500   -430.4890     12.1606     14.2114     17.2980    149.5579
  2049.0000   -429.6389     12.2476     14.3122     17.6413    150.5308
  2049.2500   -429.0930     12.3377     14.4128     17.9413    150.0370
  2049.5000   -428.8847     12.4196     14.5052     18.2127    147.8696
  2049.7500   -428.9576     12.4848     14.5812     18.4647    145.4376
  2050.0000   -429.1715     12.5310     14.6336     18.6826    141.2864
  2050.2500   -429.3534     12.5606     14.6561     18.8410    139.0528
