~Version Information
VERS.                      2.0: CWLS Log ASCII Standard - VERSION 2.0
WRAP.                       NO: One line per depth step
~Well Information Block
STRT.FT               890.0000: 
STOP.FT              1588.2000: 
STEP.FT                 0.1000: 
NULL.                -999.2500: 
COMP.          Evergreen Operating Corporation: COMPANY
WELL.            Tomahawk 44-9: WELL
FLD.           Purgatorie River: FIELD
LOC.           434' FSL & 491' FEL: LOCATION
PROV.                 Colorado: PROVINCE
CNTY.               Las Animas: COUNTRY
SRVC.                         : SERVICE COMPANY
DATE.          Mon Sep 13 10:07:57 2004: LOG DATE
UWI.           05 071 08133 00: UNIQUE WELL ID
~Curve Information Block
DEPT.FT            0 000 00 00: Depth
LTEN.lb                       : Surface Line Tension
DCAL.in                       : CDL Caliper
RHOB.g/cc                     : CDL Bulk Density
RHOC.g/cc                     : CDL Density Correction
DPOR.pu                       : CDL Density Porosity
GR.GAPI                       : Gamma Ray
NPOR.pu                       : Neutron Porosity
~Parameter Information Block
~A  Depth       LTEN        DCAL        RHOB        RHOC        DPOR         GR         NPOR    
# ...
  1578.8000   1200.0530      7.8363      2.5388      0.0015      6.7390   -999.2500   -999.2500
  1578.9000   1200.0530      7.8363      2.5344      0.0668      7.0048   -999.2500   -999.2500
  1579.0000   1145.2308      7.8198      2.5375      0.0939      6.8169   -999.2500   -999.2500
  1579.1000   1145.2308      7.8198      2.5398      0.0735      6.6814   -999.2500   -999.2500
  1579.2000   1145.2308      7.8198      2.5430      0.0302      6.4848   -999.2500   -999.2500
  1579.3000   1237.2201      7.7881      2.5471      0.0978      6.2343   -999.2500   -999.2500
  1579.4000   1237.2201      7.7881      2.5516      0.0775      5.9644   -999.2500   -999.2500
  1579.5000   1177.9683      7.7698      2.5605      0.1017      5.4238   -999.2500   -999.2500
  1579.6000   1177.9683      7.7698      2.5662      0.0987      5.0802   -999.2500   -999.2500
  1579.7000   1177.9683      7.7698      2.5608      0.0596      5.4033   -999.2500   -999.2500
  1579.8000   1170.5096      7.7867      2.5561      0.0371      5.6901   -999.2500   -999.2500
  1579.9000   1170.5096      7.7867      2.5624      0.0788      5.3089   -999.2500   -999.2500
  1580.0000   1141.9031      7.7850      2.5649      0.1086      5.1581   -999.2500   -999.2500
  1580.1000   1141.9031      7.7850      2.5482      0.0810      6.1680   -999.2500   -999.2500
  1580.2000   1141.9031      7.7850      2.5340      0.0136      7.0325   -999.2500   -999.2500
  1580.3000   1170.0239      7.8204      2.5476      0.0755      6.2081   -999.2500   -999.2500
  1580.4000   1170.0239      7.8204      2.5770      0.0919      4.4237   -999.2500   -999.2500
  1580.5000   1130.0791      7.8289      2.6013      0.0976      2.9500   -999.2500   -999.2500
  1580.6000   1130.0791      7.8289      2.6132      0.1115      2.2301   -999.2500   -999.2500
  1580.7000   1130.0791      7.8289      2.6088      0.1344      2.4951   -999.2500   -999.2500
  1580.8000   1151.8429      7.8204      2.5908      0.0899      3.5858   -999.2500   -999.2500
  1580.9000   1151.8429      7.8204      2.5750      0.0575      4.5448   -999.2500   -999.2500
  1581.0000   1147.8218      7.8158      2.5761      0.0741      4.4769   -999.2500   -999.2500
  1581.1000   1147.8218      7.8158      2.5904      0.0994      3.6132   -999.2500   -999.2500
  1581.2000   1147.8218      7.8158      2.5995      0.1242      3.0605   -999.2500   -999.2500
  1581.3000   1136.5669      7.7679      2.5941      0.0406      3.3864   -999.2500   -999.2500
  1581.4000   1136.5669      7.7679      2.5830      0.0646      4.0616   -999.2500   -999.2500
  1581.5000   1175.5121      7.7814      2.5780      0.0443      4.3637   -999.2500   -999.2500
  1581.6000   1175.5121      7.7814      2.5812      0.0339      4.1689   -999.2500   -999.2500
  1581.7000   1175.5121      7.7814      2.5796      0.0764      4.2672   -999.2500   -999.2500
  1581.8000   1152.4716      7.8146      2.5642      0.0231      5.1979   -999.2500   -999.2500
  1581.9000   1152.4716      7.8146      2.5467      0.0131      6.2582   -999.2500   -999.2500
  1582.0000   1149.3302      7.8152      2.5296      0.0882      7.2973   -999.2500   -999.2500
  1582.1000   1149.3302      7.8152      2.5022      0.0549      8.9557   -999.2500   -999.2500
  1582.2000   1149.3302      7.8152      2.4768      0.0040     10.4971   -999.2500   -999.2500
  1582.3000   1126.8535      7.8126      2.4755      0.0569     10.5755   -999.2500   -999.2500
  1582.4000   1126.8535      7.8126      2.5017      0.0787      8.9879   -999.2500   -999.2500
  1582.5000   1145.1128      7.7440      2.5396      0.1138      6.6897   -999.2500   -999.2500
  1582.6000   1145.1128      7.7440      2.5682      0.1007      4.9563   -999.2500   -999.2500
  1582.7000   1145.1128      7.7440      2.5783      0.0985      4.3433   -999.2500   -999.2500
  1582.8000   1086.3845      7.7427      2.5660      0.1181      5.0895   -999.2500   -999.2500
  1582.9000   1086.3845      7.7427      2.5330      0.1018      7.0922   -999.2500   -999.2500
  1583.0000   1183.8544      7.7647      2.4993      0.0517      9.1319   -999.2500   -999.2500
  1583.1000   1183.8544      7.7647      2.4824      0.0288     10.1573   -999.2500   -999.2500
  1583.2000   1183.8544      7.7647      2.4766      0.0755     10.5115   -999.2500   -999.2500
  1583.3000   1141.1726      7.7886      2.4695      0.0417     10.9413   -999.2500   -999.2500
  1583.4000   1141.1726      7.7886      2.4575      0.0528     11.6693   -999.2500   -999.2500
  1583.5000   1192.8370      7.7913      2.4396      0.0412     12.7537   -999.2500   -999.2500
  1583.6000   1192.8370      7.7913      2.4205      0.0307     13.9115   -999.2500   -999.2500
  1583.7000   1192.8370      7.7913      2.4054      0.0545     14.8270   -999.2500   -999.2500
  1583.8000   1132.6981      7.8189      2.3864      0.0710     15.9745   -999.2500   -999.2500
  1583.9000   1132.6981      7.8189      2.3567      0.0168     17.7775   -999.2500   -999.2500
  1584.0000   1159.8652      7.8254      2.3274     -0.0088     19.5538   -999.2500   -999.2500
  1584.1000   1159.8652      7.8254      2.3130      0.0025     20.4220   -999.2500   -999.2500
  1584.2000   1159.8652      7.8254      2.3137      0.0425     20.3797   -999.2500   -999.2500
  1584.3000   1150.8461      7.7668      2.3281      0.0084     19.5080   -999.2500   -999.2500
  1584.4000   1150.8461      7.7668      2.3626      0.0667     17.4184   -999.2500   -999.2500
  1584.5000   1134.7974      7.6383      2.4146      0.0998     14.2642   -999.2500   -999.2500
  1584.6000   1134.7974      7.6383      2.4675      0.1925     11.0598   -999.2500   -999.2500
  1584.7000   1134.7974      7.6383      2.5016      0.1817      8.9919   -999.2500   -999.2500
  1584.8000   1146.8713      7.4934      2.5138      0.1405      8.2573   -999.2500   -999.2500
  1584.9000   1146.8713      7.4934      2.5150      0.1330      8.1841   -999.2500   -999.2500
  1585.0000   1136.9808      7.3302      2.5104      0.1453      8.4587   -999.2500   -999.2500
  1585.1000   1136.9808      7.3302      2.4998      0.1097      9.1035   -999.2500   -999.2500
  1585.2000   1136.9808      7.3302      2.4907      0.0898      9.6561   -999.2500   -999.2500
  1585.3000   1137.9716      7.1542      2.5187      0.1177      7.9576   -999.2500   -999.2500
  1585.4000   1137.9716      7.1542      2.7365      0.0788     -5.2452   -999.2500   -999.2500
  1585.5000   1128.7028      6.8884      3.4109      0.0984    -46.1167   -999.2500   -999.2500
  1585.6000   1128.7028      6.8884      4.2916      0.5496    -99.4908   -999.2500   -999.2500
  1585.7000   1128.7028      6.8884      4.1433      1.7904    -90.5004   -999.2500   -999.2500
  1585.8000   1127.4437      6.4529      2.5268      0.0000      7.4658   -999.2500   -999.2500
  1585.9000   1127.4437      6.4529      0.8858   -999.2500    106.9220   -999.2500   -999.2500
  1586.0000   1135.6633      5.3691      0.1709   -999.2500    150.2498   -999.2500   -999.2500
  1586.1000   1135.6633      5.3691      0.0178   -999.2500    159.5298   -999.2500   -999.2500
  1586.2000   1135.6633      5.3691      0.0010   -999.2500    160.5472   -999.2500   -999.2500
  1586.3000   1164.8478      1.0457      0.0000   -999.2500    160.6061   -999.2500   -999.2500
  1586.4000   1164.8478      1.0457   -999.2500   -999.2500   -999.2500   -999.2500   -999.2500
  1586.5000   1178.4327      0.4689   -999.2500   -999.2500   -999.2500   -999.2500   -999.2500
  1586.6000   1178.4327      0.4689   -999.2500   -999.2500   -999.2500   -999.2500   -999.2500
  1586.7000   1178.4327      0.4689   -999.2500   -999.2500   -999.2500   -999.2500   -999.2500
  1586.8000   1190.0970   -999.2500   -999.2500   -999.2500   -999.2500   -999.2500   -999.2500
  1586.9000   1190.0970   -999.2500   -999.2500   -999.2500   -999.2500   -999.2500   -999.2500
  1587.0000   1172.0609   -999.2500   -999.2500   -999.2500   -999.2500   -999.2500   -999.2500
  1587.1000   1172.0609   -999.2500   -999.2500   -999.2500   -999.2500   -999.2500   -999.2500
