~Version Information
VERS.                      2.0: CWLS Log ASCII Standard - VERSION 2.0
WRAP.                       NO: One line per depth step
~Well Information Block
STRT.FT               482.2000: 
STOP.FT              2349.0000: 
STEP.FT                 0.1000: 
NULL.                -999.2500: 
COMP.          Pioneer Natural Resources: COMPANY
WELL.          Hill Climb 22-2: WELL
FLD.           Purgatoire River: FIELD
LOC.           1820' FNL & 2193' FWL: LOCATION
PROV.                 Colorado: PROVINCE
CNTY.               Las Animas: COUNTRY
SRVC.                Patterson: SERVICE COMPANY
DATE.          Wed Oct 20 09:25:25 2004: LOG DATE
UWI.           05 071 08175 00: UNIQUE WELL ID
~Curve Information Block
DEPT.FT            0 000 00 00: Depth
DCAL.in                       : CDL Caliper
DPOR.pu                       : CDL Density Porosity
NPOR.pu                       : Neutron Porosity
RHOB.g/cc                     : CDL Bulk Density
RHOC.g/cc                     : CDL Density Correction
GR.GAPI                       : Gamma Ray
~Parameter Information Block
~A  Depth       DCAL        DPOR        NPOR        RHOB        RHOC         GR     
# ...
   501.4000   -999.2500   -999.2500     45.9264   -999.2500   -999.2500     82.3002
   501.5000   -999.2500   -999.2500     45.1903   -999.2500   -999.2500     89.2509
   501.6000   -999.2500   -999.2500     44.3606   -999.2500   -999.2500     91.5965
   501.7000   -999.2500   -999.2500     43.7356   -999.2500   -999.2500     84.8546
   501.8000   -999.2500   -999.2500     43.5176   -999.2500   -999.2500     71.7485
   501.9000   -999.2500   -999.2500     43.5224   -999.2500   -999.2500     62.5562
   502.0000   -999.2500   -999.2500     43.3250   -999.2500   -999.2500     65.8651
   502.1000   -999.2500   -999.2500     42.9912   -999.2500   -999.2500     76.5124
   502.2000   -999.2500   -999.2500     42.9878   -999.2500   -999.2500     82.2229
   502.3000   -999.2500   -999.2500     43.2950   -999.2500   -999.2500     79.7878
   502.4000   -999.2500   -999.2500     43.4681   -999.2500   -999.2500     76.4086
   502.5000   -999.2500   -999.2500     43.3890   -999.2500   -999.2500     78.1220
   502.6000   -999.2500   -999.2500     43.2928   -999.2500   -999.2500     81.1769
   502.7000   -999.2500   -999.2500     43.2120   -999.2500   -999.2500     79.4029
   502.8000   -999.2500   -999.2500     43.0296   -999.2500   -999.2500     78.8324
   502.9000   -999.2500   -999.2500     42.8487   -999.2500   -999.2500     86.2101
   503.0000   -999.2500   -999.2500     42.8186   -999.2500   -999.2500     91.0137
   503.1000   -999.2500   -999.2500     42.8657   -999.2500   -999.2500     84.1450
   503.2000   -999.2500   -999.2500     42.8343   -999.2500   -999.2500     76.3290
   503.3000   -999.2500   -999.2500     42.7445   -999.2500   -999.2500     77.5698
   503.4000   -999.2500   -999.2500     42.7126   -999.2500   -999.2500     80.6166
   503.5000   -999.2500   -999.2500     42.7315   -999.2500   -999.2500     75.3825
   503.6000   -999.2500   -999.2500     42.7689   -999.2500   -999.2500     67.4994
   503.7000   -999.2500   -999.2500     42.8073   -999.2500   -999.2500     68.6882
   503.8000   -999.2500   -999.2500     42.8915   -999.2500   -999.2500     81.0393
   503.9000   -999.2500   -999.2500     43.2146   -999.2500     -0.2201     94.6667
   504.0000   -999.2500   -999.2500     43.6887   -999.2500     -0.2256     99.5805
   504.1000   -999.2500   -999.2500     43.8752   -999.2500     -0.1826     97.2337
   504.2000   -999.2500   -999.2500     43.7012   -999.2500     -0.1642     95.0568
   504.3000   -999.2500   -999.2500     43.3922   -999.2500     -0.2456     97.2145
   504.4000   -999.2500     26.8051     42.9537      2.2077     -0.2423     97.0609
   504.5000      8.0198     27.7247     42.4323      2.1925     -0.2344     84.9337
   504.6000      8.0198     27.4126     41.9293      2.1977     -0.2301     70.2140
   504.7000      8.0198     26.2675     41.4581      2.2166     -0.2192     68.0143
   504.8000      8.0165     25.0364     41.1177      2.2369     -0.1970     76.3134
   504.9000      8.0165     24.1320     41.0265      2.2518     -0.2328     81.2425
   505.0000      8.0118     22.9702     41.1142      2.2710     -0.2427     74.9307
   505.1000      8.0118     20.8716     41.1398      2.3056     -0.2260     62.2596
   505.2000      8.0118     18.3376     40.9763      2.3474     -0.1982     54.5898
   505.3000      8.0081     16.3778     40.8048      2.3798     -0.1789     56.7937
   505.4000      8.0081     15.0661     40.8223      2.4014     -0.2051     63.2507
   505.5000      8.0059     14.0032     40.9909      2.4189     -0.2015     69.5905
   505.6000      8.0059     13.0976     41.0404      2.4339     -0.2196     74.7763
   505.7000      8.0059     12.6859     40.7895      2.4407     -0.1967     78.9463
   505.8000      8.0043     13.2171     40.4976      2.4319     -0.1780     82.6314
   505.9000      8.0043     14.0068     40.5557      2.4189     -0.2108     83.3199
   506.0000      8.0028     13.5167     41.0510      2.4270     -0.2392     79.2446
   506.1000      8.0028     11.8769     41.5919      2.4540     -0.1759     75.7430
   506.2000      8.0028     11.0155     41.7291      2.4682     -0.1574     78.8326
   506.3000      8.0019     11.5246     41.4673      2.4598     -0.1988     82.8486
   506.4000      8.0019     12.4586     40.9918      2.4444     -0.2095     80.5014
   506.5000      8.0020     13.2004     40.5175      2.4322     -0.2149     75.6257
   506.6000      8.0020     13.1419     40.3772      2.4332     -0.2231     75.0065
   506.7000      8.0020     11.9920     40.7346      2.4521     -0.2039     78.9036
   506.8000      8.0025     11.0622     41.2162      2.4675     -0.1346     79.7060
   506.9000      8.0025     11.7473     41.4679      2.4562     -0.2241     75.3981
   507.0000      8.0030     13.3397     41.6728      2.4299     -0.2028     73.8232
   507.1000      8.0030     14.2563     41.8307      2.4148     -0.2549     78.5626
   507.2000      8.0030     13.8486     41.6620      2.4215     -0.2227     85.2535
   507.3000      8.0031     12.5560     41.4687      2.4428     -0.1732     91.0721
   507.4000      8.0031     11.5312     41.7977      2.4597     -0.1519     93.3445
   507.5000      8.0034     11.9940     42.4576      2.4521     -0.1232     86.3107
   507.6000      8.0034     13.6676     42.9039      2.4245     -0.2483     71.1464
   507.7000      8.0034     15.4609     43.1570      2.3949     -0.1881     59.3685
   507.8000      8.0043     17.5220     43.3378      2.3609     -0.2230     57.8574
   507.9000      8.0043     19.5227     43.3393      2.3279     -0.2424     61.1268
   508.0000      8.0043     19.7034     43.2602      2.3249     -0.2692     63.9887
   508.1000      8.0043     18.3057     43.1779      2.3480     -0.1687     68.2925
   508.2000      8.0043     18.4934     43.1599      2.3449     -0.1184     73.3471
   508.3000      8.0034     21.2463     43.3555      2.2994     -0.2089     74.7318
   508.4000      8.0034     23.5895     43.4968      2.2608     -0.3243     73.1228
   508.5000      8.0040     23.5777     43.2245      2.2610     -0.2464     68.7861
   508.6000      8.0040     22.7829     42.6732      2.2741     -0.2469     59.1428
   508.7000      8.0040     23.0857     42.2445      2.2691     -0.2238     52.1738
   508.8000      8.0044     24.2991     42.1026      2.2491     -0.2590     56.7921
   508.9000      8.0044     24.9198     42.2386      2.2388     -0.3191     70.1311
   509.0000      8.0033     23.7425     42.6257      2.2582     -0.3126     84.5027
   509.1000      8.0033     21.0444     43.0876      2.3028     -0.2181     94.0935
   509.2000      8.0033     18.5944     43.4521      2.3432     -0.1862     97.1649
   509.3000      8.0026     17.8377     43.5924      2.3557     -0.1986     94.0908
   509.4000      8.0026     18.4472     43.4821      2.3456     -0.2302     86.6297
   509.5000      8.0023     18.9700     43.4375      2.3370     -0.2519     80.5707
   509.6000      8.0023     18.5907     43.5588      2.3433     -0.1946     79.0555
   509.7000      8.0023     17.8126     43.5649      2.3561     -0.2030     75.0339
   509.8000      8.0024     17.3064     43.4195      2.3644     -0.1975     67.0247
   509.9000      8.0024     17.0174     43.3647      2.3692     -0.2235     65.0248
   510.0000      8.0029     17.1986     43.4527      2.3662     -0.1758     69.0024
   510.1000      8.0029     18.5627     43.5953      2.3437     -0.2180     68.7868
   510.2000      8.0029     20.2977     43.7359      2.3151     -0.2646     65.3086
   510.3000      8.0028     21.0981     43.6490      2.3019     -0.2242     65.7987
   510.4000      8.0028     21.3557     43.3828      2.2976     -0.2081     69.8255
   510.5000      8.0026     21.8721     43.3076      2.2891     -0.2114     73.9768
   510.6000      8.0026     22.7779     43.4509      2.2742     -0.1926     77.0998
   510.7000      8.0026     23.6977     43.5105      2.2590     -0.2421     83.4439
   510.8000      8.0018     24.2439     43.3834      2.2500     -0.1889     95.2855
   510.9000      8.0018     24.9054     43.1082      2.2391     -0.2059    102.9475
