~Version Information
VERS.                      2.0: CWLS Log ASCII Standard - VERSION 2.0
WRAP.                       NO: One line per depth step
~Well Information Block
STRT.FT                 5.0000: 
STOP.FT              1874.2500: 
STEP.FT                 0.2500: 
NULL.                -999.2500: 
COMP.          Pioneer Natural Resources: COMPANY
WELL.           Stampede 42-18: WELL
FLD.           Purgatoire River: FIELD
LOC.           2479' FNL & 160' FEL--: LOCATION
CNTY.               Las Animas: COUNTY
SRVC.          Superior Well Services: SERVICE COMPANY
DATE.          Mon Jun 25 12:19:16 2007: LOG DATE
UWI.                          : UNIQUE WELL ID
STAT.                 Colorado: STATE
~Curve Information Block
DEPT.FT            0 000 00 00: Depth
GR.GAPI                       : Gamma Ray
CCL.                          : Casing Collar Locator
TT3.usec                      : CBL 3' Travel Time
AMP3.mV                       : CBL 3' Amplitude
AMP5.mV                       : CBL 5' Amplitude
~Parameter Information Block
~A  Depth        GR         CCL         TT3         AMP3        AMP5    
# ...
  1741.0000     79.5151      0.0000    347.6744      5.2708      2.7364
  1741.2500     76.6829      0.0000    347.3683      5.2310      2.7580
  1741.5000     73.6412      0.0000    347.3307      5.1913      2.7611
  1741.7500     71.6883      0.0000    347.8920      5.1583      2.7382
  1742.0000     71.5881      0.0000    350.0821      5.1326      2.6884
  1742.2500     73.0034      0.0000    356.4582      5.1059      2.6210
  1742.5000     74.8132      0.0000    371.5614      5.0662      2.5546
  1742.7500     76.0599      0.0000    400.3456      5.0043      2.5075
  1743.0000     76.5454      0.0000    444.1864      4.9220      2.4878
  1743.2500     76.7107      0.0000    497.6274      4.8340      2.4908
  1743.5000     77.1336      0.0000    550.0369      4.7604      2.5034
  1743.7500     77.9563      0.0000    591.7396      4.7167      2.5117
  1744.0000     78.5468      0.0000    619.2949      4.7085      2.5076
  1744.2500     78.0023      0.0000    635.5795      4.7343      2.4894
  1744.5000     76.4401      0.0000    645.4518      4.7874      2.4606
  1744.7500     75.5332      0.0000    651.5714      4.8574      2.4272
  1745.0000     77.2148      0.0000    653.9880      4.9309      2.3961
  1745.2500     82.1071      0.0000    652.5811      4.9927      2.3724
  1745.5000     89.6286      0.0000    648.8368      5.0271      2.3580
  1745.7500     99.0059      0.0000    645.2174      5.0205      2.3523
  1746.0000    109.4420      0.0000    643.1356      4.9682      2.3559
  1746.2500    119.7078      0.0000    641.8320      4.8797      2.3725
  1746.5000    128.3410      0.0000    639.5520      4.7766      2.4060
  1746.7500    134.4027      0.0000    635.8544      4.6809      2.4553
  1747.0000    137.9919      0.0000    632.1349      4.6065      2.5120
  1747.2500    140.0445      0.0000    629.4166      4.5569      2.5648
  1747.5000    141.4675      0.0000    625.4089      4.5299      2.6041
  1747.7500    142.3219      0.0000    613.8362      4.5224      2.6257
  1748.0000    141.9053      0.0000    587.8764      4.5343      2.6288
  1748.2500    139.5715      0.0000    546.3000      4.5671      2.6127
  1748.5000    135.2782      0.0000    496.7235      4.6195      2.5771
  1748.7500    129.3625      0.0000    451.3637      4.6837      2.5267
  1749.0000    122.1744      0.0000    418.7667      4.7482      2.4754
  1749.2500    114.3176      0.0000    399.8359      4.8034      2.4410
  1749.5000    107.0478      0.0000    390.8957      4.8451      2.4346
  1749.7500    101.7911      0.0000    388.9736      4.8729      2.4550
  1750.0000     99.0632      0.0000    394.5284      4.8845      2.4920
  1750.2500     98.1206      0.0000    410.8619      4.8717      2.5324
  1750.5000     97.6972      0.0000    441.1863      4.8252      2.5635
  1750.7500     96.8663      0.0000    484.6409      4.7467      2.5762
  1751.0000     95.3026      0.0000    534.1140      4.6558      2.5664
  1751.2500     93.0490      0.0000    579.1857      4.5767      2.5359
  1751.5000     90.1271      0.0000    612.7676      4.5171      2.4918
  1751.7500     86.2031      0.0000    634.8487      4.4639      2.4451
  1752.0000     80.7063      0.0000    649.4707      4.4001      2.4069
  1752.2500     73.5749      0.0000    659.4650      4.3209      2.3846
  1752.5000     65.9745      0.0000    665.5105      4.2352      2.3794
  1752.7500     60.0797      0.0000    668.9418      4.1549      2.3878
  1753.0000     57.7966      0.0000    672.5587      4.0879      2.4051
  1753.2500     59.2814      0.0000    677.8566      4.0351      2.4269
  1753.5000     62.6072      0.0000    682.9413      3.9923      2.4484
  1753.7500     65.1539      0.0000    684.0113      3.9566      2.4650
  1754.0000     65.5852      0.0000    678.5236      3.9308      2.4749
  1754.2500     64.6497      0.0000    667.2003      3.9192      2.4792
  1754.5000     64.2216      0.0000    653.7720      3.9209      2.4784
  1754.7500     65.5903      0.0000    642.6076      3.9290      2.4708
  1755.0000     68.6033      0.0000    635.8782      3.9388      2.4548
  1755.2500     72.3283      0.0000    632.9355      3.9546      2.4309
  1755.5000     76.2897      0.0000    632.2977      3.9895      2.4037
  1755.7500     80.6695      0.0000    633.5549      4.0562      2.3810
  1756.0000     85.3265      0.0000    637.1918      4.1564      2.3707
  1756.2500     89.2532      0.0000    643.4376      4.2789      2.3766
  1756.5000     91.5539      0.0000    651.6273      4.4068      2.3974
  1756.7500     92.6308      0.0000    660.0587      4.5236      2.4286
  1757.0000     93.7866      0.0000    666.3875      4.6158      2.4670
  1757.2500     95.7404      0.0000    668.9404      4.6762      2.5107
  1757.5000     98.1623      0.0000    667.6739      4.7056      2.5563
  1757.7500    100.7708      0.0000    663.4026      4.7089      2.5968
  1758.0000    104.3742      0.0000    656.6531      4.6921      2.6227
  1758.2500    110.4873      0.0000    648.0081      4.6634      2.6273
  1758.5000    119.8305      0.0000    638.9780      4.6329      2.6119
  1758.7500    131.0586      0.0000    631.6158      4.6098      2.5854
  1759.0000    141.0134      0.0000    627.3101      4.5997      2.5580
  1759.2500    146.8746      0.0000    626.2320      4.6025      2.5361
  1759.5000    148.6044      0.0000    627.5883      4.6097      2.5217
  1759.7500    148.7683      0.0000    630.0576      4.6082      2.5148
  1760.0000    149.4470      0.0000    632.3260      4.5886      2.5137
  1760.2500    149.8151      0.0000    633.6955      4.5498      2.5143
  1760.5000    147.0708      0.0000    634.2200      4.4970      2.5124
  1760.7500    139.0980      0.0000    634.3831      4.4406      2.5051
  1761.0000    125.9451      0.0000    635.0355      4.3966      2.4919
  1761.2500    109.4890      0.0000    637.3876      4.3816      2.4745
  1761.5000     92.3874      0.0000    642.2946      4.4015      2.4568
  1761.7500     77.2597      0.0000    649.2000      4.4447      2.4441
  1762.0000     66.2430      0.0000    655.9653      4.4878      2.4407
  1762.2500     60.5360      0.0000    659.9636      4.5063      2.4470
  1762.5000     59.9284      0.0000    659.5395      4.4843      2.4612
  1762.7500     62.9983      0.0000    654.6849      4.4180      2.4802
  1763.0000     68.0650      0.0000    646.8928      4.3175      2.4988
  1763.2500     73.8906      0.0000    638.9532      4.2058      2.5096
  1763.5000     79.4468      0.0000    634.4418      4.1132      2.5070
  1763.7500     83.3203      0.0000    636.0263      4.0648      2.4922
  1764.0000     83.8436      0.0000    643.3883      4.0704      2.4714
  1764.2500     80.2062      0.0000    652.9493      4.1230      2.4488
  1764.5000     73.4197      0.0000    660.2017      4.2060      2.4245
  1764.7500     65.8366      0.0000    662.7142      4.2975      2.3984
  1765.0000     59.5831      0.0000    661.0873      4.3734      2.3738
  1765.2500     55.6585      0.0000    657.1445      4.4142      2.3566
  1765.5000     54.3776      0.0000    651.7349      4.4161      2.3531
  1765.7500     55.9749      0.0000    644.8264      4.3928      2.3668
  1766.0000     60.2996      0.0000    637.2216      4.3643      2.3959
  1766.2500     66.2378      0.0000    630.9739      4.3469      2.4333
  1766.5000     71.9703      0.0000    627.9472      4.3539      2.4684
  1766.7500     75.9020      0.0000    628.6385      4.3972      2.4923
  1767.0000     77.3326      0.0000    632.3669      4.4766      2.5003
  1767.2500     76.6158      0.0000    638.1120      4.5727      2.4919
  1767.5000     75.0954      0.0000    644.9770      4.6581      2.4704
  1767.7500     74.5945      0.0000    652.0231      4.7172      2.4423
  1768.0000     76.2698      0.0000    658.0596      4.7498      2.4170
  1768.2500     79.7710      0.0000    662.0482      4.7614      2.4037
  1768.5000     83.8941      0.0000    663.6296      4.7520      2.4090
  1768.7500     88.0550      0.0000    662.8475      4.7150      2.4333
