~Version Information
VERS.                      2.0: CWLS Log ASCII Standard - VERSION 2.0
WRAP.                       NO: One line per depth step
~Well Information Block
STRT.FT               954.0000: 
STOP.FT              2517.0000: 
STEP.FT                 0.2500: 
NULL.                -999.2500: 
COMP.          Petrogulf Corporation: COMPANY
WELL.             Royal 8-33 V: WELL
FLD.           Purgatoire River: FIELD
LOC.           2365' FSL & 2336' FEL: LOCATION
PROV.                 Colorado: PROVINCE
CNTY.               Las Animas: COUNTRY
SRVC.                Patterson: SERVICE COMPANY
DATE.          Fri Dec 05 04:39:41 2003: LOG DATE
UWI.                          : UNIQUE WELL ID
~Curve Information Block
DEPT.FT            0 000 00 00: Depth
SP.mV                         : DIL Spontaneous Potential
RILD.Ohm-m                    : DIL Deep Resistivity
RILM.Ohm-m                    : DIL Medium Resistivity
RLL3.Ohm-m                    : DIL Shallow Resistivity
GR.GAPI                       : Gamma Ray
~Parameter Information Block
~A  Depth        SP         RILD        RILM        RLL3         GR     
# ...
  1094.0000   2000.0000     28.0697     27.7364   2000.0000     94.4520
  1094.2500   2000.0000     26.7644     25.6678   2000.0000    102.2632
  1094.5000   2000.0000     25.6423     23.8745   2000.0000    113.8212
  1094.7500   2000.0000     24.6738     22.3612   2000.0000    120.3652
  1095.0000   2000.0000     23.8489     21.1396   2000.0000    127.6012
  1095.2500   2000.0000     23.1652     20.2212   2000.0000    131.0184
  1095.5000   2000.0000     22.6115     19.6066   2000.0000    135.4899
  1095.7500   2000.0000     22.1595     19.2760   2000.0000    138.7169
  1096.0000   2000.0000     21.7726     19.1846   2000.0000    144.1010
  1096.2500   2000.0000     21.4240     19.2694   2000.0000    147.7620
  1096.5000   2000.0000     21.1100     19.4674   2000.0000    152.2333
  1096.7500   2000.0000     20.8460     19.7335   2000.0000    153.3322
  1097.0000   2000.0000     20.6496     20.0438   2000.0000    150.3320
  1097.2500   2000.0000     20.5270     20.3851   2000.0000    145.5696
  1097.5000   2000.0000     20.4666     20.7432   2000.0000    137.5239
  1097.7500   2000.0000     20.4379     21.0987   2000.0000    133.5241
  1098.0000   2000.0000     20.3936     21.4230   2000.0000    130.7314
  1098.2500   2000.0000     20.2781     21.6718   2000.0000    130.6753
  1098.5000   2000.0000     20.0451     21.7802   2000.0000    132.5553
  1098.7500   2000.0000     19.6797     21.6730   2000.0000    134.6387
  1099.0000   2000.0000     19.2089     21.2953   2000.0000    137.4534
  1099.2500   2000.0000     18.6900     20.6476   2000.0000    138.1059
  1099.5000   2000.0000     18.1838     19.7981   2000.0000    136.8469
  1099.7500   2000.0000     17.7338     18.8616   2000.0000    135.3586
  1100.0000   2000.0000     17.3592     17.9590   2000.0000    134.3165
  1100.2500   2000.0000     17.0584     17.1818   2000.0000    135.1419
  1100.5000   2000.0000     16.8108     16.5728   2000.0000    138.1537
  1100.7500   2000.0000     16.5778     16.1252   2000.0000    140.4276
  1101.0000   2000.0000     16.3121     15.7972   2000.0000    143.0901
  1101.2500   2000.0000     15.9859     15.5380   2000.0000    144.3819
  1101.5000   2000.0000     15.6178     15.3126   2000.0000    146.3985
  1101.7500   2000.0000     15.2706     15.1137   2000.0000    148.2100
  1102.0000   2000.0000     15.0192     14.9561   2000.0000    151.6369
  1102.2500   2000.0000     14.9154     14.8675   2000.0000    154.0825
  1102.5000   2000.0000     14.9743     14.8809   2000.0000    157.5535
  1102.7500   2000.0000     15.1795     15.0300   2000.0000    159.6417
  1103.0000   2000.0000     15.4939     15.3400   2000.0000    162.1560
  1103.2500   2000.0000     15.8692     15.8106   2000.0000    163.0557
  1103.5000   2000.0000     16.2485     16.3966   2000.0000    162.6471
  1103.7500   2000.0000     16.5672     17.0028   2000.0000    161.1465
  1104.0000   2000.0000     16.7639     17.5089   2000.0000    157.6310
  1104.2500   2000.0000     16.8118     17.8259   2000.0000    155.0911
  1104.5000   2000.0000     16.7490     17.9408   2000.0000    152.1107
  1104.7500   2000.0000     16.6733     17.9115   2000.0000    150.9975
  1105.0000   2000.0000     16.6952     17.8167   2000.0000    150.4218
  1105.2500   2000.0000     16.8837     17.7086   2000.0000    150.4464
  1105.5000   2000.0000     17.2431     17.5947   2000.0000    150.6585
  1105.7500   2000.0000     17.7265     17.4499   2000.0000    150.7158
  1106.0000   2000.0000     18.2736     17.2507   2000.0000    150.3221
  1106.2500   2000.0000     18.8477     17.0128   2000.0000    149.6887
  1106.5000   2000.0000     19.4471     16.8085   2000.0000    148.6610
  1106.7500   2000.0000     20.0891     16.7506   2000.0000    148.3968
  1107.0000   2000.0000     20.7884     16.9586   2000.0000    148.8010
  1107.2500   2000.0000     21.5507     17.5323   2000.0000    148.7607
  1107.5000   2000.0000     22.3835     18.5421   2000.0000    145.2660
  1107.7500   2000.0000     23.3165     20.0314   2000.0000    139.0445
  1108.0000   2000.0000     24.4160     22.0182   2000.0000    123.6265
  1108.2500   2000.0000     25.7827     24.5002   2000.0000    110.8097
  1108.5000   2000.0000     27.5266     27.4675   2000.0000     91.4710
  1108.7500   2000.0000     29.7222     30.9270   2000.0000     80.2585
  1109.0000   2000.0000     32.3494     34.9217   2000.0000     67.6800
  1109.2500   2000.0000     35.2365     39.5038   2000.0000     62.3719
  1109.5000   2000.0000     38.0305     44.6147   2000.0000     57.9817
  1109.7500   2000.0000     40.2534     49.8806   2000.0000     56.1402
  1110.0000   2000.0000     41.4726     54.4323   2000.0000     53.1857
  1110.2500   2000.0000     41.5059     57.0363   2000.0000     51.1674
  1110.5000   2000.0000     40.5021     56.7248   2000.0000     49.9916
  1110.7500   2000.0000     38.8256     53.5039   2000.0000     51.5800
  1111.0000   2000.0000     36.8556     48.3624   2000.0000     58.0569
  1111.2500   2000.0000     34.8542     42.5971   2000.0000     64.7584
  1111.5000   2000.0000     32.9360     37.1929   2000.0000     77.7433
  1111.7500   2000.0000     31.1077     32.6387   2000.0000     88.0789
  1112.0000   2000.0000     29.3224     29.0350   2000.0000    105.0439
  1112.2500   2000.0000     27.5309     26.2667   2000.0000    116.1655
  1112.5000   2000.0000     25.7216     24.1418   2000.0000    130.4421
  1112.7500   2000.0000     23.9444     22.4813   2000.0000    137.6479
  1113.0000   2000.0000     22.3043     21.1664   2000.0000    144.8398
  1113.2500   2000.0000     20.9166     20.1461   2000.0000    147.5072
  1113.5000   2000.0000     19.8535     19.4124   2000.0000    149.2095
  1113.7500   2000.0000     19.1129     18.9581   2000.0000    149.4144
  1114.0000   2000.0000     18.6286     18.7367   2000.0000    148.7904
  1114.2500   2000.0000     18.3104     18.6451   2000.0000    147.5376
  1114.5000   2000.0000     18.0905     18.5504   2000.0000    144.0422
  1114.7500   2000.0000     17.9466     18.3581   2000.0000    140.9382
  1115.0000   2000.0000     17.8861     18.0687   2000.0000    136.3172
  1115.2500   2000.0000     17.9088     17.7614   2000.0000    133.8258
  1115.5000   2000.0000     17.9836     17.5205   2000.0000    131.1128
  1115.7500   2000.0000     18.0570     17.3771   2000.0000    129.7568
  1116.0000   2000.0000     18.0866     17.3066   2000.0000    128.3113
  1116.2500   2000.0000     18.0679     17.2617   2000.0000    128.0877
  1116.5000   2000.0000     18.0304     17.2093   2000.0000    129.5406
  1116.7500   2000.0000     18.0116     17.1454   2000.0000    131.6314
  1117.0000   2000.0000     18.0322     17.0883   2000.0000    135.5522
  1117.2500   2000.0000     18.0903     17.0633   2000.0000    138.1630
  1117.5000   2000.0000     18.1683     17.0922   2000.0000    141.6243
  1117.7500   2000.0000     18.2446     17.1889   2000.0000    143.4512
  1118.0000   2000.0000     18.3032     17.3616   2000.0000    144.9961
  1118.2500   2000.0000     18.3395     17.6148   2000.0000    145.0456
  1118.5000   2000.0000     18.3626     17.9470   2000.0000    144.0236
  1118.7500   2000.0000     18.3897     18.3367   2000.0000    143.1727
  1119.0000   2000.0000     18.4349     18.7244   2000.0000    142.3643
  1119.2500   2000.0000     18.4916     19.0126   2000.0000    141.9917
  1119.5000   2000.0000     18.5237     19.1064   2000.0000    140.6604
  1119.7500   2000.0000     18.4795     18.9726   2000.0000    138.8444
  1120.0000   2000.0000     18.3299     18.6604   2000.0000    135.2901
  1120.2500   2000.0000     18.1030     18.2601   2000.0000    133.1576
  1120.5000   2000.0000     17.8751     17.8466   2000.0000    131.0043
  1120.7500   2000.0000     17.7273     17.4557   2000.0000    129.9930
  1121.0000   2000.0000     17.7059     17.0951   2000.0000    128.5816
  1121.2500   2000.0000     17.8162     16.7663   2000.0000    127.9745
  1121.5000   2000.0000     18.0403     16.4810   2000.0000    128.4911
  1121.7500   2000.0000     18.3562     16.2655   2000.0000    129.8645
