~Version Information
VERS.                      2.0: CWLS Log ASCII Standard - VERSION 2.0
WRAP.                       NO: One line per depth step
~Well Information Block
STRT.FT               260.0000: 
STOP.FT              2269.5000: 
STEP.FT                 0.1000: 
NULL.                -999.2500: 
COMP.          Pioneer Natural Resources: COMPANY
WELL.            Moo Moo 31-36: WELL
FLD.           Purgatoire River: FIELD
LOC.           612' FNL & 2326' FEL: LOCATION
PROV.                 Colorado: PROVINCE
CNTY.               Las Animas: COUNTRY
SRVC.                Patterson: SERVICE COMPANY
DATE.          Fri Jun 17 07:04:43 2005: LOG DATE
UWI.           05 071 08395 00: UNIQUE WELL ID
~Curve Information Block
DEPT.FT            0 000 00 00: Depth
DCAL.in                       : CDL Caliper
RHOB.g/cc                     : CDL Bulk Density
RHOC.g/cc                     : CDL Density Correction
DPOR.pu                       : CDL Density Porosity
GR.GAPI                       : Gamma Ray
NPOR.pu                       : Neutron Porosity
~Parameter Information Block
~A  Depth       DCAL        RHOB        RHOC        DPOR         GR         NPOR    
# ...
  1056.8000      8.2085      2.6543      0.0395     -0.2604    138.9612     23.1839
  1056.9000      8.2085      2.6629      0.0386     -0.7791    151.9429     22.5982
  1057.0000      8.2225      2.6694      0.1163     -1.1770    153.4001     22.1822
  1057.1000      8.2225      2.6532      0.0816     -0.1965    140.5269     22.2538
  1057.2000      8.2225      2.6205      0.0801      1.7883    131.8884     22.9471
  1057.3000      8.2180      2.5935      0.0787      3.4231    134.3668     23.8123
  1057.4000      8.2180      2.5836      0.0914      4.0265    139.6267     24.4277
  1057.5000      8.2162      2.5897     -0.0113      3.6560    143.3519     24.8814
  1057.6000      8.2162      2.6082      0.0061      2.5307    142.6293     25.4927
  1057.7000      8.2162      2.6290      0.0160      1.2749    138.2627     26.3775
  1057.8000      8.2225      2.6419     -0.0115      0.4890    137.2045     27.1325
  1057.9000      8.2225      2.6360      0.0987      0.8458    143.1988     27.7737
  1058.0000      8.2268      2.6098      0.0263      2.4335    150.6267     27.9092
  1058.1000      8.2268      2.5870      0.0438      3.8199    153.5981     26.4148
  1058.2000      8.2268      2.5785      0.0705      4.3336    152.4884     24.2532
  1058.3000      8.2267      2.5756      0.0401      4.5090    147.4137     23.1886
  1058.4000      8.2267      2.5670      0.1490      5.0313    141.2403     23.3670
  1058.5000      8.2380      2.5448      0.0779      6.3773    142.1020     24.3702
  1058.6000      8.2380      2.5250      0.0423      7.5730    151.1037     25.1105
  1058.7000      8.2380      2.5246      0.0443      7.6014    162.0908     24.7462
  1058.8000      8.2581      2.5346      0.0717      6.9930    170.0684     24.2061
  1058.9000      8.2581      2.5429      0.0475      6.4891    169.4439     24.7096
  1059.0000      8.2570      2.5466      0.0608      6.2662    159.2699     26.2295
  1059.1000      8.2570      2.5324      0.1167      7.1244    148.6815     27.2334
  1059.2000      8.2570      2.4752      0.1500     10.5962    140.1064     26.7226
  1059.3000      8.2704      2.3735      0.0695     16.7552    127.7691     25.5542
  1059.4000      8.2704      2.2470      0.0985     24.4217    114.0485     25.0980
  1059.5000      8.2491      2.0910      0.0353     33.8797    106.9181     25.8145
  1059.6000      8.2491      1.8969     -0.0269     45.6408    106.0558     26.9841
  1059.7000      8.2491      1.6964     -0.1224     57.7968    101.9403     27.6997
  1059.8000      8.2459      1.5285     -0.1532     67.9686     87.9750     27.7749
  1059.9000      8.2459      1.3926     -0.1379     76.2035     70.7972     27.6949
  1060.0000      8.2637      1.2715     -0.0378     83.5478     59.2455     27.7722
  1060.1000      8.2637      1.1752     -0.0722     89.3802     52.4815     27.8043
  1060.2000      8.2637      1.1227     -0.0044     92.5650     47.5470     27.9210
  1060.3000      8.3821      1.1079     -0.0091     93.4580     44.0776     29.2888
  1060.4000      8.3821      1.1141     -0.0018     93.0858     41.4611     32.1731
  1060.5000      8.8818      1.1267      0.0081     92.3223     38.7094     34.7086
  1060.6000      8.8818      1.1391     -0.0081     91.5700     34.9351     35.3843
  1060.7000      8.8818      1.1571     -0.0210     90.4771     31.3818     34.5010
  1060.8000      9.5308      1.1861     -0.0020     88.7221     29.3173     33.1466
  1060.9000      9.5308      1.2208      0.0046     86.6190     27.9660     32.2010
  1061.0000     10.3608      1.2538      0.0440     84.6170     29.3069     32.0125
  1061.1000     10.3608      1.2848      0.0327     82.7413     36.2230     32.3073
  1061.2000     10.3608      1.3181      0.0520     80.7208     44.5499     32.4945
  1061.3000      9.7914      1.3520      0.0619     78.6693     48.5952     32.3623
  1061.4000      9.7914      1.3848      0.0180     76.6785     49.3322     32.3718
  1061.5000      9.3126      1.4239      0.0451     74.3094     49.4549     33.0337
  1061.6000      9.3126      1.4705      0.0693     71.4855     52.0204     34.0659
  1061.7000      9.3126      1.5192      0.0758     68.5361     61.2723     34.7149
  1061.8000      8.9943      1.5758      0.1083     65.1016     76.2312     34.6603
  1061.9000      8.9943      1.6697      0.0687     59.4098     90.5973     34.2275
  1062.0000      8.8318      1.8203      0.1270     50.2866    100.1634     33.8450
  1062.1000      8.8318      1.9867      0.2141     40.2030    103.9399     33.1541
  1062.2000      8.8318      2.1166      0.1869     32.3300    104.5836     31.5813
  1062.3000      8.6598      2.2154      0.2189     26.3396    107.0089     30.0758
  1062.4000      8.6598      2.3030      0.2588     21.0308    111.0099     29.4221
  1062.5000      8.3303      2.3673      0.2957     17.1318    112.3397     28.7530
  1062.6000      8.3303      2.3988      0.2012     15.2260    110.6016     27.8065
  1062.7000      8.3303      2.4221      0.1174     13.8140    109.5414     27.4744
  1062.8000      8.3215      2.4668      0.0692     11.1049    111.9561     27.7512
  1062.9000      8.3215      2.5276      0.1046      7.4205    116.3029     27.6402
  1063.0000      8.1670      2.5804      0.1418      4.2207    121.3951     26.9618
  1063.1000      8.1670      2.6178      0.1355      1.9502    127.1955     26.3085
  1063.2000      8.1670      2.6360      0.1692      0.8465    131.0440     25.7769
  1063.3000      8.1434      2.6234      0.1594      1.6118    132.1033     25.1858
  1063.4000      8.1434      2.5941      0.0790      3.3890    131.4179     24.2346
  1063.5000      8.1439      2.5762      0.0871      4.4701    124.0262     22.4048
  1063.6000      8.1439      2.5737      0.0488      4.6256    110.8196     21.0526
  1063.7000      8.1439      2.5839      0.0454      4.0041    102.0687     22.0851
  1063.8000      8.1388      2.6070      0.0708      2.6066    102.0506     24.2913
  1063.9000      8.1388      2.6307      0.0831      1.1671    106.8862     25.4402
  1064.0000      8.1316      2.6373      0.1228      0.7670    108.7204     25.6048
  1064.1000      8.1316      2.6222      0.0830      1.6858    105.3034     25.0511
  1064.2000      8.1316      2.6096      0.0104      2.4496    100.5857     23.9288
  1064.3000      8.1149      2.6246      0.0527      1.5369     95.5800     23.4234
  1064.4000      8.1149      2.6616      0.0643     -0.7045     91.8520     23.9517
  1064.5000      8.1207      2.7096      0.0927     -3.6097     94.2673     24.4167
  1064.6000      8.1207      2.7665      0.1163     -7.0626    102.8160     24.0251
  1064.7000      8.1207      2.8226      0.1523    -10.4608    108.4181     23.5431
  1064.8000      8.1157      2.8617      0.1486    -12.8280    104.3217     23.4242
  1064.9000      8.1157      2.8814      0.1383    -14.0220     94.8026     23.3969
  1065.0000      8.1105      2.8857      0.1941    -14.2875     87.0690     23.6489
  1065.1000      8.1105      2.8777      0.1546    -13.8015     82.5186     23.8541
  1065.2000      8.1105      2.8708      0.1094    -13.3825     76.9222     23.2569
  1065.3000      8.1056      2.8678      0.0718    -13.2022     68.1986     22.3237
  1065.4000      8.1056      2.8407     -0.0089    -11.5588     60.8876     21.5693
  1065.5000      8.1126      2.7732     -0.1224     -7.4690     60.2561     20.6495
  1065.6000      8.1126      2.6886     -0.1446     -2.3418     67.2338     19.5832
  1065.7000      8.1126      2.6315     -0.1886      1.1221     81.1567     18.6621
  1065.8000      8.1264      2.6220     -0.0871      1.6952     96.8394     18.2410
  1065.9000      8.1264      2.6216     -0.0130      1.7215    106.0839     18.8742
  1066.0000      8.1143      2.5887      0.0126      3.7178    109.8810     20.4812
  1066.1000      8.1143      2.5324      0.0177      7.1245    113.9201     21.7187
  1066.2000      8.1143      2.4846      0.0460     10.0242    118.1393     22.0087
  1066.3000      8.1135      2.4571      0.0893     11.6924    119.9594     22.3664
