~Version Information
VERS.                      2.0: CWLS Log ASCII Standard - VERSION 2.0
WRAP.                       NO: One line per depth step
~Well Information Block
STRT.FT               899.1000: 
STOP.FT              2501.5000: 
STEP.FT                 0.1000: 
NULL.                -999.2500: 
COMP.          Petrogulf Corporation: COMPANY
WELL.           Deremer 17-21V: WELL
FLD.           Purgatorie River: FIELD
LOC.           851' FNL & 963' FWL: LOCATION
CNTY.               Las Animas: COUNTY
SRVC.                         : SERVICE COMPANY
DATE.          Tue Nov 18 09:12:06 2003: LOG DATE
UWI.                          : UNIQUE WELL ID
STAT.                 Colorado: STATE
~Curve Information Block
DEPT.FT            0 000 00 00: Depth
DPOR.pu                       : CDL Density Porosity
NEU.NAPI                      : Neutron
NPOR.pu                       : Neutron Porosity
RHOB.g/cc                     : CDL Bulk Density
RHOC.g/cc                     : CDL Density Correction
GR.GAPI                       : Gamma Ray
DCAL.in                       : CDL Caliper
~Parameter Information Block
~A  Depth       DPOR        NEU         NPOR        RHOB        RHOC         GR         DCAL    
# ...
  1663.5000      1.3495   1095.4775     26.6931      2.6277      0.1825    117.0551      8.1362
  1663.6000      4.0303   1100.6488     26.4710      2.5835      0.0785    120.7238      8.1362
  1663.7000      7.2687   1104.3698     26.3110      2.5301      0.0868    123.8642      8.1362
  1663.8000      9.0041   1106.5631     26.2166      2.5014      0.0045    122.1470      8.0488
  1663.9000      8.8787   1104.6844     26.2975      2.5035      0.0106    114.4785      8.0488
  1664.0000      7.9955   1104.9053     26.2880      2.5181      0.0470    110.1888      7.9896
  1664.1000      6.8976   1110.9825     26.0263      2.5362      0.0607    116.8315      7.9896
  1664.2000      5.4304   1117.2021     25.7582      2.5604      0.0794    127.5066      7.9896
  1664.3000      4.0176   1114.8442     25.8599      2.5837      0.1062    130.5107      7.9707
  1664.4000      3.4625   1102.8982     26.3743      2.5929      0.1189    125.5842      7.9707
  1664.5000      3.8298   1095.0552     26.7112      2.5868      0.0690    121.2750      7.9696
  1664.6000      4.2577   1100.6899     26.4692      2.5797      0.0595    121.6298      7.9696
  1664.7000      4.1888   1110.0903     26.0648      2.5809      0.0636    123.8611      7.9696
  1664.8000      4.2045   1111.8984     25.9869      2.5806      0.0934    126.9301      7.9468
  1664.9000      5.1479   1106.9401     26.2004      2.5651      0.0327    134.6672      7.9468
  1665.0000      6.5768   1101.8882     26.4177      2.5415      0.0319    142.8265      7.9233
  1665.1000      7.3899   1098.3909     26.5680      2.5281      0.0985    139.6399      7.9233
  1665.2000      7.3750   1097.0154     26.6271      2.5283      0.0848    127.6176      7.9233
  1665.3000      7.0286   1096.6348     26.6434      2.5340      0.1038    120.5895      7.9117
  1665.4000      7.3313   1095.2314     26.7037      2.5290      0.1000    121.2844      7.9117
  1665.5000      8.9018   1095.5129     26.6916      2.5031      0.0894    120.8001      7.9044
  1665.6000     10.7890   1099.7432     26.5099      2.4720      0.0326    116.7371      7.9044
  1665.7000     11.1086   1108.0922     26.1508      2.4667     -0.0260    112.6813      7.9044
  1665.8000      9.0721   1122.6067     25.5248      2.5003      0.1168    110.7828      7.8970
  1665.9000      5.8971   1139.2880     24.8025      2.5527      0.0949    111.8100      7.8970
  1666.0000      3.2895   1145.1827     24.5465      2.5957      0.1549    114.6333      7.8875
  1666.1000      1.8398   1137.3507     24.8866      2.6196      0.1372    120.2551      7.8875
  1666.2000      1.1337   1131.7087     25.1311      2.6313      0.1587    127.4432      7.8875
  1666.3000      1.3228   1138.3943     24.8413      2.6282      0.1800    126.6690      7.8783
  1666.4000      2.8097   1148.4437     24.4047      2.6036      0.1235    116.5575      7.8783
  1666.5000      4.8730   1154.0135     24.1622      2.5696      0.0754    109.3857      7.8724
  1666.6000      6.4712   1154.6516     24.1344      2.5432      0.0661    111.5748      7.8724
  1666.7000      7.6507   1146.0817     24.5075      2.5238      0.0782    120.6707      7.8724
  1666.8000      8.6068   1130.5791     25.1800      2.5080     -0.0191    133.9161      7.8728
  1666.9000      8.6307   1117.1702     25.7596      2.5076      0.0350    144.5554      7.8728
  1667.0000      7.4744   1107.0215     26.1969      2.5267      0.0366    145.8802      7.8781
  1667.1000      5.5110   1101.4032     26.4386      2.5591      0.0502    143.8093      7.8781
  1667.2000      3.3529   1102.1138     26.4080      2.5947      0.0673    146.7003      7.8781
  1667.3000      2.2813   1099.1572     26.5351      2.6124      0.1633    151.4385      7.8932
  1667.4000      3.0443   1083.0946     27.2239      2.5998      0.0895    154.8004      7.8932
  1667.5000      4.8718   1065.8442     27.9611      2.5696      0.0773    157.3578      7.9121
  1667.6000      6.9828   1061.9150     28.1286      2.5348      0.0719    159.0455      7.9121
  1667.7000      9.2399   1066.2612     27.9433      2.4975      0.0743    160.6741      7.9121
  1667.8000     11.3859   1068.6910     27.8396      2.4621      0.0699    160.3233      7.9219
  1667.9000     12.9514   1068.7261     27.8381      2.4363     -0.0022    155.4044      7.9219
  1668.0000     13.8658   1064.2520     28.0290      2.4212      0.0314    149.1887      7.9296
  1668.1000     14.1514   1055.5845     28.3983      2.4165     -0.0723    147.6136      7.9296
  1668.2000     13.1803   1055.3525     28.4082      2.4325     -0.0088    154.7196      7.9296
  1668.3000     11.6671   1064.6907     28.0103      2.4575      0.1333    166.3929      7.9414
  1668.4000     11.3645   1066.9346     27.9146      2.4625      0.0735    172.5966      7.9414
  1668.5000     11.7344   1055.3484     28.4084      2.4564      0.0291    170.7979      7.9469
  1668.6000     11.0297   1044.0310     28.8897      2.4680      0.0475    163.0412      7.9469
  1668.7000      8.7652   1043.7976     28.8996      2.5054      0.0665    153.8761      7.9469
  1668.8000      5.9982   1045.6600     28.8204      2.5510      0.1915    147.2754      7.9440
  1668.9000      4.4935   1036.3590     29.2154      2.5759      0.1607    144.0947      7.9440
  1669.0000      4.8094   1022.7845     29.7907      2.5706      0.1804    146.2906      7.9473
  1669.1000      5.9822   1018.8080     29.9590      2.5513      0.1000    154.8796      7.9473
  1669.2000      6.9711   1016.1052     30.0733      2.5350      0.0707    166.7267      7.9473
  1669.3000      7.7217   1008.2086     30.4071      2.5226      0.0696    175.2483      7.9588
  1669.4000      8.3670   1007.6147     30.4322      2.5119      0.0150    176.7973      7.9588
  1669.5000      8.4023   1018.1100     29.9885      2.5114      0.0102    172.0650      7.9644
  1669.6000      7.7903   1028.1276     29.5644      2.5215      0.0205    164.2097      7.9644
  1669.7000      7.1440   1029.7192     29.4970      2.5321      0.0459    159.5064      7.9644
  1669.8000      6.4599   1029.7620     29.4951      2.5434     -0.0009    161.7478      7.9675
  1669.9000      5.7597   1043.3632     28.9180      2.5550      0.0750    167.5177      7.9675
  1670.0000      6.5562   1073.5878     27.6305      2.5418      0.1568    168.6011      7.9760
  1670.1000      9.3256   1104.5249     26.3043      2.4961      0.0294    159.5352      7.9760
  1670.2000     11.7647   1114.9746     25.8543      2.4559      0.0173    146.7649      7.9760
  1670.3000     12.3292   1101.5334     26.4330      2.4466     -0.0131    143.0776      7.9850
  1670.4000     11.3556   1085.0426     27.1405      2.4626      0.0394    148.9834      7.9850
  1670.5000      9.2728   1077.9828     27.4426      2.4970      0.0595    155.3717      7.9880
  1670.6000      7.0169   1075.5941     27.5448      2.5342      0.1303    160.9943      7.9880
  1670.7000      6.0475   1073.7257     27.6246      2.5502      0.1018    169.2014      7.9880
  1670.8000      6.5502   1069.0996     27.8222      2.5419      0.0718    175.0513      7.9842
  1670.9000      7.2568   1055.5658     28.3991      2.5303      0.0482    173.6010      7.9842
  1671.0000      7.0729   1035.3873     29.2566      2.5333      0.0545    169.4776      7.9838
  1671.1000      6.2655   1022.2146     29.8148      2.5466      0.1213    167.2710      7.9838
  1671.2000      5.9434   1023.0641     29.7789      2.5519      0.1291    168.1343      7.9838
  1671.3000      6.2825   1033.5496     29.3346      2.5463      0.1257    171.0661      7.9889
  1671.4000      6.1054   1046.0847     28.8024      2.5493      0.0569    172.5590      7.9889
  1671.5000      4.9253   1052.6981     28.5212      2.5687      0.1018    173.8463      8.0009
  1671.6000      4.2871   1051.8158     28.5587      2.5793      0.1535    180.4507      8.0009
  1671.7000      5.3606   1049.0983     28.6743      2.5616      0.0490    185.0557      8.0009
  1671.8000      7.1558   1049.9596     28.6376      2.5319     -0.0146    176.7196      8.0271
