~Version Information
VERS.                      2.0: CWLS Log ASCII Standard - VERSION 2.0
WRAP.                       NO: One line per depth step
~Well Information Block
STRT.FT               -17.7500: 
STOP.FT              1590.5000: 
STEP.FT                 0.2500: 
NULL.                -999.2500: 
COMP.          Petrogulf Corporation: COMPANY
WELL.          Great Plains 22-21V: WELL
FLD.           Purgatorie River: FIELD
LOC.           63' FNL & 1895' FWL--: LOCATION
CNTY.               Las Animas: COUNTY
SRVC.          Superior Well Services: SERVICE COMPANY
DATE.          Fri Dec 08 14:45:19 2006: LOG DATE
UWI.           05 071 08346 00: UNIQUE WELL ID
STAT.                       CO: STATE
~Curve Information Block
DEPT.FT            0 000 00 00: Depth
CCL.                          : Casing Collar Locator
TT3.usec                      : CBL 3' Travel Time
AMP3.mV                       : CBL 3' Amplitude
GR.GAPI                       : Gamma Ray
~Parameter Information Block
~A  Depth       CCL         TT3         AMP3         GR     
# ...
  1121.2500      0.0000    430.2816     15.1057    141.2639
  1121.5000      0.0000    431.4340     14.7222    142.6740
  1121.7500      0.0000    419.2240     14.4563    140.5542
  1122.0000      0.0000    401.5295     14.2814    138.0819
  1122.2500      0.0000    386.0230     14.1469    138.4134
  1122.5000      0.0000    381.2185     13.9608    141.6450
  1122.7500      0.0000    397.5857     13.6126    145.1788
  1123.0000      0.0000    442.7159     13.0375    146.3943
  1123.2500      0.0000    513.6285     12.2666    144.6158
  1123.5000      0.0000    594.6584     11.4158    141.0234
  1123.7500      0.0000    665.6508     10.6250    137.5683
  1124.0000      0.0000    714.2079      9.9955    136.0453
  1124.2500      0.0000    740.6635      9.5581    137.2689
  1124.5000      0.0000    752.9145      9.2788    140.4500
  1124.7500      0.0000    758.5998      9.0997    143.5373
  1125.0000      0.0000    761.3651      8.9825    144.4631
  1125.2500      0.0000    761.5761      8.9190    142.2201
  1125.5000      0.0000    758.8514      8.8994    137.0815
  1125.7500      0.0000    753.8994      8.8843    130.2382
  1126.0000      0.0000    748.4976      8.8206    123.3733
  1126.2500      0.0000    744.0927      8.6847    118.1265
  1126.5000      0.0000    740.7419      8.5045    115.2865
  1126.7500      0.0000    737.6972      8.3391    114.4605
  1127.0000      0.0000    735.0529      8.2423    114.8715
  1127.2500      0.0000    734.1296      8.2387    116.2230
  1127.5000      0.0000    735.5807      8.3217    118.4152
  1127.7500      0.0000    737.5217      8.4659    120.9111
  1128.0000      0.0000    736.0028      8.6409    122.9169
  1128.2500      0.0000    727.5628      8.8147    123.9910
  1128.5000      0.0000    712.3058      8.9522    124.2456
  1128.7500      0.0000    695.4906      9.0168    123.9907
  1129.0000      0.0000    684.9321      8.9868    123.1821
  1129.2500      0.0000    685.0170      8.8794    121.4057
  1129.5000      0.0000    693.7121      8.7517    118.4443
  1129.7500      0.0000    706.1104      8.6643    114.4791
  1130.0000      0.0000    719.3163      8.6314    109.6029
  1130.2500      0.0000    732.8828      8.6105    103.6056
  1130.5000      0.0000    746.3630      8.5448     96.5652
  1130.7500      0.0000    758.1136      8.4176     89.4860
  1131.0000      0.0000    766.1870      8.2634     84.0944
  1131.2500      0.0000    769.9240      8.1359     81.7549
  1131.5000      0.0000    770.7761      8.0707     82.3843
  1131.7500      0.0000    771.4240      8.0758     84.4688
  1132.0000      0.0000    773.8683      8.1430     86.2214
  1132.2500      0.0000    778.4026      8.2580     86.7420
  1132.5000      0.0000    783.9670      8.4002     86.3032
  1132.7500      0.0000    789.0250      8.5463     85.8786
  1133.0000      0.0000    792.2938      8.6848     86.4162
  1133.2500      0.0000    793.0292      8.8322     88.3804
  1133.5000      0.0000    790.7792      9.0313     92.0020
  1133.7500      0.0000    785.1840      9.3280     97.9016
  1134.0000      0.0000    776.1051      9.7480    106.9941
  1134.2500      0.0000    763.1813     10.2973    119.5104
  1134.5000      0.0000    743.8153     10.9755    134.2284
  1134.7500      0.0000    711.5106     11.7766    148.6727
  1135.0000      0.0000    658.9133     12.6664    159.9192
  1135.2500      0.0000    586.2850     13.5560    165.7856
  1135.5000      0.0000    507.8256     14.2974    166.2914
  1135.7500      0.0000    447.5264     14.7273    163.9660
  1136.0000      0.0000    426.9448     14.7420    161.8974
  1136.2500      0.0000    454.4662     14.3497    161.2842
  1136.5000      0.0000    520.9235     13.6588    161.0818
  1136.7500      0.0000    602.6699     12.8162    159.5315
  1137.0000      0.0000    673.5063     11.9459    155.6230
  1137.2500      0.0000    719.8885     11.1231    149.6114
  1137.5000      0.0000    746.6758     10.3846    142.8555
  1137.7500      0.0000    768.4734      9.7437    137.0753
  1138.0000      0.0000    795.2581      9.1946    133.1958
  1138.2500      0.0000    824.4984      8.7151    130.6942
  1138.5000      0.0000    845.1385      8.2814    128.1696
  1138.7500      0.0000    848.6857      7.8857    124.5304
  1139.0000      0.0000    836.1929      7.5415    119.6423
  1139.2500      0.0000    815.2469      7.2764    114.4536
  1139.5000      0.0000    792.7515      7.1175    111.0689
  1139.7500      0.0000    772.3895      7.0755    112.2331
  1140.0000      0.0000    756.9841      7.1383    119.5688
  1140.2500      0.0000    749.5073      7.2854    131.6343
  1140.5000      0.0000    750.4695      7.5098    143.9929
  1140.7500      0.0000    756.0930      7.8203    151.9093
  1141.0000      0.0000    760.7332      8.2171    153.5049
  1141.2500      0.0000    760.4816      8.6756    150.5633
  1141.5000      0.0000    752.8013      9.1686    146.6458
  1141.7500      0.0000    732.9543      9.6934    144.5842
  1142.0000      0.0000    693.6733     10.2543    145.4241
  1142.2500      0.0000    631.3603     10.8245    148.9356
  1142.5000      0.0000    552.9402     11.3511    154.1810
  1142.7500      0.0000    474.5727     11.8026    159.3309
  1143.0000      0.0000    412.0602     12.1982    161.6677
  1143.2500      0.0000    372.5187     12.5836    158.7586
  1143.5000      0.0000    354.7658     12.9772    149.7702
  1143.7500      0.0000    355.9085     13.3304    135.5082
  1144.0000      0.0000    375.8809     13.5471    117.8550
  1144.2500      0.0000    414.0755     13.5645     99.7217
  1144.5000      0.0000    461.0081     13.4122     84.7177
  1144.7500      0.0000    496.8366     13.1677     75.6438
  1145.0000      0.0000    504.3720     12.8624     72.9485
  1145.2500      0.0000    484.5391     12.4675     74.7873
  1145.5000      0.0000    454.4122     11.9812     78.6491
  1145.7500      0.0000    429.9095     11.4922     82.9447
  1146.0000      0.0000    415.5207     11.1248     87.2410
  1146.2500      0.0000    410.9436     10.9303     91.3944
  1146.5000      0.0000    420.5445     10.8492     94.8729
  1146.7500      0.0000    450.3054     10.7846     97.0085
  1147.0000      0.0000    495.9516     10.7077     97.6869
  1147.2500      0.0000    539.9513     10.6733     97.8063
  1147.5000      0.0000    566.0766     10.7208     99.2680
  1147.7500      0.0000    575.3586     10.7982    104.2021
  1148.0000      0.0000    580.2620     10.8307    113.3178
  1148.2500      0.0000    583.4194     10.8413    124.6764
  1148.5000      0.0000    571.6337     10.9480    134.5875
  1148.7500      0.0000    533.6696     11.2517    140.2452
  1149.0000      0.0000    476.4117     11.7666    141.6214
  1149.2500      0.0000    419.3356     12.4439    140.9286
  1149.5000      0.0000    377.4830     13.2365    140.5964
  1149.7500      0.0000    353.0623     14.1335    141.9480
  1150.0000      0.0000    339.9273     15.1221    145.3781
  1150.2500      0.0000    331.4391     16.1046    150.6898
  1150.5000      0.0000    324.1118     16.9113    156.6143
  1150.7500      0.0000    317.0877     17.4629    160.7055
  1151.0000      0.0000    310.6371     17.8787    160.7474
  1151.2500      0.0000    305.3071     18.3501    156.5163
  1151.5000      0.0000    301.4805     18.9503    149.9946
  1151.7500      0.0000    299.1205     19.6192    143.8131
  1152.0000      0.0000    297.8116     20.2874    139.4813
  1152.2500      0.0000    297.0536     20.9576    136.9705
  1152.5000      0.0000    296.4913     21.6758    135.4373
  1152.7500      0.0000    295.9576     22.4668    133.6723
  1153.0000      0.0000    295.4124     23.3160    130.1028
  1153.2500      0.0000    294.8796     24.1805    123.7010
  1153.5000      0.0000    294.4030     24.9688    115.6055
  1153.7500      0.0000    294.0275     25.5049    109.0193
  1154.0000      0.0000    293.7829     25.5766    106.5603
  1154.2500      0.0000    293.6711     25.0745    107.8707
  1154.5000      0.0000    293.6692     24.0929    110.3408
