~Version Information
VERS.                      2.0: CWLS Log ASCII Standard - VERSION 2.0
WRAP.                       NO: One line per depth step
~Well Information Block
STRT.FT               500.0000: 
STOP.FT              2760.5000: 
STEP.FT                 0.1000: 
NULL.                -999.2500: 
COMP.          Petrogulf Corporation: COMPANY
WELL.              Silva 1-43V: WELL
FLD.           Purgatorie River: FIELD
LOC.           2010' FSL & 614' FEL: LOCATION
PROV.                 Colorado: PROVINCE
CNTY.               Las Animas: COUNTRY
SRVC.                Patterson: SERVICE COMPANY
DATE.          Mon Aug 29 08:02:37 2005: LOG DATE
UWI.                          : UNIQUE WELL ID
~Curve Information Block
DEPT.FT            0 000 00 00: Depth
DCAL.in                       : CDL Caliper
RHOB.g/cc                     : CDL Bulk Density
RHOC.g/cc                     : CDL Density Correction
DPOR.pu                       : CDL Density Porosity
GR.GAPI                       : Gamma Ray
NPOR.pu                       : Neutron Porosity
~Parameter Information Block
~A  Depth       DCAL        RHOB        RHOC        DPOR         GR         NPOR    
# ...
  1700.0000      8.0006      2.4854      0.0033      9.9732    151.7880     20.6376
  1700.1000      8.0006      2.4464      0.0173     12.3418    156.6109     22.0602
  1700.2000      8.0006      2.4018      0.0561     15.0412    166.2413     23.9336
  1700.3000      8.0367      2.3480      0.0435     18.3034    175.0961     25.4884
  1700.4000      8.0367      2.2986      0.0013     21.2944    179.7758     26.4538
  1700.5000      8.0946      2.2703     -0.0017     23.0108    181.0575     27.0302
  1700.6000      8.0946      2.2672     -0.0033     23.2028    180.4061     27.2955
  1700.7000      8.0946      2.2852      0.0396     22.1103    176.9077     27.5091
  1700.8000      8.1169      2.3155      0.1071     20.2744    171.2922     28.0533
  1700.9000      8.1169      2.3520      0.1441     18.0634    169.8524     28.7031
  1701.0000      8.1531      2.4024      0.1681     15.0046    175.1149     29.1954
  1701.1000      8.1531      2.4697      0.3024     10.9257    182.1841     29.5876
  1701.2000      8.1531      2.5296      0.4009      7.2980    186.8435     29.5747
  1701.3000      8.2303      2.5670      0.3503      5.0308    190.9445     29.2907
  1701.4000      8.2303      2.6016      0.3044      2.9341    193.4389     29.3953
  1701.5000      8.1755      2.6349      0.3478      0.9179    190.7373     29.8364
  1701.6000      8.1755      2.6371      0.2675      0.7816    187.0986     30.1516
  1701.7000      8.1755      2.6075      0.1565      2.5739    187.3474     30.3043
  1701.8000      8.0807      2.5764      0.1364      4.4629    189.4103     30.4135
  1701.9000      8.0807      2.5624      0.1013      5.3083    189.5087     30.2704
  1702.0000      8.0866      2.5619      0.1299      5.3384    185.7919     29.9550
  1702.1000      8.0866      2.5556      0.1347      5.7227    178.2483     29.7489
  1702.2000      8.0866      2.5348      0.0741      6.9806    170.6331     29.4666
  1702.3000      8.1278      2.5086      0.0649      8.5674    168.1863     29.0222
  1702.4000      8.1278      2.4824      0.0264     10.1599    171.5698     28.7613
  1702.5000      8.0903      2.4619      0.0201     11.4001    179.0523     28.7443
  1702.6000      8.0903      2.4589      0.0775     11.5824    187.3450     28.7435
  1702.7000      8.0903      2.4757      0.0995     10.5614    191.9342     28.7813
  1702.8000      8.0999      2.5000      0.1301      9.0923    191.4043     28.9638
  1702.9000      8.0999      2.5132      0.1786      8.2880    185.1857     29.2463
  1703.0000      8.1188      2.5118      0.1171      8.3780    178.1901     29.5507
  1703.1000      8.1188      2.5072      0.1394      8.6565    179.0760     29.7111
  1703.2000      8.1188      2.5018      0.1423      8.9817    184.3077     29.5206
  1703.3000      8.2256      2.4896      0.1183      9.7217    185.8698     29.1890
  1703.4000      8.2256      2.4707      0.1335     10.8667    184.9321     29.1706
  1703.5000      8.1073      2.4530      0.0749     11.9387    183.2140     29.4233
  1703.6000      8.1073      2.4430      0.0869     12.5441    177.9220     29.5169
  1703.7000      8.1073      2.4392      0.0687     12.7785    171.1255     29.2724
  1703.8000      8.0631      2.4414      0.0647     12.6424    169.8447     28.8339
  1703.9000      8.0631      2.4502      0.0841     12.1120    175.7167     28.4044
  1704.0000      8.0922      2.4614      0.0898     11.4319    181.3240     28.2532
  1704.1000      8.0922      2.4746      0.0658     10.6318    179.7998     28.5122
  1704.2000      8.0922      2.4978      0.1040      9.2244    171.0731     28.7174
  1704.3000      8.1342      2.5357      0.1381      6.9250    158.6320     28.3018
  1704.4000      8.1342      2.5761      0.1682      4.4779    149.4184     27.4016
  1704.5000      8.1127      2.6000      0.1205      3.0327    147.7687     26.5789
  1704.6000      8.1127      2.6059      0.0763      2.6731    146.4748     26.0983
  1704.7000      8.1127      2.6022      0.1210      2.8988    140.7227     25.8071
  1704.8000      8.1098      2.5939      0.0744      3.3977    134.1272     25.5049
  1704.9000      8.1098      2.5850      0.0870      3.9367    127.7404     25.1624
  1705.0000      8.0983      2.5768      0.0665      4.4341    123.1128     24.8447
  1705.1000      8.0983      2.5718      0.0766      4.7376    123.8591     24.4978
  1705.2000      8.0983      2.5709      0.0540      4.7947    129.2799     24.1134
  1705.3000      8.1053      2.5740      0.0745      4.6066    135.0503     23.5685
  1705.4000      8.1053      2.5832      0.0811      4.0471    138.8276     22.7793
  1705.5000      8.1036      2.5987      0.0841      3.1066    141.6843     21.9603
  1705.6000      8.1036      2.6052      0.1402      2.7122    143.9301     21.4319
  1705.7000      8.1036      2.5886      0.0595      3.7225    142.9153     21.4207
  1705.8000      8.0994      2.5686      0.0201      4.9353    138.9998     21.8342
  1705.9000      8.0994      2.5629      0.0548      5.2809    136.7083     22.4609
  1706.0000      8.0874      2.5610      0.0582      5.3933    137.7897     22.9673
  1706.1000      8.0874      2.5558      0.0502      5.7117    138.7431     23.0603
  1706.2000      8.0874      2.5490      0.0330      6.1195    135.6548     22.8590
  1706.3000      8.0676      2.5414      0.0417      6.5848    128.8883     22.6363
  1706.4000      8.0676      2.5387      0.0069      6.7482    122.2527     22.4759
  1706.5000      8.0615      2.5454      0.0593      6.3379    118.2290     22.0711
  1706.6000      8.0615      2.5513      0.0223      5.9819    116.0578     21.1192
  1706.7000      8.0615      2.5443      0.0580      6.4069    113.9590     20.0336
  1706.8000      8.0474      2.5255      0.0110      7.5482    112.8330     19.2916
  1706.9000      8.0474      2.5114      0.0191      8.3971    114.6817     18.8209
  1707.0000      8.0659      2.5160      0.0423      8.1214    118.0385     18.4780
  1707.1000      8.0659      2.5360      0.0443      6.9109    120.7032     18.3248
  1707.2000      8.0659      2.5565      0.1120      5.6678    123.4739     18.2249
  1707.3000      8.0459      2.5657      0.0833      5.1087    126.9372     18.1922
  1707.4000      8.0459      2.5695      0.0453      4.8817    130.3146     18.4489
  1707.5000      8.0224      2.5724      0.0965      4.7030    131.7092     18.8880
  1707.6000      8.0224      2.5669      0.0860      5.0361    130.6749     19.3336
  1707.7000      8.0224      2.5569      0.0524      5.6402    130.6012     19.8485
  1707.8000      7.9837      2.5569      0.0409      5.6418    133.3864     20.3049
  1707.9000      7.9837      2.5694      0.0579      4.8819    136.3953     20.3246
  1708.0000      7.9852      2.5824      0.0659      4.0948    138.7693     19.9101
  1708.1000      7.9852      2.5830      0.0721      4.0605    141.4713     19.2617
  1708.2000      7.9852      2.5725      0.0317      4.6948    143.4841     18.3968
  1708.3000      8.0227      2.5650      0.0709      5.1528    144.2669     17.7245
  1708.4000      8.0227      2.5667      0.0556      5.0470    146.0029     17.8217
  1708.5000      8.0191      2.5740      0.0634      4.6089    148.7031     18.4217
  1708.6000      8.0191      2.5782      0.1086      4.3485    150.0407     18.7889
  1708.7000      8.0191      2.5710      0.0488      4.7909    150.7599     18.8781
  1708.8000      7.9950      2.5553      0.0773      5.7420    153.7405     18.9780
  1708.9000      7.9950      2.5428      0.0935      6.4979    156.9644     19.1756
  1709.0000      8.0051      2.5439      0.0736      6.4315    155.7198     19.5245
  1709.1000      8.0051      2.5633      0.0663      5.2533    149.5876     19.9600
  1709.2000      8.0051      2.5945      0.1000      3.3645    141.9265     20.3033
  1709.3000      7.9567      2.6213      0.1270      1.7386    136.8667     20.6017
  1709.4000      7.9567      2.6317      0.1381      1.1111    136.2702     21.0030
  1709.5000      7.9681      2.6245      0.0872      1.5452    137.3291     21.5336
