~Version Information
VERS.                      2.0: CWLS Log ASCII Standard - VERSION 2.0
WRAP.                       NO: One line per depth step
~Well Information Block
STRT.FT               550.0000: 
STOP.FT              1577.7000: 
STEP.FT                 0.1000: 
NULL.                -999.2500: 
COMP.          Pioneer Natural Resources: COMPANY
WELL.          Kristin 22-23 Tr: WELL
FLD.           Purgatoire River: FIELD
LOC.           2273' FNL & 2029' FWL: LOCATION
PROV.                 Colorado: PROVINCE
CNTY.               Las Animas: COUNTRY
SRVC.                Patterson: SERVICE COMPANY
DATE.          Fri Jan 21 06:58:50 2005: LOG DATE
UWI.           05 071 08259 00: UNIQUE WELL ID
~Curve Information Block
DEPT.FT            0 000 00 00: Depth
DCAL.in                       : CDL Caliper
RHOB.g/cc                     : CDL Bulk Density
RHOC.g/cc                     : CDL Density Correction
DPOR.pu                       : CDL Density Porosity
NPOR.pu                       : Neutron Porosity
GR.GAPI                       : Gamma Ray
~Parameter Information Block
~A  Depth       DCAL        RHOB        RHOC        DPOR        NPOR         GR     
# ...
   684.4000      7.9694      2.6035      0.1925      2.8166     21.1518     61.0520
   684.5000      7.9709      2.6086      0.2164      2.5074     21.2164     60.1723
   684.6000      7.9709      2.6039      0.2159      2.7948     21.1611     59.8909
   684.7000      7.9709      2.5923      0.1199      3.4940     21.4790     61.5742
   684.8000      7.9763      2.5865      0.1296      3.8482     21.5489     64.3606
   684.9000      7.9763      2.5843      0.1308      3.9789     20.9494     66.7341
   685.0000      7.9980      2.5736      0.1437      4.6300     20.2639     67.3614
   685.1000      7.9980      2.5524      0.0756      5.9151     20.0329     66.9268
   685.2000      7.9980      2.5354      0.0527      6.9441     20.3197     67.8343
   685.3000      8.0334      2.5360      0.0404      6.9075     20.8854     69.0615
   685.4000      8.0334      2.5493      0.0829      6.1009     21.3457     68.4010
   685.5000      8.0601      2.5610      0.0662      5.3951     21.3436     65.9475
   685.6000      8.0601      2.5666      0.0460      5.0560     20.8397     64.2266
   685.7000      8.0601      2.5672      0.0407      5.0181     20.2712     66.5481
   685.8000      8.0705      2.5655      0.0328      5.1235     19.8620     71.4511
   685.9000      8.0705      2.5683      0.0311      4.9525     19.3346     74.3377
   686.0000      8.0748      2.5769      0.0387      4.4303     18.2472     73.8637
   686.1000      8.0748      2.5878      0.0627      3.7692     16.6423     71.6030
   686.2000      8.0748      2.6032      0.0572      2.8365     15.2478     68.6449
   686.3000      8.0772      2.6234      0.0876      1.6117     14.4469     64.0192
   686.4000      8.0772      2.6358      0.1000      0.8588     14.0799     58.1781
   686.5000      8.0755      2.6365      0.0492      0.8196     14.2316     56.0900
   686.6000      8.0755      2.6423      0.0483      0.4697     15.0455     59.7013
   686.7000      8.0755      2.6579      0.0820     -0.4772     15.8944     63.2421
   686.8000      8.0734      2.6692      0.1149     -1.1652     15.8347     61.6610
   686.9000      8.0734      2.6786      0.0668     -1.7336     15.0931     56.8494
   687.0000      8.0740      2.7025      0.0611     -3.1797     14.5750     52.7805
   687.1000      8.0740      2.7301      0.1131     -4.8570     14.5612     51.1857
   687.2000      8.0740      2.7360      0.0932     -5.2116     14.9117     50.9979
   687.3000      8.0771      2.7242      0.0725     -4.4993     15.2948     50.0038
   687.4000      8.0771      2.7096      0.1092     -3.6129     15.3040     51.1782
   687.5000      8.0842      2.6922      0.0584     -2.5595     15.0588     58.7892
   687.6000      8.0842      2.6768      0.0840     -1.6228     14.8454     66.9754
   687.7000      8.0842      2.6689      0.0756     -1.1432     14.8882     67.1137
   687.8000      8.0957      2.6637      0.1047     -0.8285     15.4603     59.9481
   687.9000      8.0957      2.6621      0.0605     -0.7314     16.5145     53.8542
   688.0000      8.1066      2.6720      0.0669     -1.3304     17.4224     54.6328
   688.1000      8.1066      2.6784      0.1164     -1.7220     17.4921     57.0088
   688.2000      8.1066      2.6521      0.0837     -0.1284     17.0786     55.6126
   688.3000      8.1159      2.5974      0.0153      3.1900     16.8516     53.3665
   688.4000      8.1159      2.5565     -0.0378      5.6676     16.6489     53.3203
   688.5000      8.1238      2.5569      0.0217      5.6400     16.1540     55.5612
   688.6000      8.1238      2.5861      0.0549      3.8749     15.9824     59.2627
   688.7000      8.1238      2.6211      0.0513      1.7541     16.5792     61.2923
   688.8000      8.1288      2.6426      0.1252      0.4471     17.3725     60.1270
   688.9000      8.1288      2.6359      0.1131      0.8561     17.9469     59.7366
   689.0000      8.1327      2.6123      0.0765      2.2836     18.4699     62.2683
   689.1000      8.1327      2.5980      0.0573      3.1515     18.9714     64.9418
   689.2000      8.1327      2.5984      0.0564      3.1245     19.2853     63.6290
   689.3000      8.1377      2.6018      0.0720      2.9214     19.2167     58.7389
   689.4000      8.1377      2.6022      0.0530      2.8951     18.7092     55.5319
   689.5000      8.1432      2.6041      0.0625      2.7804     18.1075     56.4550
   689.6000      8.1432      2.6095      0.0596      2.4535     17.8134     60.2288
   689.7000      8.1432      2.6118      0.0800      2.3170     17.7780     64.1212
   689.8000      8.1439      2.6056      0.0665      2.6923     17.9302     66.1327
   689.9000      8.1439      2.6041      0.0452      2.7832     18.4837     66.0264
   690.0000      8.1407      2.6179      0.0717      1.9456     19.3902     63.8548
   690.1000      8.1407      2.6268      0.1130      1.4068     20.3972     61.1017
   690.2000      8.1407      2.6153      0.0281      2.1040     21.4488     60.8836
   690.3000      8.1382      2.6005      0.0681      2.9994     22.4852     63.3815
   690.4000      8.1382      2.5986      0.0537      3.1175     22.8828     64.3825
   690.5000      8.1342      2.6062      0.1148      2.6531     22.2043     63.1633
   690.6000      8.1342      2.6151      0.0760      2.1172     21.2638     64.2389
   690.7000      8.1342      2.6252      0.0622      1.5010     21.1432     70.1584
   690.8000      8.1304      2.6375      0.0809      0.7580     21.8014     76.7179
   690.9000      8.1304      2.6450      0.0775      0.3045     22.2829     78.9782
   691.0000      8.1319      2.6444      0.0952      0.3387     22.2439     79.0374
   691.1000      8.1319      2.6435      0.0639      0.3931     22.3309     78.6094
   691.2000      8.1319      2.6462      0.0739      0.2316     23.1532     77.7125
   691.3000      8.1348      2.6369      0.1175      0.7923     24.3828     78.6598
   691.4000      8.1348      2.6042      0.0533      2.7740     25.2401     82.4462
   691.5000      8.1378      2.5691     -0.0298      4.9056     25.5696     88.6753
   691.6000      8.1378      2.5558      0.0244      5.7103     25.7390     93.4141
   691.7000      8.1378      2.5538      0.0598      5.8296     26.1134     92.5383
   691.8000      8.1429      2.5399      0.0220      6.6727     26.8081     89.4137
   691.9000      8.1429      2.5141     -0.0071      8.2368     27.4626     87.7042
   692.0000      8.1488      2.4894      0.0370      9.7348     27.6466     89.1127
   692.1000      8.1488      2.4645      0.0532     11.2428     27.6598     95.6838
   692.2000      8.1488      2.4307      0.0434     13.2917     28.1905    104.4510
   692.3000      8.1502      2.3901      0.0053     15.7509     29.4188    109.2784
   692.4000      8.1502      2.3560      0.0190     17.8211     30.9008    108.9941
   692.5000      8.1496      2.3416     -0.0284     18.6935     31.9999    109.1691
   692.6000      8.1496      2.3507      0.0396     18.1419     32.3217    114.0547
   692.7000      8.1496      2.3719      0.0555     16.8549     32.0700    118.5405
   692.8000      8.1514      2.3905      0.0990     15.7281     32.0287    119.7108
   692.9000      8.1514      2.3975      0.1177     15.3044     32.4925    121.3917
   693.0000      8.1508      2.3940      0.1178     15.5176     32.9323    123.4816
   693.1000      8.1508      2.3929      0.0754     15.5846     33.2015    124.7839
   693.2000      8.1508      2.4074      0.0407     14.7018     33.5763    124.8384
   693.3000      8.1386      2.4265      0.1006     13.5485     33.5313    123.1836
   693.4000      8.1386      2.4196      0.0548     13.9631     32.7383    118.3304
   693.5000      8.1274      2.3768      0.0130     16.5579     32.2973    111.5218
   693.6000      8.1274      2.3145      0.0088     20.3324     32.7788    109.7559
   693.7000      8.1274      2.2514     -0.0036     24.1595     33.5157    113.7504
   693.8000      8.1381      2.1949     -0.0103     27.5795     34.0132    116.7593
   693.9000      8.1381      2.1448     -0.0042     30.6188     34.2943    117.8527
