~Version Information
VERS.                      2.0: CWLS Log ASCII Standard - VERSION 2.0
WRAP.                       NO: One line per depth step
~Well Information Block
STRT.FT                -7.5000: 
STOP.FT              1129.7500: 
STEP.FT                 0.2500: 
NULL.                -999.2500: 
COMP.          Pioneer Natural Resources: COMPANY
WELL.          Drewmeister 34-34: WELL
FLD.           Purgatorie River: FIELD
LOC.           958' FSL & 1857' FEL: LOCATION
STAT.                       CO: State
CNTY.               Las Animas: COUNTRY
CTRY. USA : Country
SECT. 34 : Section
TOWN. 32S : Township
RANG. 65W : Range
SRVC.          Patterson Wireline: SERVICE COMPANY
DATE.          Fri Oct 14 14:02:00 2005: LOG DATE
API.           05 071 08131 00: UNIQUE WELL ID
~Curve Information Block
DEPT.FT            0 000 00 00: Depth
CCL.                          : Casing Collar Locator
TT3.usec                      : CBL 3' Travel Time
AMP3.mV                       : CBL 3' Amplitude
GR.GAPI                       : Gamma Ray
~Parameter Information Block
~A  Depth       CCL         TT3         AMP3         GR     
# ...
  1031.0000      0.0000    689.1039      7.1969     71.9008
  1031.2500      0.0000    688.8649      7.8880     75.0963
  1031.5000      0.0000    688.6263      8.7416     78.5959
  1031.7500      0.0000    688.5027      9.6934     81.9994
  1032.0000      0.0000    688.7492     10.6577     85.1312
  1032.2500      0.0000    689.9424     11.5588     87.4700
  1032.5000      0.0000    693.0741     12.3605     88.1080
  1032.7500      0.0000    699.2694     13.0705     86.2845
  1033.0000      0.0000    708.9939     13.7049     82.0545
  1033.2500      0.0000    721.3274     14.2394     76.7915
  1033.5000      0.0000    734.2254     14.6022     72.9044
  1033.7500      0.0000    745.7605     14.7204     72.3162
  1034.0000      0.0000    755.1165     14.5657     74.8733
  1034.2500      0.0000    762.4088     14.1510     78.6322
  1034.5000      0.0000    767.9180     13.5024     81.8203
  1034.7500      0.0000    771.7997     12.6593     84.0497
  1035.0000      0.0000    774.2407     11.6971     85.6581
  1035.2500      0.0000    775.4469     10.7258     86.7045
  1035.5000      0.0000    775.4366      9.8497     87.0291
  1035.7500      0.0000    774.0975      9.1245     86.7285
  1036.0000      0.0000    771.6561      8.5459     86.1224
  1036.2500      0.0000    769.0444      8.0712     85.5494
  1036.5000      0.0000    767.3947      7.6534     85.3468
  1036.7500      0.0000    766.7819      7.2677     85.6892
  1037.0000      0.0000    765.8007      6.9194     86.4004
  1037.2500      0.0000    763.1591      6.6305     87.2910
  1037.5000      0.0000    759.7560      6.4187     88.5581
  1037.7500      0.0000    758.3677      6.2805     90.4544
  1038.0000      0.0000    760.8097      6.1924     92.7093
  1038.2500      0.0000    765.7888      6.1315     94.6341
  1038.5000      0.0000    769.5735      6.0947     95.8397
  1038.7500      0.0000    767.5745      6.0936     96.5821
  1039.0000      0.0000    755.0988      6.1348     97.1370
  1039.2500      0.0000    728.9357      6.2078     96.9422
  1039.5000      0.0000    691.3273      6.2919     94.8721
  1039.7500      0.0000    652.2614      6.3722     90.6230
  1040.0000      0.0000    624.5763      6.4484     85.4891
  1040.2500      0.0000    614.2620      6.5237     81.4047
  1040.5000      0.0000    615.8472      6.5853     79.4071
  1040.7500      0.0000    617.6415      6.6068     79.2687
  1041.0000      0.0000    610.8477      6.5768     80.2370
  1041.2500      0.0000    594.3940      6.5152     81.6840
  1041.5000      0.0000    573.2482      6.4514     83.2686
  1041.7500      0.0000    553.4949      6.3982     85.0169
  1042.0000      0.0000    539.3145      6.3508     87.2514
  1042.2500      0.0000    534.1821      6.3013     90.0519
  1042.5000      0.0000    543.0093      6.2466     92.6898
  1042.7500      0.0000    570.4183      6.1920     93.8256
  1043.0000      0.0000    615.4287      6.1510     92.4161
  1043.2500      0.0000    668.5628      6.1411     88.4861
  1043.5000      0.0000    716.5289      6.1763     83.1687
  1043.7500      0.0000    750.9408      6.2597     78.0156
  1044.0000      0.0000    772.5060      6.3834     74.0415
  1044.2500      0.0000    787.4418      6.5332     71.2872
  1044.5000      0.0000    800.9413      6.6968     69.2704
  1044.7500      0.0000    813.3024      6.8656     67.7972
  1045.0000      0.0000    820.7459      7.0325     67.2766
  1045.2500      0.0000    819.6440      7.1914     68.1358
  1045.5000      0.0000    810.4797      7.3394     70.0063
  1045.7500      0.0000    797.6594      7.4747     71.9418
  1046.0000      0.0000    785.1248      7.5894     73.4920
  1046.2500      0.0000    771.9520      7.6665     75.0127
  1046.5000      0.0000    751.9996      7.6871     76.7720
  1046.7500      0.0000    718.4116      7.6458     78.3670
  1047.0000      0.0000    670.2554      7.5576     79.1665
  1047.2500      0.0000    615.6956      7.4453     78.7990
  1047.5000      0.0000    567.4645      7.3204     77.2063
  1047.7500      0.0000    534.2026      7.1781     74.7603
  1048.0000      0.0000    516.2158      7.0111     72.3109
  1048.2500      0.0000    508.4468      6.8241     70.6952
  1048.5000      0.0000    505.5975      6.6377     70.2158
  1048.7500      0.0000    504.5771      6.4786     70.7599
  1049.0000      0.0000    504.2402      6.3653     72.1396
  1049.2500      0.0000    504.5522      6.2963     73.9655
  1049.5000      0.0000    506.4293      6.2514     75.4899
  1049.7500      0.0000    512.1243      6.2060     76.1818
  1050.0000      0.0000    524.9064      6.1489     76.4912
  1050.2500      0.0000    546.3579      6.0872     77.6190
  1050.5000      0.0000    572.3147      6.0304     80.3344
  1050.7500      0.0000    593.1650      5.9715     84.0394
  1051.0000      0.0000    602.0957      5.8850     86.9502
  1051.2500      0.0000    603.5302      5.7432     87.4196
  1051.5000      0.0000    609.9347      5.5390     85.5244
  1051.7500      0.0000    629.1816      5.2948     83.2499
  1052.0000      0.0000    657.1010      5.0466     82.5875
  1052.2500      0.0000    681.9642      4.8066     83.5178
  1052.5000      0.0000    694.1174      4.5457     84.3086
  1052.7500      0.0000    691.9938      4.2393     83.5273
  1053.0000      0.0000    680.9213      3.9428     81.0580
  1053.2500      0.0000    667.1374      3.7896     77.4527
  1053.5000      0.0000    654.1113      3.8774     73.2672
  1053.7500      0.0000    644.6310      4.1521     69.1040
  1054.0000      0.0000    642.6109      4.4190     65.5260
  1054.2500      0.0000    649.9960      4.4806     62.5694
  1054.5000     -2.0000    663.5877      4.2815     59.7937
  1054.7500      0.0000    677.1150      3.9441     57.0657
  1055.0000      0.0000    686.4214      3.6856     54.9197
  1055.2500      0.0000    693.1135      3.6935     53.9879
  1055.5000      0.0000    702.8496      4.0338     54.4360
  1055.7500      0.0000    718.1931      4.6246     55.9528
  1056.0000      0.0000    733.7896      5.3043     57.9204
  1056.2500      0.0000    740.9673      5.9662     59.6207
  1056.5000      0.0000    736.4348      6.6131     60.6460
  1056.7500      0.0000    724.8342      7.2518     61.1895
  1057.0000      0.0000    714.1968      7.7829     61.6874
  1057.2500      0.0000    710.3524      8.0583     62.1817
  1057.5000      0.0000    713.9918      8.0249     62.2843
  1057.7500      0.0000    720.5663      7.7720     61.9084
  1058.0000      0.0000    722.7911      7.4542     61.8936
  1058.2500      0.0000    714.7952      7.1960     63.6471
  1058.5000      0.0000    695.1407      7.0550     67.9762
  1058.7500      0.0000    667.1768      7.0359     74.2984
  1059.0000      0.0000    638.2237      7.1170     81.0687
  1059.2500      0.0000    618.3586      7.2653     86.8063
  1059.5000      0.0000    616.0801      7.4420     90.6730
  1059.7500      0.0000    630.9548      7.6104     92.4200
  1060.0000      0.0000    651.0930      7.7511     92.1963
  1060.2500      0.0000    661.6634      7.8644     90.5240
  1060.5000      0.0000    657.0797      7.9526     88.3223
  1060.7500      0.0000    643.0452      8.0027     86.5534
  1061.0000      0.0000    627.7419      7.9875     85.4888
  1061.2500      0.0000    615.1364      7.8788     84.4222
  1061.5000      0.0000    606.8447      7.6622     82.4964
  1061.7500      0.0000    605.2244      7.3511     79.8941
  1062.0000      0.0000    611.9830      6.9940     77.9517
  1062.2500      0.0000    625.8724      6.6590     78.0318
  1062.5000      0.0000    643.0646      6.4007     80.3904
  1062.7500      0.0000    659.0994      6.2395     84.0502
  1063.0000      0.0000    670.8528      6.1685     87.5870
  1063.2500      0.0000    677.6106      6.1690     90.1329
  1063.5000      0.0000    680.5829      6.2119     91.7549
  1063.7500      0.0000    681.4734      6.2533     92.7845
  1064.0000      0.0000    681.5107      6.2498     93.0503
  1064.2500      0.0000    681.3198      6.1889     92.2803
