~Version Information
VERS.                      2.0: CWLS Log ASCII Standard - VERSION 2.0
WRAP.                       NO: One line per depth step
~Well Information Block
STRT.FT               630.0000: 
STOP.FT              1155.5000: 
STEP.FT                 0.1000: 
NULL.                -999.2500: 
COMP.          Pioneer Natural Resources: COMPANY
WELL.          Drewmeister 34-34: WELL
FLD.           Purgatoire River: FIELD
LOC.           958' FSL & 1857' FEL: LOCATION
STAT.                 Colorado: State
CNTY.               Las Animas: COUNTY
CTRY. USA : Country
SECT. 34 : Section
TOWN. 32S : Township
RANG. 65W : Range
SRVC.                Patterson: SERVICE COMPANY
DATE.          Tue Oct 04 08:23:16 2005: LOG DATE
API.           05 071 08131 00: UNIQUE WELL ID
~Curve Information Block
DEPT.FT            0 000 00 00: Depth
DCAL.in                       : CDL Caliper
RHOB.g/cc                     : CDL Bulk Density
RHOC.g/cc                     : CDL Density Correction
DPOR.pu                       : CDL Density Porosity
GR.GAPI                       : Gamma Ray
NPOR.pu                       : Neutron Porosity
~Parameter Information Block
~A  Depth       DCAL        RHOB        RHOC        DPOR         GR         NPOR    
# ...
  1138.8000      7.8552      2.5197      0.0197      7.8957   -999.2500     18.7461
  1138.9000      7.8552      2.5086      0.0622      8.5715   -999.2500     17.9667
  1139.0000      7.8563      2.5030      0.0002      8.9066   -999.2500     18.2401
  1139.1000      7.8563      2.5104      0.0237      8.4583   -999.2500     18.9554
  1139.2000      7.8563      2.5341      0.0504      7.0217   -999.2500     19.4148
  1139.3000      7.8569      2.5626      0.0578      5.2978   -999.2500     19.6129
  1139.4000      7.8569      2.5804      0.0647      4.2172   -999.2500     20.0053
  1139.5000      7.8574      2.5825      0.0673      4.0892   -999.2500     20.5797
  1139.6000      7.8574      2.5716      0.0744      4.7512   -999.2500     20.6116
  1139.7000      7.8574      2.5560      0.0354      5.6993   -999.2500     19.9436
  1139.8000      7.8575      2.5477      0.0466      6.2026   -999.2500     18.9828
  1139.9000      7.8575      2.5512      0.0510      5.9885   -999.2500     17.9508
  1140.0000      7.8574      2.5606      0.0469      5.4176   -999.2500     17.3992
  1140.1000      7.8574      2.5655      0.0550      5.1234   -999.2500     17.6497
  1140.2000      7.8574      2.5622      0.0276      5.3207   -999.2500     18.2501
  1140.3000      7.8565      2.5600      0.0076      5.4523   -999.2500     18.7594
  1140.4000      7.8565      2.5677      0.0153      4.9871   -999.2500     19.0926
  1140.5000      7.8568      2.5802      0.0309      4.2294   -999.2500     18.9145
  1140.6000      7.8568      2.5872      0.0565      3.8082   -999.2500     18.0602
  1140.7000      7.8568      2.5902      0.0469      3.6264   -999.2500     16.9863
  1140.8000      7.8579      2.5966      0.0615      3.2371   -999.2500     16.1722
  1140.9000      7.8579      2.6033      0.0760      2.8311   -999.2500     15.9545
  1141.0000      7.8573      2.6044      0.0842      2.7629   -999.2500     16.2714
  1141.1000      7.8573      2.6007      0.0511      2.9907   -999.2500     16.3444
  1141.2000      7.8573      2.5975      0.0469      3.1817   -999.2500     16.0612
  1141.3000      7.8562      2.6015      0.0420      2.9369   -999.2500     15.9064
  1141.4000      7.8562      2.6140      0.0488      2.1792   -999.2500     15.7726
  1141.5000      7.8559      2.6268      0.0742      1.4064   -999.2500     15.5891
  1141.6000      7.8559      2.6249      0.0837      1.5199   -999.2500     15.6524
  1141.7000      7.8559      2.6049      0.0617      2.7318   -999.2500     17.6574
  1141.8000      7.8562      2.5830      0.0405      4.0580   -999.2500     25.5518
  1141.9000      7.8562      2.5726      0.0641      4.6899   -999.2500     38.9863
  1142.0000      7.8561      2.5727      0.0616      4.6822   -999.2500     48.7624
  1142.1000      7.8561      2.5730      0.0785      4.6638   -999.2500     52.1877
  1142.2000      7.8561      2.5648      0.0499      5.1614   -999.2500     52.8471
  1142.3000      7.8557      2.5570      0.0605      5.6393   -999.2500     52.9166
  1142.4000      7.8557      2.5638      0.0586      5.2222   -999.2500     52.9205
  1142.5000      7.8557      2.5829      0.1067      4.0666   -999.2500   -999.2500
  1142.6000      7.8557      2.6015      0.0822      2.9422   -999.2500   -999.2500
  1142.7000      7.8557      2.6128      0.1198      2.2553   -999.2500   -999.2500
  1142.8000      7.8561      2.6122      0.1092      2.2919   -999.2500   -999.2500
  1142.9000      7.8561      2.6037      0.0644      2.8040   -999.2500   -999.2500
  1143.0000      7.8567      2.6024      0.0190      2.8866   -999.2500   -999.2500
  1143.1000      7.8567      2.6085      0.0740      2.5152   -999.2500   -999.2500
  1143.2000      7.8567      2.6010      0.0906      2.9682   -999.2500   -999.2500
  1143.3000      7.8564      2.5705      0.0555      4.8211   -999.2500   -999.2500
  1143.4000      7.8564      2.5334     -0.0028      7.0695   -999.2500   -999.2500
  1143.5000      7.8555      2.5140     -0.0096      8.2453   -999.2500   -999.2500
  1143.6000      7.8555      2.5237     -0.0003      7.6570   -999.2500   -999.2500
  1143.7000      7.8555      2.5489      0.0593      6.1278   -999.2500   -999.2500
  1143.8000      7.8573      2.5651      0.0572      5.1433   -999.2500   -999.2500
  1143.9000      7.8573      2.5704      0.0577      4.8266   -999.2500   -999.2500
  1144.0000      7.8607      2.5786      0.0319      4.3255   -999.2500   -999.2500
  1144.1000      7.8607      2.5887      0.0592      3.7151   -999.2500   -999.2500
  1144.2000      7.8607      2.5892      0.0285      3.6841   -999.2500   -999.2500
  1144.3000      7.8615      2.5828      0.0412      4.0743   -999.2500   -999.2500
  1144.4000      7.8615      2.5847      0.0278      3.9588   -999.2500   -999.2500
  1144.5000      7.8590      2.6019      0.0386      2.9162   -999.2500   -999.2500
  1144.6000      7.8590      2.6183      0.0841      1.9199   -999.2500   -999.2500
  1144.7000      7.8590      2.6112      0.0808      2.3513   -999.2500   -999.2500
  1144.8000      7.8560      2.5856      0.0295      3.9058   -999.2500   -999.2500
  1144.9000      7.8560      2.5663      0.0124      5.0739   -999.2500   -999.2500
  1145.0000      7.8540      2.5587      0.0417      5.5320   -999.2500   -999.2500
  1145.1000      7.8540      2.5549     -0.0035      5.7616   -999.2500   -999.2500
  1145.2000      7.8540      2.5580     -0.0025      5.5746   -999.2500   -999.2500
  1145.3000      7.8533      2.5660      0.0580      5.0879   -999.2500   -999.2500
  1145.4000      7.8533      2.5612      0.0642      5.3800   -999.2500   -999.2500
  1145.5000      7.8537      2.5409      0.0314      6.6117   -999.2500   -999.2500
  1145.6000      7.8537      2.5277      0.0298      7.4115   -999.2500   -999.2500
  1145.7000      7.8537      2.5334      0.0767      7.0696   -999.2500   -999.2500
  1145.8000      7.8543      2.5467      0.0420      6.2622   -999.2500   -999.2500
  1145.9000      7.8543      2.5569      0.0681      5.6410   -999.2500   -999.2500
  1146.0000      7.8545      2.5672      0.0542      5.0208   -999.2500   -999.2500
  1146.1000      7.8545      2.5857      0.0803      3.8991   -999.2500   -999.2500
  1146.2000      7.8545      2.6069      0.1149      2.6109   -999.2500   -999.2500
  1146.3000      7.8541      2.6169      0.1142      2.0053   -999.2500   -999.2500
  1146.4000      7.8541      2.6150      0.0686      2.1235   -999.2500   -999.2500
  1146.5000      7.8535      2.6139      0.0893      2.1863   -999.2500   -999.2500
  1146.6000      7.8535      2.6204      0.0728      1.7923   -999.2500   -999.2500
  1146.7000      7.8535      2.6234      0.0697      1.6116   -999.2500   -999.2500
  1146.8000      7.8543      2.6086      0.0641      2.5077   -999.2500   -999.2500
  1146.9000      7.8543      2.5837      0.0278      4.0155   -999.2500   -999.2500
  1147.0000      7.8564      2.5689      0.0331      4.9148   -999.2500   -999.2500
  1147.1000      7.8564      2.5690      0.0352      4.9091   -999.2500   -999.2500
  1147.2000      7.8564      2.5745      0.0226      4.5782   -999.2500   -999.2500
  1147.3000      7.8589      2.5776      0.0346      4.3866   -999.2500   -999.2500
  1147.4000      7.8589      2.5769      0.0366      4.4314   -999.2500   -999.2500
  1147.5000      7.8601      2.5756      0.0371      4.5068   -999.2500   -999.2500
  1147.6000      7.8601      2.5742      0.0518      4.5953   -999.2500   -999.2500
  1147.7000      7.8601      2.5708      0.0225      4.8015   -999.2500   -999.2500
  1147.8000      7.8583      2.5728      0.0236      4.6817   -999.2500   -999.2500
  1147.9000      7.8583      2.5753      0.1039      4.5288   -999.2500   -999.2500
  1148.0000      7.8558      2.5611      0.0580      5.3855   -999.2500   -999.2500
  1148.1000      7.8558      2.5362      0.0276      6.8956   -999.2500   -999.2500
  1148.2000      7.8558      2.5221      0.0100      7.7507   -999.2500   -999.2500
  1148.3000      7.8547      2.5250      0.0216      7.5746   -999.2500   -999.2500
