~Version Information
VERS.                      2.0: CWLS Log ASCII Standard - VERSION 2.0
WRAP.                       NO: One line per depth step
~Well Information Block
STRT.FT                -3.7500: 
STOP.FT               930.7500: 
STEP.FT                 0.2500: 
NULL.                -999.2500: 
COMP.          Pioneer Natural Resources: COMPANY
WELL.                Pug 33-19: WELL
FLD.           Purgatorie River: FIELD
LOC.           1381' FSL & 2140' FEL--: LOCATION
PROV.                       CO: PROVINCE
CNTY.               Las Animas: COUNTRY
SRVC.                         : SERVICE COMPANY
DATE.          Mon Dec 20 15:44:45 2004: LOG DATE
UWI.                          : UNIQUE WELL ID
~Curve Information Block
DEPT.FT            0 000 00 00: Depth
GR.GAPI                       : Gamma Ray
CCL.                          : Casing Collar Locator
TT3.usec                      : CBL 3' Travel Time
AMP3.mV                       : CBL 3' Amplitude
~Parameter Information Block
~A  Depth        GR         CCL         TT3         AMP3    
# ...
   599.2500    147.0833      0.0000    751.3271      7.1704
   599.5000    142.7067      0.0000    754.5334      7.1001
   599.7500    137.5685      0.0000    754.7554      7.0340
   600.0000    132.8020      0.0000    753.4792      6.9843
   600.2500    129.6731      0.0000    752.6675      6.9588
   600.5000    129.2337      0.0000    753.4156      6.9611
   600.7500    131.3957      0.0000    755.3445      6.9862
   601.0000    134.6206      0.0000    757.2083      7.0187
   601.2500    136.9649      0.0000    757.8212      7.0410
   601.5000    137.3396      0.0000    756.3513      7.0459
   601.7500    135.6608      0.0000    752.2984      7.0424
   602.0000    132.2896      0.0000    745.8428      7.0472
   602.2500    127.7936      0.0000    738.2116      7.0688
   602.5000    123.1004      0.0000    731.2278      7.0980
   602.7500    119.4303      0.0000    726.2259      7.1170
   603.0000    117.7571      0.0000    723.4395      7.1186
   603.2500    118.4572      0.0000    722.3138      7.1141
   603.5000    121.5486      0.0000    722.1426      7.1173
   603.7500    126.8852      0.0000    722.3995      7.1255
   604.0000    133.7178      0.0000    722.7502      7.1253
   604.2500    140.3769      0.0000    722.9958      7.1212
   604.5000    145.0579      0.0000    723.0582      7.1523
   604.7500    147.1696      0.0000    722.9613      7.2673
   605.0000    147.6199      0.0000    722.7764      7.4754
   605.2500    147.5260      0.0000    722.5540      7.7275
   605.5000    146.8928      0.0000    722.3046      7.9486
   605.7500    145.0099      0.0000    722.0261      8.0871
   606.0000    142.1091      0.0000    721.7380      8.1364
   606.2500    140.1038      0.0000    721.4861      8.1192
   606.5000    141.2405      0.0000    721.3163      8.0558
   606.7500    145.8657      0.0000    721.2402      7.9509
   607.0000    151.5371      0.0000    721.2204      7.8069
   607.2500    154.5699      0.0000    721.1866      7.6431
   607.5000    152.7542      0.0000    721.0698      7.4869
   607.7500    146.8626      0.0000    720.8448      7.3507
   608.0000    139.8688      0.0000    720.5643      7.2316
   608.2500    134.8059      0.0000    720.3840      7.1325
   608.5000    132.9565      0.0000    720.5953      7.0707
   608.7500    133.5032      0.0000    721.6713      7.0601
   609.0000    134.5286      0.0000    724.2113      7.0919
   609.2500    134.3908      0.0000    728.5612      7.1371
   609.5000    132.5704      0.0000    734.2242      7.1640
   609.7500    129.7092      0.0000    739.8193      7.1565
   610.0000    127.0516      0.0000    744.0003      7.1190
   610.2500    125.6378      0.0000    746.4277      7.0665
   610.5000    125.7808      0.0000    747.7239      7.0101
   610.7500    127.3241      0.0000    748.8265      6.9545
   611.0000    130.1201      0.0000    750.5516      6.9074
   611.2500    133.8807      0.0000    753.2323      6.8826
   611.5000    137.7849      0.0000    756.4267      6.8890
   611.7500    141.0181      0.0000    759.2100      6.9216
   612.0000    143.7617      0.0000    760.8109      6.9676
   612.2500    146.8414      0.0000    760.8038      7.0195
   612.5000    150.3160      0.0000    758.8734      7.0773
   612.7500    153.2431      0.0000    754.8859      7.1389
   613.0000    154.8919      0.0000    749.4219      7.1937
   613.2500    155.2683      0.0000    743.8877      7.2313
   613.5000    154.2342      0.0000    739.6407      7.2544
   613.7500    150.9165      0.0000    737.0386      7.2806
   614.0000    144.7449      0.0000    735.5117      7.3329
   614.2500    136.9742      0.0000    734.2065      7.4242
   614.5000    130.3349      0.0000    732.3975      7.5481
   614.7500    126.6247      0.0000    729.8340      7.6848
   615.0000    125.0771      0.0000    727.0294      7.8158
   615.2500    123.5228      0.0000    724.8318      7.9343
   615.5000    120.4576      0.0000    723.6311      8.0450
   615.7500    115.4706      0.0000    723.3865      8.1617
   616.0000    108.4979      0.0000    724.1716      8.3015
   616.2500     99.6981      0.0000    725.3455      8.4695
   616.5000     89.9343      0.0000    722.9431      8.6500
   616.7500     80.6493      0.0000    708.9524      8.8186
   617.0000     73.1239      0.0000    676.1811      8.9609
   617.2500     68.0124      0.0000    625.4036      9.0736
   617.5000     65.3638      0.0000    566.3295      9.1564
   617.7500     64.6845      0.0000    510.5138      9.2104
   618.0000     65.0302      0.0000    465.2317      9.2404
   618.2500     65.3543      0.0000    435.5841      9.2451
   618.5000     64.9951      0.0000    429.1664      9.2032
   618.7500     63.9502      0.0000    453.7406      9.0788
   619.0000     62.6597      0.0000    508.5490      8.8546
   619.2500     61.3413      0.0000    579.4126      8.5648
   619.5000     59.6327      0.0000    645.1830      8.2904
   619.7500     57.2443      0.0000    690.6552      8.1165
   620.0000     54.7148      0.0000    713.6320      8.0868
   620.2500     53.0855      0.0000    721.2626      8.1910
   620.5000     52.9703      0.0000    722.0531      8.3832
   620.7500     54.0000      0.0000    721.2525      8.6011
   621.0000     54.8126      0.0000    720.8655      8.7770
   621.2500     53.6746      0.0000    721.3994      8.8550
   621.5000     49.8199      0.0000    722.9830      8.8179
   621.7500     44.4040      0.0000    725.4042      8.6994
   622.0000     39.8125      0.0000    727.7791      8.5573
   622.2500     37.9361      0.0000    728.8610      8.4326
   622.5000     39.1486      0.0000    728.0117      8.3341
   622.7500     42.6453      0.0000    725.7899      8.2549
   623.0000     47.4490      0.0000    723.4011      8.1883
   623.2500     53.1558      0.0000    721.7163      8.1262
   623.5000     59.9070      0.0000    720.8898      8.0511
   623.7500     67.8156      0.0000    720.6213      7.9420
   624.0000     76.6033      0.0000    720.5409      7.7918
   624.2500     85.9075      0.0000    720.4255      7.6173
   624.5000     95.6956      0.0000    720.2393      7.4462
   624.7500    105.9848      0.0000    720.0744      7.2968
   625.0000    116.1420      0.0000    720.0914      7.1725
   625.2500    124.9955      0.0000    720.5466      7.0727
   625.5000    131.9587      0.0000    721.8904      6.9996
   625.7500    137.7222      0.0000    724.7560      6.9536
   626.0000    143.3826      0.0000    729.5405      6.9271
   626.2500    148.9199      0.0000    735.5962      6.9078
   626.5000    152.7561      0.0000    740.8228      6.8884
   626.7500    152.9960      0.0000    742.5940      6.8730
   627.0000    149.2499      0.0000    739.6299      6.8728
   627.2500    143.2614      0.0000    733.1775      6.8840
   627.5000    137.5956      0.0000    726.6666      6.8603
   627.7500    133.7682      0.0000    724.5450      6.7173
   628.0000    131.6806      0.0000    731.0996      6.3909
   628.2500    130.4754      0.0000    749.1771      5.9137
   628.5000    129.4447      0.0000    778.7345      5.4294
   628.7500    128.0714      0.0000    815.8592      5.1115
   629.0000    125.8214      0.0000    853.4360      5.0436
   629.2500    122.6622      0.0000    884.1514      5.1689
   629.5000    119.7382      0.0000    904.0960      5.3545
   629.7500    118.8857      2.0000    913.7059      5.5002
   630.0000    121.3233      0.0000    915.3127      5.5915
   630.2500    126.9128      0.0000    910.2639      5.6873
   630.5000    134.3591      0.0000    898.4034      5.8810
   630.7500    141.8131      0.0000    879.6338      6.2321
   631.0000    147.2552      0.0000    855.3306      6.6856
   631.2500    148.5119      0.0000    828.3195      7.0764
   631.5000    143.7150      0.0000    802.0934      7.2625
   631.7500    132.8833      0.0000    780.0020      7.2488
   632.0000    119.0522      0.0000    764.3398      7.1567
   632.2500    106.7213      0.0000    755.4747      7.1009
   632.5000     98.7853      0.0000    751.7605      7.1224
