~Version Information
VERS.                      2.0: CWLS Log ASCII Standard - VERSION 2.0
WRAP.                       NO: One line per depth step
~Well Information Block
STRT.FT               647.0000: 
STOP.FT              1166.0000: 
STEP.FT                 0.1000: 
NULL.                -999.2500: 
COMP.          Pioneer Natural Resources: COMPANY
WELL.             Linda T 32-3: WELL
FLD.           Purgatoire River: FIELD
LOC.           1350' FNL & 2290' FEL: LOCATION
PROV.                 Colorado: PROVINCE
CNTY.               Las Animas: COUNTRY
SRVC.                Patterson: SERVICE COMPANY
DATE.          Sat Feb 05 08:06:50 2005: LOG DATE
UWI.           05 071 08215 00: UNIQUE WELL ID
~Curve Information Block
DEPT.FT            0 000 00 00: Depth
DCAL.in                       : CDL Caliper
RHOB.g/cc                     : CDL Bulk Density
RHOC.g/cc                     : CDL Density Correction
DPOR.pu                       : CDL Density Porosity
GR.GAPI                       : Gamma Ray
NPOR.pu                       : Neutron Porosity
~Parameter Information Block
~A  Depth       DCAL        RHOB        RHOC        DPOR         GR         NPOR    
# ...
   781.4000      8.4691      1.5583     -0.0198     66.1658     35.7541     33.6955
   781.5000      8.4316      1.4882      0.0251     70.4101     31.4292     33.2672
   781.6000      8.4316      1.4340      0.0326     73.6999     28.1411     32.9424
   781.7000      8.4316      1.3924      0.0048     76.2191     29.7650     33.4469
   781.8000      8.4254      1.3656      0.0482     77.8449     35.8668     34.5927
   781.9000      8.4254      1.3495      0.0543     78.8199     42.5187     35.2186
   782.0000      8.4385      1.3423      0.0370     79.2554     49.6564     34.8516
   782.1000      8.4385      1.3538      0.0265     78.5588     56.5456     34.2403
   782.2000      8.4385      1.3917      0.0812     76.2599     61.1484     33.8680
   782.3000      8.6016      1.4563      0.0866     72.3447     66.3671     33.8345
   782.4000      8.6016      1.5432      0.1100     67.0793     75.4390     34.3561
   782.5000      8.6927      1.6379      0.1575     61.3382     85.7075     35.0736
   782.6000      8.6927      1.7319      0.1462     55.6446     91.8631     35.0172
   782.7000      8.6927      1.8329      0.1541     49.5219     94.3716     34.1824
   782.8000      8.6607      1.9437      0.2359     42.8090     97.3200     33.7931
   782.9000      8.6607      2.0586      0.2252     35.8449     99.8346     33.9191
   783.0000      8.5131      2.1709      0.2417     29.0362     99.7718     33.3273
   783.1000      8.5131      2.2655      0.2225     23.3060    100.5393     32.2936
   783.2000      8.5131      2.3314      0.1905     19.3073    105.5511     32.0448
   783.3000      8.3555      2.3763      0.1317     16.5874    112.3670     32.2578
   783.4000      8.3555      2.4117      0.1469     14.4446    116.7228     32.0284
   783.5000      8.2350      2.4377      0.1552     12.8666    117.1100     31.3620
   783.6000      8.2350      2.4508      0.1432     12.0707    114.5098     30.6282
   783.7000      8.2350      2.4547      0.0960     11.8370    109.0396     30.3579
   783.8000      8.1776      2.4511      0.1207     12.0527    101.1822     30.7834
   783.9000      8.1776      2.4375      0.0856     12.8763     94.2605     31.5182
   784.0000      8.1603      2.4226      0.0615     13.7827     90.6590     32.2894
   784.1000      8.1603      2.4195      0.0468     13.9696     91.9042     32.5127
   784.2000      8.1603      2.4254      0.1141     13.6136     97.0528     31.5268
   784.3000      8.2114      2.4270      0.0769     13.5137    100.4732     30.0692
   784.4000      8.2114      2.4228      0.0914     13.7703    100.6878     29.6347
   784.5000      8.2167      2.4197      0.0798     13.9546    101.0166     30.1371
   784.6000      8.2167      2.4222      0.0969     13.8041    101.9892     30.5780
   784.7000      8.2167      2.4260      0.0985     13.5787    104.1432     31.0132
   784.8000      8.1698      2.4267      0.0875     13.5316    106.9272     31.3933
   784.9000      8.1698      2.4262      0.1179     13.5619    107.1284     31.1519
   785.0000      8.1265      2.4232      0.1339     13.7470    102.4401     30.7952
   785.1000      8.1265      2.4190      0.1009     13.9992     96.5569     30.9113
   785.2000      8.1265      2.4215      0.1259     13.8511     96.3840     30.9597
   785.3000      8.0942      2.4263      0.1584     13.5590    100.4343     30.6537
   785.4000      8.0942      2.4167      0.1682     14.1389    101.2047     30.4563
   785.5000      8.0970      2.3922      0.1167     15.6257     96.1725     30.5908
   785.6000      8.0970      2.3738      0.1030     16.7405     90.5595     30.5734
   785.7000      8.0970      2.3740      0.1069     16.7290     90.4343     30.2307
   785.8000      8.1102      2.3850      0.1344     16.0633     95.9492     29.9293
   785.9000      8.1102      2.3943      0.1077     15.4942    102.6463     30.0087
   786.0000      8.1342      2.3944      0.1017     15.4882    107.0949     30.5256
   786.1000      8.1342      2.3871      0.0840     15.9325    109.1511     31.0913
   786.2000      8.1342      2.3854      0.0683     16.0378    107.1515     31.1373
   786.3000      8.1597      2.3931      0.1011     15.5694    100.0842     30.9147
   786.4000      8.1597      2.3987      0.1035     15.2290     91.6522     30.9617
   786.5000      8.1446      2.4002      0.0589     15.1401     84.1710     30.9563
   786.6000      8.1446      2.4086      0.0523     14.6319     81.2028     30.5389
   786.7000      8.1446      2.4280      0.0507     13.4563     85.0777     30.2663
   786.8000      8.1576      2.4489      0.1175     12.1891     88.6510     30.5368
   786.9000      8.1576      2.4605      0.0613     11.4844     85.1476     30.4916
   787.0000      8.1569      2.4675      0.0897     11.0630     79.9130     29.8024
   787.1000      8.1569      2.4797      0.0754     10.3235     80.9640     29.1535
   787.2000      8.1569      2.4953      0.1022      9.3779     84.4828     28.6118
   787.3000      8.1502      2.5001      0.1115      9.0832     83.3591     28.5645
   787.4000      8.1502      2.4880      0.0676      9.8179     78.1675     29.2555
   787.5000      8.1183      2.4714      0.0680     10.8250     71.6065     29.7704
   787.6000      8.1183      2.4613      0.0192     11.4344     65.9670     29.6723
   787.7000      8.1183      2.4566      0.0762     11.7226     63.5638     29.4959
   787.8000      8.1170      2.4572      0.0264     11.6863     65.1011     29.3852
   787.9000      8.1170      2.4701      0.0553     10.9053     69.6211     29.1406
   788.0000      8.1187      2.4926      0.0483      9.5373     75.1965     28.7967
   788.1000      8.1187      2.5118      0.0895      8.3732     77.6713     28.3497
   788.2000      8.1187      2.5192      0.0897      7.9292     74.6545     28.1677
   788.3000      8.1212      2.5172      0.0833      8.0472     71.1308     28.4014
   788.4000      8.1212      2.5106      0.0782      8.4481     71.2089     28.1825
   788.5000      8.1053      2.4988      0.0672      9.1666     71.5902     27.2092
   788.6000      8.1053      2.4797      0.0650     10.3199     70.7891     26.3412
   788.7000      8.1053      2.4544      0.0349     11.8519     71.2014     26.0112
   788.8000      8.1043      2.4294     -0.0014     13.3688     70.9525     25.9916
   788.9000      8.1043      2.4095      0.0466     14.5732     69.3937     26.4761
   789.0000      8.1364      2.3920      0.0014     15.6383     68.8839     27.5968
   789.1000      8.1364      2.3745     -0.0179     16.6960     67.7231     28.4979
   789.2000      8.1364      2.3553     -0.0049     17.8599     65.1108     28.6868
   789.3000      8.1528      2.3293      0.0135     19.4362     61.8889     28.9749
   789.4000      8.1528      2.2916      0.0091     21.7185     58.8582     29.7513
   789.5000      8.1658      2.2361      0.0392     25.0877     57.1086     30.4976
   789.6000      8.1658      2.1502      0.0184     30.2928     56.3703     31.3850
   789.7000      8.1658      2.0322     -0.0164     37.4406     57.0283     32.4457
   789.8000      8.1446      1.8992     -0.0753     45.5035     57.6986     32.9953
   789.9000      8.1446      1.7712     -0.1000     53.2621     56.1745     32.8861
   790.0000      8.1480      1.6618     -0.1427     59.8925     55.1101     32.5873
   790.1000      8.1480      1.5811     -0.1405     64.7831     55.9443     32.7231
   790.2000      8.1480      1.5365     -0.0994     67.4861     56.2970     33.1601
   790.3000      8.1800      1.5252      0.0200     68.1684     55.2639     33.1282
   790.4000      8.1800      1.5348      0.0855     67.5863     54.7300     32.6023
   790.5000      8.2552      1.5563      0.1043     66.2836     59.4097     32.2048
   790.6000      8.2552      1.5936      0.0840     64.0255     71.6256     32.3071
   790.7000      8.2552      1.6624      0.0974     59.8517     84.5390     32.7323
   790.8000      8.3006      1.7688      0.1300     53.4042     90.0963     33.1769
   790.9000      8.3006      1.8972      0.1685     45.6224     88.3956     33.4488
