~Version Information
VERS.                      2.0: CWLS Log ASCII Standard - VERSION 2.0
WRAP.                       NO: One line per depth step
~Well Information Block
STRT.FT               450.0000: 
STOP.FT              2756.0000: 
STEP.FT                 0.2500: 
NULL.                -999.2500: 
COMP.          Pioneer Natural Resources: COMPANY
WELL.             Squeal 11-26: WELL
FLD.           Purgatoire River: FIELD
LOC.           1186' FNL & 152' FWL: LOCATION
PROV.                 Colorado: PROVINCE
CNTY.               Las Animas: COUNTRY
SRVC.                Patterson: SERVICE COMPANY
DATE.          Wed Jun 15 02:22:08 2005: LOG DATE
UWI.           05 071 08404 00: UNIQUE WELL ID
~Curve Information Block
DEPT.FT            0 000 00 00: Depth
SN.Ohm-m                      : IEL Short Normal
SP.mV                         : IEL Spontaneous Potential
DIR.Ohm-m                     : IEL Induction Resistivity
GR.GAPI                       : Gamma Ray
~Parameter Information Block
~A  Depth        SN          SP         DIR          GR     
# ...
  1957.5000      8.7606    -48.1616      8.5436    137.7720
  1957.7500      8.9868    -48.1752      8.5033    138.4250
  1958.0000      8.9220    -48.1695      8.4813    140.6920
  1958.2500      8.5684    -48.1321      8.4725    142.3842
  1958.5000      8.1445    -48.0663      8.4698    143.9972
  1958.7500      7.8394    -47.9750      8.4656    144.0103
  1959.0000      7.6936    -47.8503      8.4544    142.3473
  1959.2500      7.6865    -47.6777      8.4347    140.4580
  1959.5000      7.8443    -47.4495      8.4088    137.5387
  1959.7500      8.1999    -47.1746      8.3818    136.2672
  1960.0000      8.6773    -46.8773      8.3596    136.1869
  1960.2500      9.1085    -46.5871      8.3468    137.3641
  1960.5000      9.3599    -46.3235      8.3449    140.4318
  1960.7500      9.3709    -46.0877      8.3513    142.9752
  1961.0000      9.1120    -45.8724      8.3603    146.9753
  1961.2500      8.6013    -45.6820      8.3653    149.3489
  1961.5000      7.9373    -45.5396      8.3626    151.5374
  1961.7500      7.2953    -45.4701      8.3518    151.6824
  1962.0000      6.8859    -45.4807      8.3362    150.1132
  1962.2500      6.8449    -45.5559      8.3204    148.5644
  1962.5000      7.1916    -45.6651      8.3095    147.0843
  1962.7500      7.8815    -45.7734      8.3080    147.3217
  1963.0000      8.7430    -45.8527      8.3194    149.3983
  1963.2500      9.4711    -45.8916      8.3463    151.1788
  1963.5000      9.8949    -45.9014      8.3921    153.1069
  1963.7500     10.1253    -45.9103      8.4605    153.6844
  1964.0000     10.3245    -45.9426      8.5548    153.8781
  1964.2500     10.4784    -45.9957      8.6763    153.5188
  1964.5000     10.4291    -46.0374      8.8241    151.1551
  1964.7500     10.0555    -46.0300      8.9968    147.6500
  1965.0000      9.4464    -45.9559      9.1949    139.3556
  1965.2500      8.8539    -45.8267      9.4218    132.4848
  1965.5000      8.4580    -45.6770      9.6811    122.1644
  1965.7500      8.3417    -45.5529      9.9723    116.4717
  1966.0000      8.6834    -45.4965     10.2880    110.8339
  1966.2500      9.7105    -45.5291     10.6154    108.8832
  1966.5000     11.3534    -45.6428     10.9408    107.6028
  1966.7500     13.0918    -45.8054     11.2527    107.1585
  1967.0000     14.3463    -45.9731     11.5396    106.2635
  1967.2500     14.9553    -46.1028     11.7857    105.2895
  1967.5000     15.1278    -46.1631     11.9724    103.3330
  1967.7500     15.0965    -46.1432     12.0851    102.0290
  1968.0000     14.9323    -46.0578     12.1231    101.1786
  1968.2500     14.6097    -45.9424     12.1006    102.1777
  1968.5000     14.1912    -45.8395     12.0386    107.1372
  1968.7500     13.8293    -45.7795     11.9554    112.8398
  1969.0000     13.5518    -45.7716     11.8613    123.8241
  1969.2500     13.2343    -45.8076     11.7582    131.5111
  1969.5000     12.8169    -45.8745     11.6396    141.4863
  1969.7500     12.3665    -45.9613     11.4918    146.4746
  1970.0000     11.9255    -46.0584     11.2999    151.5939
  1970.2500     11.4521    -46.1522     11.0570    153.8472
  1970.5000     10.9355    -46.2235     10.7715    156.1441
  1970.7500     10.4790    -46.2553     10.4651    157.1863
  1971.0000     10.1759    -46.2468     10.1647    158.0168
  1971.2500      9.9637    -46.2219      9.8939    157.7754
  1971.5000      9.7318    -46.2218      9.6686    155.6953
  1971.7500      9.4684    -46.2813      9.4971    153.4434
  1972.0000      9.2349    -46.4069      9.3822    150.5843
  1972.2500      9.0984    -46.5774      9.3221    150.1768
  1972.5000      9.0675    -46.7677      9.3101    152.2312
  1972.7500      9.1179    -46.9744      9.3348    154.4595
  1973.0000      9.2917    -47.2140      9.3827    156.7427
  1973.2500      9.6247    -47.4969      9.4424    156.6493
  1973.5000      9.9889    -47.8078      9.5102    153.9109
  1973.7500     10.1560    -48.1129      9.5907    150.6644
  1974.0000     10.0906    -48.3829      9.6946    144.2726
  1974.2500     10.0707    -48.6084      9.8343    139.6299
  1974.5000     10.3886    -48.8043     10.0223    134.0549
  1974.7500     11.0456    -49.0050     10.2717    132.3550
  1975.0000     11.8121    -49.2549     10.5958    132.9560
  1975.2500     12.4961    -49.5926     11.0027    134.3456
  1975.5000     13.1152    -50.0256     11.4847    135.2390
  1975.7500     13.7923    -50.5141     12.0093    133.7770
  1976.0000     14.5764    -50.9835     12.5214    127.3093
  1976.2500     15.4622    -51.3658     12.9574    119.9916
  1976.5000     16.5321    -51.6360     13.2656    105.3695
  1976.7500     17.9174    -51.8157     13.4195     94.5949
  1977.0000     19.5626    -51.9498     13.4197     80.6261
  1977.2500     21.1806    -52.0814     13.2870     75.0846
  1977.5000     22.3608    -52.2350     13.0523     75.1217
  1977.7500     22.6213    -52.4072     12.7458     80.9772
  1978.0000     21.6701    -52.5687     12.3879     96.4216
  1978.2500     19.6801    -52.6884     11.9865    108.8815
  1978.5000     17.1972    -52.7668     11.5412    126.8171
  1978.7500     14.8677    -52.8460     11.0537    136.7266
  1979.0000     13.1133    -52.9827     10.5367    147.4736
  1979.2500     11.8879    -53.2108     10.0150    151.9300
  1979.5000     10.8767    -53.5302      9.5181    155.6296
  1979.7500      9.9274    -53.9223      9.0707    157.4004
  1980.0000      9.0845    -54.3667      8.6864    161.5140
  1980.2500      8.3958    -54.8439      8.3671    165.8922
  1980.5000      7.9065    -55.3308      8.1078    173.6037
  1980.7500      7.6142    -55.8026      7.9015    177.7787
  1981.0000      7.4149    -56.2392      7.7434    180.2251
  1981.2500      7.2231    -56.6263      7.6314    179.1745
  1981.5000      7.0289    -56.9508      7.5632    174.9812
  1981.7500      6.8388    -57.2025      7.5346    171.1938
  1982.0000      6.6690    -57.3827      7.5387    164.2102
  1982.2500      6.5570    -57.5017      7.5691    158.6373
  1982.5000      6.5499    -57.5620      7.6220    149.8750
  1982.7500      6.7416    -57.5499      7.6961    144.8640
  1983.0000      7.2242    -57.4516      7.7901    140.0326
  1983.2500      7.9005    -57.2813      7.8999    138.7794
  1983.5000      8.4874    -57.0944      8.0185    139.5113
  1983.7500      8.7753    -56.9701      8.1377    141.5352
  1984.0000      8.7728    -56.9743      8.2505    146.4862
  1984.2500      8.6241    -57.1266      8.3517    150.5137
  1984.5000      8.4625    -57.3956      8.4378    155.9288
  1984.7500      8.3206    -57.7217      8.5080    158.0511
  1985.0000      8.1680    -58.0458      8.5651    158.2442
  1985.2500      8.0100    -58.3263      8.6156    156.8279
  1985.5000      7.9034    -58.5404      8.6689    153.9942
  1985.7500      7.9009    -58.6790      8.7339    152.4968
  1986.0000      7.9882    -58.7426      8.8171    151.5847
  1986.2500      8.0856    -58.7431      8.9206    151.7562
  1986.5000      8.1670    -58.7091      9.0435    152.0229
  1986.7500      8.3038    -58.6819      9.1846    151.1501
  1987.0000      8.5341    -58.6982      9.3446    146.6885
  1987.2500      8.8265    -58.7700      9.5248    141.3563
  1987.5000      9.1287    -58.8850      9.7254    130.9891
  1987.7500      9.3737    -59.0246      9.9441    123.9299
  1988.0000      9.5744    -59.1787     10.1771    115.9311
  1988.2500      9.8730    -59.3432     10.4217    113.5180
  1988.5000     10.3516    -59.5093     10.6751    114.5688
  1988.7500     10.9287    -59.6597     10.9331    117.4625
  1989.0000     11.4873    -59.7726     11.1868    122.5602
  1989.2500     11.9355    -59.8283     11.4235    125.1244
  1989.5000     12.1736    -59.8159     11.6267    126.4976
  1989.7500     12.1678    -59.7409     11.7793    125.7767
  1990.0000     11.9684    -59.6263     11.8650    123.2703
  1990.2500     11.5886    -59.5050     11.8736    121.6118
  1990.5000     11.0915    -59.4078     11.8055    120.8537
  1990.7500     10.6965    -59.3574     11.6726    122.1591
