~Version Information
VERS.                      2.0: CWLS Log ASCII Standard - VERSION 2.0
WRAP.                       NO: One line per depth step
~Well Information Block
STRT.FT               845.0000: 
STOP.FT              2308.2500: 
STEP.FT                 0.2500: 
NULL.                -999.2500: 
COMP.          Pioneer Natural Resources: COMPANY
WELL.             Vector 33-23: WELL
FLD.           Purgatoire River: FIELD
LOC.           1560' FEL & 1988' FSL----: LOCATION
PROV.                 Colorado: PROVINCE
CNTY.               Las Animas: COUNTRY
SRVC.                Patterson: SERVICE COMPANY
DATE.          Sat Mar 26 12:39:07 2005: LOG DATE
UWI.           05 071 08336 00: UNIQUE WELL ID
~Curve Information Block
DEPT.FT            0 000 00 00: Depth
SN.Ohm-m                      : IEL Short Normal
SP.mV                         : IEL Spontaneous Potential
DIR.Ohm-m                     : IEL Induction Resistivity
GR.GAPI                       : Gamma Ray
~Parameter Information Block
~A  Depth        SN          SP         DIR          GR     
# ...
   945.5000   2000.0000   2000.0000     11.8825    101.1075
   945.7500   2000.0000   2000.0000     11.6201    103.0678
   946.0000   2000.0000   2000.0000     11.2664    106.3045
   946.2500   2000.0000   2000.0000     10.8746    108.2995
   946.5000   2000.0000   2000.0000     10.4963    110.8974
   946.7500   2000.0000   2000.0000     10.1694    112.5383
   947.0000   2000.0000   2000.0000      9.9135    115.0588
   947.2500   2000.0000   2000.0000      9.7313    116.6641
   947.5000   2000.0000   2000.0000      9.6140    118.4434
   947.7500   2000.0000   2000.0000      9.5480    118.7831
   948.0000   2000.0000   2000.0000      9.5194    117.4105
   948.2500   2000.0000   2000.0000      9.5171    115.3150
   948.5000   2000.0000   2000.0000      9.5335    111.5442
   948.7500   2000.0000   2000.0000      9.5623    109.5368
   949.0000   2000.0000   2000.0000      9.5953    108.3561
   949.2500   2000.0000   2000.0000      9.6203    108.9083
   949.5000   2000.0000   2000.0000      9.6203    111.4194
   949.7500   2000.0000   2000.0000      9.5769    113.9768
   950.0000   2000.0000   2000.0000      9.4758    118.7541
   950.2500   2000.0000   2000.0000      9.3130    122.2526
   950.5000   2000.0000   2000.0000      9.0966    127.1766
   950.7500   2000.0000   2000.0000      8.8450    129.6949
   951.0000   2000.0000   2000.0000      8.5811    131.5223
   951.2500   2000.0000   2000.0000      8.3263    131.2600
   951.5000   2000.0000   2000.0000      8.0974    129.1122
   951.7500   2000.0000   2000.0000      7.9056    127.1408
   952.0000   2000.0000   2000.0000      7.7570    124.3684
   952.2500   2000.0000   2000.0000      7.6537    122.8355
   952.5000   2000.0000   2000.0000      7.5952    120.7764
   952.7500   2000.0000   2000.0000      7.5783    119.4789
   953.0000   2000.0000   2000.0000      7.5976    118.0176
   953.2500   2000.0000   2000.0000      7.6436    117.6473
   953.5000   2000.0000   2000.0000      7.7013    117.6302
   953.7500   2000.0000   2000.0000      7.7498    117.1535
   954.0000   2000.0000   2000.0000      7.7668    114.5728
   954.2500   2000.0000   2000.0000      7.7367    112.0110
   954.5000   2000.0000   2000.0000      7.6579    109.5830
   954.7500   2000.0000   2000.0000      7.5437    110.4983
   955.0000   2000.0000   2000.0000      7.4149    116.0340
   955.2500   2000.0000   2000.0000      7.2904    121.1214
   955.5000   2000.0000   2000.0000      7.1814    127.5530
   955.7500   2000.0000   2000.0000      7.0910    129.7311
   956.0000   2000.0000   2000.0000      7.0174    129.6506
   956.2500   2000.0000   2000.0000      6.9583    128.2939
   956.5000   2000.0000   2000.0000      6.9127    126.3369
   956.7500   2000.0000   2000.0000      6.8813    125.7341
   957.0000   2000.0000   2000.0000      6.8649    125.7164
   957.2500   2000.0000   2000.0000      6.8635    125.8680
   957.5000   2000.0000   2000.0000      6.8764    125.8275
   957.7500   2000.0000   2000.0000      6.9027    125.5451
   958.0000   2000.0000   2000.0000      6.9438    124.8148
   958.2500   2000.0000   2000.0000      7.0040    124.2023
   958.5000   2000.0000   2000.0000      7.0896    123.2402
   958.7500   2000.0000   2000.0000      7.2068    122.6371
   959.0000   2000.0000   2000.0000      7.3587    121.7773
   959.2500   2000.0000   2000.0000      7.5430    121.1045
   959.5000   2000.0000   2000.0000      7.7507    119.5240
   959.7500   2000.0000   2000.0000      7.9672    117.8604
   960.0000   2000.0000   2000.0000      8.1769    114.6972
   960.2500   2000.0000   2000.0000      8.3696    112.8444
   960.5000   2000.0000   2000.0000      8.5453    111.8713
   960.7500   2000.0000   2000.0000      8.7119    112.7000
   961.0000   2000.0000   2000.0000      8.8765    115.3373
   961.2500   2000.0000   2000.0000      9.0375    117.2727
   961.5000   2000.0000   2000.0000      9.1822    119.8491
   961.7500   2000.0000   2000.0000      9.2913    121.6373
   962.0000   2000.0000   2000.0000      9.3492    125.2730
   962.2500   2000.0000   2000.0000      9.3503    128.3818
   962.5000   2000.0000   2000.0000      9.3018    133.0573
   962.7500   2000.0000   2000.0000      9.2203    135.4597
   963.0000   2000.0000   2000.0000      9.1270    137.5614
   963.2500   2000.0000   2000.0000      9.0429    138.1715
   963.5000   2000.0000   2000.0000      8.9837    138.2463
   963.7500   2000.0000   2000.0000      8.9570    137.7071
   964.0000   2000.0000   2000.0000      8.9612    136.0278
   964.2500   2000.0000   2000.0000      8.9871    134.7182
   964.5000   2000.0000   2000.0000      9.0223    133.6640
   964.7500   2000.0000   2000.0000      9.0558    134.0469
   965.0000   2000.0000   2000.0000      9.0819    135.8127
   965.2500   2000.0000   2000.0000      9.1018    136.8852
   965.5000   2000.0000   2000.0000      9.1226    136.8329
   965.7500   2000.0000   2000.0000      9.1536    135.3944
   966.0000   2000.0000   2000.0000      9.2021    131.4772
   966.2500   2000.0000   2000.0000      9.2695    127.8762
   966.5000   2000.0000   2000.0000      9.3500    120.9937
   966.7500   2000.0000   2000.0000      9.4338    115.6716
   967.0000   2000.0000   2000.0000      9.5113    107.9684
   967.2500   2000.0000   2000.0000      9.5778    104.0031
   967.5000   2000.0000   2000.0000      9.6347    100.8921
   967.7500   2000.0000   2000.0000      9.6887    100.9805
   968.0000   2000.0000   2000.0000      9.7457    104.6830
   968.2500   2000.0000   2000.0000      9.8065    109.5669
   968.5000   2000.0000   2000.0000      9.8633    119.5454
   968.7500   2000.0000   2000.0000      9.9012    126.6277
   969.0000   2000.0000   2000.0000      9.9045    135.0891
   969.2500   2000.0000   2000.0000      9.8642    138.1113
   969.5000   2000.0000   2000.0000      9.7854    138.4465
   969.7500   2000.0000   2000.0000      9.6879    136.6891
   970.0000   2000.0000   2000.0000      9.6009    133.1437
   970.2500   2000.0000   2000.0000      9.5541    131.0549
   970.5000   2000.0000   2000.0000      9.5710    128.6668
   970.7500   2000.0000   2000.0000      9.6658    127.3403
   971.0000   2000.0000   2000.0000      9.8438    125.5615
   971.2500   2000.0000   2000.0000     10.1006    124.6744
   971.5000   2000.0000   2000.0000     10.4217    123.8508
   971.7500   2000.0000   2000.0000     10.7830    123.2463
   972.0000   2000.0000   2000.0000     11.1556    121.3302
   972.2500   2000.0000   2000.0000     11.5135    119.2784
   972.5000   2000.0000   2000.0000     11.8412    115.9263
   972.7500   2000.0000   2000.0000     12.1365    114.1877
   973.0000   2000.0000   2000.0000     12.4073    112.8029
   973.2500   2000.0000   2000.0000     12.6652    112.5497
   973.5000   2000.0000   2000.0000     12.9194    112.6862
   973.7500   2000.0000   2000.0000     13.1732    112.8320
   974.0000   2000.0000   2000.0000     13.4240    112.6123
   974.2500   2000.0000   2000.0000     13.6680    111.8801
   974.5000   2000.0000   2000.0000     13.9069    109.5006
   974.7500   2000.0000   2000.0000     14.1559    107.0009
   975.0000   2000.0000   2000.0000     14.4469    102.4073
   975.2500   2000.0000   2000.0000     14.8256     99.3862
   975.5000   2000.0000   2000.0000     15.3422     95.6299
   975.7500   2000.0000   2000.0000     16.0393     93.4813
   976.0000   2000.0000   2000.0000     16.9403     89.8461
   976.2500   2000.0000   2000.0000     18.0369     86.7879
   976.5000   2000.0000   2000.0000     19.2778     81.6298
   976.7500   2000.0000   2000.0000     20.5626     78.4062
   977.0000   2000.0000   2000.0000     21.7505     74.7750
   977.2500   2000.0000   2000.0000     22.6907     73.4444
   977.5000   2000.0000   2000.0000     23.2702     73.4282
   977.7500   2000.0000   2000.0000     23.4587     74.8779
   978.0000   2000.0000   2000.0000     23.3187     79.1458
   978.2500   2000.0000   2000.0000     22.9721     83.0875
   978.5000   2000.0000   2000.0000     22.5433     89.6702
   978.7500   2000.0000   2000.0000     22.1098     93.5165
