~Version Information
VERS.                      2.0: CWLS Log ASCII Standard - VERSION 2.0
WRAP.                       NO: One line per depth step
~Well Information Block
STRT.FT               580.0000: 
STOP.FT              2729.7500: 
STEP.FT                 0.2500: 
NULL.                -999.2500: 
COMP.          Pioneer Natural Resources: COMPANY
WELL.          Sand Pebbles 13-33: WELL
FLD.           Purgatoire River: FIELD
LOC.           1883' FSL & 63' FWL----: LOCATION
PROV.                 Colorado: PROVINCE
CNTY.               Las Animas: COUNTRY
SRVC.                Patterson: SERVICE COMPANY
DATE.          Fri Mar 11 13:47:45 2005: LOG DATE
UWI.           05 071 08224 00: UNIQUE WELL ID
~Curve Information Block
DEPT.FT            0 000 00 00: Depth
SN.Ohm-m                      : IEL Short Normal
SP.mV                         : IEL Spontaneous Potential
DIR.Ohm-m                     : IEL Induction Resistivity
GR.GAPI                       : Gamma Ray
~Parameter Information Block
~A  Depth        SN          SP         DIR          GR     
# ...
  1015.5000     15.1812   -181.6487     16.3176    123.5369
  1015.7500     15.0064   -181.6846     15.9935    124.4729
  1016.0000     14.7944   -181.6735     15.6327    128.7673
  1016.2500     14.5567   -181.6147     15.2413    133.1888
  1016.5000     14.2987   -181.5139     14.8256    140.6182
  1016.7500     14.0229   -181.3813     14.3941    145.2607
  1017.0000     13.7348   -181.2284     13.9618    150.8018
  1017.2500     13.4441   -181.0642     13.5526    153.1107
  1017.5000     13.1606   -180.8935     13.1959    153.7906
  1017.7500     12.8938   -180.7211     12.9213    152.2809
  1018.0000     12.6607   -180.5582     12.7528    148.0331
  1018.2500     12.4879   -180.4287     12.7081    144.9638
  1018.5000     12.4002   -180.3695     12.7993    141.3963
  1018.7500     12.4056   -180.4219     13.0351    139.6029
  1019.0000     12.4974   -180.6164     13.4207    136.2559
  1019.2500     12.6857   -180.9543     13.9546    132.6628
  1019.5000     13.0307   -181.3943     14.6254    124.8444
  1019.7500     13.6342   -181.8480     15.4085    118.6458
  1020.0000     14.5770   -182.1882     16.2635    110.0128
  1020.2500     15.8569   -182.2713     17.1342    106.0936
  1020.5000     17.3890   -181.9712     17.9526    104.4779
  1020.7500     19.0551   -181.2171     18.6545    106.1960
  1021.0000     20.7308   -180.0210     19.2042    111.5185
  1021.2500     22.2808   -178.4832     19.6114    115.7644
  1021.5000     23.5693   -176.7704     19.9237    121.7476
  1021.7500     24.5022   -175.0742     20.1959    125.2589
  1022.0000     25.0618   -173.5684     20.4632    129.9998
  1022.2500     25.3173   -172.3791     20.7358    132.4709
  1022.5000     25.4237   -171.5754     21.0175    133.3126
  1022.7500     25.6045   -171.1760     21.3308    131.0796
  1023.0000     26.1011   -171.1627     21.7277    124.3763
  1023.2500     27.1020   -171.4948     22.2814    119.3716
  1023.5000     28.6842   -172.1194     23.0665    113.6742
  1023.7500     30.8018   -172.9804     24.1421    111.4156
  1024.0000     33.3279   -174.0248     25.5445    109.0519
  1024.2500     36.1259   -175.2063     27.2874    107.1440
  1024.5000     39.1128   -176.4867     29.3626    102.8503
  1024.7500     42.2879   -177.8318     31.7372     99.1355
  1025.0000     45.7152   -179.2056     34.3384     93.1890
  1025.2500     49.4574   -180.5637     37.0356     89.6218
  1025.5000     53.4798   -181.8502     39.6356     85.6264
  1025.7500     57.5888   -183.0017     41.9130     83.7830
  1026.0000     61.4618   -183.9573     43.6717     81.1338
  1026.2500     64.7587   -184.6725     44.8109     78.7970
  1026.5000     67.2335   -185.1312     45.3609     74.7513
  1026.7500     68.7790   -185.3490     45.4703     72.8030
  1027.0000     69.4061   -185.3652     45.3437     73.0128
  1027.2500     69.1893   -185.2275     45.1547     75.5804
  1027.5000     68.2096   -184.9741     44.9845     81.8495
  1027.7500     66.5181   -184.6222     44.8127     86.3369
  1028.0000     64.1487   -184.1673     44.5585     91.5591
  1028.2500     61.1727   -183.5920     44.1398     93.5542
  1028.5000     57.7512   -182.8789     43.5148     94.9099
  1028.7500     54.1336   -182.0235     42.6872     95.6217
  1029.0000     50.5884   -181.0419     41.6806     97.8710
  1029.2500     47.3130   -179.9731     40.5120    100.4333
  1029.5000     44.3888   -178.8763     39.1911    105.1566
  1029.7500     41.8051   -177.8232     37.7455    108.2752
  1030.0000     39.5152   -176.8891     36.2439    112.5892
  1030.2500     37.4822   -176.1438     34.7881    115.5015
  1030.5000     35.6993   -175.6436     33.4801    120.3432
  1030.7500     34.1937   -175.4266     32.3913    123.7467
  1031.0000     33.0225   -175.5079     31.5540    128.2250
  1031.2500     32.2568   -175.8800     30.9743    130.0115
  1031.5000     31.9530   -176.5154     30.6541    129.4333
  1031.7500     32.1221   -177.3733     30.6072    126.4189
  1032.0000     32.7142   -178.4057     30.8567    118.6836
  1032.2500     33.6283   -179.5586     31.4123    112.5003
  1032.5000     34.7488   -180.7667     32.2410    103.3012
  1032.7500     35.9861   -181.9441     33.2518     97.4772
  1033.0000     37.2885   -182.9834     34.3069     88.9988
  1033.2500     38.6059   -183.7687     35.2629     83.6808
  1033.5000     39.8410   -184.2042     36.0158     77.5438
  1033.7500     40.8378   -184.2430     36.5213     75.7455
  1034.0000     41.4236   -183.9003     36.7750     77.3584
  1034.2500     41.4701   -183.2392     36.7696     80.6908
  1034.5000     40.9239   -182.3368     36.4638     86.6340
  1034.7500     39.7966   -181.2518     35.7965     90.0108
  1035.0000     38.1496   -180.0121     34.7391     94.0094
  1035.2500     36.0993   -178.6277     33.3438     96.8396
  1035.5000     33.8255   -177.1156     31.7381    102.8593
  1035.7500     31.5456   -175.5191     30.0694    108.1192
  1036.0000     29.4530   -173.9088     28.4484    116.4335
  1036.2500     27.6608   -172.3667     26.9278    121.2207
  1036.5000     26.1874   -170.9655     25.5152    126.6684
  1036.7500     24.9837   -169.7545     24.1990    129.5357
  1037.0000     23.9776   -168.7568     22.9711    133.3621
  1037.2500     23.1117   -167.9747     21.8390    135.5762
  1037.5000     22.3563   -167.3968     20.8271    138.3494
  1037.7500     21.6977   -167.0023     19.9686    140.1532
  1038.0000     21.1155   -166.7648     19.2917    143.2205
  1038.2500     20.5696   -166.6562     18.8080    145.1212
  1038.5000     20.0046   -166.6533     18.5090    146.1251
  1038.7500     19.3733   -166.7445     18.3749    144.6842
  1039.0000     18.6733   -166.9306     18.3856    139.0376
  1039.2500     17.9855   -167.2193     18.5296    133.6337
  1039.5000     17.4921   -167.6127     18.8033    125.2894
  1039.7500     17.4411   -168.0963     19.2045    120.9029
  1040.0000     18.0452   -168.6337     19.7248    117.2671
  1040.2500     19.3398   -169.1709     20.3408    116.5072
  1040.5000     21.0926   -169.6471     21.0091    115.9397
  1040.7500     22.8590   -170.0073     21.6700    114.6982
  1041.0000     24.1889   -170.2113     22.2639    111.1782
  1041.2500     24.8466   -170.2374     22.7530    109.0758
  1041.5000     24.8788   -170.0815     23.1315    109.4726
  1041.7500     24.4992   -169.7554     23.4154    112.7232
  1042.0000     23.9086   -169.2823     23.6221    119.8368
  1042.2500     23.1963   -168.6924     23.7547    123.8566
  1042.5000     22.3762   -168.0159     23.7996    126.3048
  1042.7500     21.4981   -167.2773     23.7376    125.6555
  1043.0000     20.7166   -166.4934     23.5612    123.5827
  1043.2500     20.2409   -165.6765     23.2880    123.0724
  1043.5000     20.1962   -164.8420     22.9590    125.0309
  1043.7500     20.5213   -164.0160     22.6234    127.8452
  1044.0000     20.9997   -163.2398     22.3227    132.5822
  1044.2500     21.4042   -162.5669     22.0821    135.0630
  1044.5000     21.6272   -162.0534     21.9111    136.7857
  1044.7500     21.7003   -161.7456     21.8060    136.4981
  1045.0000     21.7212   -161.6675     21.7536    134.4219
  1045.2500     21.7701   -161.8153     21.7368    132.4374
  1045.5000     21.8719   -162.1598     21.7437    128.9741
  1045.7500     22.0062   -162.6560     21.7731    126.1879
  1046.0000     22.1468   -163.2554     21.8340    121.2551
  1046.2500     22.2926   -163.9131     21.9422    118.1091
  1046.5000     22.4660   -164.5909     22.1148    115.5678
  1046.7500     22.6821   -165.2555     22.3633    116.1365
  1047.0000     22.9193   -165.8779     22.6827    119.8288
  1047.2500     23.1181   -166.4361     23.0415    122.7536
  1047.5000     23.2078   -166.9176     23.3804    124.9944
  1047.7500     23.1416   -167.3215     23.6270    124.2011
  1048.0000     22.9200   -167.6539     23.7234    120.4844
  1048.2500     22.5920   -167.9233     23.6507    117.9370
  1048.5000     22.2320   -168.1366     23.4350    116.7874
  1048.7500     21.9066   -168.3008     23.1293    118.4210
