~Version Information
VERS.                      2.0: CWLS Log ASCII Standard - VERSION 2.0
WRAP.                       NO: One line per depth step
~Well Information Block
STRT.FT               640.0000: 
STOP.FT               927.0000: 
STEP.FT                 0.1000: 
NULL.                -999.2500: 
COMP.          Pioneer Natural Resources: COMPANY
WELL.          Claim Jumper 41-22: WELL
FLD.           Purgatoire River: FIELD
LOC.           1120' FNL & 977' FEL: LOCATION
PROV.                 Colorado: PROVINCE
CNTY.               Las Animas: COUNTRY
SRVC.                Patterson: SERVICE COMPANY
DATE.          Thu Jun 23 08:35:14 2005: LOG DATE
UWI.           05-071-08405-00: UNIQUE WELL ID
~Curve Information Block
DEPT.FT            0 000 00 00: Depth
DCAL.in                       : CDL Caliper
RHOB.g/cc                     : CDL Bulk Density
RHOC.g/cc                     : CDL Density Correction
DPOR.pu                       : CDL Density Porosity
GR.GAPI                       : Gamma Ray
NPOR.pu                       : Neutron Porosity
~Parameter Information Block
~A  Depth       DCAL        RHOB        RHOC        DPOR         GR         NPOR    
# ...
   659.2000      5.0999      2.0762     -0.3020     34.7730     58.0714     38.5776
   659.3000      5.1036      2.0697     -0.3549     35.1689     62.3179     38.8365
   659.4000      5.1036      2.0516     -0.3167     36.2667     68.2087     38.6577
   659.5000      5.1022      2.0407     -0.3653     36.9244     75.3069     38.1875
   659.6000      5.1022      2.0435     -0.3254     36.7548     78.9458     37.7534
   659.7000      5.1022      2.0488     -0.3668     36.4370     76.8523     37.5756
   659.8000      5.0971      2.0489     -0.3492     36.4273     71.9715     37.5988
   659.9000      5.0971      2.0450     -0.2991     36.6682     66.0584     37.7627
   660.0000      5.0918      2.0463     -0.3725     36.5891     62.3407     37.9248
   660.1000      5.0918      2.0613     -0.3170     35.6786     64.9950     37.9535
   660.2000      5.0918      2.0776     -0.2677     34.6921     70.2375     38.0703
   660.3000      5.0920      2.0840     -0.3111     34.3032     70.3853     38.3878
   660.4000      5.0920      2.0821     -0.2911     34.4197     64.5093     38.7085
   660.5000      5.0964      2.0628     -0.2749     35.5865     58.7449     38.8064
   660.6000      5.0964      2.0238     -0.3506     37.9522     57.1089     38.6117
   660.7000      5.0964      1.9917     -0.3891     39.8972     61.4865     38.4177
   660.8000      5.0992      1.9786     -0.3165     40.6923     70.3039     38.4422
   660.9000      5.0992      1.9616     -0.3278     41.7218     74.6674     38.5467
   661.0000      5.1015      1.9342     -0.3811     43.3843     68.9459     38.8305
   661.1000      5.1015      1.9230     -0.3826     44.0612     60.0764     39.3910
   661.2000      5.1015      1.9524     -0.3344     42.2806     56.6501     40.0805
   661.3000      5.1039      2.0340     -0.3479     37.3357     57.4374     40.8203
   661.4000      5.1039      2.1566     -0.2815     29.9036     57.3788     41.4775
   661.5000      5.1053      2.2515     -0.1516     24.1499     55.0961     41.8255
   661.6000      5.1053      2.2496     -0.2488     24.2640     54.2160     41.6353
   661.7000      5.1053      2.1562     -0.2743     29.9282     56.5517     40.8547
   661.8000      5.1050      1.9816     -0.2694     40.5088     57.7086     39.8055
   661.9000      5.1050      1.7062     -0.4459     57.1984     53.7998     38.7056
   662.0000      5.1853      1.3714     -0.7650     77.4924     46.5189     37.2645
   662.1000      5.1853      1.0730     -0.9673     95.5752     41.1546     35.3273
   662.2000      5.1853      0.8404     -1.1364    109.6724     41.0902     33.0435
   662.3000      6.1636      0.6394     -1.2718    121.8539     44.9032     30.3288
   662.4000      6.1636      0.5014     -1.3731    130.2201     48.8513     27.5200
   662.5000     10.0096      0.5141     -1.2052    129.4470     51.7768     25.3768
   662.6000     10.0096      0.6996     -1.0019    118.2070     55.2451     23.8608
   662.7000     10.0096      1.0319     -0.7468     98.0658     58.8416     22.4906
   662.8000     13.9602      1.4618     -0.1137     72.0115     62.2069     21.1413
   662.9000     13.9602      1.8669      0.4455     47.4607     67.2294     19.7903
   663.0000     12.5505      2.1293      0.5609     31.5600     75.2260     18.3770
   663.1000     12.5505      2.2484      0.5844     24.3392     86.5457     16.9897
   663.2000     12.5505      2.3028      0.5318     21.0451     97.9223     15.8990
   663.3000     10.2155      2.3517      0.5980     18.0802    103.8996     15.3834
   663.4000     10.2155      2.4061      0.5849     14.7828    105.4074     15.4575
   663.5000      9.8904      2.4605      0.5829     11.4852    105.7048     15.8007
   663.6000      9.8904      2.5051      0.6217      8.7802    104.2125     16.0784
   663.7000      9.8904      2.5305      0.5545      7.2425    100.3751     16.1722
   663.8000     10.0917      2.5391      0.5792      6.7217     97.4224     16.3084
   663.9000     10.0917      2.5375      0.5409      6.8156     99.0305     16.7193
   664.0000     10.2551      2.5359      0.4960      6.9132    106.0580     17.0315
   664.1000     10.2551      2.5464      0.4748      6.2803    113.7728     16.9657
   664.2000     10.2551      2.5745      0.4339      4.5759    114.9661     17.0503
   664.3000     10.4355      2.6173      0.4582      1.9815    110.6138     17.5213
   664.4000     10.4355      2.6661      0.4534     -0.9773    106.3016     17.7779
   664.5000     10.6699      2.7141      0.4490     -3.8875    104.6801     17.4857
   664.6000     10.6699      2.7585      0.4064     -6.5748    102.3003     16.9571
   664.7000     10.6699      2.7967      0.4241     -8.8904     96.9900     16.5976
   664.8000     10.8964      2.8229      0.3994    -10.4769     93.6508     16.7626
   664.9000     10.8964      2.8348      0.3904    -11.1971     93.8206     17.3078
   665.0000     11.0381      2.8256      0.3565    -10.6447     91.3606     17.8056
   665.1000     11.0381      2.7864      0.3375     -8.2651     86.3268     18.0891
   665.2000     11.0381      2.7289      0.2396     -4.7837     87.2582     18.0808
   665.3000     11.0898      2.6805      0.1980     -1.8510     94.2002     17.9543
   665.4000     11.0898      2.6584      0.1331     -0.5110     96.8108     17.8455
   665.5000     11.1000      2.6561      0.1259     -0.3717     93.2606     17.4880
   665.6000     11.1000      2.6478      0.1051      0.1354     92.6071     16.8655
   665.7000     11.1000      2.6233      0.0721      1.6166    100.3217     16.4886
   665.8000     11.0994      2.6046      0.0605      2.7505    111.9963     16.5773
   665.9000     11.0994      2.5984      0.1074      3.1243    116.9650     17.0134
   666.0000     11.0926      2.5867      0.1046      3.8340    112.7126     17.5118
   666.1000     11.0926      2.5687      0.1038      4.9302    107.8824     17.6190
   666.2000     11.0926      2.5563      0.1391      5.6760    105.1164     17.5044
   666.3000     11.0905      2.5552      0.0981      5.7436    102.7842     17.6697
   666.4000     11.0905      2.5661      0.1046      5.0832    102.8673     17.9401
   666.5000     11.0989      2.5891      0.1108      3.6904    104.5366     17.9681
   666.6000     11.0989      2.6175      0.1277      1.9723    105.3546     17.9563
   666.7000     11.0989      2.6341      0.1097      0.9611    103.4332     18.1127
   666.8000     11.1092      2.6330      0.1078      1.0294     97.5362     18.2107
   666.9000     11.1092      2.6202      0.1356      1.8071     93.4792     17.9780
   667.0000     11.1133      2.6030      0.1004      2.8509     94.4882     17.6232
   667.1000     11.1133      2.5932      0.0523      3.4399     94.3840     17.6352
   667.2000     11.1133      2.5954      0.0774      3.3082     90.5023     18.0986
   667.3000     11.1104      2.6071      0.0777      2.6008     85.3270     18.4846
   667.4000     11.1104      2.6259      0.0958      1.4636     80.5850     18.5008
   667.5000     11.1053      2.6381      0.1020      0.7195     78.8847     18.4097
   667.6000     11.1053      2.6362      0.1064      0.8376     81.8534     18.3991
   667.7000     11.1053      2.6284      0.0597      1.3091     85.5799     18.2781
   667.8000     11.0996      2.6198      0.0981      1.8292     85.7831     18.0647
   667.9000     11.0996      2.6096      0.1075      2.4470     82.2783     18.0491
   668.0000     11.0924      2.5987      0.1186      3.1112     76.7947     18.0231
   668.1000     11.0924      2.5918      0.0333      3.5253     72.1219     17.7936
   668.2000     11.0924      2.5934      0.0756      3.4316     68.8675     17.4352
   668.3000     11.0924      2.5996      0.0892      3.0556     66.3334     17.1007
   668.4000     11.0924      2.6115      0.0887      2.3325     66.0515     17.0401
   668.5000     11.0997      2.6279      0.1086      1.3417     68.3723     17.2056
   668.6000     11.0997      2.6323      0.0926      1.0717     69.6112     17.2668
   668.7000     11.0997      2.6179      0.0763      1.9428     65.6166     17.2148
