~Version Information
VERS.                      2.0: CWLS Log ASCII Standard - VERSION 2.0
WRAP.                       NO: One line per depth step
~Well Information Block
STRT.FT               -12.5000: 
STOP.FT              1647.5000: 
STEP.FT                 0.2500: 
NULL.                -999.2500: 
COMP.          Pioneer Natural Resources: COMPANY
WELL.            Harlee L 34-9: WELL
FLD.           Purgatorie River`: FIELD
LOC.           600' FSL & 2125' FEL----: LOCATION
PROV.                       CO: PROVINCE
CNTY.               Las Animas: COUNTRY
SRVC.                Patterson: SERVICE COMPANY
DATE.          Sat Feb 12 09:31:33 2005: LOG DATE
UWI.           05 071 08009 00: UNIQUE WELL ID
~Curve Information Block
DEPT.FT            0 000 00 00: Depth
CCL.                          : Casing Collar Locator
TT3.usec                      : CBL 3' Travel Time
AMP3.mV                       : CBL 3' Amplitude
AMP5.mV                       : CBL 5' Amplitude
GR.GAPI                       : Gamma Ray
~Parameter Information Block
~A  Depth       CCL         TT3         AMP3        AMP5         GR     
# ...
  1387.5000      0.0000    657.1868      2.0024      0.2047    124.2558
  1387.7500      0.0000    643.1602      2.0050      0.3192    128.0161
  1388.0000      0.0000    622.5151      2.0068      0.3574    130.0962
  1388.2500      0.0000    598.5943      2.0040      0.2811    132.2361
  1388.5000      0.0000    577.8290      1.9948      0.2047    135.0123
  1388.7500      0.0000    563.8497      1.9799      0.2429    138.1966
  1389.0000      0.0000    553.1596      1.9631      0.3956    141.5137
  1389.2500      0.0000    540.0154      1.9484      0.5484    144.4966
  1389.5000      0.0000    525.6226      1.9350      0.5102    145.9834
  1389.7500      0.0000    518.1938      1.9171      0.4338    144.6280
  1390.0000      0.0000    522.3616      1.8910      0.3192    140.0939
  1390.2500      0.0000    532.3597      1.8630      0.1283    133.4344
  1390.5000      0.0000    538.2169      1.8498      0.3956    126.2601
  1390.7500      0.0000    535.4911      1.8676      0.4338    119.7255
  1391.0000      0.0000    525.5696      1.9182      0.4720    114.2069
  1391.2500      0.0000    509.9502      1.9837      0.3192    109.6737
  1391.5000      2.2330    490.4516      2.0369      0.1283    106.1477
  1391.7500     -2.5015    473.8273      2.0593      0.3574    103.7345
  1392.0000      0.0000    469.6837      2.0493      0.3574    102.3870
  1392.2500      0.0000    481.8298      2.0179      0.2811    101.8488
  1392.5000      0.0000    504.1827      1.9829      0.2429    101.6737
  1392.7500      0.0000    525.3356      1.9676      0.1283    101.2009
  1393.0000      0.0000    534.9829      1.9913      0.2429     99.7854
  1393.2500      0.0000    527.5548      2.0552      0.2811     97.2685
  1393.5000      0.0000    504.4158      2.1377      0.2811     94.2075
  1393.7500      0.0000    473.7573      2.2082      0.3574     91.5180
  1394.0000      0.0000    445.4783      2.2476      0.2429     89.7217
  1394.2500      0.0000    424.8860      2.2572      0.0519     88.6739
  1394.5000      0.0000    411.8647      2.2523      0.2811     88.2464
  1394.7500      0.0000    404.7429      2.2500      0.2429     88.9448
  1395.0000      0.0000    402.7747      2.2585      0.3956     91.2900
  1395.2500      0.0000    405.2852      2.2759      0.2047     94.7885
  1395.5000      0.0000    410.4757      2.2948      0.1665     98.0223
  1395.7500      0.0000    415.8194      2.3082      0.0137     99.7794
  1396.0000      0.0000    419.2393      2.3133      0.2429     99.8496
  1396.2500      0.0000    419.6694      2.3123      0.2429     98.7412
  1396.5000      0.0000    417.0922      2.3102      0.2429     96.8984
  1396.7500      0.0000    412.7026      2.3122      0.1665     94.4823
  1397.0000      0.0000    408.7878      2.3213      0.1283     91.7062
  1397.2500      0.0000    407.4991      2.3375      0.2429     88.8343
  1397.5000      0.0000    409.2864      2.3579      0.2429     85.7843
  1397.7500      0.0000    412.8074      2.3777      0.3574     82.1816
  1398.0000      0.0000    416.3806      2.3915      0.3956     78.0681
  1398.2500      0.0000    419.2236      2.3957      0.3574     74.4606
  1398.5000      0.0000    421.4541      2.3893      0.3192     72.8291
  1398.7500      0.0000    423.4189      2.3731      0.2429     73.5826
  1399.0000      0.0000    425.2029      2.3498      0.3574     75.2172
  1399.2500      0.0000    426.5996      2.3239      0.3956     75.6488
  1399.5000      0.0000    427.3898      2.3017      0.2811     74.4584
  1399.7500      0.0000    427.5960      2.2877      0.3192     73.2078
  1400.0000      0.0000    427.4645      2.2821      0.2429     73.4409
  1400.2500      0.0000    427.2662      2.2812      0.3574     75.0712
  1400.5000      0.0000    427.1703      2.2808      0.3192     76.9449
  1400.7500      0.0000    427.2527      2.2792      0.3574     78.3371
  1401.0000      0.0000    427.5204      2.2778      0.3574     79.4476
  1401.2500      0.0000    427.8547      2.2792      0.2047     80.8072
  1401.5000      0.0000    427.9187      2.2851      0.1283     82.5177
  1401.7500      0.0000    427.1418      2.2946      0.3192     83.9619
  1402.0000      0.0000    424.8911      2.3057      0.3574     84.4072
  1402.2500      0.0000    420.9241      2.3168      0.3574     84.0734
  1402.5000      0.0000    415.9039      2.3276      0.3574     84.3154
  1402.7500      0.0000    411.3730      2.3387      0.2047     86.4363
  1403.0000      0.0000    408.8626      2.3499      0.1665     90.3693
  1403.2500      0.0000    408.8359      2.3598      0.3574     94.6406
  1403.5000      0.0000    410.3788      2.3667      0.2811     97.5922
  1403.7500      0.0000    411.6445      2.3705      0.3192     98.5266
  1404.0000      0.0000    410.7086      2.3730      0.0901     97.8825
  1404.2500      0.0000    406.6833      2.3764      0.1283     96.6799
  1404.5000      0.0000    400.4055      2.3809      0.2811     95.7910
  1404.7500      0.0000    393.8406      2.3849      0.2047     95.4232
  1405.0000      0.0000    388.7076      2.3868      0.2429     95.1940
  1405.2500      0.0000    385.7533      2.3864      0.1665     94.7422
  1405.5000      0.0000    385.1432      2.3866      0.1283     94.0146
  1405.7500      0.0000    387.1024      2.3911      0.2811     92.9135
  1406.0000      0.0000    391.9112      2.4004      0.3574     91.1813
  1406.2500      0.0000    399.2837      2.4097      0.3574     88.9102
  1406.5000      0.0000    407.9496      2.4109      0.2811     86.8695
  1406.7500      0.0000    416.3058      2.3985      0.3192     86.1450
  1407.0000      0.0000    423.7659      2.3732      0.1283     87.5027
  1407.2500      0.0000    431.6901      2.3422      0.2429     90.9189
  1407.5000      0.0000    442.8749      2.3146      0.2047     95.4129
  1407.7500      0.0000    459.5582      2.2968      0.2811     99.4335
  1408.0000      0.0000    481.1830      2.2892      0.3574    101.8443
  1408.2500      0.0000    504.1725      2.2888      0.2047    102.7142
  1408.5000      0.0000    524.7261      2.2916      0.1665    103.1092
  1408.7500      0.0000    542.3744      2.2941      0.3192    104.0511
  1409.0000      0.0000    560.5763      2.2931      0.2811    105.7466
  1409.2500      0.0000    582.9437      2.2866      0.1665    107.7830
  1409.5000      0.0000    608.5023      2.2757      0.2429    109.8604
  1409.7500      0.0000    631.6064      2.2652      0.3574    112.1259
  1410.0000      0.0000    646.9384      2.2617      0.1665    114.6981
  1410.2500      0.0000    653.6587      2.2675      0.3192    116.9392
  1410.5000      0.0000    654.7135      2.2775      0.3956    117.5906
  1410.7500      0.0000    653.5938      2.2843      0.2811    116.0894
  1411.0000      0.0000    652.2917      2.2853      0.3574    113.6066
  1411.2500      0.0000    651.3572      2.2844      0.1665    112.1871
  1411.5000      0.0000    650.7112      2.2860      0.2047    112.6960
  1411.7500      0.0000    650.2134      2.2892      0.3192    114.1702
  1412.0000      0.0000    649.7674      2.2881      0.2811    115.2872
  1412.2500      0.0000    649.1508      2.2760      0.2811    115.8611
  1412.5000      0.0000    647.8228      2.2492      0.3192    116.7201
  1412.7500      0.0000    644.7841      2.2076      0.4338    118.4690
  1413.0000      0.0000    638.7480      2.1538      0.2429    120.4424
  1413.2500      0.0000    628.7379      2.0925      0.2811    120.7472
  1413.5000      0.0000    614.5916      2.0326      0.3574    117.6141
  1413.7500      0.0000    596.9496      1.9875      0.3956    111.0514
  1414.0000      0.0000    577.1104      1.9686      0.4720    103.2557
  1414.2500      0.0000    556.9291      1.9774      0.4338     97.2808
  1414.5000      0.0000    537.9957      2.0038      0.2811     94.9718
  1414.7500      2.0264    521.2609      2.0329      0.3956     95.7983
  1415.0000      0.0000    508.5739      2.0507      0.3956     97.6699
  1415.2500      0.0000    503.2288      2.0474      0.4338     98.9792
