~Version Information
VERS.                      2.0: CWLS Log ASCII Standard - VERSION 2.0
WRAP.                       NO: One line per depth step
~Well Information Block
STRT.FT               -19.0000: 
STOP.FT              1343.5000: 
STEP.FT                 0.5000: 
NULL.                -999.2500: 
COMP.          Evergreen Operating Corporation: COMPANY
WELL.            Trigger 13-35: WELL
FLD.           Purgatorie River: FIELD
LOC.           2245' FSL & 594' FWL: LOCATION
PROV.                 Colorado: PROVINCE
CNTY.               Las Animas: COUNTRY
SRVC.                         : SERVICE COMPANY
DATE.          Mon Jun 23 12:06:52 2003: LOG DATE
UWI.           05-071-07838-00: UNIQUE WELL ID
~Curve Information Block
DEPT.FT            0 000 00 00: Depth
TT3.usec                      : CBL 3' Travel Time
AMP3.mV                       : CBL 3' Amplitude
GR.GAPI                       : Gamma Ray
CCL.                          : Casing Collar Locator
~Parameter Information Block
~A  Depth       TT3         AMP3         GR         CCL     
   -19.0000   -999.2500   -999.2500   -999.2500   -999.2500
   -18.5000   -999.2500   -999.2500   -999.2500      0.0000
   -18.0000   -999.2500   -999.2500   -999.2500      0.0000
   -17.5000   -999.2500   -999.2500   -999.2500      0.0000
   -17.0000   -999.2500   -999.2500   -999.2500      0.0000
   -16.5000   -999.2500   -999.2500   -999.2500      0.0000
   -16.0000   -999.2500   -999.2500   -999.2500      0.0000
   -15.5000   -999.2500   -999.2500   -999.2500      0.0000
   -15.0000   -999.2500   -999.2500   -999.2500      0.0000
   -14.5000   -999.2500   -999.2500   -999.2500      0.0000
   -14.0000   -999.2500   -999.2500   -999.2500      0.0000
   -13.5000   -999.2500   -999.2500     70.1906      0.0000
   -13.0000   -999.2500   -999.2500     65.0584      0.0000
   -12.5000   -999.2500   -999.2500     65.6920      0.0000
   -12.0000   -999.2500   -999.2500     71.3286      0.0000
   -11.5000   -999.2500   -999.2500     68.3463      0.0000
   -11.0000   -999.2500   -999.2500     62.4098      0.0000
   -10.5000   -999.2500   -999.2500     66.9786      0.0000
   -10.0000   -999.2500   -999.2500     75.2659      0.0000
    -9.5000   -999.2500   -999.2500     74.4353      0.0000
    -9.0000   -999.2500   -999.2500     66.2147      0.0000
    -8.5000   -999.2500   -999.2500     60.6383      0.0000
    -8.0000   1424.3400      1.0340     58.1099      0.0000
    -7.5000   1424.3594      1.0902     57.4127      0.0000
    -7.0000   1424.4412      1.1072     64.0229      0.0000
    -6.5000   1424.3661      1.0823     71.5680      0.0000
    -6.0000   1424.4199      1.0187     74.1814      0.0000
    -5.5000   1424.4867      1.0066     76.8952      0.0000
    -5.0000   1424.4199      1.0523     73.6330      0.0000
    -4.5000   1424.3671      1.1380     65.3246      0.0000
    -4.0000   1424.4773      1.1162     62.9106      0.0000
    -3.5000   1424.5791      1.1379     62.8730      0.0000
    -3.0000   1424.6329      1.2150     63.9504      0.0000
    -2.5000   1424.5217      1.2442     63.2660      0.0000
    -2.0000   1424.3850      1.3069     60.0051      0.0000
    -1.5000   1424.1541      1.2618     57.9809      0.0000
    -1.0000   1424.2577      1.1841     59.0451      0.0000
    -0.5000   1424.4622      1.1994     65.1772      0.0000
     0.0000   1424.4696      1.3111     69.4486      0.0000
     0.5000   1424.3671      1.4010     65.0752     -4.3213
     1.0000   1424.4200      1.4062     45.8311     -5.0000
     1.5000   1424.4933      1.2674     36.5344     -5.0000
     2.0000   1424.4933      1.1497     29.5421     -5.0000
     2.5000   1424.4200      1.2135     27.6331      0.0000
     3.0000   1424.3671      1.3128     35.7256      5.0000
     3.5000   1424.4783      1.3720     47.6708      0.0000
     4.0000   1424.6084      1.3529     56.3554      0.0000
     4.5000   1424.7649      1.3121     60.8679      0.0000
     5.0000   1424.5724      1.2981     81.3762      0.0000
     5.5000   1424.2651      1.2671    126.8106      0.0000
     6.0000   1424.1465      1.2919    137.4187      0.0000
     6.5000   1424.2747      1.3245    102.1726      0.0000
     7.0000   1424.2263      1.3255     79.0977      0.0000
     7.5000   1424.3906      1.2831     65.1399      0.0000
     8.0000   1424.4924      1.2201     50.7901      0.0000
     8.5000   1424.4999      1.2399     47.7120      0.0000
     9.0000   1424.5000      1.2922     49.5991      0.0000
     9.5000   1424.5000      1.2989     45.5948      0.0000
    10.0000   1424.5000      1.2695     40.6031      0.0000
    10.5000   1423.2384      1.1337     41.1334      0.0000
    11.0000   1380.3350      1.0505     46.4604      0.0000
    11.5000   1163.1888      1.0245     48.8153      0.0000
    12.0000   1163.1890      0.9928     48.8876      0.0000
    12.5000   1380.3427      1.1121     50.1527      0.0000
    13.0000   1423.3553      1.6404     54.1357      0.0000
    13.5000   1424.8754      1.8628     65.0593      0.0000
    14.0000   1424.8752      1.7816     75.5953      0.0000
    14.5000   1424.6093      1.7831     84.7172      0.0000
    15.0000   1424.3906      1.7730     93.5737      0.0000
    15.5000   1424.1171      1.7896     96.8895      0.0000
    16.0000   1424.0087      1.8002     91.7140      0.0000
    16.5000   1424.0371      1.7645     80.3325      0.0000
    17.0000   1423.1967      1.7370     75.8885      0.0000
    17.5000   1382.0779      1.7418     83.8027      0.0000
    18.0000   1072.6935      1.7419     93.6733      0.0000
    18.5000    600.3021      1.7357     98.8670      0.0000
    19.0000    448.0460      1.7525     99.3769      0.0000
    19.5000    437.5872      1.7670     94.7590      0.0000
    20.0000    437.1465      1.8119     89.4101      0.0000
    20.5000    437.0900      1.8696     90.2774      0.0000
    21.0000    437.0754      1.9122     88.6828      0.0000
    21.5000    437.0426      1.9782     83.0976      0.0000
    22.0000    437.2142      2.0041     80.7921      0.0000
    22.5000    437.2578      2.0563     81.7971      0.0000
    23.0000    437.4117      2.1318     80.4299      0.0000
    23.5000    438.0011      2.1219     77.3654      0.0000
    24.0000    438.6330      2.1560     77.8214      0.0000
    24.5000    439.1092      2.2861     80.8277      0.0000
    25.0000    439.6231      2.3698     86.0290      0.0000
    25.5000    439.8012      2.4216     95.3526      0.0000
    26.0000    439.3649      2.4110     96.0170      0.0000
    26.5000    439.0087      2.3342     85.8104      0.0000
    27.0000    438.7881      2.3514     75.5571      0.0000
    27.5000    438.7893      2.4317     67.5526      0.0000
    28.0000    439.0535      2.4743     63.3265      0.0000
    28.5000    439.7407      2.5362     60.8171      0.0000
    29.0000    440.8100      2.5569     59.0578      0.0000
    29.5000    441.4047      2.5177     56.6059      0.0000
    30.0000    441.8229      2.5162     56.3186      0.0000
    30.5000    442.5506      2.5395     59.6472      0.0000
    31.0000    443.1969      2.5363     61.9078      0.0000
    31.5000    446.3279      2.5191     60.0427      0.0000
    32.0000    513.2610      2.5373     55.4604      0.0000
    32.5000    866.2524      2.6366     53.2267      0.0000
    33.0000   1299.0269      2.7306     52.6098      0.0000
    33.5000   1417.5049      2.6874     51.1421      0.0000
    34.0000   1417.4496      2.7106     52.2143      0.0000
    34.5000   1308.4725      2.8312     60.3320      0.0000
    35.0000   1029.5043      2.8297     68.0037      0.0000
    35.5000   1010.7595      2.8287     66.7231      0.0000
    36.0000    771.1284      2.7849     59.2617      0.0000
    36.5000    485.6027      2.7579     54.1399      0.0000
    37.0000    423.8510      2.7361     52.7980      0.0000
    37.5000    408.8480      2.7100     51.8923      0.0000
    38.0000    406.4439      2.7047     54.7533      0.0000
    38.5000    406.1921      2.7673     60.8489      0.0000
    39.0000    406.2863      2.7853     60.0724      0.0000
    39.5000    406.5448      2.8467     53.5632      0.0000
    40.0000    406.6603      2.8783     50.1180      0.0000
    40.5000    406.6339      2.8392     48.6953      0.0000
    41.0000    406.4773      2.8045     48.3995      0.0000
    41.5000    407.0216      2.7996     52.6018      0.0000
    42.0000    427.7772      2.8512     53.7789      0.0000
    42.5000    611.6410      2.9098     50.7010      0.0000
    43.0000    859.6964      2.8446     48.9897      0.0000
    43.5000    661.7333      2.4612     46.0459      0.0000
    44.0000    514.2797      2.1407     41.6994      0.0000
    44.5000    664.0602      2.1284     37.8750      5.0000
    45.0000    662.9633      2.1844     37.2751      0.0000
    45.5000    490.5081      2.3063     42.5496      0.0000
    46.0000    449.9039      2.6565     48.8793      0.0000
    46.5000    425.7570      2.9622     47.4441      0.0000
    47.0000    409.6787      3.1013     45.2252      0.0000
    47.5000    407.2569      3.1114     49.4553      0.0000
