~Version Information
VERS.                      2.0: CWLS Log ASCII Standard - VERSION 2.0
WRAP.                       NO: One line per depth step
~Well Information Block
STRT.FT               671.6000: 
STOP.FT              1890.7000: 
STEP.FT                 0.1000: 
NULL.                -999.2500: 
COMP.          Petrogulf Corporation: COMPANY
WELL.             State 16-14R: WELL
FLD.           Purgatorie River: FIELD
LOC.           598' FSL & 682' FWL: LOCATION
CNTY.               Las Animas: COUNTY
SRVC.                         : SERVICE COMPANY
DATE.          Fri Nov 05 07:21:30 2004: LOG DATE
UWI.           05 071 08034 00: UNIQUE WELL ID
STAT.                 Colorado: STATE
~Curve Information Block
DEPT.FT            0 000 00 00: Depth
DCAL.in                       : CDL Caliper
RHOB.g/cc                     : CDL Bulk Density
RHOC.g/cc                     : CDL Density Correction
DPOR.pu                       : CDL Density Porosity
GR.GAPI                       : Gamma Ray
NPOR.pu                       : Neutron Porosity
~Parameter Information Block
~A  Depth       DCAL        RHOB        RHOC        DPOR         GR         NPOR    
# ...
  1161.2000      7.9616      2.5356      0.0319      6.9314    116.0009     25.5224
  1161.3000      7.9505      2.5396      0.0646      6.6895    114.0463     25.4713
  1161.4000      7.9505      2.5381      0.0758      6.7825    113.2240     25.2422
  1161.5000      7.9241      2.5256      0.0410      7.5366    114.9724     24.9354
  1161.6000      7.9241      2.5079      0.0230      8.6140    119.4311     24.9114
  1161.7000      7.9241      2.4949      0.0014      9.4023    127.0506     25.0157
  1161.8000      7.9661      2.4968      0.0584      9.2872    136.4623     24.9339
  1161.9000      7.9661      2.5162     -0.0043      8.1113    142.8687     24.8087
  1162.0000      7.9405      2.5477      0.0520      6.1973    142.2684     24.7279
  1162.1000      7.9405      2.5793      0.0531      4.2870    134.3606     24.5392
  1162.2000      7.9405      2.5961      0.1112      3.2666    125.3990     24.3201
  1162.3000      7.9655      2.5932      0.0969      3.4422    122.1869     24.2154
  1162.4000      7.9655      2.5825      0.0847      4.0922    123.2076     24.2536
  1162.5000      7.9472      2.5811      0.0621      4.1775    124.5275     24.6843
  1162.6000      7.9472      2.5862      0.1064      3.8657    126.1890     25.6392
  1162.7000      7.9472      2.5809      0.0931      4.1888    126.6229     26.5883
  1162.8000      7.9206      2.5681      0.0665      4.9612    121.8387     27.1796
  1162.9000      7.9206      2.5651      0.0472      5.1462    113.7494     27.5776
  1163.0000      7.9094      2.5760      0.0773      4.4842    108.5661     27.9322
  1163.1000      7.9094      2.5808      0.0753      4.1968    110.5851     27.8655
  1163.2000      7.9094      2.5567      0.0341      5.6527    118.9272     26.8797
  1163.3000      7.9251      2.5187      0.0027      7.9555    127.0821     25.5133
  1163.4000      7.9251      2.5024      0.0302      8.9457    129.6658     24.8236
  1163.5000      7.9171      2.5156      0.0427      8.1432    126.7621     24.9592
  1163.6000      7.9171      2.5389      0.0742      6.7348    121.3980     25.2344
  1163.7000      7.9171      2.5652      0.0423      5.1411    116.0009     24.9728
  1163.8000      7.8964      2.6090      0.0717      2.4836    110.9602     24.3506
  1163.9000      7.8964      2.6592      0.1906     -0.5558    107.7872     24.0069
  1164.0000      7.8759      2.6816      0.1519     -1.9141    108.0556     23.9500
  1164.1000      7.8759      2.6726      0.1668     -1.3704    110.2315     23.7182
  1164.2000      7.8759      2.6483      0.1227      0.1020    112.0574     23.2535
  1164.3000      7.8924      2.6174      0.1153      1.9777    112.0618     22.9102
  1164.4000      7.8924      2.5864      0.0714      3.8538    110.9102     22.8730
  1164.5000      7.8780      2.5638      0.0715      5.2257    111.1299     23.0760
  1164.6000      7.8780      2.5549      0.0360      5.7654    115.7516     23.3353
  1164.7000      7.8780      2.5581      0.0860      5.5692    123.6231     23.6387
  1164.8000      7.8743      2.5633      0.0514      5.2520    127.5412     23.9493
  1164.9000      7.8743      2.5629      0.0498      5.2761    124.2555     23.9838
  1165.0000      7.9134      2.5598      0.0530      5.4643    120.0173     23.5823
  1165.1000      7.9134      2.5618      0.0572      5.3463    119.9113     23.0077
  1165.2000      7.9134      2.5639      0.0654      5.2168    122.4082     22.6737
  1165.3000      7.8785      2.5517      0.0462      5.9573    126.2399     22.7140
  1165.4000      7.8785      2.5312      0.0045      7.1990    130.0987     22.9034
  1165.5000      7.8977      2.5225      0.0254      7.7242    130.7605     23.0566
  1165.6000      7.8977      2.5252      0.0281      7.5633    131.1871     23.4944
  1165.7000      7.8977      2.5243      0.0491      7.6187    135.8645     24.4094
  1165.8000      7.9231      2.5177      0.0274      8.0163    137.0041     25.2131
  1165.9000      7.9231      2.5173      0.0072      8.0396    128.3798     25.6899
  1166.0000      7.9210      2.5318      0.0256      7.1661    119.4161     26.0767
  1166.1000      7.9210      2.5529      0.0472      5.8848    119.7449     26.3239
  1166.2000      7.9210      2.5641      0.0456      5.2066    126.1433     26.3912
  1166.3000      7.9100      2.5671      0.0155      5.0240    128.8196     26.3025
  1166.4000      7.9100      2.5834     -0.0043      4.0365    127.3666     26.0646
  1166.5000      7.8878      2.6087      0.0512      2.5033    129.6216     25.4883
  1166.6000      7.8878      2.6096      0.0529      2.4497    134.3934     24.6822
  1166.7000      7.8878      2.5758      0.0129      4.4941    135.1628     24.3592
  1166.8000      7.9281      2.5347      0.0176      6.9858    132.9540     24.8634
  1166.9000      7.9281      2.5150      0.0094      8.1842    133.8334     25.7285
  1167.0000      7.9003      2.5236      0.0343      7.6580    137.9746     26.1885
  1167.1000      7.9003      2.5504      0.0843      6.0340    139.8775     25.9652
  1167.2000      7.9003      2.5796      0.0697      4.2671    137.0888     25.4607
  1167.3000      7.8838      2.5983      0.1149      3.1357    133.8047     25.2302
  1167.4000      7.8838      2.6017      0.0857      2.9303    131.7496     25.4160
  1167.5000      7.8878      2.5942      0.0625      3.3821    129.1319     25.6026
  1167.6000      7.8878      2.5770      0.0977      4.4271    129.8165     25.3971
  1167.7000      7.8878      2.5520      0.0493      5.9381    134.8354     24.9941
  1167.8000      7.9108      2.5361     -0.0018      6.9044    134.8643     24.9590
  1167.9000      7.9108      2.5343      0.0664      7.0106    127.9202     25.4748
  1168.0000      7.9179      2.5308      0.0176      7.2259    125.0581     25.9326
  1168.1000      7.9179      2.5275     -0.0129      7.4235    131.8850     25.9208
  1168.2000      7.9179      2.5377      0.0400      6.8069    143.6647     25.7000
  1168.3000      7.8729      2.5497      0.0919      6.0799    153.0071     25.3533
  1168.4000      7.8729      2.5571     -0.0035      5.6279    154.0890     24.8750
  1168.5000      7.8698      2.5733      0.0938      4.6466    149.3940     24.5094
  1168.6000      7.8698      2.5911      0.1426      3.5708    144.7441     24.4058
  1168.7000      7.8698      2.5985      0.1070      3.1221    141.1345     24.3749
  1168.8000      7.9151      2.5998      0.0818      3.0396    137.2798     24.2505
  1168.9000      7.9151      2.5914      0.1066      3.5497    133.6060     24.1313
  1169.0000      7.9283      2.5630      0.0947      5.2733    130.4594     23.9341
  1169.1000      7.9283      2.5231      0.0582      7.6882    128.4808     23.8555
  1169.2000      7.9283      2.5087      0.0261      8.5611    129.4678     24.1708
  1169.3000      7.8966      2.5472      0.0904      6.2325    131.7802     24.5212
  1169.4000      7.8966      2.6186      0.1284      1.9049    131.9115     24.9297
  1169.5000      7.8813      2.6817      0.1275     -1.9218    130.6318     25.6901
  1169.6000      7.8813      2.7110      0.1724     -3.6950    128.3956     26.6668
  1169.7000      7.8813      2.7094      0.1671     -3.6003    127.5321     27.4094
  1169.8000      7.8853      2.6989      0.1610     -2.9614    129.8691     27.6165
  1169.9000      7.8853      2.6884      0.1278     -2.3247    133.1176     27.4621
  1170.0000      7.8675      2.6713      0.1242     -1.2926    135.6089     27.4029
  1170.1000      7.8675      2.6437      0.0546      0.3831    134.6539     27.6577
  1170.2000      7.8675      2.6094     -0.0482      2.4586    128.9151     27.8154
  1170.3000      7.8431      2.5818     -0.0399      4.1318    124.2729     27.6733
  1170.4000      7.8431      2.5745      0.0277      4.5771    125.2910     27.5115
  1170.5000      7.8916      2.5853      0.0774      3.9222    128.3344     27.5526
  1170.6000      7.8916      2.5949      0.1192      3.3369    128.4545     27.8537
  1170.7000      7.8916      2.5867      0.0763      3.8387    126.0696     28.1006
