~Version Information
VERS.                      2.0: CWLS Log ASCII Standard - VERSION 2.0
WRAP.                       NO: One line per depth step
~Well Information Block
STRT.FT               460.0000: 
STOP.FT               961.2000: 
STEP.FT                 0.1000: 
NULL.                -999.2500: 
COMP.          Pioneer Natural Resources: COMPANY
WELL.                Pug 33-19: WELL
FLD.           Purgatoire River: FIELD
LOC.           1381' FSL & 2140' FEL: LOCATION
PROV.                 Colorado: PROVINCE
CNTY.               Las Animas: COUNTRY
SRVC.                Patterson: SERVICE COMPANY
DATE.          Wed Dec 15 07:19:20 2004: LOG DATE
UWI.           05 071 08193 00: UNIQUE WELL ID
~Curve Information Block
DEPT.FT            0 000 00 00: Depth
DCAL.in                       : CDL Caliper
RHOB.g/cc                     : CDL Bulk Density
RHOC.g/cc                     : CDL Density Correction
DPOR.pu                       : CDL Density Porosity
NPOR.pu                       : Neutron Porosity
GR.GAPI                       : Gamma Ray
~Parameter Information Block
~A  Depth       DCAL        RHOB        RHOC        DPOR        NPOR         GR     
# ...
   613.6000      7.8984      2.4985      0.0641      9.1836     25.4956    110.7096
   613.7000      7.8984      2.4955      0.0398      9.3637     26.3373    112.1980
   613.8000      7.8939      2.4924      0.0157      9.5536     27.3055    114.5114
   613.9000      7.8939      2.4953      0.0403      9.3773     27.1996    120.9576
   614.0000      7.8924      2.4975      0.0574      9.2416     26.3489    130.4052
   614.1000      7.8924      2.4957      0.0339      9.3506     26.0816    137.9212
   614.2000      7.8924      2.4946      0.0206      9.4169     26.5059    139.6387
   614.3000      7.8921      2.4933      0.0663      9.4983     26.6112    135.7248
   614.4000      7.8921      2.4959      0.0581      9.3416     26.1730    131.8524
   614.5000      7.8912      2.5123      0.0581      8.3428     25.9754    129.5968
   614.6000      7.8912      2.5288      0.1229      7.3471     26.1677    127.6390
   614.7000      7.8912      2.5245      0.1152      7.6054     26.1677    128.0446
   614.8000      7.8895      2.5080      0.0631      8.6086     25.7853    126.6362
   614.9000      7.8895      2.4995      0.0721      9.1238     25.1696    119.1538
   615.0000      7.8873      2.5023      0.0593      8.9504     24.5890    107.6016
   615.1000      7.8873      2.5073      0.1019      8.6469     23.9246     96.9132
   615.2000      7.8873      2.5125      0.0418      8.3332     22.9503     93.7712
   615.3000      7.8864      2.5253      0.0736      7.5605     22.2966     98.6392
   615.4000      7.8864      2.5411      0.0857      6.6019     22.4573    105.8490
   615.5000      7.8866      2.5546      0.0643      5.7810     22.6339    109.4232
   615.6000      7.8866      2.5728      0.0779      4.6785     22.2329    107.9152
   615.7000      7.8866      2.5945      0.0907      3.3622     21.6824    105.4569
   615.8000      7.8869      2.6016      0.1195      2.9339     21.2628    104.8641
   615.9000      7.8869      2.5846      0.0562      3.9631     20.9718    104.9329
   616.0000      7.8871      2.5612      0.0523      5.3799     21.0890    102.1704
   616.1000      7.8871      2.5475      0.0482      6.2124     21.5894     96.4904
   616.2000      7.8871      2.5424      0.0558      6.5204     21.9694     89.7767
   616.3000      7.8868      2.5423      0.0420      6.5288     21.8322     83.1679
   616.4000      7.8868      2.5464      0.0359      6.2789     21.0442     79.7034
   616.5000      7.8867      2.5497      0.0746      6.0762     20.0665     79.1906
   616.6000      7.8867      2.5458      0.0521      6.3159     19.5787    103.6728
   616.7000      7.8867      2.5380      0.0520      6.7884     19.5611     99.1449
   616.8000      7.8860      2.5308      0.0396      7.2235     19.6283     93.6455
   616.9000      7.8860      2.5272      0.0381      7.4424     19.4522     88.4543
   617.0000      7.8856      2.5289      0.0597      7.3420     18.6868     83.7617
   617.1000      7.8856      2.5303      0.0623      7.2557     17.6647     77.9372
   617.2000      7.8856      2.5296      0.0589      7.2999     17.1628     70.0589
   617.3000      7.8877      2.5271      0.0564      7.4473     17.3262     65.2135
   617.4000      7.8877      2.5206      0.0491      7.8401     17.6501     66.9517
   617.5000      7.8892      2.5142      0.0358      8.2276     17.8817     69.9314
   617.6000      7.8892      2.5159      0.0298      8.1283     18.0732     68.9132
   617.7000      7.8892      2.5233      0.0490      7.6779     18.0190     65.7503
   617.8000      7.8889      2.5307      0.0425      7.2321     17.4925     62.8582
   617.9000      7.8889      2.5445      0.0210      6.3955     16.9465     61.4344
   618.0000      7.8887      2.5687      0.0843      4.9277     17.0324     62.6617
   618.1000      7.8887      2.5904      0.0880      3.6093     17.4570     65.5222
   618.2000      7.8887      2.6024      0.0963      2.8855     17.5225     67.6198
   618.3000      7.8890      2.6108      0.0985      2.3786     17.0509     67.5069
   618.4000      7.8890      2.6194      0.0858      1.8524     16.5951     67.0538
   618.5000      7.8872      2.6222      0.0881      1.6844     16.6235     69.1084
   618.6000      7.8872      2.6124      0.1017      2.2816     16.4606     71.3551
   618.7000      7.8872      2.5967      0.0540      3.2330     15.3710     69.4537
   618.8000      7.8842      2.5886      0.0664      3.7229     14.2010     64.6902
   618.9000      7.8842      2.5895      0.0630      3.6666     13.7923     60.9821
   619.0000      7.8823      2.5913      0.0637      3.5592     13.6538     60.3336
   619.1000      7.8823      2.5917      0.0680      3.5323     13.5445     63.2398
   619.2000      7.8823      2.6006      0.0195      2.9952     13.9269     66.9688
   619.3000      7.8814      2.6259      0.0581      1.4609     14.5370     67.4607
   619.4000      7.8814      2.6559      0.0602     -0.3580     14.7727     65.6064
   619.5000      7.8833      2.6714      0.0870     -1.2962     14.7467     64.4580
   619.6000      7.8833      2.6713      0.0740     -1.2936     14.8199     63.3139
   619.7000      7.8833      2.6669      0.0843     -1.0219     14.8414     60.9286
   619.8000      7.8862      2.6577      0.0866     -0.4697     14.3212     58.5029
   619.9000      7.8862      2.6419      0.0761      0.4921     13.3976     57.5031
   620.0000      7.8872      2.6280      0.0747      1.3353     12.7101     58.3537
   620.1000      7.8872      2.6216      0.0570      1.7208     12.5817     60.3086
   620.2000      7.8872      2.6216      0.0539      1.7213     13.0209     62.9874
   620.3000      7.8873      2.6261      0.0741      1.4484     13.6943     63.5940
   620.4000      7.8873      2.6356      0.0600      0.8738     14.2108     58.3314
   620.5000      7.8858      2.6516      0.0607     -0.0951     14.6772     49.2539
   620.6000      7.8858      2.6646      0.1013     -0.8864     14.9578     41.5046
   620.7000      7.8858      2.6593      0.1145     -0.5630     14.5641     38.5597
   620.8000      7.8830      2.6371      0.0759      0.7841     13.9283     40.7557
   620.9000      7.8830      2.6132      0.0771      2.2279     13.7906     45.3486
   621.0000      7.8833      2.5912      0.0970      3.5659     14.2279     48.3665
   621.1000      7.8833      2.5672      0.0558      5.0211     15.0985     47.4536
   621.2000      7.8833      2.5506      0.0385      6.0221     16.0727     45.0906
   621.3000      7.8866      2.5529      0.0358      5.8831     16.5739     46.1880
   621.4000      7.8866      2.5622      0.0831      5.3212     16.5075     52.1232
   621.5000      7.8943      2.5530      0.1034      5.8802     16.3545     58.9799
   621.6000      7.8943      2.5237      0.0465      7.6523     16.5001     64.6092
   621.7000      7.8943      2.4946      0.0396      9.4157     17.0963     68.3165
   621.8000      7.9060      2.4734      0.0623     10.7029     17.7901     68.7720
   621.9000      7.9060      2.4555      0.0333     11.7900     18.0573     66.5661
   622.0000      7.9136      2.4403      0.0461     12.7102     18.0275     62.1566
   622.1000      7.9136      2.4272      0.0393     13.5026     17.7561     56.6823
   622.2000      7.9136      2.4159      0.0192     14.1879     17.1405     51.3879
   622.3000      7.9155      2.4151      0.0285     14.2379     16.9275     44.9741
   622.4000      7.9155      2.4238      0.0623     13.7097     17.6974     38.8638
   622.5000      7.9157      2.4257      0.0431     13.5930     18.5719     37.9252
   622.6000      7.9157      2.4180      0.0309     14.0622     18.7509     41.6829
   622.7000      7.9157      2.4131      0.0490     14.3588     18.6323     44.0838
   622.8000      7.9167      2.4183      0.0678     14.0402     18.5871     43.3781
   622.9000      7.9167      2.4309      0.0537     13.2769     18.4184     43.1291
   623.0000      7.9167      2.4458      0.0591     12.3739     18.0541     45.3333
   623.1000      7.9167      2.4622      0.0667     11.3834     17.7182     47.9843
