~Version Information
VERS.                      2.0: CWLS Log ASCII Standard - VERSION 2.0
WRAP.                       NO: One line per depth step
~Well Information Block
STRT.FT               -14.5000: 
STOP.FT              2676.5000: 
STEP.FT                 0.1000: 
NULL.                -999.2500: 
COMP.          Petrogulf Corporation: COMPANY
WELL.          Latiluppe 8-13V: WELL
FLD.           Purgatorie River: FIELD
LOC.           1069' FWL & 1647' FSL: LOCATION
CNTY.               Las Animas: COUNTY
SRVC.                         : SERVICE COMPANY
DATE.          Tue Nov 18 16:12:50 2003: LOG DATE
UWI.                          : UNIQUE WELL ID
STAT.                 Colorado: STATE
~Curve Information Block
DEPT.FT            0 000 00 00: Depth
CCL.                          : Casing Collar Locator
TT3.usec                      : CBL 3' Travel Time
AMP3.mV                       : CBL 3' Amplitude
GR.GAPI                       : Gamma Ray
~Parameter Information Block
~A  Depth       CCL         TT3         AMP3         GR     
# ...
  2652.1000      0.0000    732.4050      1.9782    105.8663
  2652.2000      0.0000    732.4050      1.9782    105.8663
  2652.3000      0.0000    729.9710      1.8766    100.6673
  2652.4000      0.0000    729.9710      1.8766    100.6673
  2652.5000      0.0000    729.3253      1.7980     96.5576
  2652.6000      0.0000    729.3253      1.7980     96.5576
  2652.7000      0.0000    729.3253      1.7980     96.5576
  2652.8000      0.0000    734.3249      1.7552     94.5349
  2652.9000      0.0000    734.3249      1.7552     94.5349
  2653.0000      0.0000    744.6926      1.7435     94.8763
  2653.1000      0.0000    744.6926      1.7435     94.8763
  2653.2000      0.0000    744.6926      1.7435     94.8763
  2653.3000      0.0000    756.3035      1.7529     96.9689
  2653.4000      0.0000    756.3035      1.7529     96.9689
  2653.5000      0.0000    764.9020      1.7787     99.5097
  2653.6000      0.0000    764.9020      1.7787     99.5097
  2653.7000      0.0000    764.9020      1.7787     99.5097
  2653.8000      0.0000    768.5853      1.8183    101.5236
  2653.9000      0.0000    768.5853      1.8183    101.5236
  2654.0000      0.0000    767.4987      1.8644    103.3523
  2654.1000      0.0000    767.4987      1.8644    103.3523
  2654.2000      0.0000    767.4987      1.8644    103.3523
  2654.3000      0.0000    762.8196      1.9071    106.2950
  2654.4000      0.0000    762.8196      1.9071    106.2950
  2654.5000      0.0000    756.3541      1.9390    111.0365
  2654.6000      0.0000    756.3541      1.9390    111.0365
  2654.7000      0.0000    756.3541      1.9390    111.0365
  2654.8000      0.0000    750.1549      1.9576    116.4094
  2654.9000      0.0000    750.1549      1.9576    116.4094
  2655.0000      0.0000    745.8604      1.9624    119.7464
  2655.1000      0.0000    745.8604      1.9624    119.7464
  2655.2000      0.0000    745.8604      1.9624    119.7464
  2655.3000      0.0000    744.2743      1.9557    118.6362
  2655.4000      0.0000    744.2743      1.9557    118.6362
  2655.5000      0.0000    745.2087      1.9413    112.5954
  2655.6000      0.0000    745.2087      1.9413    112.5954
  2655.7000      0.0000    745.2087      1.9413    112.5954
  2655.8000      0.0000    747.3990      1.9184    103.2927
  2655.9000      0.0000    747.3990      1.9184    103.2927
  2656.0000      0.0000    749.2014      1.8797     93.4664
  2656.1000      0.0000    749.2014      1.8797     93.4664
  2656.2000      0.0000    749.2014      1.8797     93.4664
  2656.3000      0.0000    750.0478      1.8204     85.4924
  2656.4000      0.0000    750.0478      1.8204     85.4924
  2656.5000      0.0000    750.7687      1.7496     80.3236
  2656.6000      0.0000    750.7687      1.7496     80.3236
  2656.7000      0.0000    750.7687      1.7496     80.3236
  2656.8000      0.0000    752.1171      1.6886     77.3394
  2656.9000      0.0000    752.1171      1.6886     77.3394
  2657.0000      0.0000    753.7557      1.6575     75.2340
  2657.1000      0.0000    753.7557      1.6575     75.2340
  2657.2000      0.0000    753.7557      1.6575     75.2340
  2657.3000      0.0000    755.1382      1.6620     73.2003
  2657.4000      0.0000    755.1382      1.6620     73.2003
  2657.5000      0.0000    756.2857      1.6909     71.3015
  2657.6000      0.0000    756.2857      1.6909     71.3015
  2657.7000      0.0000    756.2857      1.6909     71.3015
  2657.8000      0.0000    756.8555      1.7237     69.7749
  2657.9000      0.0000    756.8555      1.7237     69.7749
  2658.0000      0.0000    755.5562      1.7406     68.3440
  2658.1000      0.0000    755.5562      1.7406     68.3440
  2658.2000      0.0000    755.5562      1.7406     68.3440
  2658.3000      0.0000    751.6365      1.7338     66.5641
  2658.4000      0.0000    751.6365      1.7338     66.5641
  2658.5000      0.0000    746.1987      1.7120     64.5542
  2658.6000      0.0000    746.1987      1.7120     64.5542
  2658.7000      0.0000    746.1987      1.7120     64.5542
  2658.8000      0.0000    741.2040      1.6913     62.8983
  2658.9000      0.0000    741.2040      1.6913     62.8983
  2659.0000      0.0000    737.9697      1.6773     61.9784
  2659.1000      0.0000    737.9697      1.6773     61.9784
  2659.2000      0.0000    737.9697      1.6773     61.9784
  2659.3000      0.0000    737.3096      1.6612     61.7413
  2659.4000      0.0000    737.3096      1.6612     61.7413
  2659.5000      0.0000    739.8863      1.6359     61.8497
  2659.6000      0.0000    739.8863      1.6359     61.8497
  2659.7000      0.0000    739.8863      1.6359     61.8497
  2659.8000      0.0000    745.2823      1.6075     61.8156
  2659.9000      0.0000    745.2823      1.6075     61.8156
  2660.0000      0.0000    751.4908      1.5884     61.4130
  2660.1000      0.0000    751.4908      1.5884     61.4130
  2660.2000      0.0000    751.4908      1.5884     61.4130
  2660.3000      0.0000    756.2457      1.5815     61.1824
  2660.4000      0.0000    756.2457      1.5815     61.1824
  2660.5000      0.0000    758.5642      1.5783     62.0810
  2660.6000      0.0000    758.5642      1.5783     62.0810
  2660.7000      0.0000    758.5642      1.5783     62.0810
  2660.8000      0.0000    758.5491      1.5718     64.2934
  2660.9000      0.0000    758.5491      1.5718     64.2934
  2661.0000      0.0000    756.5150      1.5680     66.6450
  2661.1000      0.0000    756.5150      1.5680     66.6450
  2661.2000      0.0000    756.5150      1.5680     66.6450
  2661.3000      0.0000    753.6136      1.5808     67.4894
  2661.4000      0.0000    753.6136      1.5808     67.4894
  2661.5000      0.0000    752.7056      1.6190     66.1292
  2661.6000      0.0000    752.7056      1.6190     66.1292
  2661.7000      0.0000    752.7056      1.6190     66.1292
  2661.8000      0.0000    756.9031      1.6825     63.2194
  2661.9000      0.0000    756.9031      1.6825     63.2194
  2662.0000      0.0000    767.2775      1.7674     59.6647
  2662.1000      0.0000    767.2775      1.7674     59.6647
  2662.2000      0.0000    767.2775      1.7674     59.6647
  2662.3000      0.0000    782.3154      1.8633     55.1471
  2662.4000      0.0000    782.3154      1.8633     55.1471
  2662.5000      0.0000    797.8751      1.9493     48.1268
  2662.6000      0.0000    797.8751      1.9493     48.1268
  2662.7000     -2.0000    797.8751      1.9493     48.1268
  2662.8000      2.0000    807.1667      2.0009     37.7372
  2662.9000      2.0000    807.1667      2.0009     37.7372
  2663.0000     -2.0000    804.0020      2.0090     25.4524
  2663.1000      2.0000    804.0020      2.0090     25.4524
  2663.2000     -2.0000    804.0020      2.0090     25.4524
  2663.3000      0.0000    788.4747      1.9843     14.3165
  2663.4000      0.0000    788.4747      1.9843     14.3165
  2663.5000      0.0000    768.0766      1.9435      6.5816
  2663.6000      0.0000    768.0766      1.9435      6.5816
  2663.7000      0.0000    768.0766      1.9435      6.5816
  2663.8000      0.0000    752.0983      1.8951      2.4406
  2663.9000      0.0000    752.0983      1.8951      2.4406
  2664.0000      0.0000    745.1263      1.8397      0.7234
  2664.1000      0.0000    745.1263      1.8397      0.7234
  2664.2000      0.0000    745.1263      1.8397      0.7234
  2664.3000      0.0000    745.0113      1.7790      0.1702
  2664.4000      0.0000    745.0113      1.7790      0.1702
  2664.5000      0.0000    745.8831      1.7195      0.0313
  2664.6000      0.0000    745.8831      1.7195      0.0313
  2664.7000      0.0000    745.8831      1.7195      0.0313
  2664.8000      0.0000    743.2567      1.6683      0.0040
  2664.9000      0.0000    743.2567      1.6683      0.0040
  2665.0000      0.0000    737.2332      1.6300      0.0000
  2665.1000      0.0000    737.2332      1.6300      0.0000
  2665.2000      0.0000    737.2332      1.6300      0.0000
  2665.3000      0.0000    731.5085      1.6078   -999.2500
  2665.4000      0.0000    731.5085      1.6078   -999.2500
