~Version Information
VERS.                      2.0: CWLS Log ASCII Standard - VERSION 2.0
WRAP.                       NO: One line per depth step
~Well Information Block
STRT.FT               860.0000: 
STOP.FT              1907.0000: 
STEP.FT                 0.1000: 
NULL.                -999.2500: 
COMP.          Pioneer Natural Resources: COMPANY
WELL.          Victory 12-14 Tr: WELL
FLD.           Purgatoire River: FIELD
LOC.           2522' FNL & 276' FWL: LOCATION
PROV.                 Colorado: PROVINCE
CNTY.               Las Animas: COUNTRY
SRVC.                Patterson: SERVICE COMPANY
DATE.          Mon Jul 18 06:52:40 2005: LOG DATE
UWI.           05 071 08433 00: UNIQUE WELL ID
~Curve Information Block
DEPT.FT            0 000 00 00: Depth
DCAL.in                       : CDL Caliper
RHOB.g/cc                     : CDL Bulk Density
RHOC.g/cc                     : CDL Density Correction
DPOR.pu                       : CDL Density Porosity
GR.GAPI                       : Gamma Ray
NPOR.pu                       : Neutron Porosity
~Parameter Information Block
~A  Depth       DCAL        RHOB        RHOC        DPOR         GR         NPOR    
# ...
   994.4000      8.2679      2.0138      0.0369     38.5582    137.6851     16.0462
   994.5000      8.3647      1.9446      0.0963     42.7520    136.1756     15.0361
   994.6000      8.3647      1.8390      0.0254     49.1521    140.9703     13.8805
   994.7000      8.3647      1.7313      0.0179     55.6810    141.7986     12.7493
   994.8000      8.4195      1.6526      0.0882     60.4496    134.3304     11.9375
   994.9000      8.4195      1.5957      0.1323     63.8951    128.5807     11.4972
   995.0000      8.4166      1.5452      0.1157     66.9552    132.7723     11.3524
   995.1000      8.4166      1.4958      0.0571     69.9505    137.0850     11.2107
   995.2000      8.4166      1.4509      0.0275     72.6699    129.5018     10.9191
   995.3000      8.3877      1.4198      0.0461     74.5598    114.9572     10.8088
   995.4000      8.3877      1.4026      0.1374     75.5996    103.4642     11.1202
   995.5000      8.6286      1.3933      0.1414     76.1639     96.7941     11.8846
   995.6000      8.6286      1.4084      0.1182     75.2463     93.3795     13.1048
   995.7000      8.6286      1.4802      0.1448     70.8950     90.5987     14.7603
   995.8000      9.0265      1.6125      0.1860     62.8766     83.6009     17.0084
   995.9000      9.0265      1.7636      0.2346     53.7185     76.1127     19.7338
   996.0000      8.9125      1.8924      0.2025     45.9139     77.1210     22.1311
   996.1000      8.9125      2.0032      0.1872     39.2022     82.7870     23.8286
   996.2000      8.9125      2.1124      0.2612     32.5838     83.1522     25.1340
   996.3000      8.6543      2.2217      0.2718     25.9598     77.2264     26.0367
   996.4000      8.6543      2.3347      0.2794     19.1071     71.0596     26.5078
   996.5000      8.3597      2.4400      0.2540     12.7243     70.8546     26.7588
   996.6000      8.3597      2.5034      0.1724      8.8837     76.9940     26.8664
   996.7000      8.3597      2.5148      0.0643      8.1958     84.4317     26.8218
   996.8000      8.3127      2.5002      0.0106      9.0808     89.6004     26.7082
   996.9000      8.3127      2.4745      0.0347     10.6378     93.9304     26.9136
   997.0000      8.1860      2.4287      0.0427     13.4137    102.3009     27.3021
   997.1000      8.1860      2.3726     -0.0377     16.8133    114.0976     27.1866
   997.2000      8.1860      2.3358     -0.0039     19.0452    123.6781     26.7053
   997.3000      8.1679      2.3265     -0.0028     19.6078    130.9189     26.4733
   997.4000      8.1679      2.3395      0.0008     18.8181    136.2469     26.3984
   997.5000      8.1563      2.3713      0.0390     16.8935    138.3584     26.4562
   997.6000      8.1563      2.4188      0.0191     14.0094    139.9417     27.0572
   997.7000      8.1563      2.4808      0.1449     10.2550    140.7584     28.0722
   997.8000      8.1617      2.5505      0.2310      6.0333    139.1833     28.9079
   997.9000      8.1617      2.6301      0.2872      1.2086    139.6567     29.2505
   998.0000      8.1596      2.7230      0.3921     -4.4250    146.6549     29.2275
   998.1000      8.1596      2.7995      0.4299     -9.0629    158.4590     29.1721
   998.2000      8.1596      2.8217      0.3880    -10.4080    167.7162     29.0580
   998.3000      8.1298      2.7919      0.2965     -8.5983    168.5364     28.8120
   998.4000      8.1298      2.7368      0.1783     -5.2620    163.0375     28.7031
   998.5000      8.0922      2.6806      0.0981     -1.8527    159.4464     28.6874
   998.6000      8.0922      2.6351      0.0546      0.9021    159.5833     28.4511
   998.7000      8.0922      2.5883      0.0400      3.7415    157.6710     27.9059
   998.8000      8.0572      2.5298     -0.0164      7.2818    152.2049     27.0579
   998.9000      8.0572      2.4895     -0.0332      9.7277    147.6382     26.0636
   999.0000      8.0451      2.4899      0.1036      9.7019    147.5871     24.9719
   999.1000      8.0451      2.5050      0.1508      8.7895    149.5249     23.5315
   999.2000      8.0451      2.4976      0.1610      9.2352    149.1986     21.8913
   999.3000      8.0462      2.4439      0.1538     12.4935    147.1288     20.5115
   999.4000      8.0462      2.3471      0.0681     18.3563    147.2590     19.5174
   999.5000      8.1118      2.2399      0.0493     24.8541    152.4098     18.8129
   999.6000      8.1118      2.1398      0.0558     30.9213    160.0585     18.4380
   999.7000      8.1118      2.0460      0.0033     36.6039    162.4003     18.4184
   999.8000      8.1227      1.9756     -0.0494     40.8746    155.9217     18.6861
   999.9000      8.1227      1.9406      0.0136     42.9961    148.4955     19.2214
  1000.0000      8.1623      1.9286      0.0810     43.7210    149.1421     20.1184
  1000.1000      8.1623      1.9366      0.0753     43.2334    154.4999     21.3622
  1000.2000      8.1623      1.9758      0.1245     40.8620    157.6402     22.4709
  1000.3000      8.1647      2.0407      0.1929     36.9299    159.1737     23.0702
  1000.4000      8.1647      2.1069      0.2779     32.9161    161.3649     23.7268
  1000.5000      8.1799      2.1617      0.2352     29.5924    162.0368     24.8456
  1000.6000      8.1799      2.2163      0.2002     26.2835    160.1211     25.9362
  1000.7000      8.1799      2.2766      0.1634     22.6321    156.5017     26.6197
  1000.8000      8.1597      2.3312      0.1644     19.3190    151.8933     27.0885
  1000.9000      8.1597      2.3720      0.1553     16.8485    147.3861     27.6325
  1001.0000      8.1649      2.4038      0.0927     14.9192    143.8060     28.2894
  1001.1000      8.1649      2.4299      0.1609     13.3424    142.5178     28.7493
  1001.2000      8.1649      2.4481      0.1069     12.2391    146.0012     28.9325
  1001.3000      8.1464      2.4602      0.1435     11.5054    154.4480     29.1856
  1001.4000      8.1464      2.4655      0.1199     11.1824    164.6388     29.3656
  1001.5000      8.1453      2.4663      0.1288     11.1360    171.8166     29.0660
  1001.6000      8.1453      2.4640      0.1272     11.2738    174.2527     28.4244
  1001.7000      8.1453      2.4549      0.1130     11.8249    173.6751     27.7136
  1001.8000      8.1475      2.4369      0.0936     12.9161    170.8770     27.0514
  1001.9000      8.1475      2.4156      0.0800     14.2060    166.4586     26.7383
  1002.0000      8.1261      2.4082      0.0332     14.6529    161.9563     26.7731
  1002.1000      8.1261      2.4316      0.0137     13.2357    158.8672     26.5826
  1002.2000      8.1261      2.4831      0.0904     10.1173    158.0990     26.1510
  1002.3000      8.1211      2.5345      0.1997      6.9978    159.9207     26.1479
  1002.4000      8.1211      2.5574      0.2040      5.6123    164.1310     26.6291
  1002.5000      8.0824      2.5513      0.1753      5.9790    168.1955     26.9578
  1002.6000      8.0824      2.5382      0.1664      6.7762    172.1754     27.1748
  1002.7000      8.0824      2.5423      0.1413      6.5249    177.9434     27.7244
  1002.8000      8.0737      2.5781      0.1726      4.3584    182.2536     28.4438
  1002.9000      8.0737      2.6330      0.1870      1.0322    181.5977     28.8290
  1003.0000      8.0571      2.6784      0.2060     -1.7240    179.9540     28.7167
  1003.1000      8.0571      2.7096      0.1314     -3.6108    182.2300     28.5603
  1003.2000      8.0571      2.7375      0.1915     -5.3046    188.4651     28.6764
  1003.3000      8.0725      2.7477      0.2155     -5.9225    193.8848     28.4787
  1003.4000      8.0725      2.7287      0.1595     -4.7672    191.4791     27.5591
  1003.5000      8.0819      2.6943      0.1430     -2.6868    178.1471     26.4214
  1003.6000      8.0819      2.6523      0.0702     -0.1422    158.5285     25.6633
  1003.7000      8.0819      2.6100      0.0249      2.4222    141.2670     25.4528
  1003.8000      8.0713      2.5879      0.0360      3.7653    131.1368     25.2815
  1003.9000      8.0713      2.5973      0.0364      3.1930    124.8355     24.6966
