~Version Information
VERS.                      2.0: CWLS Log ASCII Standard - VERSION 2.0
WRAP.                       NO: One line per depth step
~Well Information Block
STRT.FT                -6.7500: 
STOP.FT              1766.5000: 
STEP.FT                 0.2500: 
NULL.                -999.2500: 
COMP.          Pioneer Natural Resources: COMPANY
WELL.            Hill 33-22 Tr: WELL
FLD.           Purgatorie River: FIELD
LOC.           1573' FSL & 1585' FEL: LOCATION
PROV.                 Colorado: PROVINCE
CNTY.               Las Animas: COUNTRY
SRVC.          Patterson Wireline: SERVICE COMPANY
DATE.          Tue Apr 19 09:26:19 2005: LOG DATE
UWI.           05-071-08316-00: UNIQUE WELL ID
~Curve Information Block
DEPT.FT            0 000 00 00: Depth
CCL.                          : Casing Collar Locator
TT3.usec                      : CBL 3' Travel Time
AMP3.mV                       : CBL 3' Amplitude
GR.GAPI                       : Gamma Ray
~Parameter Information Block
~A  Depth       CCL         TT3         AMP3         GR     
# ...
    93.7500      0.0000    768.8471      8.6597     67.3832
    94.0000      0.0000    767.1114      8.4521     67.9841
    94.2500      0.0000    766.1799      8.0941     67.5709
    94.5000      0.0000    765.7927      7.5541     66.0292
    94.7500      0.0000    768.2765      6.9349     64.2312
    95.0000      0.0000    779.5129      6.4415     63.3541
    95.2500      0.0000    808.3047      6.1927     63.7619
    95.5000      0.0000    861.5377      6.0919     64.7565
    95.7500      0.0000    935.8327      5.9550     65.4290
    96.0000      0.0000   1012.8795      5.7263     65.6480
    96.2500      0.0000   1068.2905      5.4995     66.2021
    96.5000      0.0000   1091.5021      5.3753     67.8675
    96.7500      0.0000   1095.1251      5.3773     70.3238
    97.0000     -5.0000   1098.3782      5.4928     72.1695
    97.2500      0.0000   1102.5299      5.7559     72.0792
    97.5000      0.0000   1089.2305      6.2804     69.7734
    97.7500      0.0000   1043.2498      7.1666     65.9796
    98.0000      0.0000    970.8383      8.3174     61.9194
    98.2500      0.0000    894.2369      9.3902     59.0092
    98.5000      0.0000    833.4596     10.0345     58.5630
    98.7500      0.0000    795.6730     10.1746     61.1253
    99.0000      0.0000    777.1010     10.0015     65.9295
    99.2500      0.0000    770.0158      9.7373     71.2435
    99.5000      0.0000    767.9791      9.4842     75.4380
    99.7500      0.0000    767.4437      9.2564     77.9562
   100.0000      0.0000    767.0014      9.0567     79.5360
   100.2500      0.0000    766.0832      8.9009     81.3861
   100.5000      0.0000    764.3653      8.8022     83.8827
   100.7500      0.0000    761.9355      8.7592     86.1598
   101.0000      0.0000    759.6238      8.7587     87.0162
   101.2500      0.0000    758.6796      8.7858     85.8909
   101.5000      0.0000    759.7090      8.8290     82.9276
   101.7500      0.0000    762.0646      8.8764     78.6392
   102.0000      0.0000    764.4841      8.9142     73.7864
   102.2500      0.0000    766.1505      8.9390     69.2012
   102.5000      0.0000    767.0078      8.9741     65.3229
   102.7500      0.0000    767.3630      9.0672     61.8629
   103.0000      0.0000    767.4437      9.2573     58.1017
   103.2500      0.0000    767.1897      9.5431     53.5920
   103.5000      0.0000    766.1481      9.8834     48.6764
   103.7500      0.0000    763.5063     10.2212     44.3158
   104.0000      0.0000    758.6008     10.5062     41.2606
   104.2500      0.0000    751.9070     10.7073     39.3662
   104.5000      0.0000    745.5308     10.8253     37.7833
   104.7500      0.0000    742.0003     10.8983     35.7632
   105.0000      0.0000    741.9888     10.9858     33.3598
   105.2500      0.0000    743.5372     11.1364     31.5368
   105.5000      0.0000    744.0048     11.3638     31.4698
   105.7500      0.0000    742.4856     11.6415     33.4870
   106.0000      0.0000    739.8776     11.9155     36.7228
   106.2500      0.0000    737.3054     12.1304     39.8200
   106.5000      0.0000    735.4329     12.2606     41.7498
   106.7500      0.0000    734.7754     12.3218     42.0958
   107.0000      0.0000    735.5761     12.3533     41.1314
   107.2500      0.0000    737.5306     12.3917     39.7910
   107.5000      0.0000    740.1394     12.4625     39.2283
   107.7500      0.0000    742.8627     12.5848     40.1031
   108.0000      0.0000    744.7278     12.7640     42.2720
   108.2500      0.0000    744.6994     12.9708     45.1868
   108.5000      0.0000    742.7540     13.1411     48.4979
   108.7500      0.0000    739.7848     13.2150     52.0111
   109.0000      0.0000    736.4459     13.1780     54.9736
   109.2500      0.0000    732.9734     13.0604     55.9439
   109.5000      0.0000    730.0224     12.9007     54.0038
   109.7500      0.0000    728.6830     12.7180     49.9673
   110.0000      0.0000    729.3527     12.5195     45.9511
   110.2500      0.0000    730.9779     12.3244     43.7618
   110.5000      0.0000    731.7332     12.1683     43.7712
   110.7500      0.0000    730.5692     12.0747     45.0464
   111.0000      0.0000    727.9984     12.0236     46.2778
   111.2500      0.0000    725.3301     11.9552     46.6545
   111.5000      0.0000    723.4397     11.8096     46.1369
   111.7500      0.0000    722.4059     11.5667     45.1446
   112.0000      0.0000    721.9755     11.2564     44.1575
   112.2500      0.0000    722.0426     10.9353     43.5916
   112.5000      0.0000    722.8035     10.6561     43.8517
   112.7500      0.0000    724.5704     10.4520     45.3014
   113.0000      0.0000    727.2589     10.3348     48.0846
   113.2500      0.0000    729.9183     10.2976     51.9633
   113.5000      0.0000    731.1053     10.3153     56.4235
   113.7500      0.0000    730.0950     10.3485     60.9802
   114.0000      0.0000    727.5878     10.3492     65.3297
   114.2500      0.0000    724.9843     10.2701     69.3041
   114.5000      0.0000    723.1824     10.0823     72.7861
   114.7500      0.0000    722.2280      9.7982     75.4843
   115.0000      0.0000    721.7746      9.4781     76.6759
   115.2500      0.0000    721.5388      9.2025     75.4909
   115.5000      0.0000    721.4055      9.0319     71.7295
   115.7500      0.0000    721.3448      8.9895     66.3950
   116.0000      0.0000    721.3398      9.0750     61.3286
   116.2500      0.0000    721.3673      9.2774     58.2020
   116.5000      0.0000    721.4102      9.5689     57.7198
   116.7500      0.0000    721.4564      9.8914     59.6397
   117.0000      0.0000    721.4915     10.1650     63.2725
   117.2500      0.0000    721.5004     10.3197     67.7789
   117.5000      0.0000    721.4797     10.3293     72.3285
   117.7500      0.0000    721.4456     10.2223     76.4184
   118.0000      0.0000    721.4243     10.0636     79.9687
   118.2500      0.0000    721.4354      9.9195     82.9947
   118.5000      0.0000    721.4819      9.8298     85.4691
   118.7500      0.0000    721.5512      9.8018     87.6313
   119.0000      0.0000    721.6204      9.8160     89.8679
   119.2500      0.0000    721.6647      9.8328     91.8248
   119.5000      0.0000    721.6682      9.8083     92.0336
   119.7500      0.0000    721.6292      9.7241     89.1403
   120.0000      0.0000    721.5535      9.6012     83.5779
   120.2500      0.0000    721.4431      9.4818     77.7048
   120.5000      0.0000    721.2919      9.3955     74.1995
   120.7500      0.0000    721.0958      9.3449     74.3168
   121.0000      0.0000    720.8724      9.3143     77.2698
   121.2500      0.0000    720.6688      9.2874     80.8313
   121.5000      0.0000    720.5407      9.2566     82.6504
   121.7500      0.0000    720.5174      9.2196     81.5849
   122.0000      0.0000    720.5889      9.1712     78.2132
   122.2500      0.0000    720.7224      9.1066     74.1683
   122.5000      0.0000    720.8829      9.0320     70.8505
   122.7500      0.0000    721.0408      8.9636     68.6340
   123.0000      0.0000    721.1732      8.9085     67.1858
   123.2500      0.0000    721.2698      8.8520     66.3546
   123.5000      0.0000    721.3318      8.7694     66.4736
   123.7500      0.0000    721.3569      8.6518     67.6484
   124.0000      0.0000    721.3295      8.5167     68.9578
   124.2500      0.0000    721.2344      8.3937     68.9473
   124.5000      0.0000    721.0854      8.3076     67.1695
   124.7500      0.0000    720.9382      8.2709     64.7810
   125.0000      0.0000    720.8636      8.2818     63.2064
   125.2500      0.0000    720.9005      8.3222     62.5874
   125.5000      0.0000    721.0283      8.3592     61.9317
   125.7500      0.0000    721.1868      8.3587     60.3991
   126.0000      0.0000    721.3179      8.3058     57.9798
   126.2500      0.0000    721.3931      8.2159     55.2451
   126.5000      0.0000    721.4170      8.1229     52.9321
   126.7500      0.0000    721.4196      8.0523     51.5821
   127.0000      0.0000    721.4433      8.0103     51.1589
