~Version Information
 VERS.                                  2.0 : CWLS LAS VERSION
 WRAP.                                   NO : WRAPING MODE
 SWARE .                 MController 2.5.0N : SOFTWARE VERSION
~Well Information
 WELL.                    Corkscrew 33-12Tr : WELL
 COMP.    Pioneer Natural Resources USA Inc : COMPANY
 FLD.                      Purgatoire River : FIELD
 LOC.                   NW/SE Sec T33S R67W : LOCATION
 DATE.                      3/23-25,28/2005 : DATE(S) LOGGED
 SRVC.       Blanco Geological Services LLC : SERVICE COMPANY
 STAT.                                   CO : STATE
 CNTY.                           Las Animas : COUNTY
 CTRY.                                  USA : COUNTRY
 API.                       05-071-08295-00 : API NUMBER
 STRT.FT                             609.00 : START DEPTH
 STOP.FT                            1871.00 : STOP DEPTH
 STEP.FT                               1.00 : DEPTH INCREMENT
 NULL.                                -9999 : NULL VALUE
~Curve information
 DEPTH.FT                                   :
 ROP.MIN/FT                                 :
 GAS.UNITS                                  :
~ASCII Log data
# ...
      1409.0         0.83          8.0 
      1410.0         0.75          7.0 
      1411.0         1.08          7.2 
      1412.0         0.67          7.2 
      1413.0         0.92          7.0 
      1414.0         0.50          7.7 
      1415.0         1.08          7.7 
      1416.0         0.75          8.0 
      1417.0         0.92          7.8 
      1418.0         0.58          7.4 
      1419.0         0.83          9.0 
      1420.0         0.42          8.5 
      1421.0         1.00          8.7 
      1422.0         0.42          7.2 
      1423.0         0.83          7.9 
      1424.0         0.83         12.3 
      1425.0         0.83          7.5 
      1426.0         1.08          8.9 
      1427.0         0.50          7.8 
      1428.0         0.58          7.9 
      1429.0         0.58          7.8 
      1430.0         0.67          7.2 
      1431.0         0.50          6.5 
      1432.0         0.58          7.8 
      1433.0         1.25          8.8 
      1434.0         0.83          7.6 
      1435.0         1.17          7.8 
      1436.0         0.58          7.4 
      1437.0         1.25          7.7 
      1438.0         1.00          7.8 
      1439.0         1.17          7.5 
      1440.0         1.67          7.8 
      1441.0         1.17         20.0 
      1442.0         0.83          8.7 
      1443.0         0.17          8.3 
      1444.0         0.33          7.7 
      1445.0         1.25          7.2 
      1446.0         0.67          7.4 
      1447.0         0.83          8.3 
      1448.0         1.08          7.9 
      1449.0         0.83          8.7 
      1450.0         0.92          9.7 
      1451.0         1.08          8.0 
      1452.0         0.42          7.5 
      1453.0         1.00          7.8 
      1454.0         1.00          7.8 
      1455.0         0.92          8.0 
      1456.0         0.67          8.5 
      1457.0         1.00          8.9 
      1458.0         0.75          9.2 
      1459.0         0.08          8.1 
      1460.0         0.58          8.7 
      1461.0         0.08          8.4 
      1462.0         0.25          8.7 
      1463.0         0.67          8.8 
      1464.0     -9999.00          8.8 
      1465.0         0.33          8.8 
      1466.0         0.50          9.0 
      1467.0         0.08          8.1 
      1468.0         0.50          8.4 
      1469.0         0.25          9.1 
      1470.0         0.17          9.6 
      1471.0         0.67          9.6 
      1472.0         0.17          7.7 
      1473.0         0.42          8.2 
      1474.0         0.67          8.0 
      1475.0         0.17          7.7 
      1476.0         0.33          8.1 
      1477.0         0.58          8.7 
      1478.0         0.17          8.6 
      1479.0         0.42          8.3 
      1480.0         0.58          8.0 
      1481.0         0.67         13.2 
      1482.0         0.17         12.4 
      1483.0         0.17         11.2 
      1484.0         0.33         10.3 
      1485.0         0.83          8.7 
      1486.0         0.25          8.9 
      1487.0         0.67          9.9 
      1488.0         0.75          9.2 
      1489.0         0.25          8.3 
      1490.0         0.17          8.2 
      1491.0         0.83         10.3 
      1492.0         0.17          8.5 
      1493.0         0.75          8.9 
      1494.0     -9999.00          7.5 
      1495.0         0.67          8.9 
      1496.0         0.17          8.8 
      1497.0         0.25          9.4 
      1498.0         0.75          9.5 
      1499.0         0.25          8.0 
      1500.0         0.75          7.4 
      1501.0         0.25          7.4 
      1502.0         0.25          7.2 
      1503.0         0.67          8.9 
      1504.0         0.25          9.0 
      1505.0         0.83         10.7 
      1506.0         0.33          8.6 
      1507.0         0.67          8.9 
      1508.0         0.17         10.3 
      1509.0         0.67         11.3 
      1510.0         0.58          9.9 
      1511.0         0.08          7.9 
      1512.0         0.58          8.1 
      1513.0         0.50          8.3 
      1514.0         0.17         10.1 
      1515.0         0.58         14.0 
      1516.0         0.17         11.0 
      1517.0         0.33          9.6 
      1518.0         0.50          8.9 
      1519.0         0.67          8.1 
      1520.0         0.17          7.5 
      1521.0         0.50          7.7 
      1522.0         0.58          8.2 
      1523.0         0.25          8.4 
      1524.0         0.17          8.3 
      1525.0         0.67          8.4 
      1526.0         0.25          8.4 
      1527.0         0.42          8.7 
      1528.0         0.33          9.0 
      1529.0         0.50          9.1 
      1530.0         0.25          8.6 
      1531.0         0.33          8.6 
      1532.0         0.58          8.8 
      1533.0         0.83          9.0 
      1534.0         0.33          8.9 
      1535.0         0.42          8.7 
      1536.0         0.83          8.8 
      1537.0         0.25          8.6 
      1538.0         0.58          9.1 
      1539.0         0.83          9.6 
      1540.0         0.17          8.9 
      1541.0         0.67          8.9 
      1542.0         0.25          9.3 
      1543.0         0.33          9.8 
      1544.0         0.75          9.6 
      1545.0         0.42          9.0 
      1546.0         0.67         10.6 
      1547.0         0.17         10.3 
      1548.0         0.67         10.6 
      1549.0         0.42          7.9 
      1550.0         0.75         12.0 
      1551.0         0.17         11.3 
      1552.0         0.33         10.0 
      1553.0         0.75          9.7 
      1554.0         0.33          9.1 
      1555.0         0.67          9.5 
      1556.0         0.25          8.2 
      1557.0         0.50          9.1 
      1558.0         0.67          8.7 
      1559.0         0.08          7.8 
      1560.0         0.17          7.2 
      1561.0         0.58         10.5 
      1562.0         0.42         10.8 
      1563.0         0.17         10.8 
      1564.0         0.67          9.9 
      1565.0         0.33          8.3 
      1566.0         0.58          8.8 
      1567.0         0.75          9.0 
      1568.0         0.17          8.4 
      1569.0         0.58         37.2 
      1570.0         0.25         60.5 
      1571.0         0.17         85.2 
      1572.0         0.83         89.7 
      1573.0         1.25         60.7 
      1574.0         0.83         60.0 
      1575.0         0.75         37.7 
      1576.0         0.25         30.1 
      1577.0         0.50         33.0 
      1578.0         0.83         32.4 
      1579.0         0.67         33.1 
      1580.0         0.75         32.1 
      1581.0         0.33         32.0 
      1582.0         0.75         29.6 
      1583.0         0.75         27.6 
      1584.0         0.25         26.4 
      1585.0         0.58         26.3 
      1586.0         0.75         27.7 
      1587.0         0.33         17.2 
      1588.0         0.58         43.5 
      1589.0         0.75         43.7 
      1590.0         0.25         21.3 
      1591.0         0.58         18.3 
      1592.0         0.75         17.8 
      1593.0         0.42         16.2 
      1594.0         0.58         15.0 
      1595.0         0.83         19.5 
      1596.0         0.33         18.0 
      1597.0         0.58         16.7 
      1598.0         0.83         13.1 
      1599.0         0.33         14.3 
      1600.0         0.58         16.1 
      1601.0         0.83         15.6 
      1602.0         0.25         11.5 
      1603.0         0.67         25.2 
      1604.0         0.25         24.9 
      1605.0         0.67         19.2 
      1606.0         0.50         12.3 
      1607.0         0.58         14.3 
      1608.0         0.33         13.5 
