~Version Information
VERS.                      2.0: CWLS Log ASCII Standard - VERSION 2.0
WRAP.                       NO: One line per depth step
~Well Information Block
STRT.FT                -8.2500: 
STOP.FT               871.5000: 
STEP.FT                 0.2500: 
NULL.                -999.2500: 
COMP.          Pioneer Natural Resources: COMPANY
WELL.             Tomcat 32-10: WELL
FLD.           Purgatorie River: FIELD
LOC.           2286' FNL & 2463' FEL------: LOCATION
PROV.                       CO: PROVINCE
CNTY.               Las Animas: COUNTRY
SRVC.          Patterson Wireline: SERVICE COMPANY
DATE.          Mon Mar 28 09:03:25 2005: LOG DATE
UWI.           05 071 08301 00: UNIQUE WELL ID
~Curve Information Block
DEPT.FT            0 000 00 00: Depth
CCL.                          : Casing Collar Locator
TT3.usec                      : CBL 3' Travel Time
AMP3.mV                       : CBL 3' Amplitude
GR.GAPI                       : Gamma Ray
~Parameter Information Block
~A  Depth       CCL         TT3         AMP3         GR     
# ...
   226.2500      0.0000    796.0288      7.2994    102.0462
   226.5000      0.0000    779.5580      7.3937     96.1056
   226.7500      0.0000    760.7808      7.4899     91.4898
   227.0000      0.0000    746.9691      7.5881     90.0491
   227.2500      0.0000    742.8226      7.6916     91.1456
   227.5000      0.0000    747.9990      7.7989     92.7408
   227.7500      0.0000    758.4517      7.8977     93.3639
   228.0000      0.0000    769.5380      7.9711     93.1625
   228.2500      0.0000    778.2297      8.0111     93.2350
   228.5000      0.0000    783.6136      8.0236     94.2801
   228.7500      0.0000    786.2393      8.0188     96.2370
   229.0000      0.0000    787.1371      8.0028     98.9833
   229.2500      0.0000    787.1464      7.9766    102.5907
   229.5000      0.0000    786.7678      7.9389    106.6731
   229.7500      0.0000    786.2802      7.8888    110.1857
   230.0000      0.0000    785.8467      7.8285    112.2893
   230.2500      0.0000    785.5363      7.7625    112.9697
   230.5000      0.0000    785.3420      7.6968    112.5405
   230.7500      0.0000    785.2244      7.6383    111.0358
   231.0000      0.0000    785.1459      7.5912    108.4450
   231.2500      0.0000    785.0707      7.5507    105.1347
   231.5000      0.0000    784.9580      7.5030    101.6187
   231.7500      0.0000    784.7828      7.4363     98.0784
   232.0000      0.0000    784.5645      7.3521     94.5262
   232.2500      0.0000    784.3565      7.2627     91.4813
   232.5000      0.0000    784.2025      7.1803     89.9269
   232.7500      0.0000    784.1084      7.1123     90.1869
   233.0000      0.0000    784.0586      7.0625     91.2738
   233.2500      0.0000    784.0391      7.0300     91.8315
   233.5000      0.0000    784.0396      7.0106     91.3709
   233.7500      0.0000    784.0516      6.9996     90.1870
   234.0000      0.0000    784.0779      6.9946     88.5474
   234.2500      0.0000    784.1387      6.9963     86.5798
   234.5000      0.0000    784.2542      7.0064     84.7687
   234.7500      0.0000    784.4256      7.0247     83.8948
   235.0000      0.0000    784.6346      7.0472     84.1909
   235.2500      0.0000    784.8618      7.0721     84.7662
   235.5000      0.0000    785.1033      7.1053     84.2333
   235.7500      0.0000    785.3764      7.1555     81.9638
   236.0000      0.0000    785.7056      7.2211     78.5750
   236.2500      0.0000    786.0839      7.2822     75.3483
   236.5000      0.0000    786.4119      7.3102     73.4277
   236.7500      0.0000    786.4611      7.2904     73.3325
   237.0000      0.0000    785.9016      7.2329     74.8704
   237.2500      0.0000    784.4637      7.1605     77.4460
   237.5000      0.0000    782.2847      7.0869     80.3231
   237.7500      0.0000    780.2229      7.0130     82.5696
   238.0000      0.0000    779.5871      6.9429     83.2348
   238.2500      0.0000    781.2322      6.8900     81.8881
   238.5000      0.0000    784.8724      6.8618     78.6624
   238.7500      0.0000    789.2299      6.8457     73.8242
   239.0000      0.0000    792.6415      6.8182     68.0389
   239.2500      0.0000    793.7352      6.7645     63.0381
   239.5000      0.0000    792.1154      6.6901     61.0608
   239.7500      0.0000    788.4625      6.6171     63.0769
   240.0000      0.0000    783.6909      6.5702     67.8153
   240.2500      0.0000    778.2120      6.5647     72.7369
   240.5000      0.0000    772.3952      6.6027     75.7488
   240.7500      0.0000    767.4764      6.6742     76.0189
   241.0000      0.0000    765.2932      6.7575     73.8375
   241.2500      0.0000    766.7836      6.8251     70.3892
   241.5000      0.0000    770.9568      6.8545     67.4671
   241.7500      0.0000    775.5933      6.8340     66.5348
   242.0000      0.0000    779.1156      6.7597     67.5948
   242.2500      0.0000    782.1964      6.6396     69.2364
   242.5000      0.0000    788.5378      6.5008     70.0486
   242.7500      0.0000    803.8676      6.3745     69.8477
   243.0000      0.0000    831.6894      6.2587     69.4048
   243.2500      0.0000    868.1636      6.1123     69.1922
   243.5000      0.0000    903.5583      5.9122     68.7009
   243.7500      0.0000    931.5919      5.6973     66.9886
   244.0000      0.0000    954.3430      5.5295     63.8137
   244.2500      0.0000    973.9215      5.4319     60.2557
   244.5000      2.0000    983.0771      5.3873     58.1615
   244.7500     -2.0000    970.9215      5.3796     58.7877
   245.0000      0.0000    936.9611      5.4218     61.7781
   245.2500      0.0000    893.6684      5.5455     65.3905
   245.5000      0.0000    855.1453      5.7547     67.7205
   245.7500      0.0000    827.4466      5.9797     67.8170
   246.0000      0.0000    809.2484      6.1047     65.9350
   246.2500      0.0000    797.0241      6.0732     63.0947
   246.5000      0.0000    788.0685      5.9414     60.5532
   246.7500      0.0000    780.9745      5.8088     59.3967
   247.0000      0.0000    775.5756      5.7204     59.9897
   247.2500      0.0000    772.7301      5.6554     61.5647
   247.5000      0.0000    773.3256      5.5779     62.7662
   247.7500      0.0000    776.8940      5.4714     62.9528
   248.0000      0.0000    781.4208      5.3394     62.7798
   248.2500      0.0000    784.6920      5.1927     63.3388
   248.5000      0.0000    785.6039      5.0435     64.9475
   248.7500      0.0000    784.4818      4.9049     66.9446
   249.0000      0.0000    782.7304      4.7901     68.4154
   249.2500      0.0000    782.0815      4.7101     68.8076
   249.5000      0.0000    783.5111      4.6718     68.0496
   249.7500      0.0000    786.7626      4.6792     66.6053
   250.0000      0.0000    790.9697      4.7338     65.4861
   250.2500      0.0000    795.3102      4.8337     65.7253
   250.5000      0.0000    798.8301      4.9732     67.5994
   250.7500      0.0000    800.3599      5.1411     70.4865
   251.0000      0.0000    799.3435      5.3237     73.3553
   251.2500      0.0000    796.4927      5.5098     75.1595
   251.5000      0.0000    793.0722      5.6948     75.0243
   251.7500      0.0000    789.5906      5.8817     72.6752
   252.0000      0.0000    785.4093      6.0786     68.8824
   252.2500      0.0000    779.5340      6.2941     65.1012
   252.5000      0.0000    771.7769      6.5347     62.3838
   252.7500      0.0000    763.2630      6.8051     60.8488
   253.0000      0.0000    755.7676      7.1032     60.3539
   253.2500      0.0000    750.5162      7.4088     61.3279
   253.5000      0.0000    747.6330      7.6832     64.6802
   253.7500      0.0000    746.5536      7.8914     70.9513
   254.0000      0.0000    746.7068      8.0248     79.5485
   254.2500      0.0000    747.9380      8.1036     88.6302
   254.5000      0.0000    750.5696      8.1607     95.8576
   254.7500      0.0000    754.9195      8.2234     99.7429
   255.0000      0.0000    760.4635      8.3062    100.5500
   255.2500      0.0000    765.6434      8.4127     99.8120
   255.5000      0.0000    769.0107      8.5366     98.9473
   255.7500      0.0000    770.5648      8.6540     98.5046
   256.0000      0.0000    771.5653      8.7212     98.6205
   256.2500      0.0000    772.9215      8.6974     99.6100
   256.5000      0.0000    773.9565      8.5757    101.6853
   256.7500      0.0000    772.8986      8.3907    104.2763
   257.0000      0.0000    768.7054      8.1970    106.0606
   257.2500      0.0000    762.4077      8.0384    105.9482
   257.5000      0.0000    756.5503      7.9291    104.0980
   257.7500      0.0000    753.4593      7.8565    101.8792
   258.0000      0.0000    754.1633      7.8004    100.6910
   258.2500      0.0000    758.4814      7.7446    100.6994
   258.5000      0.0000    765.3729      7.6727    100.7737
   258.7500      0.0000    773.1237      7.5635     99.5686
   259.0000      0.0000    779.8683      7.4056     96.2990
   259.2500      0.0000    784.4125      7.2181     90.6065
   259.5000      0.0000    786.5882      7.0450     82.5350
