~Version Information
VERS.                      2.0: CWLS Log ASCII Standard - VERSION 2.0
WRAP.                       NO: One line per depth step
~Well Information Block
STRT.FT               580.0000: 
STOP.FT              2729.7000: 
STEP.FT                 0.1000: 
NULL.                -999.2500: 
COMP.          Pioneer Natural Resources: COMPANY
WELL.          Sand Pebbles 13-33: WELL
FLD.           Purgatoire River: FIELD
LOC.           1883' FSL & 63' FWL----: LOCATION
PROV.                 Colorado: PROVINCE
CNTY.               Las Animas: COUNTRY
SRVC.                Patterson: SERVICE COMPANY
DATE.          Mon Mar 14 07:33:33 2005: LOG DATE
UWI.           05 071 08224 00: UNIQUE WELL ID
~Curve Information Block
DEPT.FT            0 000 00 00: Depth
DCAL.in                       : CDL Caliper
RHOB.g/cc                     : CDL Bulk Density
RHOC.g/cc                     : CDL Density Correction
DPOR.pu                       : CDL Density Porosity
NPOR.pu                       : Neutron Porosity
GR.GAPI                       : Gamma Ray
~Parameter Information Block
~A  Depth       DCAL        RHOB        RHOC        DPOR        NPOR         GR     
# ...
   858.4000      8.6299      1.2830     -0.0668     82.8478     35.8269     65.9692
   858.5000      8.6712      1.2730     -0.0352     83.4547     36.3398     60.7542
   858.6000      8.6712      1.2790     -0.0134     83.0886     37.1006     55.1649
   858.7000      8.6712      1.3021      0.0205     81.6922     37.4624     50.4390
   858.8000      8.7287      1.3416      0.0376     79.2969     36.9455     45.1584
   858.9000      8.7287      1.3919      0.0548     76.2475     36.1248     41.0343
   859.0000      8.7992      1.4401      0.0802     73.3272     35.7508     41.3477
   859.1000      8.7992      1.4777      0.0680     71.0491     35.9298     45.3176
   859.2000      8.7992      1.5085      0.0940     69.1825     36.3292     49.8129
   859.3000      8.7932      1.5398      0.1024     67.2830     36.3013     53.1857
   859.4000      8.7932      1.5816      0.0968     64.7534     35.6328     55.5938
   859.5000      8.5995      1.6465      0.0717     60.8209     34.8721     58.8124
   859.6000      8.5995      1.7379      0.0936     55.2760     34.3343     65.8090
   859.7000      8.5995      1.8401      0.1146     49.0828     33.9555     76.8831
   859.8000      8.3505      1.9226      0.1542     44.0853     33.8864     88.7561
   859.9000      8.3505      1.9648      0.1309     41.5255     34.1672     98.8655
   860.0000      8.2219      1.9764      0.0990     40.8268     34.4879    106.7938
   860.1000      8.2219      1.9787      0.0992     40.6829     34.5829    113.5835
   860.2000      8.2219      1.9863      0.1078     40.2256     34.2832    119.8915
   860.3000      8.1858      2.0084      0.0649     38.8868     33.5187    122.7383
   860.4000      8.1858      2.0491      0.0360     36.4198     32.6505    119.9257
   860.5000      8.1674      2.1027      0.0556     33.1694     32.0466    118.0127
   860.6000      8.1674      2.1555      0.1030     29.9727     31.4649    122.7365
   860.7000      8.1674      2.1968      0.1061     27.4679     30.5896    127.8435
   860.8000      8.1473      2.2348      0.0630     25.1663     29.6327    128.6642
   860.9000      8.1473      2.2888      0.1152     21.8899     28.6294    131.9047
   861.0000      8.1270      2.3710      0.1323     16.9070     27.1946    138.3491
   861.1000      8.1270      2.4741      0.2096     10.6629     25.2992    137.1537
   861.2000      8.1270      2.5636      0.2387      5.2348     23.4280    128.2289
   861.3000      8.1135      2.6018      0.1813      2.9224     22.0515    122.9850
   861.4000      8.1135      2.5881      0.0611      3.7524     21.6824    122.9121
   861.5000      8.1101      2.5655      0.0124      5.1217     22.2228    120.5437
   861.6000      8.1101      2.5690      0.0348      4.9068     22.5639    114.1147
   861.7000      8.1101      2.5837      0.0975      4.0177     22.3119    108.8468
   861.8000      8.1103      2.5780      0.0819      4.3631     22.1972    107.6420
   861.9000      8.1103      2.5594      0.0487      5.4881     22.4785    109.5244
   862.0000      8.1088      2.5543      0.0391      5.8028     22.6957    113.6849
   862.1000      8.1088      2.5612      0.0729      5.3825     22.8438    115.6056
   862.2000      8.1088      2.5596      0.0390      5.4758     23.3577    109.9227
   862.3000      8.1054      2.5381      0.0875      6.7796     23.8718    101.7189
   862.4000      8.1054      2.5060      0.0366      8.7293     23.8197    100.7123
   862.5000      8.1045      2.4880      0.0276      9.8169     23.4330    104.4633
   862.6000      8.1045      2.4921      0.0483      9.5687     22.6219    104.0374
   862.7000      8.1045      2.4963      0.0583      9.3161     21.5205    100.5505
   862.8000      8.1052      2.4794      0.0155     10.3373     20.9152     99.7838
   862.9000      8.1052      2.4545     -0.0122     11.8480     21.2894    102.3172
   863.0000      8.1066      2.4536     -0.0223     11.9007     22.1793    104.8734
   863.1000      8.1066      2.4834      0.0275     10.0976     22.5869    105.3616
   863.2000      8.1066      2.5169      0.0892      8.0674     22.5218    103.8732
   863.3000      8.1103      2.5328      0.0427      7.1022     22.6815    100.9239
   863.4000      8.1103      2.5394      0.0555      6.7016     23.1315     98.3582
   863.5000      8.1189      2.5487      0.0743      6.1367     23.6945     98.2968
   863.6000      8.1189      2.5624      0.0770      5.3081     24.2306    100.7910
   863.7000      8.1189      2.5803      0.0722      4.2271     24.4580    105.8952
   863.8000      8.1296      2.5863      0.1288      3.8580     24.4083    111.7951
   863.9000      8.1296      2.5639      0.0878      5.2211     24.2895    111.8143
   864.0000      8.1338      2.5371      0.0120      6.8403     24.0925    106.3896
   864.1000      8.1338      2.5321      0.0953      7.1432     23.7827    106.9976
   864.2000      8.1338      2.5373      0.0604      6.8279     23.5494    113.8037
   864.3000      8.1332      2.5368      0.0628      6.8593     23.4017    115.1632
   864.4000      8.1332      2.5240      0.0303      7.6338     23.1518    106.9016
   864.5000      8.1335      2.5019      0.0509      8.9779     23.0597     96.5739
   864.6000      8.1335      2.4871      0.0038      9.8704     23.2732     90.2522
   864.7000      8.1335      2.4914      0.0232      9.6121     23.6300     86.0521
   864.8000      8.1341      2.5041      0.0630      8.8441     24.1647     86.1424
   864.9000      8.1341      2.5124      0.0381      8.3398     24.7097     93.5412
   865.0000      8.1331      2.5114      0.0723      8.3986     24.5165    103.7780
   865.1000      8.1331      2.4958      0.0773      9.3467     23.3348    110.7399
   865.2000      8.1331      2.4744      0.0057     10.6430     22.0599    110.9867
   865.3000      8.1318      2.4659      0.0746     11.1596     21.5589    107.2941
   865.4000      8.1318      2.4703      0.0329     10.8932     22.0938    104.6263
   865.5000      8.1306      2.4768      0.0463     10.4942     23.0864    102.4600
   865.6000      8.1306      2.4807      0.0123     10.2623     23.3069     98.4613
   865.7000      8.1306      2.4798      0.0476     10.3141     22.6523     91.8187
   865.8000      8.1301      2.4678      0.0693     11.0441     22.0968     83.7335
   865.9000      8.1301      2.4497      0.0099     12.1424     22.2450     77.8195
   866.0000      8.1312      2.4422      0.0388     12.5912     22.8797     75.4458
   866.1000      8.1312      2.4466      0.0175     12.3251     23.1676     73.2785
   866.2000      8.1312      2.4473      0.0613     12.2861     22.7731     69.0186
   866.3000      8.1328      2.4361     -0.0027     12.9653     22.0719     64.9233
   866.4000      8.1328      2.4247      0.0278     13.6534     21.6049     63.8154
   866.5000      8.1342      2.4184      0.0426     14.0384     22.0920     65.0868
   866.6000      8.1342      2.4136      0.0204     14.3283     23.2191     66.8575
   866.7000      8.1342      2.4170      0.0224     14.1188     23.7893     68.5888
   866.8000      8.1353      2.4279      0.0730     13.4614     23.5486     68.8172
   866.9000      8.1353      2.4334      0.0256     13.1298     22.9049     67.3194
   867.0000      8.1355      2.4361      0.0265     12.9623     21.9473     66.9506
   867.1000      8.1355      2.4467      0.0089     12.3183     20.8227     66.9580
   867.2000      8.1355      2.4580      0.0308     11.6365     20.3578     65.4295
   867.3000      8.1365      2.4557      0.0368     11.7734     20.9063     64.5131
   867.4000      8.1365      2.4417      0.0615     12.6264     21.5808     64.4632
   867.5000      8.1371      2.4307      0.0221     13.2890     21.8022     63.4342
   867.6000      8.1371      2.4401      0.0161     12.7204     22.1041     61.5218
   867.7000      8.1371      2.4701      0.0916     10.9019     22.9144     60.6817
   867.8000      8.1361      2.4966      0.1160      9.2942     23.6826     63.7760
   867.9000      8.1361      2.5020      0.0599      8.9714     23.4935     69.3886
