~Version Information
 VERS.                2.0:  CWLS LOG ASCII STANDARD -VERSION 2.0
 WRAP.                 NO:  ONE LINE PER DEPTH STEP
~WELL INFORMATION BLOCK
#MNEM.UNIT       DATA		            DESCRIPTION OF MNEMONIC
#---------    -------------            ------------------------
 STRT.FT  0.500                          :START DEPTH
 STOP.FT  1812.700                       :STOP DEPTH
 STEP.FT  0.100                          :STEP    UP_HOLE  
 NULL.    -999.25                        :NULL VALUE
 COMP.              EL PASO PRODUCTIONS  :COMPANY
 WELL.                     COREHOLE #38  :WELL
 FLD .                 PURGATOIRE RIVER  :FIELD
 LOC .      15   35S   65W               :LOCATION
 CNTY.                           COLFAX  :COUNTY
 STAT.                     NM            :STATE
 CTRY.                                   :
 SRVC.     O'DRISCOLL                    :SERVICE COMPANY
 DATE.   04/28/05                        :LOG DATE
 API .                                   :API NUMBER
 LIC .                                   :LICENSE NUMBER
~Curve Information Block
#MNEM.UNIT      API CODE     Curve Description
#---------    -------------  ------------------------
 DEPT     .FT        00 001 00 00          :  1  DEPTH   
 GAMMA    .API-GR    00 310 00 00          :  2                GAMMA
 TEMP     .DEG F     00 660 00 00          :  3                 TEMP
 RES(16N) .OHM-M     00 040 00 00          :  4             RES(16N)
 RES(64N) .OHM-M     00 060 00 00          :  5             RES(64N)
 RES      .OHM       00 000 00 00          :  6                  RES
 LATERAL  .OHM-M     00 070 00 00          :  7              LATERAL
 NEUTRON  .API-N     00 000 00 00          :  8              NEUTRON
 POR(NEU) .PERCENT   00 330 00 00          :  9             POR(NEU)
 SANGB    .DEG       00 631 00 00          : 10                SANGB
 DEL_TEMP .DEG F     00 000 00 00          : 11             DEL_TEMP
 SANG     .DEG       00 620 00 00          : 12                 SANG
 SP       .MV        00 010 00 00          : 13                   SP
 TIME     .MINUTES   00 000 00 00          : 14                 TIME
~Parameter Information Block
#MNEM.UNIT   Information     Description
#---------- ---------------  ------------------------
 FILE.      ORIGINAL           :File Type
 FIID.      9057A              :File Type Identifier
 VERS.      3.58G              :System Version
 SER .      1                  :System Serial Number
 TRUK.      .498775            :Truck Calibration Number
 TOOL.        1061             :Tool Serial Number
 TIME.      1335               :Time    HrHrMinMin
 LAT .       36 59'            :Latitude
 LON .       104 39'           :Longitude
 LMF .            GL           :Log Measured From
 DMF .            GL           :Driller Measured From
 PD  .            GL           :Permanent Data
 PDEV.                         :Elevation Permanent Data
 EKB .M                        :Elevation Kelly Bushing
 ELEV.DF                       :Elevation DF
 EGL .M        7777            :Elevation Ground Level
 DRDP.          1825           :Driller's Depth
 CASD.       10.               :Casing Diameter
 CASB.           300           :Casing Bottom
 CASX.         STEEL           :Casing Type
 CAST.                         :Casing Thickness
 TNOC.                         :Time Circulation Stopped
 LOGU.        108              :Logging Unit
 RECB.           R.SIPES       :Recorded By
 OSR1.          9139           :Other Services
 OSR2.                         :Other Services
 OSR3.                         :Other Services
 BS  .MM         3.5           :Bit Size
 MST .                         :Mean Surface Temperature
 TGRD.                         :Temperature Gradiant
 MAGN.            12           :Magnetic Declination
 MDEN.       2.7               :Density Matrix
 MATR.      SANDSTONE          :Neutron Matrix
 DTMT.            54           :Delta T Matrix
 DTFL.                         :Delta T Fluid
 MUDS.                         :Mud Sample Source
 MRS .                         :Mud Resistivity
 MTP .                         :Mud Temperature
 MFRS.                         :Resistivity Mud Filtrate
 MFTP.                         :Temperature Mud Filtrate
 MCRS.                         :Resistivity Mud Cake
 MCTP.                         :Temperature Mud Cake
 FTYP.                         :Fluid Type
 FD  .K/M3                     :Fluid Density
 DFV .S                        :Fluid Viscosity
 FPH .                         :Fuild PH
 ELCO.       50000             :Electron Cutoff
~Other Information
#MNEM.UNIT  Information      Description
#---------- ---------------  ------------------------
# -------------------------- 
~A DEPTH  GAMMA    TEMP  RES(16N) RES(64N) RES      LATERAL  NEUTRON  POR(NEU) SANGB  DEL_TEMP SANG   SP    TIME    
# ...
1324.700     99.0  83.8      2.9      8.1      7.5      1.9    855.4  38.8   0.31  -0.01  1.64  -1317.7 0.20000 
1324.800     91.1  83.8      3.6      8.1      7.2      1.9    821.0  39.0   1.25  0.00  1.63  -1317.7 0.20000 
1324.900     91.1  83.8      1.6      8.4      7.6     -0.6    802.2  39.0   1.25  -0.01  1.63  -1317.7 0.20000 
1325.000     90.0  83.8     -0.7      8.7      7.1     -3.7    805.3  39.2  355.26 0.00  1.63  -1317.7 0.20000 
1325.100     96.9  83.8      0.4      9.0      7.9     -2.5    794.4  39.3  338.44 0.06  1.63  -1317.7 0.20000 
1325.200    101.1  83.8      1.6      9.1      7.2     -1.0    755.3  39.8  338.45 -0.04  1.62  -1317.7 0.20000 
1325.300    116.5  83.8      2.5      9.6      7.8      0.4    761.6  40.3  338.45 0.01  1.62  -1317.7 0.20000 
1325.400    123.9  83.8     -0.8     10.0      8.0     -4.5    781.9  40.2  338.69 0.01  1.62  -1317.5 0.20000 
1325.500    133.4  83.8      0.5     10.3      8.4     -2.2    789.7  40.0  15.77  -0.01  1.62  -1317.5 0.20000 
1325.600    134.5  83.8      2.0     10.8      7.4     -1.0    806.9  40.6  19.76  0.00  1.57  -1317.5 0.10000 
1325.700    137.6  83.8      0.8     11.5      7.2     -3.0    805.3  40.9  20.10  -0.07  1.52  -1317.5 0.20000 
1325.800    141.3  83.8     -0.9     12.2      7.5     -5.9    788.1  40.7  20.06  0.05  1.52  -1317.7 0.20000 
1325.900    149.3  83.8      0.1     12.6      8.1     -2.7    755.3  40.7  342.01 -0.01  1.52  -1317.8 0.20000 
1326.000    142.9  83.8      1.0     12.7      7.8     -3.1    750.6  40.4  336.39 -0.01  1.47  -1317.8 0.20000 
1326.100    142.4  83.8      0.6     13.1      7.3     -3.3    760.0  40.3  338.33 -0.01  1.34  -1317.8 0.20000 
1326.200    133.9  83.8     -1.6     13.0      7.9     -5.8    753.7  40.5  338.32 0.05  1.34  -1317.7 0.20000 
1326.300    133.9  83.8      0.0     13.2      7.7     -5.4    747.5  40.6  314.95 0.01  1.34  -1317.5 0.20000 
1326.400    131.8  83.8      0.8     12.8      7.7     -5.1    767.8  40.9  312.83 -0.01  1.32  -1317.5 0.20000 
1326.500    133.4  83.8      1.3     12.6      7.5     -4.4    766.2  40.6  317.54 -0.02  1.20  -1317.5 0.20000 
1326.600    142.4  83.8      0.0     12.4      8.0     -5.1    760.0  40.3  317.52 -0.01  1.20  -1317.6 0.20000 
1326.700    141.9  83.8     -0.8     13.2      7.7     -4.8    774.1  40.2  308.26 -0.03  1.20  -1317.7 0.20000 
1326.800    142.4  83.8      2.8     13.5      7.8     -1.2    778.8  39.5  312.01 0.07  1.20  -1317.7 0.20000 
1326.900    146.6  83.8      1.5     13.2      7.8     -1.1    783.4  39.0  319.05 -0.01  1.11  -1317.7 0.20000 
1327.000    147.7  83.8      0.4     13.0      8.1     -3.3    774.1  38.7  318.99 -0.01  1.11  -1317.7 0.20000 
1327.100    153.5  83.8     -0.1     12.6      7.5     -2.1    786.6  37.9  326.86 0.01  1.11  -1317.7 0.20000 
1327.200    154.6  83.8      2.4     12.2      8.3      0.5    802.2  37.5  338.00 0.03  1.12  -1317.7 0.20000 
1327.300    159.3  83.8      1.9     11.6      7.6     -1.5    811.6  37.1  340.83 0.01  1.10  -1317.7 0.20000 
1327.400    157.8  83.8      0.6     11.1      7.7     -5.8    836.6  36.4  340.83 -0.04  1.10  -1317.7 0.20000 
1327.500    148.8  83.8     -0.3     10.5      8.0     -6.4    892.9  36.2  339.26 0.05  1.10  -1317.6 0.20000 
1327.600    145.0  83.8      2.5      9.9      8.6      0.8    903.9  36.0  356.26 -0.06  1.11  -1317.6 0.20000 
1327.700    144.0  83.8      2.4      9.6      7.7      0.4    939.8  35.4  359.33 -0.02  1.10  -1317.6 0.10000 
1327.800    147.2  83.8      0.7      9.6      8.1     -2.5    955.5  35.3  359.33 0.06  1.10  -1317.6 0.20000 
1327.900    144.5  83.8     -1.3     10.1      7.9     -5.6    961.7  34.9  359.72 -0.04  1.10  -1317.5 0.20000 
1328.000    139.2  83.8      1.5     10.0      7.9     -1.5    972.7  35.1   6.86  -0.07  1.09  -1317.5 0.20000 
1328.100    133.9  83.8      1.6      9.8      7.5     -0.2    963.3  35.1   7.90  0.10  1.08  -1317.5 0.20000 
1328.200    124.4  83.9     -0.3      9.2      7.4     -1.0    928.9  35.0   7.90  -0.07  1.08  -1317.5 0.20000 
1328.300    126.0  83.9     -1.0      8.8      7.5     -3.3    949.2  34.8   8.15  0.00  1.08  -1317.8 0.20000 
1328.400    123.9  83.9      1.1      8.9      8.2     -0.0    925.7  35.0   4.83  0.04  1.08  -1317.8 0.20000 
1328.500    128.6  83.9      2.0      8.9      7.5     -1.2    886.7  35.1   3.01  -0.03  1.09  -1317.8 0.20000 
1328.600    122.3  83.9      0.6      8.9      8.2     -3.4    874.1  35.3   3.01  -0.04  1.09  -1317.8 0.20000 
1328.700    121.2  83.9     -2.9      9.0      8.4     -6.2    872.6  35.2   3.63  0.07  1.09  -1317.5 0.20000 
1328.800    125.5  83.9     -0.5      9.2      7.8     -4.1    844.4  35.2   9.87  0.00  1.10  -1317.5 0.20000 
1328.900    127.0  83.9     -1.2      9.5      8.2     -5.2    874.1  35.6  12.13  -0.01  1.10  -1317.5 0.20000 
1329.000    130.2  83.9      0.3     10.2      7.9     -3.3    883.5  35.1  12.13  -0.07  1.10  -1317.5 0.20000 
1329.100    138.7  83.9     -2.7     10.5      8.1     -6.9    896.0  34.6  11.77  0.03  1.10  -1317.6 0.20000 
1329.200    137.6  83.9     -1.1     10.9      7.9     -4.5    914.8  34.6  23.48  0.01  1.09  -1317.6 0.20000 
1329.300    137.6  83.9      0.9     10.9      7.9     -2.1    933.6  34.3  26.44  0.06  1.07  -1317.6 0.20000 
1329.400    138.2  83.9      2.9     10.9      7.3     -0.2    930.4  34.1  26.44  -0.06  1.07  -1317.6 0.20000 
1329.500    140.8  83.9      0.5     11.7      7.6     -3.8    921.1  33.6  26.45  0.01  1.07  -1317.7 0.20000 
1329.600    141.9  83.8     -0.4     11.8      7.9     -4.4    968.0  33.1  33.23  0.04  1.07  -1317.7 0.20000 
1329.700    143.5  83.8      0.2     11.6      7.6     -4.3    989.9  32.9  36.31  0.00  1.07  -1317.7 0.10000 
1329.800    145.0  83.8      0.8     11.5      7.6     -2.1   1003.9  33.1  36.50  -0.03  1.07  -1317.7 0.20000 
1329.900    143.5  83.9     -0.5     11.3      7.5     -4.0    999.2  33.0  36.51  -0.01  1.07  -1317.6 0.20000 
1330.000    136.0  83.9      1.6     11.4      8.0     -1.8   1022.7  33.1  37.69  -0.03  1.07  -1317.6 0.20000 
1330.100    135.0  83.9      1.1     11.2      7.6     -2.7   1000.8  33.0  41.07  0.07  1.09  -1317.6 0.20000 
1330.200    142.4  83.9     -0.1     10.9      7.2     -6.7   1005.5  33.1  40.88  -0.07  1.10  -1317.6 0.20000 
1330.300    142.4  83.9     -0.4     10.6      7.4     -4.4    986.7  32.9  40.89  -0.02  1.10  -1317.6 0.20000 
1330.400    143.5  83.9     -0.3      9.9      7.7     -3.1    983.6  32.7  45.48  0.03  1.10  -1317.6 0.20000 
1330.500    143.5  83.9      4.0      9.3      7.6      2.6    974.2  33.3  49.28  -0.01  1.09  -1317.6 0.20000 
1330.600    141.3  83.9      2.9      9.1      7.5      1.2    944.5  33.6  51.63  0.01  1.08  -1317.6 0.20000 
1330.700    133.4  83.9      0.3      9.2      7.5     -2.6    921.1  33.6  51.66  -0.02  1.08  -1317.6 0.20000 
1330.800    135.5  83.9      0.8      8.7      6.8     -1.3    922.6  33.8  42.98  -0.03  1.08  -1317.6 0.20000 
1330.900    135.0  83.9      3.8      8.3      8.0      2.4    942.9  33.6  39.91  0.07  1.09  -1317.6 0.20000 
1331.000    135.0  83.9      2.0      7.7      7.8     -0.4    946.1  33.5  39.71  -0.04  1.09  -1317.6 0.20000 
1331.100    132.3  83.9      0.2      7.6      7.8     -0.4    944.5  33.7  39.72  -0.03  1.09  -1317.6 0.20000 
1331.200    129.7  83.9     -0.1      7.6      8.0     -1.7    938.3  33.7  33.84  0.03  1.09  -1317.6 0.20000 
1331.300    130.2  83.9      2.5      7.6      7.5      1.3    957.0  33.4  26.12  0.00  1.07  -1317.6 0.20000 
1331.400    130.2  83.9      2.1      8.2      8.1     -0.9    924.2  33.2  21.88  0.04  1.08  -1317.6 0.20000 
1331.500    130.2  83.9      0.4      8.9      8.4     -0.9    944.5  32.9  21.88  -0.04  1.08  -1317.6 0.20000 
1331.600    134.5  83.9     -0.4      9.2      7.9     -2.9    986.7  32.5  20.97  0.01  1.08  -1317.5 0.20000 
1331.700    129.7  83.9      2.1      9.1      8.6     -0.6    994.6  32.2  11.33  -0.02  1.07  -1317.5 0.10000 
1331.800    133.4  83.9      1.8      9.0      7.4     -1.1    975.8  32.0   1.31  -0.05  1.12  -1317.5 0.20000 
