~Version Information
VERS.                      2.0: CWLS Log ASCII Standard - VERSION 2.0
WRAP.                       NO: One line per depth step
~Well Information Block
STRT.FT                 0.0000: 
STOP.FT              2430.7500: 
STEP.FT                 0.2500: 
NULL.                -999.2500: 
COMP.          Petrogulf Corporation: COMPANY
WELL.             Leier 17-42V: WELL
FLD.           Purgatorie River: FIELD
LOC.           2309' FNL & 1062' FEL: LOCATION
PROV.                 Colorado: PROVINCE
CNTY.               Las Animas: COUNTRY
SRVC.                Patterson: SERVICE COMPANY
DATE.          Thu Oct 06 10:18:00 2005: LOG DATE
UWI.                          : UNIQUE WELL ID
~Curve Information Block
DEPT.FT            0 000 00 00: Depth
CCL.                          : Casing Collar Locator
TT3.usec                      : CBL 3' Travel Time
AMP3.mV                       : CBL 3' Amplitude
GR.GAPI                       : Gamma Ray
~Parameter Information Block
~A  Depth       CCL         TT3         AMP3         GR     
# ...
   335.0000      0.0000    826.8058      7.8742     87.9186
   335.2500      0.0000    880.3019      7.7826     88.4788
   335.5000      0.0000    910.6401      7.8052     89.9351
   335.7500      0.0000    896.4427      7.8477     91.2423
   336.0000      0.0000    823.5245      7.8653     92.4417
   336.2500      0.0000    708.0491      7.8792     94.6194
   336.5000      0.0000    603.5390      7.9015     98.9093
   336.7500      0.0000    563.4175      7.8984    105.1679
   337.0000      0.0000    600.6564      7.8490    111.2822
   337.2500      0.0000    679.1218      7.7441    114.0429
   337.5000      0.0000    740.4831      7.4939    111.4189
   337.7500      0.0000    761.4760      7.0084    104.3745
   338.0000      0.0000    776.5214      6.5105     96.4132
   338.2500      0.0000    826.5434      6.4345     91.1920
   338.5000      0.0000    912.8992      6.7490     90.2012
   338.7500      0.0000   1012.2021      6.9636     92.1003
   339.0000      0.0000   1114.0679      6.9159     93.9244
   339.2500      0.0000   1217.0145      6.8388     93.2637
   339.5000     -2.0000   1298.1238      6.8854     90.0044
   339.7500      2.0000   1327.5204      7.0476     86.4307
   340.0000      0.0000   1293.5121      7.2589     85.5711
   340.2500      0.0000   1202.5420      7.4677     88.9244
   340.5000      0.0000   1072.0829      7.7566     95.2059
   340.7500      0.0000    913.8085      8.3400    101.1999
   341.0000      0.0000    752.9966      9.2300    104.2416
   341.2500      0.0000    652.0164      9.9222    104.1023
   341.5000      0.0000    639.9753      9.9541    102.4293
   341.7500      0.0000    665.0699      9.5984    100.6829
   342.0000      0.0000    661.7236      9.3631     99.0928
   342.2500      0.0000    616.6752      9.3664     97.3588
   342.5000      0.0000    564.0889      9.4470     95.6016
   342.7500      0.0000    543.7085      9.4097     94.3355
   343.0000      0.0000    566.0871      9.1757     93.8500
   343.2500      0.0000    606.3773      8.8445     93.9430
   343.5000      0.0000    634.9408      8.5611     94.2233
   343.7500      0.0000    656.9214      8.3286     94.5238
   344.0000      0.0000    693.9883      8.0619     94.9082
   344.2500      0.0000    735.8359      7.7917     95.2474
   344.5000      0.0000    749.9708      7.6411     95.0247
   344.7500      0.0000    720.6602      7.6361     93.8832
   345.0000      0.0000    659.8203      7.6707     92.2756
   345.2500      0.0000    597.7184      7.6291     91.2099
   345.5000      0.0000    564.4117      7.4812     91.3380
   345.7500      0.0000    570.8129      7.2733     92.3730
   346.0000      0.0000    604.2367      7.0681     93.2818
   346.2500      0.0000    643.6874      6.9114     93.0668
   346.5000      0.0000    677.4294      6.8424     91.5681
   346.7500      0.0000    703.1670      6.8954     89.5268
   347.0000      0.0000    716.8827      7.0485     87.8584
   347.2500      0.0000    704.3694      7.2088     86.9050
   347.5000      0.0000    660.5308      7.2992     86.2067
   347.7500      0.0000    614.0400      7.3270     85.0951
   348.0000      0.0000    598.0045      7.3589     83.8671
   348.2500      0.0000    614.2354      7.4630     84.0277
   348.5000      0.0000    647.4103      7.6653     86.7690
   348.7500      0.0000    685.5951      7.9414     91.4761
   349.0000      0.0000    712.9003      8.2472     96.1815
   349.2500      0.0000    709.7915      8.5583     99.0997
   349.5000      0.0000    681.4116      8.8681     99.4957
   349.7500      0.0000    663.8967      9.1352     97.7604
   350.0000      0.0000    683.4792      9.2967     95.1627
   350.2500      0.0000    723.8033      9.3787     93.2033
   350.5000      0.0000    746.6168      9.4828     92.9432
   350.7500      0.0000    736.1379      9.6351     94.7418
   351.0000      0.0000    714.9058      9.7566     98.1373
   351.2500      0.0000    715.4465      9.7963    101.8593
   351.5000      0.0000    740.0540      9.7891    104.3540
   351.7500      0.0000    761.2800      9.7537    104.4547
   352.0000      0.0000    759.0227      9.6580    101.6690
   352.2500      0.0000    741.8079      9.5174     96.6114
   352.5000      0.0000    732.8849      9.3923     91.5106
   352.7500      0.0000    742.5259      9.2847     89.2515
   353.0000      0.0000    760.6553      9.1541     90.9397
   353.2500      0.0000    770.8834      8.9936     94.7168
   353.5000      0.0000    758.3181      8.8154     97.4826
   353.7500      0.0000    717.3738      8.6216     97.5166
   354.0000      0.0000    662.8796      8.4406     95.2641
   354.2500      0.0000    619.5593      8.3223     92.2781
   354.5000      0.0000    604.4233      8.2668     90.1237
   354.7500      0.0000    625.3384      8.2212     89.9547
   355.0000      0.0000    672.1262      8.1555     92.3275
   355.2500      0.0000    714.5034      8.0882     97.0772
   355.5000      0.0000    740.0991      8.0495    103.3476
   355.7500      0.0000    771.4662      8.0547    109.7527
   356.0000      0.0000    820.9204      8.0880    114.7878
   356.2500      0.0000    869.3575      8.0987    117.5202
   356.5000      0.0000    900.9130      8.0506    118.0883
   356.7500      0.0000    918.0750      7.9639    117.3926
   357.0000      0.0000    924.3419      7.8796    116.0902
   357.2500      0.0000    920.4108      7.8182    113.9773
   357.5000      0.0000    912.1353      7.7919    110.4415
   357.7500      0.0000    906.6813      7.8011    105.1806
   358.0000      0.0000    906.1125      7.8073     98.1650
   358.2500      0.0000    906.8158      7.7637     89.3336
   358.5000      0.0000    895.4641      7.6760     79.0238
   358.7500      0.0000    851.0536      7.5959     68.6701
   359.0000      0.0000    771.1794      7.5614     60.5542
   359.2500      0.0000    683.9958      7.5654     56.5429
   359.5000      0.0000    608.9429      7.5658     56.8791
   359.7500      0.0000    540.6631      7.5189     59.9352
   360.0000      0.0000    482.7094      7.4162     63.0642
   360.2500      0.0000    450.1441      7.2949     63.9404
   360.5000      0.0000    454.9056      7.2108     61.5766
   360.7500      0.0000    509.5405      7.1905     56.6873
   361.0000      0.0000    604.9874      7.2075     51.4113
   361.2500      0.0000    682.6603      7.2259     48.3005
   361.5000      0.0000    690.2048      7.2419     48.9129
   361.7500      0.0000    646.7119      7.2666     53.0637
   362.0000      0.0000    590.6863      7.3094     59.2985
   362.2500      0.0000    530.8930      7.3778     65.9092
   362.5000      0.0000    477.8545      7.4504     71.5944
   362.7500      0.0000    445.1466      7.4754     75.6171
   363.0000      0.0000    428.8413      7.4255     77.7694
   363.2500      0.0000    420.0201      7.3226     78.4090
   363.5000      0.0000    415.6251      7.2171     78.4210
   363.7500      0.0000    413.9902      7.1641     78.7279
   364.0000      0.0000    412.3019      7.1818     79.7239
   364.2500      0.0000    407.5733      7.2398     81.4007
   364.5000      0.0000    398.4215      7.2935     83.7110
   364.7500      0.0000    387.1164      7.3248     86.3561
   365.0000      0.0000    378.2092      7.3545     88.6024
   365.2500      0.0000    374.7131      7.3893     89.9805
   365.5000      0.0000    380.2696      7.4030     90.9466
   365.7500      0.0000    408.5326      7.3912     92.2757
   366.0000      0.0000    482.1674      7.3830     93.7770
   366.2500      0.0000    596.4924      7.4092     93.9051
   366.5000      0.0000    689.1931      7.4802     90.7714
   366.7500      0.0000    705.1504      7.5661     83.7472
   367.0000      0.0000    674.4447      7.6115     74.4013
   367.2500      0.0000    657.4683      7.5925     65.7929
   367.5000      0.0000    665.1328      7.5425     60.5176
   367.7500      0.0000    680.2237      7.4963     59.3124
   368.0000      0.0000    698.7629      7.4491     61.3758
   368.2500      0.0000    721.0867      7.3888     65.6384
