~Version Information
VERS.                      2.0: CWLS Log ASCII Standard - VERSION 2.0
WRAP.                       NO: One line per depth step
~Well Information Block
STRT.FT               902.0000: 
STOP.FT              2428.2000: 
STEP.FT                 0.1000: 
NULL.                -999.2500: 
COMP.          Pioneer Natural Resources: COMPANY
WELL.            Victory 12-14: WELL
FLD.           Purgatoire River: FIELD
LOC.           2434' FNL & 188' FWL: LOCATION
PROV.                 Colorado: PROVINCE
CNTY.               Las Animas: COUNTRY
SRVC.                Patterson: SERVICE COMPANY
DATE.          Mon Apr 18 07:24:17 2005: LOG DATE
UWI.           05 071 08332 00: UNIQUE WELL ID
~Curve Information Block
DEPT.FT            0 000 00 00: Depth
DCAL.in                       : CDL Caliper
RHOB.g/cc                     : CDL Bulk Density
RHOC.g/cc                     : CDL Density Correction
DPOR.pu                       : CDL Density Porosity
GR.GAPI                       : Gamma Ray
NPOR.pu                       : Neutron Porosity
~Parameter Information Block
~A  Depth       DCAL        RHOB        RHOC        DPOR         GR         NPOR    
# ...
  1602.8000      8.2247      2.4183     -0.0425     14.0402    128.7757     24.6429
  1602.9000      8.2247      2.3541      0.0167     17.9327    131.8479     24.3763
  1603.0000      8.2238      2.3044     -0.0203     20.9447    136.5305     23.6456
  1603.1000      8.2238      2.2809      0.0148     22.3704    140.7905     22.9345
  1603.2000      8.2238      2.2739      0.0130     22.7929    142.8000     22.5736
  1603.3000      8.2214      2.2756      0.0245     22.6931    142.0803     22.4168
  1603.4000      8.2214      2.2861      0.0256     22.0529    139.4334     21.9690
  1603.5000      8.2215      2.3004      0.1044     21.1855    138.5055     21.0007
  1603.6000      8.2215      2.3081      0.1726     20.7224    140.1205     19.9376
  1603.7000      8.2215      2.3195      0.1789     20.0298    138.7793     19.3737
  1603.8000      8.2248      2.3646      0.2461     17.2943    136.0694     19.5150
  1603.9000      8.2248      2.4296      0.4340     13.3582    136.5532     20.0172
  1604.0000      8.2268      2.4577      0.3799     11.6549    137.9484     20.1431
  1604.1000      8.2268      2.4355      0.3614     13.0021    138.8375     19.3937
  1604.2000      8.2268      2.3937      0.3366     15.5363    140.4733     18.1316
  1604.3000      8.2434      2.3372      0.3633     18.9582    142.1417     17.2541
  1604.4000      8.2434      2.2421      0.2813     24.7231    143.5518     17.0285
  1604.5000      8.2934      2.1308      0.0269     31.4682    146.4363     17.1353
  1604.6000      8.2934      2.0734      0.0361     34.9427    148.6692     17.3145
  1604.7000      8.2934      2.0981      0.0758     33.4467    145.1046     17.5692
  1604.8000      8.3712      2.1815      0.1787     28.3956    137.8535     17.9485
  1604.9000      8.3712      2.3000      0.3388     21.2103    135.3950     18.2237
  1605.0000      8.4504      2.4344      0.3827     13.0659    139.5544     18.3218
  1605.1000      8.4504      2.5575      0.4855      5.6057    141.8476     18.7189
  1605.2000      8.4504      2.6454      0.4917      0.2797    137.4169     19.5920
  1605.3000      8.4570      2.6882      0.4828     -2.3151    132.5162     20.4726
  1605.4000      8.4570      2.6739      0.5112     -1.4473    132.1837     21.0929
  1605.5000      8.4526      2.6039      0.2924      2.7962    133.7635     21.7874
  1605.6000      8.4526      2.5302      0.2029      7.2622    136.1508     22.7646
  1605.7000      8.4526      2.5068      0.2025      8.6761    140.1776     23.6663
  1605.8000      8.4774      2.5236      0.2837      7.6618    143.5276     24.0801
  1605.9000      8.4774      2.5364      0.1519      6.8875    143.4794     24.0223
  1606.0000      8.4438      2.5329      0.1445      7.0940    140.5970     23.9152
  1606.1000      8.4438      2.5292      0.1241      7.3222    138.8278     24.0648
  1606.2000      8.4438      2.5402      0.1362      6.6569    139.6738     24.3259
  1606.3000      8.2522      2.5588      0.1805      5.5247    141.2263     24.5074
  1606.4000      8.2522      2.5617      0.1067      5.3507    144.6944     24.6264
  1606.5000      8.1997      2.5414      0.1090      6.5799    147.1687     24.7846
  1606.6000      8.1997      2.5093      0.0375      8.5289    142.8852     25.0715
  1606.7000      8.1997      2.4853      0.0108      9.9793    134.2780     25.2821
  1606.8000      8.2217      2.4861      0.0089      9.9353    127.1199     25.1415
  1606.9000      8.2217      2.5052      0.0857      8.7769    122.9933     24.9049
  1607.0000      8.2232      2.5257      0.0771      7.5346    122.5893     24.9892
  1607.1000      8.2232      2.5377      0.1010      6.8036    126.1522     25.3647
  1607.2000      8.2232      2.5360      0.0262      6.9107    131.2900     25.9381
  1607.3000      8.2353      2.5170      0.0344      8.0631    134.1680     26.3030
  1607.4000      8.2353      2.4849     -0.0060     10.0076    133.3253     25.7748
  1607.5000      8.2363      2.4617      0.0348     11.4139    131.0602     24.6864
  1607.6000      8.2363      2.4718     -0.0527     10.8014    130.0686     24.0674
  1607.7000      8.2363      2.5158      0.0569      8.1326    131.8691     24.2605
  1607.8000      8.2091      2.5578      0.0655      5.5908    135.4136     24.6966
  1607.9000      8.2091      2.5647      0.0532      5.1686    137.0288     24.7431
  1608.0000      8.2197      2.5443      0.0289      6.4055    134.2671     24.6166
  1608.1000      8.2197      2.5233      0.0188      7.6776    128.4281     24.8352
  1608.2000      8.2197      2.5083      0.0232      8.5895    124.2638     25.3174
  1608.3000      8.2263      2.4931      0.0106      9.5079    124.7971     25.6034
  1608.4000      8.2263      2.4835      0.0051     10.0905    127.2496     25.4587
  1608.5000      8.2311      2.4881      0.0025      9.8098    126.7555     25.2529
  1608.6000      8.2311      2.5055      0.0520      8.7600    124.0857     25.2498
  1608.7000      8.2311      2.5226      0.0378      7.7240    122.8697     25.1472
  1608.8000      8.2122      2.5259      0.0454      7.5232    123.4420     25.0071
  1608.9000      8.2122      2.5189      0.0054      7.9447    126.2820     25.2819
  1609.0000      8.2118      2.5165      0.0328      8.0899    129.9682     25.6883
  1609.1000      8.2118      2.5151      0.0457      8.1757    127.0165     25.3882
  1609.2000      8.2118      2.5070      0.0061      8.6654    117.6370     24.3136
  1609.3000      8.2095      2.5019      0.0203      8.9743    109.6286     23.4124
  1609.4000      8.2095      2.5036      0.0360      8.8751    105.4454     23.4466
  1609.5000      8.1876      2.5010      0.0210      9.0297    105.2292     23.9566
  1609.6000      8.1876      2.4987     -0.0733      9.1686    108.8378     24.1959
  1609.7000      8.1876      2.5058      0.0550      8.7379    113.8119     24.1885
  1609.8000      8.1660      2.5100      0.0569      8.4866    116.3384     24.0322
  1609.9000      8.1660      2.5071      0.0132      8.6600    116.8754     23.7975
  1610.0000      8.1640      2.4968      0.0449      9.2871    119.1874     23.7938
  1610.1000      8.1640      2.4682     -0.0337     11.0181    122.5265     23.9908
  1610.2000      8.1640      2.4311     -0.0373     13.2647    125.2567     24.1756
  1610.3000      8.1618      2.4084     -0.0649     14.6431    126.5133     24.4190
  1610.4000      8.1618      2.4132     -0.0253     14.3516    125.5455     24.8216
  1610.5000      8.1848      2.4422     -0.0050     12.5951    124.1075     25.2341
  1610.6000      8.1848      2.4783      0.0405     10.4066    124.4616     25.4271
  1610.7000      8.1848      2.5075      0.0415      8.6343    125.3933     25.3231
  1610.8000      8.1826      2.5246      0.0590      7.6003    125.2217     25.0268
  1610.9000      8.1826      2.5277      0.0707      7.4141    124.5353     24.5226
  1611.0000      8.1493      2.5271      0.0397      7.4479    124.2476     23.9067
  1611.1000      8.1493      2.5307      0.0350      7.2288    123.6678     23.5556
  1611.2000      8.1493      2.5213      0.0596      7.8029    121.6857     23.5432
  1611.3000      8.1218      2.4894     -0.0294      9.7319    120.3164     23.7324
  1611.4000      8.1218      2.4509      0.0094     12.0649    122.5539     24.0289
  1611.5000      8.1117      2.4196     -0.0583     13.9627    126.5948     24.0691
  1611.6000      8.1117      2.4062     -0.0225     14.7764    130.9034     23.6627
  1611.7000      8.1117      2.4093      0.0079     14.5907    136.9523     22.9506
  1611.8000      8.1109      2.4186     -0.0102     14.0261    143.1869     21.9624
  1611.9000      8.1109      2.4332      0.0353     13.1391    147.4768     20.8057
  1612.0000      8.1102      2.4523      0.0507     11.9845    152.8016     19.8128
  1612.1000      8.1102      2.4587      0.0537     11.5918    161.5026     19.1837
  1612.2000      8.1102      2.4296      0.1202     13.3584    169.1324     18.6622
  1612.3000      8.1277      2.3668      0.0182     17.1624    171.8351     17.8583
