~Version Information
VERS.                      2.0: CWLS Log ASCII Standard - VERSION 2.0
WRAP.                       NO: One line per depth step
~Well Information Block
STRT.FT                -3.2500: 
STOP.FT              1637.5000: 
STEP.FT                 0.2500: 
NULL.                -999.2500: 
COMP.          Pioneer Natural Resources: COMPANY
WELL.            Mad Dog 42-31: WELL
FLD.           Purgatorie River: FIELD
LOC.           2064' FNL & 479' FEL--: LOCATION
PROV.                       CO: PROVINCE
CNTY.               Las Animas: COUNTRY
SRVC.                         : SERVICE COMPANY
DATE.          Fri Oct 15 16:13:39 2004: LOG DATE
UWI.          005 071 08195   : UNIQUE WELL ID
~Curve Information Block
DEPT.FT            0 000 00 00: Depth
HVOLTA.V                      : Head Voltage Apparent
GR.GAPI                       : Gamma Ray
CCL.                          : Casing Collar Locator
TT3.usec                      : CBL 3' Travel Time
AMP3.mV                       : CBL 3' Amplitude
~Parameter Information Block
~A  Depth      HVOLTA        GR         CCL         TT3         AMP3    
# ...
   528.7500     97.1183    101.1229      0.0000    772.2758      6.6040
   529.0000     97.3380     97.7566      0.0000    784.5430      6.4401
   529.2500     97.4265     93.8501      0.0000    802.1522      6.3128
   529.5000     97.2114     89.7999      0.0000    823.6902      6.1679
   529.7500     97.2760     86.7128      0.0000    844.7974      6.0424
   530.0000     97.1290     85.2617      0.0000    860.5571      6.0170
   530.2500     97.2999     84.6015      0.0000    868.6713      6.1137
   530.5000     97.1016     83.1126      2.0000    870.0136      6.2843
   530.7500     97.3477     80.2357      2.0000    866.7993      6.4704
   531.0000     97.2282     77.1720      0.0000    860.8388      6.6594
   531.2500     97.4957     75.8085      0.0000    852.6146      6.9094
   531.5000     97.3655     77.2328      0.0000    841.5257      7.3059
   531.7500     97.2521     81.0715      0.0000    827.4090      7.8422
   532.0000     97.2318     86.0592      0.0000    811.6766      8.3536
   532.2500     97.2999     91.3880      0.0000    796.9092      8.6395
   532.5000     97.2318     97.4276      0.0000    785.4916      8.6531
   532.7500     97.2999    104.6433      0.0000    778.1733      8.5258
   533.0000     97.3238    111.8301      0.0000    773.6986      8.4186
   533.2500     97.4539    116.2358      0.0000    770.2050      8.3933
   533.5000     97.1900    115.9193      0.0000    766.9090      8.4095
   533.7500     97.0538    111.6469      0.0000    764.1841      8.4063
   534.0000     97.2699    106.3042      0.0000    762.4725      8.3706
   534.2500     97.3106    102.8184      0.0000    761.6865      8.3357
   534.5000     97.0958    102.6366      0.0000    761.4412      8.3334
   534.7500     96.9944    105.4499      0.0000    761.4095      8.3585
   535.0000     97.2101    109.6909      0.0000    761.4293      8.3728
   535.2500     97.2485    113.5589      0.0000    761.4375      8.3325
   535.5000     97.1768    116.3084      0.0000    761.4287      8.2159
   535.7500     97.1708    118.7163      0.0000    761.4340      8.0354
   536.0000     97.2246    122.0624      0.0000    761.4812      7.8301
   536.2500     97.2449    126.5891      0.0000    761.5477      7.6463
   536.5000     97.3309    131.1177      0.0000    761.5699      7.5200
   536.7500     97.1494    134.1749      0.0000    761.5045      7.4654
   537.0000     97.2664    135.2699      0.0000    761.3767      7.4742
   537.2500     97.2043    135.1379      0.0000    761.2670      7.5262
   537.5000     97.2556    135.2033      0.0000    761.2545      7.6068
   537.7500     97.2831    136.7578      0.0000    761.3735      7.7109
   538.0000     97.1829    139.9433      0.0000    761.6035      7.8305
   538.2500     97.2963    143.4136      0.0000    761.8810      7.9484
   538.5000     97.2079    145.5766      0.0000    762.1212      8.0485
   538.7500     97.2449    146.1845      0.0000    762.2485      8.1262
   539.0000     97.3202    146.2812      0.0000    762.1812      8.1780
   539.2500     97.1936    146.7675      0.0000    761.7207      8.1821
   539.5000     97.2556    147.3536      0.0000    760.3884      8.1009
   539.7500     97.2713    146.8561      0.0000    757.4044      7.9102
   540.0000     97.2688    144.6676      0.0000    752.0672      7.6271
   540.2500     97.4946    142.1068      0.0000    744.4908      7.3050
   540.5000     97.1422    141.7557      0.0000    736.0196      7.0005
   540.7500     97.2032    144.7361      0.0000    728.6376      6.7445
   541.0000     97.2963    148.8600      0.0000    723.8268      6.5399
   541.2500     97.1971    150.2761      0.0000    722.1064      6.3773
   541.5000     97.3238    147.0509      0.0000    723.5126      6.2497
   541.7500     97.1911    140.7246      0.0000    727.9822      6.1576
   542.0000     97.2043    134.5993      0.0000    734.9708      6.1061
   542.2500     97.2318    131.2066      0.0000    743.0228      6.0924
   542.5000     97.1016    131.2756      0.0000    750.2728      6.0988
   542.7500     97.3202    134.1263      0.0000    755.5496      6.1010
   543.0000     97.2282    138.4628      0.0000    758.8651      6.0825
   543.2500     97.1625    143.0243      0.0000    760.9153      6.0370
   543.5000     97.0980    146.9837      0.0000    762.3610      5.9648
   543.7500     97.1016    149.9944      0.0000    763.6852      5.8746
   544.0000     97.2007    151.9237      0.0000    765.5581      5.7859
   544.2500     97.1529    152.6395      0.0000    769.2024      5.7240
   544.5000     97.2139    152.0441      0.0000    775.9884      5.7053
   544.7500     97.3070    150.0541      0.0000    785.8676      5.7224
   545.0000     97.1494    146.4585      0.0000    795.8413      5.7431
   545.2500     97.3309    141.1883      0.0000    801.0076      5.7338
   545.5000     97.1183    135.0238      0.0000    798.3608      5.6873
   545.7500     97.0980    129.8104      0.0000    789.4126      5.6220
   546.0000     97.4636    127.5453      0.0000    778.6217      5.5588
   546.2500     97.2592    129.0230      0.0000    769.8203      5.5075
   546.5000     97.3334    133.3188      0.0000    764.3864      5.4711
   546.7500     97.3130    138.5143      0.0000    761.8020      5.4542
   547.0000     97.1397    142.7794      0.0000    760.9738      5.4636
   547.2500     97.2449    145.0282      0.0000    761.0616      5.5052
   547.5000     97.2556    145.2666      0.0000    761.6228      5.5822
   547.7500     97.1051    144.7655      0.0000    762.4225      5.6939
   548.0000     97.2795    145.5556      0.0000    763.2533      5.8332
   548.2500     97.2246    149.1546      0.0000    763.9519      5.9848
   548.5000     97.3273    155.5416      0.0000    764.5949      6.1290
   548.7500     97.0909    163.1885      0.0000    765.8936      6.2494
   549.0000     97.3273    169.7895      0.0000    769.6124      6.3393
   549.2500     97.2282    173.1299      0.0000    778.3001      6.4033
   549.5000     97.2628    172.0729      0.0000    793.3597      6.4563
   549.7500     97.2688    167.3919      0.0000    812.1837      6.5153
   550.0000     97.2485    161.4334      0.0000    828.1915      6.5863
   550.2500     97.2414    156.3763      0.0000    836.0513      6.6588
   550.5000     97.4504    152.7856      0.0000    837.0588      6.7188
   550.7500     97.2963    149.9203      0.0000    837.4688      6.7669
   551.0000     97.1016    147.0155      0.0000    841.3478      6.8145
   551.2500     97.1732    144.1778      0.0000    846.3053      6.8630
   551.5000     97.0837    142.7761      0.0000    845.8223      6.8906
   551.7500     97.1529    145.0574      0.0000    835.0273      6.8636
   552.0000     97.3858    152.1969      0.0000    815.0438      6.7617
   552.2500     97.2999    162.1705      0.0000    792.4066      6.5948
   552.5000     97.1804    170.4624      0.0000    774.2584      6.3971
   552.7500     97.2043    173.4367      0.0000    764.0598      6.2087
   553.0000     97.1219    170.7048      0.0000    760.9249      6.0603
   553.2500     97.1936    164.5457      0.0000    761.5316      5.9677
   553.5000     97.0812    158.0063      0.0000    762.4630      5.9275
   553.7500     97.0395    153.4833      0.0000    761.9606      5.9094
   554.0000     97.1005    151.8917      0.0000    761.1434      5.8612
   554.2500     97.2867    152.2605      0.0000    764.0728      5.7331
   554.5000     97.2414    152.1261      0.0000    775.2947      5.5116
   554.7500     97.1864    148.8506      0.0000    795.4988      5.2384
   555.0000     97.0538    141.1517      0.0000    819.8007      4.9980
   555.2500     97.2688    129.7889      0.0000    841.3628      4.8722
   555.5000     97.2688    117.0622      0.0000    855.9921      4.8885
   555.7500     97.0598    105.7052      0.0000    862.4557      5.0060
   556.0000     97.0466     98.0933      0.0000    860.2235      5.1505
   556.2500     97.3238     96.0012      0.0000    849.6353      5.2630
   556.5000     97.1625    100.3467      0.0000    834.0967      5.3200
