~Version Information
VERS.                      2.0: CWLS Log ASCII Standard - VERSION 2.0
WRAP.                       NO: One line per depth step
~Well Information Block
STRT.FT               580.0000: 
STOP.FT              1756.7500: 
STEP.FT                 0.2500: 
NULL.                -999.2500: 
COMP.          Pioneer Natural Resources: COMPANY
WELL.          Lookout Point 31-23 Tr: WELL
FLD.           Purgatoire River: FIELD
LOC.           541' FNL & 1786' FEL: LOCATION
PROV.                 Colorado: PROVINCE
CNTY.               Las Animas: COUNTRY
SRVC.                Patterson: SERVICE COMPANY
DATE.          Sun Jan 23 04:14:25 2005: LOG DATE
UWI.           05 071 08260 00: UNIQUE WELL ID
~Curve Information Block
DEPT.FT            0 000 00 00: Depth
DIR.Ohm-m                     : IEL Induction Resistivity
GR.GAPI                       : Gamma Ray
SN.Ohm-m                      : IEL Short Normal
SP.mV                         : IEL Spontaneous Potential
~Parameter Information Block
~A  Depth       DIR          GR          SN          SP     
# ...
  1719.0000     11.7003    150.2352     12.5703    155.5050
  1719.2500     11.1647    151.6655     12.0993    156.0467
  1719.5000     10.7268    153.3255     11.6821    156.4155
  1719.7500     10.3859    154.0197     11.3228    156.6129
  1720.0000     10.1338    154.2243     11.0346    156.6350
  1720.2500      9.9577    153.4930     10.8319    156.4803
  1720.5000      9.8433    150.7226     10.7147    156.1583
  1720.7500      9.7775    148.1176     10.6619    155.6991
  1721.0000      9.7476    144.5632     10.6399    155.1579
  1721.2500      9.7400    143.1253     10.6176    154.6090
  1721.5000      9.7386    142.4871     10.5771    154.1310
  1721.7500      9.7292    142.8350     10.5149    153.7883
  1722.0000      9.7057    144.2995     10.4374    153.6171
  1722.2500      9.6733    145.7987     10.3538    153.6219
  1722.5000      9.6428    148.3408     10.2702    153.7811
  1722.7500      9.6223    149.8330     10.1884    154.0565
  1723.0000      9.6117    151.0950     10.1122    154.4017
  1723.2500      9.6039    150.9192     10.0507    154.7690
  1723.5000      9.5897    148.5154     10.0119    155.1132
  1723.7500      9.5639    144.9636     10.0023    155.3936
  1724.0000      9.5284    134.7926     10.0367    155.5722
  1724.2500      9.4922    123.1000     10.1380    155.6125
  1724.5000      9.4695     96.6471     10.3187    155.4781
  1724.7500      9.4755     74.6479     10.5641    155.1373
  1725.0000      9.5232     42.0905     10.8425    154.5692
  1725.2500      9.6226     24.9205     11.1301    153.7698
  1725.5000      9.7809      8.9578     11.4232    152.7524
  1725.7500     10.0038      3.8281     11.7333    151.5390
  1726.0000     10.2967      0.8196     12.0732    150.1486
  1726.2500     10.6644      0.2431     12.4503    148.5893
  1726.5000     11.1098      0.0276     12.8685    146.8614
  1726.7500     11.6316      0.0037     13.3359    144.9726
  1727.0000     12.2237   -999.2500     13.8705    142.9586
  1727.2500     12.8736   -999.2500     14.4989    140.8949
  1727.5000     13.5636   -999.2500     15.2458    138.8887
  1727.7500     14.2714   -999.2500     16.1183    137.0494
  1728.0000     14.9734   -999.2500     17.0932    135.4492
  1728.2500     15.6500   -999.2500     18.1152    134.0914
  1728.5000     16.2919   -999.2500     19.1175    132.9042
  1728.7500     16.9040   -999.2500     20.0634    131.7643
  1729.0000     17.5052   -999.2500     20.9807    130.5428
  1729.2500     18.1226   -999.2500     21.9555    129.1523
  1729.5000     18.7847   -999.2500     23.0780    127.5782
  1729.7500     19.5159   -999.2500     24.3802    125.8801
  1730.0000     20.3318   -999.2500     25.8136    124.1689
  1730.2500     21.2313   -999.2500     27.2827    122.5707
  1730.5000     22.1823   -999.2500     28.7013    121.1940
  1730.7500     23.1124   -999.2500     30.0304    120.1077
  1731.0000     23.9290   -999.2500     31.2777    119.3291
  1731.2500     24.5694   -999.2500     32.4665    118.8169
  1731.5000     25.0424   -999.2500     33.6012    118.4683
  1731.7500     25.4124   -999.2500     34.6592    118.1290
  1732.0000     25.7457   -999.2500     35.6146    117.6216
  1732.2500     26.0741   -999.2500     36.4664    116.7942
  1732.5000     26.4051   -999.2500     37.2451    115.5675
  1732.7500     26.7489   -999.2500     37.9939    113.9550
  1733.0000     27.1272   -999.2500     38.7370    112.0388
  1733.2500     27.5530   -999.2500     39.4556    109.9090
  1733.5000     28.0113   -999.2500     40.0972    107.6008
  1733.7500     28.4620   -999.2500     40.6254    105.0685
  1734.0000     28.8699   -999.2500     41.0825    102.2117
  1734.2500     29.2352   -999.2500     41.6147     98.9375
  1734.5000     29.6008   -999.2500     42.4244     95.2248
  1734.7500     30.0264   -999.2500     43.6549     91.1575
  1735.0000     30.5508   -999.2500     45.2654     86.9252
  1735.2500     31.1612   -999.2500     46.9846     82.8025
  1735.5000     31.7781   -999.2500     48.3852     79.1267
  1735.7500     32.2568   -999.2500     49.0464     76.2727
  1736.0000     32.4091   -999.2500     48.7068     74.6142
  1736.2500     32.0511   -999.2500     47.3271     74.4598
  1736.5000     31.0780   -999.2500     45.0567     75.9740
  1736.7500     29.5287   -999.2500     42.1588     79.1129
  1737.0000     27.5873   -999.2500     38.9387     83.6088
  1737.2500     25.5059   -999.2500     35.6803     89.0184
  1737.5000     23.5052   -999.2500     32.5910     94.8201
  1737.7500     21.7134   -999.2500     29.7723    100.5226
  1738.0000     20.1615   -999.2500     27.2304    105.7478
  1738.2500     18.8132   -999.2500     24.9186    110.2623
  1738.5000     17.6062   -999.2500     22.7827    113.9638
  1738.7500     16.4904   -999.2500     20.7942    116.8420
  1739.0000     15.4502   -999.2500     18.9659    118.9396
  1739.2500     14.5025   -999.2500     17.3470    120.3296
  1739.5000     13.6773   -999.2500     15.9953    121.1076
  1739.7500     12.9950   -999.2500     14.9398    121.3898
  1740.0000     12.4538   -999.2500     14.1625    121.3061
  1740.2500     12.0297   -999.2500     13.6085    120.9856
  1740.5000     11.6866   -999.2500     13.2043    120.5375
  1740.7500     11.3901   -999.2500     12.8710    120.0369
  1741.0000     11.1181   -999.2500     12.5431    119.5210
  1741.2500     10.8635   -999.2500     12.1940    118.9968
  1741.5000     10.6288   -999.2500     11.8445    118.4555
  1741.7500     10.4174   -999.2500     11.5419    117.8865
  1742.0000     10.2291   -999.2500     11.3299    117.2853
  1742.2500     10.0612   -999.2500     11.2286    116.6526
  1742.5000      9.9108   -999.2500     11.2272    115.9880
  1742.7500      9.7770   -999.2500     11.2882    115.2816
  1743.0000      9.6607   -999.2500     11.3613    114.5079
  1743.2500      9.5641   -999.2500     11.4026    113.6268
  1743.5000      9.4926   -999.2500     11.3929    112.5905
  1743.7500      9.5367   -999.2500     11.3412    111.3570
  1744.0000      9.5494   -999.2500     11.2736    109.9058
  1744.2500      9.6217   -999.2500     11.2148    108.2447
  1744.5000      9.7522   -999.2500     11.1740    106.4070
  1744.7500      9.9233   -999.2500     11.1408    104.4356
  1745.0000     10.1059   -999.2500     11.0932    102.3667
  1745.2500     10.2720   -999.2500     11.0150    100.2214
  1745.5000     10.4088   -999.2500     10.9148     98.0121
  1745.7500     10.5239   -999.2500     10.8345     95.7569
  1746.0000     10.6458   -999.2500     10.8370     93.4896
  1746.2500     10.8296   -999.2500     10.9722     91.2551
  1746.5000     11.1806   -999.2500     11.2372     89.0875
  1746.7500     11.8949   -999.2500     11.5646     86.9812
  1747.0000     13.3289   -999.2500     11.8594     84.8688
  1747.2500     15.9122   -999.2500     12.0508     82.6150
  1747.5000     21.5524   -999.2500     12.1171     80.0330
  1747.7500     34.4440   -999.2500     12.0775     76.9115
  1748.0000     74.2675   -999.2500     11.9756     73.0472
  1748.2500    625.2003   -999.2500     11.8593     68.2710
  1748.5000 100000.0000   -999.2500     11.7545     62.4690
  1748.7500 100000.0000   -999.2500     11.6446     55.6081
  1749.0000 100000.0000   -999.2500     11.4741     47.7796
  1749.2500 100000.0000   -999.2500     11.1826     39.2643
  1749.5000 100000.0000   -999.2500     10.7470     30.5982
  1749.7500 100000.0000   -999.2500     10.2041     22.5907
  1750.0000 100000.0000   -999.2500      9.6371     16.2495
  1750.2500 100000.0000   -999.2500      9.1370     12.5954
  1750.5000 100000.0000   -999.2500      8.7641     12.4076
  1750.7500 100000.0000   -999.2500      8.5335     15.9837
  1751.0000 100000.0000   -999.2500      8.4171     23.0073
  1751.2500 100000.0000   -999.2500      8.3384     32.5824
  1751.5000 100000.0000   -999.2500      8.1378     43.4324
  1751.7500 100000.0000   -999.2500      7.5521     54.2020
  1752.0000 100000.0000   -999.2500      6.3164     63.7628
  1752.2500 100000.0000   -999.2500      4.3984     71.4231
