~Version Information
VERS.                      2.0: CWLS Log ASCII Standard - VERSION 2.0
WRAP.                       NO: One line per depth step
~Well Information Block
STRT.FT               530.0000: 
STOP.FT              1825.0000: 
STEP.FT                 0.1000: 
NULL.                -999.2500: 
COMP.          Pioneer Natural Resources: COMPANY
WELL.          Vision 31-11 Tr: WELL
FLD.           Purgatoire River: FIELD
LOC.           742' FNL & 1593' FEL: LOCATION
STAT.                 Colorado: State
CNTY.               Las Animas: COUNTY
CTRY. USA : Country
SECT. 11 : Section
TOWN. 32S : Township
RANG. 66W : Range
SRVC.                Patterson: SERVICE COMPANY
DATE.          Mon Oct 10 07:17:32 2005: LOG DATE
API.           05 071 08305 00: UNIQUE WELL ID
~Curve Information Block
DEPT.FT            0 000 00 00: Depth
DCAL.in                       : CDL Caliper
RHOB.g/cc                     : CDL Bulk Density
RHOC.g/cc                     : CDL Density Correction
DPOR.pu                       : CDL Density Porosity
GR.GAPI                       : Gamma Ray
NPOR.pu                       : Neutron Porosity
~Parameter Information Block
~A  Depth       DCAL        RHOB        RHOC        DPOR         GR         NPOR    
# ...
  1125.2000      8.1532      2.4781      0.0468     10.4178     82.2537     18.4275
  1125.3000      8.1321      2.4938      0.0715      9.4645     82.2011     18.2195
  1125.4000      8.1321      2.5039      0.0735      8.8552     81.9205     18.1007
  1125.5000      8.1409      2.5180      0.0963      8.0019     83.8353     17.7900
  1125.6000      8.1409      2.5382      0.1322      6.7787     86.3671     17.2048
  1125.7000      8.1409      2.5434      0.1676      6.4615     87.2928     16.6057
  1125.8000      8.1055      2.5241      0.1215      7.6318     85.9223     16.3075
  1125.9000      8.1055      2.5126      0.0434      8.3250     80.4521     16.2280
  1126.0000      8.0422      2.5335      0.1196      7.0635     72.1655     16.2143
  1126.1000      8.0422      2.5593      0.1446      5.4945     64.8954     16.4278
  1126.2000      8.0422      2.5611      0.1063      5.3884     59.4174     17.2793
  1126.3000      8.0354      2.5509      0.0527      6.0061     56.0209     18.7090
  1126.4000      8.0354      2.5531      0.0858      5.8727     54.5988     19.7771
  1126.5000      8.0565      2.5667      0.1129      5.0479     55.1731     19.8031
  1126.6000      8.0565      2.5761      0.1246      4.4762     56.6870     19.2248
  1126.7000      8.0565      2.5791      0.0523      4.2987     54.2718     18.7838
  1126.8000      8.0789      2.5807      0.0454      4.1993     48.7950     18.6208
  1126.9000      8.0789      2.5807      0.0565      4.2004     48.3817     18.7010
  1127.0000      8.1119      2.5826      0.0308      4.0824     55.6796     19.0692
  1127.1000      8.1119      2.5857      0.0557      3.8946     64.7461     19.3697
  1127.2000      8.1119      2.5757      0.0175      4.5012     67.3701     19.3052
  1127.3000      8.1109      2.5514     -0.0006      5.9747     62.3007     19.0669
  1127.4000      8.1109      2.5279     -0.0203      7.4003     55.1444     18.9879
  1127.5000      8.0959      2.5158     -0.0037      8.1331     49.5099     19.2666
  1127.6000      8.0959      2.5151      0.0340      8.1732     46.8465     19.3838
  1127.7000      8.0959      2.5148      0.0804      8.1936     47.0806     18.7658
  1127.8000      8.0736      2.5093      0.0058      8.5291     48.1256     17.9590
  1127.9000      8.0736      2.5107      0.0523      8.4401     47.9254     17.7005
  1128.0000      8.0954      2.5215      0.0474      7.7857     46.9598     17.8099
  1128.1000      8.0954      2.5238      0.1058      7.6469     47.6343     17.7402
  1128.2000      8.0954      2.5007      0.0922      9.0492     49.4772     17.2270
  1128.3000      8.1092      2.4566      0.0460     11.7191     50.6314     16.6311
  1128.4000      8.1092      2.4175     -0.0310     14.0909     51.7271     16.5218
  1128.5000      8.0993      2.4145     -0.0258     14.2698     52.9830     16.7692
  1128.6000      8.0993      2.4551      0.0179     11.8104     52.2863     17.0744
  1128.7000      8.0993      2.5100      0.0852      8.4832     50.2513     17.4718
  1128.8000      8.0716      2.5411      0.1455      6.6008     50.2118     17.6439
  1128.9000      8.0716      2.5387      0.1118      6.7452     52.6390     17.2903
  1129.0000      8.0635      2.5269      0.0548      7.4599     55.6147     16.7450
  1129.1000      8.0635      2.5276      0.0743      7.4195     57.3306     16.5134
  1129.2000      8.0635      2.5382      0.0789      6.7751     56.7526     16.7518
  1129.3000      8.0730      2.5489      0.0816      6.1256     53.6775     17.3027
  1129.4000      8.0730      2.5509      0.1090      6.0087     50.4662     18.0928
  1129.5000      8.0671      2.5323      0.1048      7.1324     51.3746     18.9008
  1129.6000      8.0671      2.4967      0.0523      9.2936     54.5217     19.1229
  1129.7000      8.0671      2.4695      0.0046     10.9402     54.2476     18.6864
  1129.8000      8.0710      2.4757     -0.0180     10.5645     51.6132     18.2887
  1129.9000      8.0710      2.5134      0.0499      8.2810     51.2978     18.3570
  1130.0000      8.1025      2.5506      0.1076      6.0236     52.7084     18.6771
  1130.1000      8.1025      2.5576      0.1085      5.5984     52.6950     18.8904
  1130.2000      8.1025      2.5395      0.0179      6.6985     53.3863     18.8428
  1130.3000      8.1257      2.5180      0.0398      7.9982     58.2493     18.5546
  1130.4000      8.1257      2.5007      0.0083      9.0492     63.2877     18.2450
  1130.5000      8.1411      2.4837      0.0111     10.0812     64.2726     18.1225
  1130.6000      8.1411      2.4581      0.0245     11.6323     64.6760     18.1009
  1130.7000      8.1411      2.4238     -0.0044     13.7092     66.2564     18.0341
  1130.8000      8.1381      2.3861     -0.0062     15.9964     64.9874     17.9937
  1130.9000      8.1381      2.3469     -0.0086     18.3711     60.2603     18.2935
  1131.0000      8.1327      2.3174     -0.0224     20.1573     56.7441     18.9391
  1131.1000      8.1327      2.3044     -0.0160     20.9479     56.8382     19.6237
  1131.2000      8.1327      2.2909      0.0682     21.7643     59.2920     20.1824
  1131.3000      8.1255      2.2650      0.0172     23.3328     62.8537     20.5285
  1131.4000      8.1255      2.2532      0.0438     24.0511     68.5870     20.9629
  1131.5000      8.1134      2.2811      0.1605     22.3570     77.7240     21.6224
  1131.6000      8.1134      2.3323      0.2332     19.2573     87.4977     22.2538
  1131.7000      8.1134      2.3793      0.2309     16.4050     97.1593     22.9219
  1131.8000      8.1275      2.4151      0.2768     14.2372    109.8728     23.5795
  1131.9000      8.1275      2.4487      0.2791     12.2018    123.3860     23.7113
  1132.0000      8.0637      2.4880      0.3393      9.8173    131.5711     23.4653
  1132.1000      8.0637      2.5226      0.3529      7.7223    134.8315     23.7717
  1132.2000      8.0637      2.5348      0.3270      6.9796    137.7835     24.8874
  1132.3000      7.9630      2.5236      0.2672      7.6628    140.4053     26.0409
  1132.4000      7.9630      2.5019      0.2469      8.9751    141.6586     26.5192
  1132.5000      7.9438      2.4721      0.2496     10.7840    144.9374     26.4096
  1132.6000      7.9438      2.4271      0.1784     13.5075    149.6978     26.3659
  1132.7000      7.9438      2.3790      0.1354     16.4242    151.6947     26.6930
  1132.8000      8.1465      2.3544      0.0805     17.9148    153.2495     26.7519
  1132.9000      8.1465      2.3623      0.0970     17.4390    156.2438     26.1171
  1133.0000      8.2003      2.3819      0.0921     16.2483    155.0273     25.4615
  1133.1000      8.2003      2.3930      0.1085     15.5778    146.2429     25.3228
  1133.2000      8.2003      2.3919      0.0985     15.6420    135.9944     25.6835
  1133.3000      8.1915      2.3826      0.0803     16.2043    134.3319     26.1416
  1133.4000      8.1915      2.3683      0.0441     17.0705    142.7868     26.1750
  1133.5000      8.2124      2.3463      0.0965     18.4036    149.7741     26.0668
  1133.6000      8.2124      2.3186      0.0522     20.0827    148.1894     26.0915
  1133.7000      8.2124      2.3008      0.0609     21.1636    142.7536     25.8386
  1133.8000      8.2856      2.3044      0.0189     20.9484    140.1467     25.0969
  1133.9000      8.2856      2.3247      0.0581     19.7141    141.7368     24.2185
  1134.0000      8.3196      2.3487      0.0817     18.2614    141.4532     23.6621
  1134.1000      8.3196      2.3672      0.0685     17.1373    138.9794     23.4490
  1134.2000      8.3196      2.3709      0.1011     16.9131    141.4729     23.2101
  1134.3000      8.3518      2.3480      0.0605     18.3041    147.5218     22.6786
  1134.4000      8.3518      2.3034      0.0294     21.0054    151.1369     21.7701
  1134.5000      8.3750      2.2546      0.0608     23.9639    152.5949     20.7321
  1134.6000      8.3750      2.2062      0.0528     26.8992    152.8653     20.0557
  1134.7000      8.3750      2.1498      0.0154     30.3181    149.9560     19.8021
