~Version Information
 VERS.                      2.0: CWLS Log ASCII Standard - VERSION 2.0
 WRAP.                       NO: One line per depth step
 ~Well Information Block
 STRT.FT               886.1000: 
 STOP.FT              2599.0000: 
 STEP.FT                 0.1000: 
 NULL.                -999.2500: 
 COMP.          Petrogulf Corporation: COMPANY
 WELL.               YWAM 7-23V: WELL
 FLD.           Purgatorie River: FIELD
 LOC.           230' FSL & 225' FWL: LOCATION
 CNTY.               Las Animas: COUNTY
 SRVC.                         : SERVICE COMPANY
 DATE.          Sat Oct 30 10:42:52 2004: LOG DATE
 UWI.           05 071 08227 00: UNIQUE WELL ID
 STAT.                 Colorado: STATE
 PROV.                         :Province
 ~Curve Information Block
 DEPT.FT            0 000 00 00: Depth
 DCAL.in                       : CDL Caliper
 RHOB.g/cc                     : CDL Bulk Density
 RHOC.g/cc                     : CDL Density Correction
 DPOR.pu                       : CDL Density Porosity
 GR.GAPI                       : Gamma Ray
 NPOR.pu                       : Neutron Porosity
 ~Parameter Information Block
 ~A  Depth       DCAL        RHOB        RHOC        DPOR         GR         NPOR    
# ...
  1462.1000      8.0358      2.3193      0.1051     20.0402    124.1504     29.9099
  1462.2000      8.0358      2.2187      0.0519     26.1390    125.6481     29.7510
  1462.3000      8.0792      2.1188      0.0427     32.1915    130.3801     29.7529
  1462.4000      8.0792      2.0530     -0.0503     36.1804    130.2843     30.4328
  1462.5000      8.0833      2.0422     -0.0295     36.8376    125.7506     31.3760
  1462.6000      8.0833      2.0824      0.0436     34.4014    123.8487     31.7434
  1462.7000      8.0833      2.1433      0.0656     30.7109    125.8923     31.0647
  1462.8000      8.0921      2.2075      0.1125     26.8164    126.6880     30.2262
  1462.9000      8.0921      2.2857      0.1892     22.0761    124.1131     30.2233
  1463.0000      8.1082      2.3844      0.3131     16.0954    124.8528     30.3571
  1463.1000      8.1082      2.4767      0.3566     10.5012    132.4429     29.7751
  1463.2000      8.1082      2.5246      0.2606      7.5981    138.6525     29.1713
  1463.3000      8.1667      2.5180      0.1861      7.9981    136.2357     29.0362
  1463.4000      8.1667      2.4812      0.0827     10.2285    130.3264     28.9010
  1463.5000      8.1724      2.4582      0.0538     11.6270    128.6107     28.7410
  1463.6000      8.1724      2.4740      0.0997     10.6649    133.0767     28.7153
  1463.7000      8.1724      2.5050      0.1142      8.7853    139.9950     28.5115
  1463.8000      8.1790      2.5123      0.0650      8.3444    145.5007     27.2627
  1463.9000      8.1790      2.4959     -0.0002      9.3424    150.9245     25.0993
  1464.0000      8.1093      2.4883     -0.0146      9.7985    156.3434     23.3454
  1464.1000      8.1093      2.4979      0.0032      9.2164    154.8481     22.5204
  1464.2000      8.1093      2.5007      0.0590      9.0473    140.9760     22.0277
  1464.3000      8.0678      2.4930     -0.0014      9.5150    122.7171     21.6584
  1464.4000      8.0678      2.4878      0.0451      9.8297    112.0135     21.7857
  1464.5000      8.0572      2.4873     -0.0005      9.8610    108.6609     22.2024
  1464.6000      8.0572      2.4965      0.0180      9.3046    110.3850     22.1329
  1464.7000      8.0572      2.5155      0.0331      8.1518    117.0525     21.1501
  1464.8000      8.0455      2.5302      0.0567      7.2589    124.4568     19.8253
  1464.9000      8.0455      2.5329      0.0509      7.0963    128.6540     19.0299
  1465.0000      8.0402      2.5289      0.0560      7.3381    129.1235     18.8210
  1465.1000      8.0402      2.5277      0.0332      7.4130    127.6869     19.2694
  1465.2000      8.0402      2.5293      0.0618      7.3143    126.0662     20.3181
  1465.3000      8.0418      2.5241      0.0594      7.6311    124.0077     21.0438
  1465.4000      8.0418      2.5200      0.0186      7.8802    120.3878     21.1641
  1465.5000      8.0582      2.5333      0.0834      7.0726    116.9302     20.9970
  1465.6000      8.0582      2.5540      0.1052      5.8171    117.6740     20.7691
  1465.7000      8.0582      2.5663      0.0778      5.0726    121.2353     20.7380
  1465.8000      8.0409      2.5707      0.0984      4.8091    121.8614     20.8743
  1465.9000      8.0409      2.5718      0.0807      4.7381    120.1214     21.2465
  1466.0000      8.0368      2.5743      0.0596      4.5855    119.3022     22.0274
  1466.1000      8.0368      2.5811      0.0906      4.1758    120.0414     22.6054
  1466.2000      8.0368      2.5897      0.1027      3.6540    122.3289     22.5630
  1466.3000      8.0385      2.5915      0.0953      3.5458    124.2931     22.4882
  1466.4000      8.0385      2.5790      0.0789      4.3049    124.2577     22.5897
  1466.5000      8.0299      2.5554      0.0987      5.7338    124.4916     22.2688
  1466.6000      8.0299      2.5383      0.0226      6.7704    125.3231     21.5409
  1466.7000      8.0299      2.5413      0.0695      6.5887    124.8651     21.1336
  1466.8000      8.0354      2.5543      0.0862      5.7977    122.5070     20.9487
  1466.9000      8.0354      2.5696      0.0391      4.8731    119.2693     20.4119
  1467.0000      8.0371      2.5861      0.1291      3.8718    117.3668     19.9328
  1467.1000      8.0371      2.5857      0.0911      3.8952    117.3436     20.2429
  1467.2000      8.0371      2.5677      0.0256      4.9887    119.1341     21.0696
  1467.3000      8.0609      2.5607      0.0252      5.4105    119.0599     21.6223
  1467.4000      8.0609      2.5730      0.0014      4.6694    113.2494     21.7590
  1467.5000      8.0702      2.5876      0.0447      3.7823    104.6363     21.5869
  1467.6000      8.0702      2.5913      0.0728      3.5553     96.0888     21.0898
  1467.7000      8.0702      2.5831      0.0654      4.0542     89.4541     20.3480
  1467.8000      8.0847      2.5774      0.0406      4.4000     87.4496     19.3859
  1467.9000      8.0847      2.5882      0.0849      3.7483     87.7500     18.3221
  1468.0000      8.0833      2.6085      0.0740      2.5176     88.3667     17.4150
  1468.1000      8.0833      2.6289      0.0233      1.2765     91.1906     17.0145
  1468.2000      8.0833      2.6452      0.0582      0.2913     92.1093     17.4893
  1468.3000      8.0069      2.6487      0.0963      0.0761     88.6487     18.4589
  1468.4000      8.0069      2.6389      0.0547      0.6699     88.2041     18.8957
  1468.5000      7.9887      2.6239      0.0654      1.5789     93.6095     18.7974
  1468.6000      7.9887      2.6083      0.0552      2.5273     98.0951     18.6753
  1468.7000      7.9887      2.5920      0.0154      3.5154     99.1253     18.7287
  1468.8000      7.9863      2.5764      0.0030      4.4597     98.6662     18.8679
  1468.9000      7.9863      2.5621     -0.0103      5.3290     98.6201     18.8404
  1469.0000      7.9916      2.5444      0.0295      6.3995    102.1062     19.0753
  1469.1000      7.9916      2.5249      0.0224      7.5798    107.2291     20.2920
  1469.2000      7.9916      2.5208     -0.0054      7.8276    107.9353     21.9618
  1469.3000      8.0000      2.5389      0.0429      6.7332    102.6670     22.4866
  1469.4000      8.0000      2.5552      0.0603      5.7451     97.1724     21.6875
  1469.5000      7.9913      2.5513      0.0177      5.9823     97.9618     21.2094
  1469.6000      7.9913      2.5349      0.0333      6.9740    104.5344     21.6501
  1469.7000      7.9913      2.5158      0.0374      8.1307    111.3176     21.9105
  1469.8000      7.9884      2.5094     -0.0231      8.5214    116.0556     21.6990
  1469.9000      7.9884      2.5355      0.0681      6.9410    121.3459     22.1418
  1470.0000      7.9940      2.5739      0.1722      4.6112    129.7580     23.6524
  1470.1000      7.9940      2.5868      0.0889      3.8303    135.8557     25.4325
  1470.2000      7.9940      2.5776      0.0970      4.3893    133.9640     26.8148
  1470.3000      7.9966      2.5640      0.1051      5.2137    130.3022     27.5269
  1470.4000      7.9966      2.5453      0.0750      6.3451    131.1060     27.3504
  1470.5000      7.9964      2.5266      0.0322      7.4764    133.8006     26.4058
  1470.6000      7.9964      2.5227      0.0650      7.7132    135.3934     25.4010
  1470.7000      7.9964      2.5406      0.0507      6.6313    136.6080     25.0849
  1470.8000      8.0000      2.5763      0.0929      4.4695    138.5280     25.4743
  1470.9000      8.0000      2.6168      0.0946      2.0134    142.2692     26.1842
  1471.0000      8.0023      2.6457      0.0987      0.2616    145.8456     26.7199
  1471.1000      8.0023      2.6432      0.1399      0.4135    145.2207     26.2796
  1471.2000      8.0023      2.6117      0.1066      2.3192    142.3239     24.8871
  1471.3000      7.9951      2.5826      0.0660      4.0859    140.0053     23.5627
  1471.4000      7.9951      2.5718      0.0741      4.7406    137.4606     22.8901
  1471.5000      8.0043      2.5609      0.0639      5.4015    134.9585     22.9568
  1471.6000      8.0043      2.5253      0.0462      7.5564    133.4054     23.1942
