~Version Information
VERS.                      2.0: CWLS Log ASCII Standard - VERSION 2.0
WRAP.                       NO: One line per depth step
~Well Information Block
STRT.FT               500.0000: 
STOP.FT              2760.5000: 
STEP.FT                 0.1000: 
NULL.                -999.2500: 
COMP.          Petrogulf Corporation: COMPANY
WELL.              Silva 1-43V: WELL
FLD.           Purgatorie River: FIELD
LOC.           2010' FSL & 614' FEL: LOCATION
PROV.                 Colorado: PROVINCE
CNTY.               Las Animas: COUNTRY
SRVC.                Patterson: SERVICE COMPANY
DATE.          Mon Aug 29 08:02:37 2005: LOG DATE
UWI.                          : UNIQUE WELL ID
~Curve Information Block
DEPT.FT            0 000 00 00: Depth
DCAL.in                       : CDL Caliper
RHOB.g/cc                     : CDL Bulk Density
RHOC.g/cc                     : CDL Density Correction
DPOR.pu                       : CDL Density Porosity
GR.GAPI                       : Gamma Ray
NPOR.pu                       : Neutron Porosity
~Parameter Information Block
~A  Depth       DCAL        RHOB        RHOC        DPOR         GR         NPOR    
# ...
   653.6000      8.7056      1.8297      0.0911     49.7160    161.2956     22.5516
   653.7000      8.7056      1.7846      0.0518     52.4498    159.2753     23.5470
   653.8000      8.7157      1.7187      0.0601     56.4449    157.8146     24.4074
   653.9000      8.7157      1.6583      0.0049     60.1035    159.6132     24.7866
   654.0000      8.7361      1.6350     -0.0095     61.5146    162.9106     24.8431
   654.1000      8.7361      1.6675      0.0470     59.5451    165.7837     24.8837
   654.2000      8.7361      1.7426      0.0192     54.9958    166.4874     24.8298
   654.3000      8.7252      1.8366      0.0623     49.2974    165.3650     24.2657
   654.4000      8.7252      1.9554      0.1044     42.0965    165.7818     23.4280
   654.5000      8.8231      2.1194      0.3010     32.1597    169.6348     23.0384
   654.6000      8.8231      2.3065      0.5494     20.8193    174.1328     23.1933
   654.7000      8.8231      2.4668      0.5480     11.1058    175.8270     23.4916
   654.8000      9.1234      2.5755      0.5201      4.5155    175.6275     23.7014
   654.9000      9.1234      2.6290      0.3488      1.2753    176.6728     24.0493
   655.0000      9.1298      2.6343      0.2436      0.9539    179.1058     24.8306
   655.1000      9.1298      2.6108      0.1143      2.3732    181.0355     25.9306
   655.2000      9.1298      2.5849      0.0322      3.9453    181.2555     27.0420
   655.3000      8.7638      2.5713      0.0508      4.7683    177.4918     27.9804
   655.4000      8.7638      2.5629      0.0370      5.2796    170.4796     28.6514
   655.5000      8.7157      2.5561      0.0301      5.6923    166.5171     29.0202
   655.6000      8.7157      2.5621      0.0456      5.3250    168.3527     29.1598
   655.7000      8.7157      2.5789      0.0669      4.3077    170.7930     29.1172
   655.8000      8.7265      2.5923      0.0596      3.4956    170.1019     28.8895
   655.9000      8.7265      2.6023      0.0461      2.8914    169.1214     28.4658
   656.0000      8.7128      2.6135      0.0993      2.2114    170.8036     27.8728
   656.1000      8.7128      2.6216      0.0509      1.7197    174.8621     27.3076
   656.2000      8.7128      2.6185      0.0601      1.9092    178.0608     26.9329
   656.3000      8.7173      2.5996     -0.0005      3.0558    177.1823     26.7485
   656.4000      8.7173      2.5679      0.0332      4.9728    175.2634     26.8248
   656.5000      8.7529      2.5311     -0.0014      7.2088    176.3463     27.1788
   656.6000      8.7529      2.5030      0.0242      8.9120    179.6374     27.6051
   656.7000      8.7529      2.4923     -0.0132      9.5601    184.4022     27.8017
   656.8000      8.7281      2.4861      0.0063      9.9342    190.6270     27.6674
   656.9000      8.7281      2.4579      0.0218     11.6440    194.4447     27.4178
   657.0000      8.7122      2.4046     -0.0080     14.8730    192.1317     27.2754
   657.1000      8.7122      2.3514      0.0284     18.0974    186.8860     27.3699
   657.2000      8.7122      2.3089      0.0886     20.6751    184.6275     27.6074
   657.3000      8.6889      2.2624      0.1387     23.4933    186.3682     27.6801
   657.4000      8.6889      2.1945      0.1540     27.6065    190.0889     27.5513
   657.5000      8.6796      2.0985      0.1050     33.4239    192.8671     27.4147
   657.6000      8.6796      1.9890      0.1113     40.0632    192.2418     27.2966
   657.7000      8.6796      1.9135      0.1055     44.6386    189.2084     26.8600
   657.8000      8.6879      1.9456      0.1278     42.6925    186.8692     26.1017
   657.9000      8.6879      2.1059      0.4388     32.9781    184.9603     25.6878
   658.0000      8.7453      2.3128      0.5990     20.4380    181.3289     25.6939
   658.1000      8.7453      2.4751      0.6922     10.5982    178.3049     25.5300
   658.2000      8.7453      2.5607      0.7407      5.4124    180.7348     25.1603
   658.3000      9.2964      2.5723      0.7498      4.7086    186.8714     24.9422
   658.4000      9.2964      2.5361      0.6001      6.9029    190.1480     24.9989
   658.5000      9.8340      2.4964      0.4711      9.3113    187.7551     25.2832
   658.6000      9.8340      2.4751      0.4343     10.6017    183.2352     25.7203
   658.7000      9.8340      2.4735      0.2695     10.6966    181.6316     26.2588
   658.8000      9.3631      2.5204      0.2122      7.8554    183.8019     26.7832
   658.9000      9.3631      2.6489      0.2439      0.0656    186.8026     27.1307
   659.0000      8.7358      2.8227      0.5717    -10.4686    190.1427     27.4079
   659.1000      8.7358      2.9530      0.6357    -18.3624    194.4199     27.7454
   659.2000      8.7358      2.9949      0.5968    -20.9031    195.6196     27.9832
   659.3000      8.5447      2.9682      0.4969    -19.2819    190.4439     28.1279
   659.4000      8.5447      2.9035      0.4197    -15.3661    182.1805     28.4235
   659.5000      8.5259      2.8133      0.3297     -9.8989    178.6530     28.8448
   659.6000      8.5259      2.7162      0.1624     -4.0116    183.6467     29.2383
   659.7000      8.5259      2.6456      0.0904      0.2662    191.2257     29.4856
   659.8000      8.5049      2.6124      0.0628      2.2803    193.2319     29.4813
   659.9000      8.5049      2.6026      0.0392      2.8722    189.2465     29.2049
   660.0000      8.5001      2.6011      0.0736      2.9627    183.6851     28.6964
   660.1000      8.5001      2.5930      0.0578      3.4515    178.8296     28.3069
   660.2000      8.5001      2.5809     -0.0045      4.1864    175.3267     28.3399
   660.3000      8.4860      2.5794      0.0729      4.2799    172.8754     28.5483
   660.4000      8.4860      2.5852      0.0637      3.9295    169.4210     28.4933
   660.5000      8.4846      2.5906      0.0917      3.5975    166.6112     28.1678
   660.6000      8.4846      2.5929      0.1458      3.4577    166.4703     27.8906
   660.7000      8.4846      2.5902      0.1039      3.6230    165.9211     27.8043
   660.8000      8.4685      2.5913      0.0495      3.5590    164.4352     27.8588
   660.9000      8.4685      2.6028      0.0779      2.8629    165.6173     27.8799
   661.0000      8.4613      2.6094      0.1024      2.4590    169.8628     27.7582
   661.1000      8.4613      2.5997      0.0576      3.0514    172.6566     27.7528
   661.2000      8.4613      2.5888      0.0396      3.7071    170.1588     27.9986
   661.3000      8.4601      2.5903      0.0450      3.6189    164.4695     28.3513
   661.4000      8.4601      2.6020      0.0220      2.9064    159.0759     28.8265
   661.5000      8.4470      2.6244      0.0445      1.5495    155.7899     29.4109
   661.6000      8.4470      2.6519      0.0720     -0.1145    155.7299     29.9290
   661.7000      8.4470      2.6717      0.0850     -1.3128    157.0918     30.2069
   661.8000      8.4419      2.6883      0.0513     -2.3204    156.5008     30.2561
   661.9000      8.4419      2.7163      0.0541     -4.0188    153.5228     30.2062
   662.0000      8.4293      2.7449      0.1046     -5.7505    150.6764     30.1525
   662.1000      8.4293      2.7495      0.0708     -6.0286    148.0328     30.1725
   662.2000      8.4293      2.7305      0.0645     -4.8807    143.6306     30.2272
   662.3000      8.4391      2.7061      0.0321     -3.4027    140.0317     30.1889
   662.4000      8.4391      2.6865      0.0001     -2.2111    142.3751     30.0084
   662.5000      8.4233      2.6685      0.0261     -1.1228    150.0603     29.5729
   662.6000      8.4233      2.6472      0.0137      0.1714    155.9449     28.9856
   662.7000      8.4233      2.6246     -0.0045      1.5373    156.9864     28.5953
   662.8000      8.4351      2.6023      0.0192      2.8881    156.6250     28.2287
   662.9000      8.4351      2.5845      0.0130      3.9693    155.8556     27.5171
   663.0000      8.4370      2.5803      0.0209      4.2253    155.0290     26.5169
   663.1000      8.4370      2.5801      0.1095      4.2357    157.7603     25.6250
