~Version Information
 VERS.                      2.0: CWLS Log ASCII Standard - VERSION 2.0
 WRAP.                       NO: One line per depth step
 ~Well Information Block
 STRT.FT               763.7500: 
 STOP.FT              2577.0000: 
 STEP.FT                 0.2500: 
 NULL.                -999.2500: 
 COMP.          Petrogulf Corporation: COMPANY
 WELL.               J&P 12-33V: WELL
 FLD.           Purgatorie River: FIELD
 LOC.           2005' FSL & 1928' FEL: LOCATION
 CNTY.               Las Animas: COUNTY
 SRVC.                         : SERVICE COMPANY
 DATE.          Sat Aug 28 09:00:36 2004: LOG DATE
 UWI.           05 071 08092 00: UNIQUE WELL ID
 STAT.                 Colorado: STATE
 PROV.                         :Province
 ~Curve Information Block
 DEPT.FT            0 000 00 00: Depth
 SP.mV                         : DIL Spontaneous Potential
 RILD.Ohm-m                    : DIL Deep Resistivity
 RILM.Ohm-m                    : DIL Medium Resistivity
 RLL3.Ohm-m                    : DIL Shallow Resistivity
 GR.GAPI                       : Gamma Ray
 ~Parameter Information Block
 ~A  Depth        SP         RILD        RILM        RLL3         GR     
# ...
  1491.7500    -66.8700     13.5417     15.4226     16.5861    165.3400
  1492.0000    -66.8117     13.9202     16.0158     17.4739    163.6246
  1492.2500    -66.7472     14.2985     16.7279     18.8350    161.0155
  1492.5000    -66.6964     14.6825     17.5549     20.5882    155.7870
  1492.7500    -66.6735     15.0914     18.4918     22.7064    151.6356
  1493.0000    -66.6845     15.5538     19.5344     25.1486    144.6900
  1493.2500    -66.7248     16.1006     20.6792     27.7752    140.1190
  1493.5000    -66.7806     16.7605     21.9250     30.3255    134.7004
  1493.7500    -66.8317     17.5565     23.2717     32.5040    132.5357
  1494.0000    -66.8551     18.5029     24.7208     34.1344    131.3867
  1494.2500    -66.8287     19.5979     26.2742     35.2663    131.6356
  1494.5000    -66.7346     20.8132     27.9331     36.1391    132.4113
  1494.7500    -66.5619     22.0839     29.6965     37.0297    132.2914
  1495.0000    -66.3086     23.3096     31.5585     38.1250    129.9352
  1495.2500    -65.9824     24.3801     33.5058     39.5352    126.9115
  1495.5000    -65.6002     25.2180     35.5136     41.3981    121.3437
  1495.7500    -65.1861     25.8129     37.5437     43.9004    117.6158
  1496.0000    -64.7672     26.2184     39.5447     47.1315    111.8660
  1496.2500    -64.3700     26.5173     41.4554     50.8945    107.0795
  1496.5000    -64.0166     26.7787     43.2127     54.6796     97.2940
  1496.7500    -63.7226     27.0335     44.7620     57.8590     89.4963
  1497.0000    -63.4966     27.2707     46.0665     59.9570     78.5263
  1497.2500    -63.3418     27.4510     47.1130     60.8129     73.1379
  1497.5000    -63.2570     27.5308     47.9120     60.5771     68.4277
  1497.7500    -63.2386     27.4897     48.4941     59.5995     66.9142
  1498.0000    -63.2817     27.3485     48.9026     58.2946     66.2211
  1498.2500    -63.3802     27.1675     49.1875     57.0311     66.7901
  1498.5000    -63.5268     27.0268     49.3989     56.0612     69.0897
  1498.7500    -63.7109     26.9999     49.5821     55.4994     71.0516
  1499.0000    -63.9170     27.1310     49.7744     55.3438     73.2902
  1499.2500    -64.1229     27.4221     50.0023     55.5186     73.8056
  1499.5000    -64.2998     27.8302     50.2817     55.9175     73.2360
  1499.7500    -64.4146     28.2766     50.6195     56.4341     72.4882
  1500.0000    -64.4362     28.6721     51.0160     56.9789     71.8181
  1500.2500    -64.3454     28.9546     51.4684     57.4844     71.9900
  1500.5000    -64.1451     29.1194     51.9709     57.9030     73.0236
  1500.7500    -63.8686     29.2211     52.5155     58.2056     73.7670
  1501.0000    -63.5778     29.3411     53.0902     58.3867     73.9592
  1501.2500    -63.3533     29.5426     53.6763     58.4694     73.1709
  1501.5000    -63.2710     29.8399     54.2484     58.4993     71.0346
  1501.7500    -63.3755     30.1969     54.7760     58.5202     69.5310
  1502.0000    -63.6627     30.5557     55.2270     58.5446     67.7965
  1502.2500    -64.0731     30.8761     55.5754     58.5413     67.0428
  1502.5000    -64.5039     31.1616     55.8094     58.4561     66.4835
  1502.7500    -64.8313     31.4530     55.9382     58.2511     66.5781
  1503.0000    -64.9455     31.7981     55.9943     57.9385     67.5947
  1503.2500    -64.7787     32.2212     56.0294     57.5836     68.8062
  1503.5000    -64.3340     32.7145     56.1044     57.2821     70.9578
  1503.7500    -63.6959     33.2551     56.2771     57.1418     72.1704
  1504.0000    -63.0172     33.8343     56.5920     57.2994     72.9873
  1504.2500    -62.4772     34.4787     57.0756     57.9693     72.7880
  1504.5000    -62.2219     35.2467     57.7389     59.4818     71.7573
  1504.7500    -62.3138     36.2041     58.5861     62.2481     70.8361
  1505.0000    -62.7118     37.3978     59.6219     66.6292     69.2602
  1505.2500    -63.3005     38.8548     60.8567     72.7546     68.0662
  1505.5000    -63.9478     40.6046     62.3035     80.3898     66.0453
  1505.7500    -64.5597     42.7125     63.9681     88.9341     64.5841
  1506.0000    -65.1025     45.2908     65.8347     97.5530     62.4088
  1506.2500    -65.5855     48.4694     67.8533    105.3782     61.1350
  1506.5000    -66.0264     52.3321     69.9369    111.6968     59.8194
  1506.7500    -66.4273     56.8315     71.9662    116.0814     59.4907
  1507.0000    -66.7803     61.7007     73.8065    118.4477     59.7801
  1507.2500    -67.0881     66.4021     75.3326    119.0363     60.2493
  1507.5000    -67.3795     70.1932     76.4508    118.3192     61.0003
  1507.7500    -67.6997     72.3875     77.1115    116.8477     61.6256
  1508.0000    -68.0783     72.7337     77.3161    115.0849     63.1632
  1508.2500    -68.4956     71.5901     77.0946    113.2864     64.5052
  1508.5000    -68.8689     69.7133     76.4923    111.4788     66.1868
  1508.7500    -69.0754     67.8475     75.5497    109.5331     66.8046
  1509.0000    -68.9973     66.4531     74.2942    107.2697     67.4853
  1509.2500    -68.5736     65.6611     72.7460    104.5228     68.2335
  1509.5000    -67.8360     65.3643     70.9344    101.1545     69.9295
  1509.7500    -66.9130     65.3510     68.9152     97.0866     71.2850
  1510.0000    -66.0003     65.4294     66.7771     92.3950     73.5706
  1510.2500    -65.3022     65.5010     64.6412     87.4125     75.2073
  1510.5000    -64.9737     65.5600     62.6347     82.7111     77.4434
  1510.7500    -65.0723     65.6385     60.8748     78.9189     78.5417
  1511.0000    -65.5499     65.7496     59.4440     76.4835     79.2697
  1511.2500    -66.2793     65.8643     58.3814     75.5526     78.9292
  1511.5000    -67.1031     65.9203     57.6781     76.0301     77.1035
  1511.7500    -67.8836     65.8553     57.2804     77.7141     75.3594
  1512.0000    -68.5315     65.6293     57.0989     80.3755     72.8059
  1512.2500    -69.0122     65.2316     57.0228     83.7221     71.3928
  1512.5000    -69.3287     64.6802     56.9404     87.2982     69.7655
  1512.7500    -69.5007     64.0119     56.7602     90.4458     69.1039
  1513.0000    -69.5476     63.2801     56.4278     92.4329     69.0399
  1513.2500    -69.4819     62.5500     55.9322     92.7514     69.6461
  1513.5000    -69.3110     61.8952     55.2991     91.4232     71.2190
  1513.7500    -69.0418     61.3957     54.5774     89.0685     72.3649
  1514.0000    -68.6862     61.1324     53.8233     86.6036     73.3869
  1514.2500    -68.2614     61.1778     53.0886     84.7061     73.1470
  1514.5000    -67.7892     61.5799     52.4133     83.4107     71.4456
  1514.7500    -67.2922     62.3395     51.8241     82.1373     70.0645
  1515.0000    -66.7914     63.3852     51.3352     80.1348     68.9757
  1515.2500    -66.3038     64.5590     50.9515     77.0072     69.2322
  1515.5000    -65.8421     65.6298     50.6715     72.9541     70.5822
  1515.7500    -65.4153     66.3536     50.4885     68.6211     71.5338
  1516.0000    -65.0292     66.5674     50.3892     64.7534     72.2607
  1516.2500    -64.6869     66.2607     50.3491     61.9174     72.1320
  1516.5000    -64.3895     65.5618     50.3307     60.4067     71.2093
  1516.7500    -64.1364     64.6420     50.2759     60.2717     70.4293
  1517.0000    -63.9262     63.6068     50.1081     61.3768     69.7137
  1517.2500    -63.7568     62.4534     49.7381     63.4474     69.7508
  1517.5000    -63.6269     61.1069     49.0788     66.1136     70.3019
  1517.7500    -63.5350     59.4924     48.0648     68.9409     70.7281
  1518.0000    -63.4793     57.5910     46.6729     71.4306     71.3550
  1518.2500    -63.4563     55.4428     44.9346     73.0222     71.8149
  1518.5000    -63.4603     53.1183     42.9340     73.1518     72.4767
  1518.7500    -63.4826     50.6952     40.7915     71.3765     72.9320
  1519.0000    -63.5131     48.2562     38.6380     67.5104     74.4091
  1519.2500    -63.5422     45.8893     36.5926     61.7201     76.7168
  1519.5000    -63.5631     43.6818     34.7460     54.5569     83.1311
