~Version Information
VERS.                      2.0: CWLS Log ASCII Standard - VERSION 2.0
WRAP.                       NO: One line per depth step
~Well Information Block
STRT.FT               454.0000: 
STOP.FT              1392.0000: 
STEP.FT                 0.2500: 
NULL.                -999.2500: 
COMP.          Pioneer Natural Resources: COMPANY
WELL.          Lorencito 6-3-34-66: WELL
FLD.           Purgatoire River: FIELD
LOC.           2545' FNL & 1914' FWL: LOCATION
STAT.                 Colorado: State
CNTY.               Las Animas: COUNTY
CTRY. USA : Country
SECT. 3 : Section
TOWN. 34S : Township
RANG. 66W : Range
SRVC.                Patterson: SERVICE COMPANY
DATE.          Fri Sep 09 22:07:39 2005: LOG DATE
API.           05 071 08369 00: UNIQUE WELL ID
~Curve Information Block
DEPT.FT            0 000 00 00: Depth
SN.Ohm-m                      : IEL Short Normal
SP.mV                         : IEL Spontaneous Potential
DIR.Ohm-m                     : IEL Induction Resistivity
GR.GAPI                       : Gamma Ray
~Parameter Information Block
~A  Depth        SN          SP         DIR          GR     
# ...
  1358.5000     24.0800     72.3257     19.1250     53.4920
  1358.7500     24.2508     72.5981     19.6361     50.0357
  1359.0000     24.2797     72.7797     20.1361     48.4183
  1359.2500     24.2552     72.8700     20.5780     49.7603
  1359.5000     24.2558     72.8692     20.9169     55.2136
  1359.7500     24.2908     72.7743     21.1242     60.7961
  1360.0000     24.2826     72.5924     21.1964     70.9041
  1360.2500     24.1187     72.3433     21.1504     77.7620
  1360.5000     23.7384     72.0522     21.0126     86.2937
  1360.7500     23.1789     71.7425     20.8055     90.0078
  1361.0000     22.5489     71.4324     20.5438     92.4453
  1361.2500     21.9637     71.1364     20.2330     92.5759
  1361.5000     21.5022     70.8668     19.8765     91.8537
  1361.7500     21.2022     70.6257     19.4790     91.1530
  1362.0000     21.0688     70.3966     19.0513     89.7600
  1362.2500     21.0705     70.1466     18.6083     88.7666
  1362.5000     21.1343     69.8353     18.1674     88.4861
  1362.7500     21.1590     69.4466     17.7434     90.0733
  1363.0000     21.0529     69.0313     17.3460     95.6095
  1363.2500     20.7720     68.6970     16.9777    100.7001
  1363.5000     20.3307     68.5307     16.6346    108.6711
  1363.7500     19.7833     68.5402     16.3083    113.7504
  1364.0000     19.1938     68.6719     15.9874    121.4936
  1364.2500     18.6164     68.8610     15.6632    127.0506
  1364.5000     18.0838     69.0611     15.3328    135.3537
  1364.7500     17.6018     69.2554     15.0008    139.9102
  1365.0000     17.1497     69.4660     14.6791    143.7958
  1365.2500     16.6974     69.7409     14.3834    144.1808
  1365.5000     16.2380     70.1034     14.1282    142.0410
  1365.7500     15.8154     70.5089     13.9235    139.3249
  1366.0000     15.5151     70.8619     13.7719    134.1376
  1366.2500     15.4035     71.0796     13.6672    130.4054
  1366.5000     15.4536     71.1421     13.5958    124.9036
  1366.7500     15.5324     71.1002     13.5395    121.1968
  1367.0000     15.4867     71.0553     13.4792    115.0556
  1367.2500     15.2683     71.1157     13.4001    110.5773
  1367.5000     14.9849     71.3328     13.2971    104.2412
  1367.7500     14.8260     71.6522     13.1767    101.0975
  1368.0000     14.9305     71.9527     13.0563     98.9211
  1368.2500     15.3081     72.1615     12.9605     99.0713
  1368.5000     15.8604     72.3163     12.9147    100.5439
  1368.7500     16.4579     72.4893     12.9391    101.4980
  1369.0000     17.0016     72.6781     13.0448    102.0038
  1369.2500     17.4399     72.8068     13.2300    101.7970
  1369.5000     17.7596     72.8177     13.4801    101.4133
  1369.7500     17.9736     72.7301     13.7690    101.4337
  1370.0000     18.1062     72.6174     14.0637    101.5318
  1370.2500     18.1820     72.5497     14.3301    100.7047
  1370.5000     18.2210     72.5559     14.5430     95.2301
  1370.7500     18.2459     72.6214     14.6906     86.9053
  1371.0000     18.2846     72.7141     14.7767     66.5853
  1371.2500     18.3569     72.8200     14.8182     49.8518
  1371.5000     18.4557     72.9624     14.8393     26.3474
  1371.7500     18.5486     73.1878     14.8651     14.8031
  1372.0000     18.6037     73.5230     14.9154      4.8700
  1372.2500     18.6165     73.9495     15.0008      1.9520
  1372.5000     18.6074     74.4175     15.1191      0.3770
  1372.7500     18.5971     74.8635     15.2546      0.1037
  1373.0000     18.5922     75.2078     15.3800      0.0098
  1373.2500     18.5961     75.3726     15.4611      0.0000
  1373.5000     18.6173     75.3377     15.4672   -999.2500
  1373.7500     18.6554     75.1626     15.3808   -999.2500
  1374.0000     18.6831     74.9367     15.2037   -999.2500
  1374.2500     18.6568     74.7259     14.9562   -999.2500
  1374.5000     18.5541     74.5688     14.6699   -999.2500
  1374.7500     18.3956     74.4884     14.3765   -999.2500
  1375.0000     18.2259     74.4777     14.1005   -999.2500
  1375.2500     18.0785     74.4812     13.8544   -999.2500
  1375.5000     17.9638     74.4167     13.6400   -999.2500
  1375.7500     17.8797     74.2362     13.4519   -999.2500
  1376.0000     17.8211     73.9634     13.2835   -999.2500
  1376.2500     17.7709     73.6575     13.1312   -999.2500
  1376.5000     17.6949     73.3463     12.9994   -999.2500
  1376.7500     17.5594     73.0159     12.9004   -999.2500
  1377.0000     17.3551     72.6748     12.8529   -999.2500
  1377.2500     17.1090     72.4043     12.8769   -999.2500
  1377.5000     16.8756     72.3081     12.9890   -999.2500
  1377.7500     16.7244     72.4131     13.1961   -999.2500
  1378.0000     16.7199     72.6412     13.4911   -999.2500
  1378.2500     16.8881     72.8674     13.8494   -999.2500
  1378.5000     17.1873     72.9880     14.2302   -999.2500
  1378.7500     17.5211     72.9585     14.5827   -999.2500
  1379.0000     17.7939     72.7996     14.7349   -999.2500
  1379.2500     17.9602     72.5770     14.9222   -999.2500
  1379.5000     18.0243     72.3689     15.0436   -999.2500
  1379.7500     18.0116     72.2378     15.1612   -999.2500
  1380.0000     17.9515     72.2106     15.3663   -999.2500
  1380.2500     17.8858     72.2766     15.7657   -999.2500
  1380.5000     17.8729     72.4102     16.4747   -999.2500
  1380.7500     17.9610     72.6078     17.6202   -999.2500
  1381.0000     18.1397     72.9041     19.3497   -999.2500
  1381.2500     18.3136     73.3437     21.8420   -999.2500
  1381.5000     18.3433     73.9279     25.3106   -999.2500
  1381.7500     18.1395     74.5862     29.9854   -999.2500
  1382.0000     17.7389     75.2045     36.0553   -999.2500
  1382.2500     17.2868     75.6835     43.5497   -999.2500
  1382.5000     16.9345     75.9797     54.0488   -999.2500
  1382.7500     16.7475     76.1154     63.8829   -999.2500
  1383.0000     16.6988     76.1698     73.4026   -999.2500
  1383.2500     16.7290     76.2410     81.7882   -999.2500
  1383.5000     16.7977     76.3752     88.7087   -999.2500
  1383.7500     16.8891     76.5257     94.3312   -999.2500
  1384.0000     16.9902     76.5997     99.0547   -999.2500
  1384.2500     17.0715     76.5390    103.2484   -999.2500
  1384.5000     17.0828     76.3403    107.1270   -999.2500
  1384.7500     16.9652     76.0067    110.7351   -999.2500
  1385.0000     16.6775     75.4997    114.0364   -999.2500
  1385.2500     16.2281     74.7308    116.9481   -999.2500
  1385.5000     15.6841     73.5808 100000.0000   -999.2500
  1385.7500     15.1364     71.8849 100000.0000   -999.2500
  1386.0000     14.6361     69.3353 100000.0000   -999.2500
  1386.2500     14.1363     65.3176 100000.0000   -999.2500
  1386.5000     13.4762     58.9059 100000.0000   -999.2500
  1386.7500     12.4201     49.3727 100000.0000   -999.2500
  1387.0000     10.7529     37.1456 100000.0000   -999.2500
  1387.2500      8.4031     24.2523 100000.0000   -999.2500
  1387.5000      5.5341     13.3553 100000.0000   -999.2500
  1387.7500      2.5240      6.0688 100000.0000   -999.2500
  1388.0000     -0.1824      2.2393 100000.0000   -999.2500
  1388.2500     -2.2647      0.6631 100000.0000   -999.2500
  1388.5000     -3.6346      0.1560 100000.0000   -999.2500
  1388.7500     -4.4048      0.0287 100000.0000   -999.2500
  1389.0000     -4.7746      0.0038 100000.0000   -999.2500
  1389.2500     -4.9262   -999.2500 100000.0000   -999.2500
  1389.5000     -4.9793   -999.2500 100000.0000   -999.2500
  1389.7500     -4.9951   -999.2500 100000.0000   -999.2500
  1390.0000     -4.9992   -999.2500 100000.0000   -999.2500
  1390.2500   -999.2500   -999.2500 100000.0000   -999.2500
  1390.5000   -999.2500   -999.2500 100000.0000   -999.2500
  1390.7500   -999.2500   -999.2500 100000.0000   -999.2500
  1391.0000   -999.2500   -999.2500 100000.0000   -999.2500
  1391.2500   -999.2500   -999.2500 100000.0000   -999.2500
  1391.5000   -999.2500   -999.2500 100000.0000   -999.2500
  1391.7500   -999.2500   -999.2500 100000.0000   -999.2500
