~Version Information
VERS.                      2.0: CWLS Log ASCII Standard - VERSION 2.0
WRAP.                       NO: One line per depth step
~Well Information Block
STRT.FT               620.0000: 
STOP.FT              2660.0000: 
STEP.FT                 0.1000: 
NULL.                -999.2500: 
COMP.          Evergreen Operating Corporation: COMPANY
WELL.             Carbon 34-21: WELL
FLD.           Purgatoire River: FIELD
LOC.           56' FSL & 2304' FEL: LOCATION
PROV.                 Colorado: PROVINCE
CNTY.               Las Animas: COUNTRY
SRVC.                Patterson: SERVICE COMPANY
DATE.          Mon Sep 13 14:13:15 2004: LOG DATE
UWI.           05 071 08117 00: UNIQUE WELL ID
~Curve Information Block
DEPT.FT            0 000 00 00: Depth
DCAL.in                       : CDL Caliper
DPOR.pu                       : CDL Density Porosity
NPOR.pu                       : Neutron Porosity
RHOB.g/cc                     : CDL Bulk Density
RHOC.g/cc                     : CDL Density Correction
GR.GAPI                       : Gamma Ray
~Parameter Information Block
~A  Depth       DCAL        DPOR        NPOR        RHOB        RHOC         GR     
# ...
  1023.2000      8.1087      4.3709     26.0590      2.5779      0.0825    124.6086
  1023.3000      8.1080      5.7866     25.5227      2.5545      0.0094    126.0859
  1023.4000      8.1080      6.4085     27.4051      2.5443      0.0122    127.2948
  1023.5000      8.1075      5.5796     29.2193      2.5579     -0.0018    127.7120
  1023.6000      8.1075      4.1429     28.0761      2.5816      0.0248    125.6630
  1023.7000      8.1075      3.3210     24.4098      2.5952      0.0403    120.3258
  1023.8000      8.1066      3.1958     21.8207      2.5973      0.0136    114.3721
  1023.9000      8.1066      2.9907     22.0850      2.6007      0.0408    109.4392
  1024.0000      8.1037      2.6121     23.9581      2.6069      0.0520    108.2385
  1024.1000      8.1037      2.7399     25.8365      2.6048      0.0696    110.9016
  1024.2000      8.1037      3.6289     26.9817      2.5901      0.0195    112.2382
  1024.3000      8.0963      4.6755     26.9960      2.5729     -0.0017    111.1347
  1024.4000      8.0963      5.2390     26.0383      2.5636     -0.0181    110.8463
  1024.5000      8.0867      5.0379     24.5118      2.5669     -0.0145    110.8920
  1024.6000      8.0867      4.3031     22.5895      2.5790      0.0161    108.7862
  1024.7000      8.0867      3.8892     21.1941      2.5858      0.0198    105.1139
  1024.8000      8.0795      4.3788     21.6361      2.5778      0.0016    103.1477
  1024.9000      8.0795      5.5611     23.6023      2.5582     -0.0159    104.3522
  1025.0000      8.0720      6.9329     25.4049      2.5356     -0.0105    105.8433
  1025.1000      8.0720      7.5744     26.0549      2.5250     -0.0619    106.9555
  1025.2000      8.0720      6.6264     25.0105      2.5407     -0.0169    110.3081
  1025.3000      8.0637      5.1029     22.0244      2.5658      0.0512    113.2150
  1025.4000      8.0637      5.2184     18.7006      2.5639      0.0733    111.7420
  1025.5000      8.0589      7.4308     17.2296      2.5274      0.0119    108.8129
  1025.6000      8.0589     10.0810     17.9383      2.4837     -0.0050    108.7554
  1025.7000      8.0589     11.6627     19.4413      2.4576     -0.0262    110.2639
  1025.8000      8.0577     11.9335     20.3602      2.4531     -0.0017    109.6440
  1025.9000      8.0577     11.5673     20.3025      2.4591      0.0129    106.7297
  1026.0000      8.0554     11.0892     19.0560      2.4670     -0.0041    102.1458
  1026.1000      8.0554     10.1882     16.9108      2.4819     -0.0122     96.7988
  1026.2000      8.0554      8.8804     15.2166      2.5035      0.0268     92.6588
  1026.3000      8.0515      8.1185     15.3775      2.5160      0.0359     89.1962
  1026.4000      8.0515      8.6914     17.8318      2.5066      0.0501     87.2659
  1026.5000      8.0445     10.8373     20.9167      2.4712      0.0367     87.7174
  1026.6000      8.0445     13.8277     21.9221      2.4218      0.0082     88.2929
  1026.7000      8.0445     16.0805     20.8948      2.3847     -0.0217     87.7145
  1026.8000      8.0335     17.0382     20.3283      2.3689      0.0012     85.4817
  1026.9000      8.0335     17.6523     21.5023      2.3587      0.0084     82.6374
  1027.0000      8.0275     18.5397     22.7534      2.3441      0.0179     80.3816
  1027.1000      8.0275     19.3440     21.6418      2.3308      0.0147     76.9433
  1027.2000      8.0275     19.7230     18.6128      2.3246      0.0629     74.6568
  1027.3000      8.0314     20.0012     16.3788      2.3200      0.0956     79.5034
  1027.4000      8.0314     19.9191     16.8539      2.3213      0.0481     88.7251
  1027.5000      8.0426     17.9211     19.8643      2.3543      0.0851     93.3360
  1027.6000      8.0426     13.2739     22.6194      2.4310      0.1733     90.0928
  1027.7000      8.0426      7.8673     21.9547      2.5202      0.2861     84.2184
  1027.8000      8.0592      4.6127     19.0912      2.5739      0.2806     82.2947
  1027.9000      8.0592      4.4882     17.8601      2.5759      0.2877     85.1741
  1028.0000      8.0778      5.9729     19.0877      2.5514      0.2201     89.2372
  1028.1000      8.0778      6.9713     20.7715      2.5350      0.2045     90.8626
  1028.2000      8.0778      7.3369     21.6713      2.5289      0.2235     87.9089
  1028.3000      8.0941      8.5126     22.1095      2.5095      0.1595     82.2108
  1028.4000      8.0941     10.6595     22.1912      2.4741      0.0610     79.3060
  1028.5000      8.1047     12.2519     21.6430      2.4478      0.0049     79.5521
  1028.6000      8.1047     12.3023     20.8603      2.4470      0.0171     78.7504
  1028.7000      8.1047     11.1427     20.5986      2.4661      0.0206     77.4839
  1028.8000      8.1086      9.5677     20.4091      2.4921      0.0504     80.0648
  1028.9000      8.1086      8.3897     18.9892      2.5116      0.0689     87.0658
  1029.0000      8.1109      7.9070     16.9237      2.5195      0.0802     94.6632
  1029.1000      8.1109      7.8965     16.0908      2.5197      0.0752    100.4251
  1029.2000      8.1109      8.0177     17.1823      2.5177      0.0764    105.6183
  1029.3000      8.1137      7.5474     19.9250      2.5255      0.0338    110.5009
  1029.4000      8.1137      6.0074     23.8802      2.5509      0.1085    112.6257
  1029.5000      8.1126      4.4223     27.1885      2.5770      0.1209    110.7117
  1029.6000      8.1126      4.1034     26.8699      2.5823      0.1297    107.2708
  1029.7000      8.1126      4.8247     24.0302      2.5704      0.0617    106.4324
  1029.8000      8.1096      5.5358     22.7553      2.5587      0.0749    107.6034
  1029.9000      8.1096      5.9087     23.0765      2.5525      0.0522    106.9582
  1030.0000      8.1109      6.4055     22.5693      2.5443      0.0797    106.7765
  1030.1000      8.1109      7.3184     21.2302      2.5292      0.0021    109.6421
  1030.2000      8.1109      7.8107     20.9605      2.5211      0.0045    111.9585
  1030.3000      8.1212      7.4900     22.5247      2.5264      0.0184    112.7097
  1030.4000      8.1212      7.4724     24.1998      2.5267      0.0357    111.9101
  1030.5000      8.1341      8.2127     23.8903      2.5145     -0.0029    107.6759
  1030.6000      8.1341      8.7675     22.3597      2.5053      0.0275    103.2366
  1030.7000      8.1341      8.3053     21.8802      2.5130     -0.0274    104.4201
  1030.8000      8.1424      6.8209     22.8498      2.5375      0.0567    109.7363
  1030.9000      8.1424      5.0494     24.1398      2.5667      0.0284    110.6681
  1031.0000      8.1455      3.2254     24.2758      2.5968     -0.0016    107.0015
  1031.1000      8.1455      1.6424     22.6744      2.6229      0.0905    104.1014
  1031.2000      8.1455      1.0885     20.7700      2.6320      0.0542    100.6330
  1031.3000      8.1464      1.6732     19.7997      2.6224      0.0876     97.3267
  1031.4000      8.1464      3.0164     20.0101      2.6002      0.0106     97.7457
  1031.5000      8.1490      4.4340     21.8183      2.5768      0.0459    102.4328
  1031.6000      8.1490      5.6097     25.5574      2.5574      0.0383    107.7532
  1031.7000      8.1490      6.2865     29.7920      2.5463      0.0225    110.1762
  1031.8000      8.1640      5.9677     31.0522      2.5515      0.0090    109.4654
  1031.9000      8.1640      5.2356     28.3125      2.5636      0.0752    109.2950
  1032.0000      8.1960      5.5365     25.3046      2.5586      0.0428    114.7499
  1032.1000      8.1960      6.7749     25.5437      2.5382      0.0216    123.4094
  1032.2000      8.1960      7.1344     28.4144      2.5323     -0.0209    127.3636
  1032.3000      8.2263      5.6532     30.5665      2.5567      0.0320    122.3184
  1032.4000      8.2263      3.5864     29.4157      2.5908      0.0501    113.7511
  1032.5000      8.2411      2.5049     26.0224      2.6087      0.0415    109.8776
  1032.6000      8.2411      2.3554     23.7903      2.6111      0.0364    110.5402
  1032.7000      8.2411      2.2298     24.2001      2.6132      0.0322    110.7272
