~Version Information
VERS.                      2.0: CWLS Log ASCII Standard - VERSION 2.0
WRAP.                       NO: One line per depth step
~Well Information Block
STRT.FT               298.0000: 
STOP.FT              1302.0000: 
STEP.FT                 0.1000: 
NULL.                -999.2500: 
COMP.          Pioneer Natural Resources: COMPANY
WELL.          Bouncer 41-27 Tr: WELL
FLD.           Purgatoire River: FIELD
LOC.           292' FNL & 222' FEL: LOCATION
PROV.                 Colorado: PROVINCE
CNTY.               Las Animas: COUNTRY
SRVC.                Patterson: SERVICE COMPANY
DATE.          Mon Feb 07 12:55:19 2005: LOG DATE
UWI.           05 071 08291 00: UNIQUE WELL ID
~Curve Information Block
DEPT.FT            0 000 00 00: Depth
DCAL.in                       : CDL Caliper
RHOB.g/cc                     : CDL Bulk Density
RHOC.g/cc                     : CDL Density Correction
DPOR.pu                       : CDL Density Porosity
GR.GAPI                       : Gamma Ray
NPOR.pu                       : Neutron Porosity
~Parameter Information Block
~A  Depth       DCAL        RHOB        RHOC        DPOR         GR         NPOR    
# ...
   499.6000      7.9906      2.6425      0.0792      0.4518     87.3956     26.9875
   499.7000      7.9906      2.7133      0.1436     -3.8393     82.9967     26.5027
   499.8000      7.9838      2.7568      0.1368     -6.4702     83.1090     26.6160
   499.9000      7.9838      2.7667      0.1678     -7.0734     85.4968     26.5780
   500.0000      7.9641      2.7448      0.1480     -5.7442     89.4430     26.0490
   500.1000      7.9641      2.6979      0.1298     -2.9035     95.0846     25.5986
   500.2000      7.9641      2.6456      0.0898      0.2664    101.2714     25.4775
   500.3000      7.9336      2.6109      0.0920      2.3680    106.5353     25.2668
   500.4000      7.9336      2.6004      0.1192      3.0052    111.3044     24.9295
   500.5000      7.8919      2.5981      0.1448      3.1436    115.7151     24.7969
   500.6000      7.8919      2.5890      0.1089      3.6947    118.0947     24.7781
   500.7000      7.8919      2.5784      0.1424      4.3389    118.8243     24.5571
   500.8000      7.8809      2.5813      0.1044      4.1640    120.3238     24.0562
   500.9000      7.8809      2.6063      0.1123      2.6458    123.0730     23.5861
   501.0000      7.9156      2.6403      0.1952      0.5876    124.1436     23.5225
   501.1000      7.9156      2.6549      0.1676     -0.2981    122.6444     23.8374
   501.2000      7.9156      2.6370      0.1233      0.7856    119.4226     24.2883
   501.3000      7.9906      2.5969      0.1227      3.2155    117.7125     24.8906
   501.4000      7.9906      2.5577      0.0728      5.5949    122.1594     25.5737
   501.5000      8.0553      2.5329      0.0795      7.0987    129.6431     25.8814
   501.6000      8.0553      2.5171      0.0457      8.0565    134.0491     25.6158
   501.7000      8.0553      2.4989      0.0205      9.1600    135.7200     24.8486
   501.8000      8.0683      2.4664      0.0352     11.1287    137.7246     23.5833
   501.9000      8.0683      2.4168     -0.0576     14.1345    139.9355     22.0477
   502.0000      8.0736      2.3664     -0.0567     17.1896    139.6640     20.5776
   502.1000      8.0736      2.3246      0.0080     19.7228    137.1347     19.2182
   502.2000      8.0736      2.2751      0.0050     22.7239    135.0742     17.9436
   502.3000      8.0899      2.2037     -0.0181     27.0469    133.6419     16.7605
   502.4000      8.0899      2.1149     -0.0141     32.4285    130.2762     15.5610
   502.5000      8.1175      2.0185     -0.0539     38.2751    123.4872     14.3780
   502.6000      8.1175      1.9243     -0.0427     43.9839    114.8436     13.3917
   502.7000      8.1175      1.8349     -0.0375     49.3983    108.0269     12.6198
   502.8000      8.1559      1.7442      0.0111     54.8999    103.9257     11.9056
   502.9000      8.1559      1.6492      0.0092     60.6524     98.7402     11.1847
   503.0000      8.1862      1.5523      0.0407     66.5294     90.1165     10.5972
   503.1000      8.1862      1.4658     -0.0337     71.7699     79.2188     10.1099
   503.2000      8.1862      1.4131      0.0256     74.9614     66.7901      9.5692
   503.3000      8.2323      1.3930      0.0751     76.1841     55.2990      9.1030
   503.4000      8.2323      1.3861      0.0279     76.6011     47.4673      8.9483
   503.5000      8.3522      1.3925      0.0336     76.2144     44.3573      9.0946
   503.6000      8.3522      1.4201      0.1184     74.5404     44.1407      9.4527
   503.7000      8.3522      1.4582      0.2196     72.2321     43.1811     10.0538
   503.8000      8.4642      1.4838      0.2351     70.6784     41.2261     10.8115
   503.9000      8.4642      1.4826      0.2425     70.7508     39.5668     11.4843
   504.0000      8.6096      1.4571      0.1564     72.2941     37.0243     11.9664
   504.1000      8.6096      1.4223      0.1424     74.4073     32.3557     12.2054
   504.2000      8.6096      1.3879      0.0638     76.4887     27.1639     12.3019
   504.3000      8.6583      1.3578      0.0220     78.3123     23.9551     12.4150
   504.4000      8.6583      1.3356      0.0074     79.6634     22.3175     12.5196
   504.5000      8.6570      1.3232      0.0076     80.4096     21.1054     12.5832
   504.6000      8.6570      1.3209      0.0069     80.5526     21.3629     12.4460
   504.7000      8.6570      1.3278     -0.0136     80.1321     23.9311     11.9039
   504.8000      8.6735      1.3440      0.0086     79.1496     26.9499     11.0557
   504.9000      8.6735      1.3625      0.0506     78.0333     27.5776     10.1468
   505.0000      8.8790      1.3709      0.0863     77.5192     25.6033      9.2695
   505.1000      8.8790      1.3681      0.0659     77.6911     23.5954      8.4809
   505.2000      8.8790      1.3604      0.0883     78.1579     24.0680      7.9593
   505.3000      9.1102      1.3507      0.0930     78.7467     25.9187      7.6980
   505.4000      9.1102      1.3459      0.1090     79.0347     26.4934      7.4274
   505.5000      9.2911      1.3571      0.1055     78.3582     25.4417      7.0466
   505.6000      9.2911      1.3852      0.1558     76.6522     24.3795      6.6488
   505.7000      9.2911      1.4170      0.1738     74.7256     25.8945      6.3639
   505.8000      9.4831      1.4356      0.2096     73.5997     29.1115      6.3119
   505.9000      9.4831      1.4333      0.1879     73.7389     30.4462      6.5496
   506.0000      9.8485      1.4185      0.1188     74.6367     30.0800      7.0062
   506.1000      9.8485      1.4033      0.1375     75.5565     30.4035      7.5147
   506.2000      9.8485      1.3917      0.1214     76.2616     31.7879      8.0180
   506.3000     10.0460      1.3875      0.0997     76.5172     32.8441      8.4937
   506.4000     10.0460      1.3918      0.1197     76.2525     32.4240      8.9176
   506.5000      9.8654      1.3982      0.0699     75.8696     31.4416      9.4376
   506.6000      9.8654      1.3967      0.1063     75.9593     31.7308     10.1332
   506.7000      9.8654      1.3795      0.0666     77.0026     33.4580     10.9034
   506.8000      9.3716      1.3522      0.0743     78.6544     34.8528     11.4458
   506.9000      9.3716      1.3321      0.0537     79.8708     34.9781     11.5042
   507.0000      9.1011      1.3270      0.0680     80.1801     35.6453     11.3071
   507.1000      9.1011      1.3220      0.1363     80.4829     38.0067     11.2472
   507.2000      9.1011      1.3021      0.0844     81.6895     40.1156     11.4016
   507.3000      8.9287      1.2815      0.0688     82.9418     42.1103     11.6392
   507.4000      8.9287      1.2972     -0.0025     81.9859     45.8567     11.8593
   507.5000      8.8880      1.3781      0.1205     77.0832     50.5946     12.3565
   507.6000      8.8880      1.5173      0.1783     68.6472     57.1446     13.4248
   507.7000      8.8880      1.6874      0.2484     58.3424     66.1951     14.9100
   507.8000      8.9134      1.8598      0.3417     47.8922     74.7469     16.5199
   507.9000      8.9134      2.0139      0.3662     38.5488     81.7268     18.0966
   508.0000      9.0069      2.1416      0.4503     30.8128     87.9453     19.6032
   508.1000      9.0069      2.2365      0.4588     25.0581     90.7553     20.9043
   508.2000      9.0069      2.2998      0.3972     21.2218     89.6570     22.1018
   508.3000      8.9583      2.3326      0.3829     19.2384     90.7798     23.6348
   508.4000      8.9583      2.3265      0.2550     19.6067     98.2241     25.4422
   508.5000      8.9255      2.2936      0.1424     21.5995    109.0125     26.9251
   508.6000      8.9255      2.2660      0.0513     23.2712    119.7540     27.8705
   508.7000      8.9255      2.2683      0.0664     23.1325    127.5369     28.6535
   508.8000      8.2949      2.3020      0.0923     21.0901    129.5060     29.4395
   508.9000      8.2949      2.3450      0.1389     18.4847    129.8438     29.9369
   509.0000      8.0908      2.3819      0.0708     16.2486    134.7383     30.0025
   509.1000      8.0908      2.4170      0.1164     14.1223    143.4763     29.6787
