~Version Information
VERS.                      2.0: CWLS Log ASCII Standard - VERSION 2.0
WRAP.                       NO: One line per depth step
~Well Information Block
STRT.FT              1882.7500: 
STOP.FT              2400.5000: 
STEP.FT                 0.2500: 
NULL.                -999.2500: 
COMP.          Pioneer Natural Resources: COMPANY
WELL.          Flying Horse 12-11: WELL
FLD.           Purgatoire River: FIELD
LOC.           2,428' FNL & 308' FWL------: LOCATION
PROV.                 Colorado: PROVINCE
CNTY.               Las Animas: COUNTRY
SRVC.                         : SERVICE COMPANY
DATE.          Fri Jun 10 06:52:30 2005: LOG DATE
UWI.                          : UNIQUE WELL ID
~Curve Information Block
DEPT.FT            0 000 00 00: Depth
CCL.                          : Casing Collar Locator
TT3.usec                      : CBL 3' Travel Time
AMP3.mV                       : CBL 3' Amplitude
AMP5.mV                       : CBL 5' Amplitude
GR.GAPI                       : Gamma Ray
~Parameter Information Block
~A  Depth       CCL         TT3         AMP3        AMP5         GR     
# ...
  1938.7500      0.0000    259.7755     59.5562     82.9072    167.4402
  1939.0000      0.0000    259.7884     59.7256     82.3849    168.9187
  1939.2500      0.0000    259.7934     59.9787     84.2999    169.1055
  1939.5000      0.0000    259.7905     60.2811     85.0833    166.5838
  1939.7500      0.0000    259.7809     60.5471     82.5590    161.4750
  1940.0000      0.0000    259.7663     60.6920     81.6015    156.0714
  1940.2500      0.0000    259.7489     60.6779     80.9921    153.4106
  1940.5000      0.0000    259.7320     60.5340     81.0792    154.9855
  1940.7500      0.0000    259.7191     60.3412     80.2958    159.8895
  1941.0000      0.0000    259.7111     60.1891     80.9921    165.7905
  1941.2500      0.0000    259.7056     60.1495     82.4719    170.1843
  1941.5000      0.0000    259.6992     60.2848     82.8201    171.2735
  1941.7500      0.0000    259.6885     60.6413     81.9496    169.0055
  1942.0000      0.0000    259.6714     61.1888     81.9496    165.5558
  1942.2500      0.0000    259.6496     61.7712     82.5590    163.8374
  1942.5000      0.0000    259.6285     62.1714     80.5569    165.0074
  1942.7500      0.0000    259.6132     62.2501     79.1642    167.6525
  1943.0000      0.0000    259.6041     62.0110     82.0367    169.2715
  1943.2500      0.0000    259.5999     61.5533     85.5185    168.3226
  1943.5000      0.0000    259.5994     61.0149     85.2574    165.1556
  1943.7500      0.0000    259.6010     60.5511     86.9113    161.2166
  1944.0000      0.0000    259.6021     60.2882     86.3020    157.2310
  1944.2500      0.0000    259.6017     60.2582     85.5185    152.5375
  1944.5000      0.0000    259.6033     60.3959     84.9963    146.6535
  1944.7500      0.0000    259.6141     60.5949     81.6885    140.9255
  1945.0000      0.0000    259.6382     60.7559     83.8647    137.7865
  1945.2500      0.0000    259.6692     60.8174     84.1258    138.5315
  1945.5000      0.0000    259.6909     60.7788     82.8201    142.2822
  1945.7500      0.0000    259.6926     60.6805     81.6885    146.9382
  1946.0000      0.0000    259.6798     60.5488     83.4294    150.7975
  1946.2500      0.0000    259.6684     60.3934     86.3890    153.4822
  1946.5000      0.0000    259.6658     60.2775     86.9113    155.7371
  1946.7500      0.0000    259.6649     60.3394     87.3465    158.3529
  1947.0000      0.0000    259.6554     60.6960     85.6056    161.2318
  1947.2500      0.0000    259.6349     61.3258     87.6077    163.6307
  1947.5000      0.0000    259.6083     62.0662     85.6926    165.0231
  1947.7500      0.0000    259.5813     62.7200     83.9517    165.2928
  1948.0000      0.0000    259.5564     63.1745     85.9538    164.3078
  1948.2500      0.0000    259.5334     63.4452     85.0833    161.9220
  1948.5000      0.0000    259.5126     63.6216     86.2149    158.5509
  1948.7500      0.0000    259.4972     63.7655     86.6502    155.4308
  1949.0000      0.0000    259.4915     63.8683     87.4336    153.8091
  1949.2500      0.0000    259.4952     63.9109     86.5631    153.7831
  1949.5000      0.0000    259.5009     63.9439     86.2149    154.4790
  1949.7500      0.0000    259.4989     64.0746     86.3890    155.5698
  1950.0000      0.0000    259.4849     64.3685     85.8667    157.7891
  1950.2500      0.0000    259.4627     64.7798     82.9072    161.2210
  1950.5000      0.0000    259.4381     65.1806     82.2108    163.9102
  1950.7500      0.0000    259.4135     65.4591     83.6035    163.5119
  1951.0000      0.0000    259.3856     65.6061     85.6926    160.0455
  1951.2500      0.0000    259.3495     65.7170     86.3890    155.8318
  1951.5000      0.0000    259.3045     65.9036     88.4781    152.9443
  1951.7500      0.0000    259.2609     66.1912     87.9558    151.7651
  1952.0000      0.0000    259.2349     66.4983     88.0429    151.6827
  1952.2500      0.0000    259.2359     66.7062     88.4781    152.0151
  1952.5000      0.0000    259.2610     66.7365     89.2616    152.2233
  1952.7500      0.0000    259.3187     66.5641     88.6522    152.2227
  1953.0000      0.0000    259.4651     66.1540     83.4294    152.5504
  1953.2500      0.0000    259.9788     65.3600     88.4781    153.5004
  1953.5000      0.0000    261.6935     63.8590     93.2657    154.2921
  1953.7500      0.0000    266.2959     61.2104     72.2004    153.8002
  1954.0000      0.0000    275.6746     57.0949     56.6191    151.9377
  1954.2500      0.0000    289.5748     51.6732     67.1517    149.8038
  1954.5000      0.0000    303.3377     45.7970     66.8906    148.5664
  1954.7500      0.0000    309.7468     40.7326     65.8460    148.4100
  1955.0000      0.0000    305.1123     37.4457     65.2367    148.2629
  1955.2500      0.0000    292.8957     36.0457     62.7994    146.2703
  1955.5000      0.0000    280.2062     35.8903     62.8865    140.9041
  1955.7500      0.0000    271.8257     36.1388     65.5849    132.1349
  1956.0000     -2.0000    268.3988     36.1754     66.0201    121.6394
  1956.2500      0.0000    268.5043     35.7375     66.5424    111.7895
  1956.5000      0.0000    270.4928     35.0183     66.5424    104.2134
  1956.7500      0.0000    272.6733     34.8120     66.6294     99.1163
  1957.0000      0.0000    273.3607     36.3084     66.5424     95.6545
  1957.2500      0.0000    271.7308     40.3198     66.8035     92.7339
  1957.5000      0.0000    268.4123     46.4995     67.7611     89.6882
  1957.7500      0.0000    264.8541     53.3820     70.0243     86.7573
  1958.0000      0.0000    262.1398     59.2840     52.5279     85.0105
  1958.2500      0.0000    260.5180     63.2573     83.5165     85.3622
  1958.5000      0.0000    259.7161     65.3510     53.0502     87.4584
  1958.7500      0.0000    259.3739     66.1936     88.3040     89.7896
  1959.0000      0.0000    259.2406     66.4366     89.5227     90.9459
  1959.2500      0.0000    259.1888     66.4892     89.6968     90.4654
  1959.5000      0.0000    259.1689     66.5356     89.2616     88.4459
  1959.7500      0.0000    259.1616     66.6326     88.4781     84.9174
  1960.0000      0.0000    259.1581     66.7721     89.3486     80.2745
  1960.2500      0.0000    259.1537     66.9172     88.3911     76.1415
  1960.5000      0.0000    259.1480     67.0328     89.2616     74.7719
  1960.7500      0.0000    259.1442     67.1085     88.7393     77.0886
  1961.0000      0.0000    259.1483     67.1580     89.3486     81.9476
  1961.2500      0.0000    259.1658     67.1992     89.5227     87.8179
  1961.5000      0.0000    259.1960     67.2372     90.3061     94.5736
  1961.7500      0.0000    259.2289     67.2695     90.3932    103.0301
  1962.0000      0.0000    259.2502     67.2947     89.6097    113.0138
  1962.2500      0.0000    259.2533     67.3097     88.9134    122.4407
  1962.5000      0.0000    259.2449     67.3046     89.9579    128.6122
  1962.7500      0.0000    259.2392     67.2757     89.8709    130.6326
  1963.0000      0.0000    259.2461     67.2408     90.6543    130.5977
  1963.2500      0.0000    259.2668     67.2309     90.0450    132.1878
  1963.5000      0.0000    259.2965     67.2597     90.3932    137.8784
  1963.7500      0.0000    259.3290     67.3097     90.1320    147.2276
  1964.0000      0.0000    259.3575     67.3495     90.6543    157.4206
  1964.2500      0.0000    259.3754     67.3625     90.5672    165.2883
  1964.5000      0.0000    259.3778     67.3539     89.6097    169.2022
  1964.7500      0.0000    259.3652     67.3324     89.6097    169.5787
  1965.0000      0.0000    259.3445     67.2925     89.6968    167.8078
  1965.2500      0.0000    259.3271     67.2168     90.5672    164.8640
  1965.5000      0.0000    259.3225     67.0954     90.1320    161.0451
  1965.7500      0.0000    259.3328     66.9433     89.3486    156.6965
  1966.0000      0.0000    259.3517     66.7968     90.0450    152.7235
  1966.2500      0.0000    259.3703     66.6872     89.8709    150.3106
  1966.5000      0.0000    259.3856     66.6135     90.0450    150.1662
