~Version Information
 VERS.                                  2.0 : CWLS LAS VERSION
 WRAP.                                   NO : WRAPING MODE
 SWARE .                 MController 2.5.0J : SOFTWARE VERSION
~Well Information
 WELL.                          Silva 1-43R : WELL
 COMP.                Petrogulf Corporation : COMPANY
 FLD.                       Purgatory River : FIELD
 LOC.                  NE/SE sec1 T33S R68W : LOCATION
 DATE.                    6/16/06 - 6/17/06 : DATE(S) LOGGED
 SRVC.      Blanco Geological Services, LLC : SERVICE COMPANY
 STAT.                             Colorado : STATE
 CNTY.                           Las Animas : COUNTY
 CTRY.                                  USA : COUNTRY
 API.                       05-071-08372-00 : API NUMBER
 STRT.FT                              12.00 : START DEPTH
 STOP.FT                            2210.00 : STOP DEPTH
 STEP.FT                               1.00 : DEPTH INCREMENT
 NULL.                                -9999 : NULL VALUE
~Curve information
 DEPTH.FT                                   :
 ROP.MIN/FT                                 :
 GAS.UNITS                                  :
~ASCII Log data
# ...
       212.0         0.40          6.5 
       213.0         0.37          6.2 
       214.0         0.37          6.5 
       215.0         0.37          6.5 
       216.0         0.37          5.8 
       217.0         0.42          6.9 
       218.0         0.40          6.7 
       219.0         0.37          6.4 
       220.0         0.40          6.5 
       221.0         0.43          6.2 
       222.0         0.37          6.5 
       223.0         0.40          6.8 
       224.0         0.40          6.4 
       225.0         0.33          7.0 
       226.0         0.38          6.7 
       227.0         0.40          6.7 
       228.0         0.27          7.0 
       229.0         0.60          7.2 
       230.0         0.63          7.0 
       231.0         2.35          7.3 
       232.0         0.27          6.4 
       233.0         0.23          6.9 
       234.0         0.43          6.9 
       235.0         0.37          7.3 
       236.0         0.37          7.0 
       237.0         0.37          7.3 
       238.0         0.42          7.6 
       239.0         0.37          6.7 
       240.0         0.37          7.2 
       241.0         0.40          7.5 
       242.0         0.37          7.6 
       243.0         0.37          7.7 
       244.0         0.33          7.9 
       245.0         0.33          8.0 
       246.0         0.37          7.8 
       247.0         0.42          7.5 
       248.0         0.53          8.0 
       249.0         0.40          7.7 
       250.0         0.37          7.3 
       251.0         0.40          8.0 
       252.0         0.40          7.7 
       253.0         0.40          8.2 
       254.0         0.37          7.6 
       255.0         0.42          8.0 
       256.0         0.37          7.8 
       257.0         0.37          7.6 
       258.0         0.30          7.8 
       259.0         0.30          8.1 
       260.0         0.37          7.5 
       261.0         1.37          7.6 
       262.0         0.42          7.4 
       263.0         0.37          8.0 
       264.0         0.33          7.4 
       265.0         0.43          7.3 
       266.0         0.40          7.4 
       267.0         0.37          7.7 
       268.0         0.37          7.8 
       269.0         0.37          7.2 
       270.0         0.42          7.0 
       271.0         0.40          8.2 
       272.0         0.40          7.6 
       273.0         0.43          7.7 
       274.0         0.40          7.5 
       275.0         0.37          8.1 
       276.0         0.40          7.3 
       277.0         0.37          7.7 
       278.0         0.37          7.2 
       279.0         0.38          7.7 
       280.0         0.40          7.4 
       281.0         0.40          7.3 
       282.0         0.40          7.4 
       283.0         0.40          7.9 
       284.0         0.40          7.3 
       285.0         0.40          7.2 
       286.0         0.33          6.8 
       287.0         0.30          7.0 
       288.0         0.32          7.3 
       289.0         0.20          6.9 
       290.0         0.30          7.2 
       291.0         1.10          7.6 
       292.0         0.30          7.0 
       293.0         0.43          7.1 
       294.0         0.40          7.4 
       295.0         0.42          7.5 
       296.0         0.40          7.1 
       297.0         0.40          7.5 
       298.0         0.40          7.1 
       299.0         0.40          7.3 
       300.0         0.37          7.1 
       301.0         0.40          7.1 
       302.0         0.37          6.7 
       303.0         0.50          7.4 
       304.0         0.38          6.8 
       305.0         0.40          6.8 
       306.0         0.40          7.5 
       307.0         0.40          7.1 
       308.0         0.40          7.1 
       309.0         0.37          7.6 
       310.0         0.40          7.4 
       311.0         0.37          6.9 
       312.0         0.42          6.6 
       313.0         0.33          6.6 
       314.0         0.40          6.9 
       315.0         0.37          6.7 
       316.0         0.37          7.4 
       317.0         0.40          6.6 
       318.0         0.30          6.9 
       319.0         0.20          7.4 
       320.0         0.33          6.8 
       321.0         1.65          6.6 
       322.0         0.40          6.5 
       323.0         0.40          6.0 
       324.0         0.37          6.3 
       325.0         0.37          7.0 
       326.0         0.40          7.4 
       327.0         0.42          6.8 
       328.0         0.37          7.2 
       329.0         0.47          6.6 
       330.0         0.47          7.0 
       331.0         0.40          6.5 
       332.0         0.40          7.1 
       333.0         0.40          6.7 
       334.0         0.43          7.2 
       335.0         0.45          6.6 
       336.0         0.43          6.5 
       337.0         0.43          6.5 
       338.0         0.37          6.5 
       339.0         0.43          6.6 
       340.0         0.40          6.0 
       341.0         0.40          6.5 
       342.0         0.37          6.7 
       343.0         0.42          6.0 
       344.0         0.40          6.9 
       345.0         0.37          5.8 
       346.0         0.37          6.1 
       347.0         0.20          5.9 
       348.0         0.20          6.2 
       349.0         0.30          6.0 
       350.0         0.23          6.3 
       351.0         0.77          5.8 
       352.0         0.30          6.5 
       353.0         0.32          6.7 
       354.0         0.43          6.4 
       355.0         0.40          6.4 
       356.0         0.37          6.3 
       357.0         0.43          6.0 
       358.0         0.40          5.9 
       359.0         0.37          5.8 
       360.0         0.43          6.3 
       361.0         0.38          5.7 
       362.0         0.40          5.9 
       363.0         0.40          5.8 
       364.0         0.40          4.4 
       365.0         0.50          4.3 
       366.0         0.43          3.9 
       367.0         0.50          4.3 
       368.0         0.40          3.8 
       369.0         0.45          3.4 
       370.0         0.47          4.0 
       371.0         0.43          3.3 
       372.0         0.43          3.3 
       373.0         0.43          3.1 
       374.0         0.40          3.7 
       375.0         0.47          2.9 
       376.0         0.40          3.3 
       377.0         0.42          3.1 
       378.0         0.27          3.3 
       379.0         0.30          3.3 
       380.0         0.30          3.4 
       381.0         1.10          2.8 
       382.0         0.40          3.4 
       383.0         0.33          3.9 
       384.0         0.42          3.5 
       385.0         0.37          3.6 
       386.0         0.40          4.0 
       387.0         0.40          4.3 
       388.0         0.40          4.5 
       389.0         0.43          4.3 
       390.0         0.43          4.0 
       391.0         0.47          4.0 
       392.0         0.48          3.1 
       393.0         0.47          3.9 
       394.0         0.47          2.9 
       395.0         0.43          3.8 
       396.0         0.43          3.3 
       397.0         0.47          3.2 
       398.0         0.40          2.7 
       399.0         0.37          3.1 
       400.0         0.38          3.3 
       401.0         0.37          3.3 
       402.0         0.40          2.8 
       403.0         0.43          2.8 
       404.0         0.40          2.2 
       405.0         0.40          2.4 
       406.0         0.40          1.8 
       407.0         0.40          1.8 
       408.0         0.33          2.0 
       409.0         0.32          2.1 
       410.0         0.40          1.3 
       411.0         1.00          1.8 
