~Version Information
VERS.                      2.0: CWLS Log ASCII Standard - VERSION 2.0
WRAP.                       NO: One line per depth step
~Well Information Block
STRT.FT               -10.0000: 
STOP.FT              2544.2500: 
STEP.FT                 0.2500: 
NULL.                -999.2500: 
COMP.          Pioneer Natural Resources: COMPANY
WELL.            Cortina 23-25: WELL
FLD.           Purgatorie River: FIELD
LOC.           2344' FWL  & 2526' FSL------: LOCATION
PROV.                       CO: PROVINCE
CNTY.               Las Animas: COUNTRY
SRVC.          Patterson Wireline: SERVICE COMPANY
DATE.          Fri Apr 01 11:50:55 2005: LOG DATE
UWI.           05 071 08340 00: UNIQUE WELL ID
~Curve Information Block
DEPT.FT            0 000 00 00: Depth
CCL.                          : Casing Collar Locator
TT3.usec                      : CBL 3' Travel Time
AMP3.mV                       : CBL 3' Amplitude
GR.GAPI                       : Gamma Ray
~Parameter Information Block
~A  Depth       CCL         TT3         AMP3         GR     
# ...
   827.5000      0.0000    699.7252      6.6045    155.3964
   827.7500      0.0000    702.2872      6.6115    154.1561
   828.0000      0.0000    706.6459      6.6239    149.5861
   828.2500      0.0000    713.3506      6.6351    142.6870
   828.5000      0.0000    722.6018      6.6447    133.9974
   828.7500      0.0000    734.2154      6.6666    123.2626
   829.0000      0.0000    747.1349      6.7211    110.4356
   829.2500      0.0000    759.0469      6.8169     96.4066
   829.5000      0.0000    767.6195      6.9404     82.9086
   829.7500      0.0000    772.4710      7.0596     72.2558
   830.0000      0.0000    774.9999      7.1383     66.9862
   830.2500      0.0000    776.3676      7.1511     68.9693
   830.5000      0.0000    776.7070      7.0975     78.3472
   830.7500      0.0000    775.9835      7.0038     93.3874
   831.0000      0.0000    774.2187      6.9093    111.2966
   831.2500      0.0000    770.6026      6.8479    129.1674
   831.5000      0.0000    763.4470      6.8408    144.6424
   831.7500      0.0000    752.1343      6.9009    156.3612
   832.0000      0.0000    739.3640      7.0357    164.0506
   832.2500      0.0000    730.7695      7.2417    168.3289
   832.5000      0.0000    731.4872      7.4992    170.5516
   832.7500      0.0000    742.8105      7.7767    172.2339
   833.0000      0.0000    762.0991      8.0385    173.6159
   833.2500      0.0000    785.6393      8.2452    172.8044
   833.5000      0.0000    810.9808      8.3553    167.1336
   833.7500      0.0000    836.1589      8.3411    155.5192
   834.0000      0.0000    857.8218      8.2034    139.1366
   834.2500      0.0000    872.1505      7.9666    120.1321
   834.5000      0.0000    877.9550      7.6641    100.4678
   834.7500      0.0000    877.6813      7.3323     82.0246
   835.0000      0.0000    875.1158      7.0104     66.9725
   835.2500      0.0000    872.8232      6.7377     57.3827
   835.5000      0.0000    871.6168      6.5503     54.3766
   835.7500      0.0000    871.4673      6.4814     57.6993
   836.0000      0.0000    872.4698      6.5572     66.0138
   836.2500      0.0000    875.2095      6.7904     77.5108
   836.5000      0.0000    880.3156      7.1824     90.4183
   836.7500      0.0000    887.3746      7.7282    103.2385
   837.0000      0.0000    894.0985      8.4107    114.6355
   837.2500      0.0000    896.7928      9.1874    123.3051
   837.5000      0.0000    892.2728      9.9845    128.3698
   837.7500      0.0000    880.1615     10.7034    130.1183
   838.0000      0.0000    864.0527     11.2353    130.0659
   838.2500      0.0000    850.1800     11.4906    129.8234
   838.5000      0.0000    843.8671     11.4346    129.6835
   838.7500      0.0000    846.4338     11.1015    128.5437
   839.0000      0.0000    855.3488     10.5729    125.5287
   839.2500      0.0000    867.0403      9.9447    121.4620
   839.5000      0.0000    879.1073      9.3095    118.3670
   839.7500      0.0000    890.3210      8.7498    117.8135
   840.0000      0.0000    899.8086      8.3240    120.0589
   840.2500      0.0000    906.8820      8.0474    124.2179
   840.5000      0.0000    911.3445      7.8930    128.8369
   840.7500      0.0000    913.5494      7.8184    132.7042
   841.0000      0.0000    914.0139      7.7898    135.3528
   841.2500      0.0000    912.9106      7.7824    136.7532
   841.5000      0.0000    909.8777      7.7676    136.8139
   841.7500      0.0000    904.4054      7.7151    135.4616
   842.0000      0.0000    896.6772      7.6061    132.9752
   842.2500      0.0000    888.0403      7.4371    129.9301
   842.5000      0.0000    880.4139      7.2126    126.6600
   842.7500      0.0000    875.0724      6.9467    122.8041
   843.0000      0.0000    872.0634      6.6728    117.6446
   843.2500      0.0000    870.6592      6.4352    111.1540
   843.5000      0.0000    870.0964      6.2671    104.5886
   843.7500      0.0000    869.9115      6.1808     99.8691
   844.0000      0.0000    869.9270      6.1759     98.5194
   844.2500      0.0000    870.1971      6.2484    101.1489
   844.5000      0.0000    871.0161      6.3906    107.4145
   844.7500      0.0000    872.7707      6.5885    116.1036
   845.0000      0.0000    875.4671      6.8244    125.5296
   845.2500      0.0000    878.3226      7.0816    134.2235
   845.5000      0.0000    880.2311      7.3403    141.2951
   845.7500      0.0000    880.9232      7.5686    146.2964
   846.0000      0.0000    881.0568      7.7254    149.1778
   846.2500      0.0000    880.3411      7.7747    150.5203
   846.5000      0.0000    875.5413      7.6963    151.3745
   846.7500      0.0000    861.0930      7.4974    152.3955
   847.0000      0.0000    832.9789      7.2215    153.2209
   847.2500      0.0000    793.6075      6.9332    153.0275
   847.5000      0.0000    753.6630      6.6816    151.7824
   847.7500      0.0000    727.9323      6.4831    150.8650
   848.0000      0.0000    726.8842      6.3356    152.0765
   848.2500      0.0000    750.0706      6.2298    155.6059
   848.5000      0.0000    786.5288      6.1474    159.2171
   848.7500      0.0000    822.0038      6.0703    160.2544
   849.0000      0.0000    847.2473      5.9972    158.4741
   849.2500      0.0000    860.9701      5.9388    156.1835
   849.5000      0.0000    866.7677      5.9020    155.6197
   849.7500      0.0000    868.6970      5.8851    156.8771
   850.0000      0.0000    869.2064      5.8812    158.3522
   850.2500      0.0000    869.2992      5.8796    158.4462
   850.5000      0.0000    869.2460      5.8743    156.4869
   850.7500      0.0000    869.0302      5.8709    152.6108
   851.0000      0.0000    868.5451      5.8770    147.5195
   851.2500      0.0000    867.7270      5.8890    142.3384
   851.5000      0.0000    866.6612      5.8977    138.2899
   851.7500      0.0000    865.4722      5.9001    136.2776
   852.0000      0.0000    863.9717      5.8944    136.5349
   852.2500      0.0000    861.4161      5.8735    138.5261
   852.5000      0.0000    856.8578      5.8332    141.3592
   852.7500      0.0000    850.0717      5.7812    144.3692
   853.0000      0.0000    842.2639      5.7303    147.0661
   853.2500      0.0000    835.7224      5.6949    148.7622
   853.5000      0.0000    832.5865      5.6955    148.6410
   853.7500      0.0000    833.7255      5.7485    146.2616
   854.0000      0.0000    838.3793      5.8444    142.1221
   854.2500      0.0000    844.5869      5.9468    137.8016
   854.5000      0.0000    850.2014      6.0229    135.0034
   854.7500      0.0000    853.9268      6.0660    133.9289
   855.0000      0.0000    855.5955      6.0857    132.9303
   855.2500      0.0000    855.5313      6.0845    130.5413
   855.5000      0.0000    853.7529      6.0541    127.7239
   855.7500      0.0000    849.8857      5.9969    127.1609
   856.0000      0.0000    843.7958      5.9374    129.9992
   856.2500      0.0000    836.0432      5.9002    134.0164
   856.5000      0.0000    827.3082      5.8826    135.4171
   856.7500      0.0000    817.4054      5.8599    132.1362
   857.0000      0.0000    805.5426      5.8193    125.3417
   857.2500      0.0000    792.2677      5.7809    118.2274
   857.5000      0.0000    780.9390      5.7822    113.5547
   857.7500      0.0000    776.0935      5.8385    112.1726
   858.0000      0.0000    779.4385      5.9215    113.3894
   858.2500      0.0000    787.5198      5.9776    116.0414
   858.5000      0.0000    793.7411      5.9696    118.9303
   858.7500      0.0000    792.9506      5.9057    120.8307
   859.0000      0.0000    784.7451      5.8316    121.0263
   859.2500      0.0000    773.3683      5.7933    120.2412
   859.5000      0.0000    764.7451      5.7973    120.4864
   859.7500      0.0000    762.8225      5.8081    123.2275
   860.0000      0.0000    767.9615      5.7866    127.7148
   860.2500      0.0000    778.1678      5.7292    131.6028
   860.5000      0.0000    790.8170      5.6620    133.3172
   860.7500      0.0000    802.6255      5.6069    133.6242
