~Version Information
 VERS.                                  2.0 : CWLS LAS VERSION
 WRAP.                                   NO : WRAPING MODE
 SWARE .                 MController 2.5.0J : SOFTWARE VERSION
~Well Information
 WELL.                         Leier 17-24V : WELL
 COMP.                Petrogulf Corporation : COMPANY
 FLD.                      Purgatoire River : FIELD
 LOC.                SE/NE Sec 17 T33S R67W : LOCATION
 DATE.                             09/21/05 : DATE(S) LOGGED
 SRVC.       BLANCO Geological Services LLC : SERVICE COMPANY
 STAT.                                   CO : STATE
 CNTY.                           Las Animas : COUNTY
 CTRY.                                  USA : COUNTRY
 API.                       05-071-08409-00 : API NUMBER
 STRT.FT                             1.00 : START DEPTH
 STOP.FT                            2455.00 : STOP DEPTH
 STEP.FT                               1.00 : DEPTH INCREMENT
 NULL.                                -9999 : NULL VALUE
~Curve information
 DEPTH.FT                                   :
 ROP.MIN/FT                                 :
 GAS.UNITS                                  :
~ASCII Log data
# ...
      1396.0         0.27         24.9 
      1397.0         0.47         25.1 
      1398.0         0.38         25.2 
      1399.0         0.20         25.4 
      1400.0         0.23         25.6 
      1401.0         0.20         25.2 
      1402.0         0.27         25.1 
      1403.0         0.23         24.8 
      1404.0         0.20         24.7 
      1405.0         0.37         24.5 
      1406.0         3.45         50.0 
      1407.0         0.67         36.2 
      1408.0         0.58         33.7 
      1409.0         0.27         28.4 
      1410.0         0.40         28.6 
      1411.0         0.43         27.4 
      1412.0         0.30         25.6 
      1413.0         0.37         24.5 
      1414.0         0.33         23.8 
      1415.0         0.30         23.4 
      1416.0         0.30         22.7 
      1417.0         0.23         22.8 
      1418.0         0.32         22.5 
      1419.0         0.23         22.3 
      1420.0         0.23         22.1 
      1421.0         0.30         22.3 
      1422.0         0.43         22.6 
      1423.0         0.47         22.6 
      1424.0         0.37         22.4 
      1425.0         0.23         21.3 
      1426.0         0.23         21.8 
      1427.0         0.20         21.5 
      1428.0         0.30         22.1 
      1429.0         0.42         22.2 
      1430.0         0.37         22.4 
      1431.0         0.23         22.1 
      1432.0         0.23         21.6 
      1433.0         0.27         21.3 
      1434.0         0.27         22.1 
      1435.0         0.30         22.1 
      1436.0         3.73         47.3 
      1437.0         0.33         31.0 
      1438.0         0.63         31.4 
      1439.0         0.57         29.0 
      1440.0         0.37         28.0 
      1441.0         0.17         26.4 
      1442.0         0.45         25.5 
      1443.0         0.30         24.2 
      1444.0         0.33         23.7 
      1445.0         0.23         22.2 
      1446.0         0.17         21.7 
      1447.0         0.20         22.5 
      1448.0         0.27         22.5 
      1449.0         0.43         23.0 
      1450.0         0.23         22.5 
      1451.0         0.35         22.5 
      1452.0         0.33         22.4 
      1453.0         0.33         22.4 
      1454.0         0.27         22.1 
      1455.0         0.33         22.2 
      1456.0         0.33         22.1 
      1457.0         0.30         21.9 
      1458.0         0.30         21.5 
      1459.0         0.27         21.7 
      1460.0         0.25         22.5 
      1461.0         0.20         22.6 
      1462.0         0.20         22.3 
      1463.0         0.23         23.6 
      1464.0         0.30         23.9 
      1465.0         0.37         24.0 
      1466.0         3.08         47.6 
      1467.0         0.37         30.7 
      1468.0         0.30         30.1 
      1469.0         0.30         29.6 
      1470.0         0.28         27.4 
      1471.0         0.37         26.4 
      1472.0         0.27         26.2 
      1473.0         0.27         26.5 
      1474.0         0.43         26.1 
      1475.0         0.27         24.3 
      1476.0         0.43         23.4 
      1477.0         0.33         22.4 
      1478.0         0.37         22.0 
      1479.0         0.28         21.2 
      1480.0         0.27         21.3 
      1481.0         0.40         21.0 
      1482.0         0.37         21.0 
      1483.0         0.27         20.5 
      1484.0         0.27         20.5 
      1485.0         0.43         20.6 
      1486.0         0.37         21.0 
      1487.0         0.35         20.9 
      1488.0         0.27         20.8 
      1489.0         0.27         20.9 
      1490.0         0.27         20.6 
      1491.0         0.30         20.6 
      1492.0         0.27         20.2 
      1493.0         0.30         20.4 
      1494.0         0.27         20.1 
      1495.0         0.37         19.9 
      1496.0         2.58         41.0 
      1497.0         0.33         28.6 
      1498.0         0.43         27.6 
      1499.0         0.47         26.1 
      1500.0         0.52         24.0 
      1501.0         0.40         23.1 
      1502.0         0.37         22.6 
      1503.0         0.33         21.8 
      1504.0         0.30         21.3 
      1505.0         0.20         21.4 
      1506.0         0.23         21.3 
      1507.0         0.20         21.3 
      1508.0         0.23         21.3 
      1509.0         0.20         21.0 
      1510.0         0.20         20.9 
      1511.0         0.23         20.6 
      1512.0         0.22         20.6 
      1513.0         0.20         20.4 
      1514.0         0.20         20.4 
      1515.0         0.23         20.5 
      1516.0         0.23         20.6 
      1517.0         0.20         20.3 
      1518.0         0.23         20.2 
      1519.0         0.33         20.4 
      1520.0         0.57         20.3 
      1521.0         0.50         20.1 
      1522.0         0.23         19.9 
      1523.0         0.23         19.7 
      1524.0         0.25         19.6 
      1525.0         0.30         19.8 
      1526.0         3.22         43.5 
      1527.0         0.43         26.3 
      1528.0         0.30         26.5 
      1529.0         0.23         25.4 
      1530.0         0.27         25.0 
      1531.0         0.30         24.1 
      1532.0         0.23         23.4 
      1533.0         0.20         23.5 
      1534.0         0.30         23.1 
      1535.0         0.23         22.8 
      1536.0         0.20         21.5 
      1537.0         0.25         21.1 
      1538.0         0.23         20.7 
      1539.0         0.23         20.5 
      1540.0         0.17         20.2 
      1541.0         0.20         20.3 
      1542.0         0.27         19.6 
      1543.0         0.20         19.9 
      1544.0         0.20         19.8 
      1545.0         0.20         19.8 
      1546.0         0.27         19.7 
      1547.0         0.30         19.6 
      1548.0         0.27         19.5 
      1549.0         0.30         19.2 
      1550.0         0.30         19.5 
      1551.0         0.28         19.5 
      1552.0         0.33         19.5 
      1553.0         0.37         19.5 
      1554.0         0.37         19.8 
      1555.0         0.30         19.7 
      1556.0         3.48         44.4 
      1557.0         0.33         23.6 
      1558.0         0.37         24.4 
      1559.0         0.37         24.5 
      1560.0         0.45         23.6 
      1561.0         0.50         23.0 
      1562.0         0.47         22.1 
      1563.0         0.27         21.0 
      1564.0         0.20         20.3 
      1565.0         0.27         20.3 
      1566.0         0.27         19.6 
      1567.0         0.23         19.9 
      1568.0         0.20         19.8 
      1569.0         0.17         19.5 
      1570.0         0.20         19.5 
      1571.0         0.17         19.3 
      1572.0         0.17         19.3 
      1573.0         0.25         19.3 
      1574.0         0.30         19.2 
      1575.0         0.23         19.0 
      1576.0         0.23         19.0 
      1577.0         0.30         19.1 
      1578.0         0.27         19.4 
      1579.0         0.20         19.2 
      1580.0         0.17         19.1 
      1581.0         0.17         19.1 
      1582.0         0.17         19.5 
      1583.0         0.17         19.6 
      1584.0         0.17         19.6 
      1585.0         0.23         19.4 
      1586.0         3.32         43.0 
      1587.0         0.30         26.4 
      1588.0         0.28         25.3 
      1589.0         0.33         25.1 
      1590.0         0.43         24.1 
      1591.0         0.50         23.3 
      1592.0         0.30         23.1 
      1593.0         0.27         22.0 
      1594.0         0.33         21.9 
      1595.0         0.33         21.0 
