~Version Information
VERS.                      2.0: CWLS Log ASCII Standard - VERSION 2.0
WRAP.                       NO: One line per depth step
~Well Information Block
STRT.FT               750.0000: 
STOP.FT              2433.0000: 
STEP.FT                 0.2500: 
NULL.                -999.2500: 
COMP.          Petrogulf Corporation: COMPANY
WELL.           McDaniel 9-34V: WELL
FLD.           Purgatorie River: FIELD
LOC.           620' FSL & 1800' FEL: LOCATION
PROV.                 Colorado: PROVINCE
CNTY.               Las Animas: COUNTRY
SRVC.                Patterson: SERVICE COMPANY
DATE.          Tue Sep 27 19:56:11 2005: LOG DATE
UWI.                          : UNIQUE WELL ID
~Curve Information Block
DEPT.FT            0 000 00 00: Depth
SP.mV                         : DIL Spontaneous Potential
RILD.Ohm-m                    : DIL Deep Resistivity
RILM.Ohm-m                    : DIL Medium Resistivity
RLL3.Ohm-m                    : DIL Shallow Resistivity
GR.GAPI                       : Gamma Ray
~Parameter Information Block
~A  Depth        SP         RILD        RILM        RLL3         GR     
# ...
  2178.0000    124.0974     17.7415     17.8512     23.3975     66.5400
  2178.2500    123.1479     18.0809     17.9947     23.4432     68.4116
  2178.5000    122.2347     18.5283     18.2921     22.9418     69.5651
  2178.7500    121.3945     19.0707     18.7781     22.5219     69.3577
  2179.0000    120.6587     19.6953     19.4867     23.1691     68.1904
  2179.2500    120.0500     20.3986     20.4510     25.5407     67.1881
  2179.5000    119.5823     21.1899     21.7029     29.4594     65.3385
  2179.7500    119.2650     22.0887     23.2741     34.2886     63.4692
  2180.0000    119.1072     23.1191     25.1983     40.2650     59.1863
  2180.2500    119.1215     24.3059     27.5122     50.1481     55.5293
  2180.5000    119.3231     25.6716     30.2551     70.2809     49.4936
  2180.7500    119.7270     27.2328     33.4611    110.0864     45.2278
  2181.0000    120.3428     28.9877     37.1418    178.9704     38.4514
  2181.2500    121.1713     30.8919     41.2548    280.4974     33.9654
  2181.5000    122.2044     32.8330     45.6581    406.3834     28.2237
  2181.7500    123.4273     34.6311     50.0626    535.3375     25.4677
  2182.0000    124.8226     36.0847     54.0131    639.7790     23.0758
  2182.2500    126.3737     37.0449     56.9432    696.7728     22.5116
  2182.5000    128.0650     37.4580     58.3322    695.3988     22.8138
  2182.7500    129.8796     37.3480     57.9150    637.2784     23.5005
  2183.0000    131.7956     36.7741     55.8100    534.2635     24.9359
  2183.2500    133.7833     35.8103     52.4648    406.8413     26.1774
  2183.5000    135.8056     34.5500     48.4585    280.6023     28.7299
  2183.7500    137.8216     33.1029     44.3061    177.9530     31.0850
  2184.0000    139.7923     31.5664     40.3565    109.3750     35.8976
  2184.2500    141.6860     29.9922     36.7864     71.4710     39.9578
  2184.5000    143.4814     28.3831     33.6425     53.0025     46.6167
  2184.7500    145.1672     26.7281     30.8911     43.2830     50.6146
  2185.0000    146.7391     25.0461     28.4594     36.9248     54.5426
  2185.2500    148.1955     23.4002     26.2672     33.3617     55.4612
  2185.5000    149.5355     21.8714     24.2493     33.5471     55.0036
  2185.7500    150.7580     20.5202     22.3694     37.0298     54.3169
  2186.0000    151.8637     19.3684     20.6230     41.1419     53.8077
  2186.2500    152.8577     18.4047     19.0288     42.4174     53.9973
  2186.5000    153.7506     17.6021     17.6133     39.0328     55.1139
  2186.7500    154.5573     16.9314     16.3970     32.1172     56.5945
  2187.0000    155.2941     16.3650     15.3858     24.6430     60.3718
  2187.2500    155.9737     15.8762     14.5703     19.1080     63.9655
  2187.5000    156.6027     15.4384     13.9286     16.2440     70.3380
  2187.7500    157.1798     15.0288     13.4323     15.3937     74.6010
  2188.0000    157.6974     14.6335     13.0514     15.5194     79.9180
  2188.2500    158.1442     14.2514     12.7591     15.8502     82.3158
  2188.5000    158.5089     13.8936     12.5358     16.0145     84.1551
  2188.7500    158.7817     13.5771     12.3701     15.9278     84.6768
  2189.0000    158.9553     13.3190     12.2587     15.6541     85.3936
  2189.2500    159.0237     13.1304     12.2038     15.3154     85.8842
  2189.5000    158.9809     13.0146     12.2100     15.0370     85.6914
  2189.7500    158.8207     12.9655     12.2803     14.9181     84.5340
  2190.0000    158.5370     12.9689     12.4131     15.0393     82.0359
  2190.2500    158.1257     13.0049     12.6004     15.4886     80.8534
  2190.5000    157.5867     13.0518     12.8263     16.3529     80.4919
  2190.7500    156.9261     13.0920     13.0682     17.6494     80.4836
  2191.0000    156.1562     13.1168     13.2989     19.2502     78.9230
  2191.2500    155.2948     13.1272     13.4921     20.8755     76.4104
  2191.5000    154.3636     13.1317     13.6277     22.1710     71.2876
  2191.7500    153.3862     13.1400     13.6972     22.8210     67.8271
  2192.0000    152.3860     13.1587     13.7053     22.6560     63.5871
  2192.2500    151.3852     13.1900     13.6683     21.7339     61.6278
  2192.5000    150.4035     13.2349     13.6091     20.3454     60.1847
  2192.7500    149.4568     13.2964     13.5517     18.8985     60.4201
  2193.0000    148.5569     13.3803     13.5167     17.7381     62.9761
  2193.2500    147.7101     13.4922     13.5194     17.0310     66.1933
  2193.5000    146.9185     13.6340     13.5702     16.7658     72.6455
  2193.7500    146.1815     13.8030     13.6768     16.7953     77.1870
  2194.0000    145.4987     13.9962     13.8467     16.8835     82.6372
  2194.2500    144.8734     14.2136     14.0898     16.8021     84.6900
  2194.5000    144.3152     14.4592     14.4201     16.4885     85.3607
  2194.7500    143.8419     14.7367     14.8539     16.1975     84.6941
  2195.0000    143.4780     15.0439     15.4075     16.6480     83.0880
  2195.2500    143.2518     15.3693     16.0902     19.3265     82.0381
  2195.5000    143.1913     15.6904     16.8964     27.0231     80.5642
  2195.7500    143.3193     15.9761     17.7936     44.1177     79.3898
  2196.0000    143.6487     16.1911     18.7120     75.4462     77.0821
  2196.2500    144.1801     16.3044     19.5394    122.7795     75.4540
  2196.5000    144.9007     16.2985     20.1335    180.0735     73.5778
  2196.7500    145.7850     16.1756     20.3573    231.7714     72.4883
  2197.0000    146.7976     15.9571     20.1300    258.4854     69.3127
  2197.2500    147.8953     15.6755     19.4655    248.3853     65.2684
  2197.5000    149.0312     15.3616     18.4686    205.4429     56.9944
  2197.7500    150.1579     15.0341     17.2917    146.8186     51.6040
  2198.0000    151.2309     14.6956     16.0808     91.7310     46.6152
  2198.2500    152.2114     14.3360     14.9417     51.5886     46.3583
  2198.5000    153.0685     13.9413     13.9317     27.9167     50.7028
  2198.7500    153.7813     13.5018     13.0681     16.4134     55.9032
  2199.0000    154.3393     13.0179     12.3426     11.8086     64.5226
  2199.2500    154.7433     12.5008     11.7332     10.3661     69.2662
  2199.5000    155.0037     11.9702     11.2135     10.1300     73.6932
  2199.7500    155.1398     11.4508     10.7592     10.2687     75.2276
  2200.0000    155.1769     10.9671     10.3509     10.4652     76.9105
  2200.2500    155.1443     10.5391      9.9757     10.6003     78.3363
  2200.5000    155.0715     10.1786      9.6264     10.6345     81.2424
  2200.7500    154.9858      9.8878      9.3004     10.5734     83.3769
  2201.0000    154.9093      9.6608      8.9977     10.4561     85.9007
  2201.2500    154.8568      9.4858      8.7193     10.3373     86.5954
  2201.5000    154.8340      9.3488      8.4666     10.2531     85.9140
  2201.7500    154.8372      9.2362      8.2404     10.1984     84.7880
  2202.0000    154.8535      9.1367      8.0413     10.1402     83.4802
  2202.2500    154.8615      9.0423      7.8692     10.0549     83.3300
  2202.5000    154.8343      8.9489      7.7240      9.9444     83.7953
  2202.7500    154.7419      8.8566      7.6053      9.8222     84.0312
  2203.0000    154.5544      8.7688      7.5132      9.6923     83.8661
  2203.2500    154.2460      8.6906      7.4478      9.5489     83.5585
  2203.5000    153.7979      8.6262      7.4093      9.3937     83.2988
  2203.7500    153.2004      8.5768      7.3981      9.2533     83.5788
  2204.0000    152.4540      8.5408      7.4135      9.1775     85.1076
  2204.2500    151.5690      8.5143      7.4542      9.2223     86.7277
  2204.5000    150.5635      8.4937      7.5171      9.4280     89.0075
  2204.7500    149.4608      8.4773      7.5978      9.7969     89.9186
  2205.0000    148.2873      8.4656      7.6903     10.2697     90.6099
  2205.2500    147.0696      8.4613      7.7882     10.7164     91.0511
  2205.5000    145.8335      8.4686      7.8859     10.9800     91.6588
  2205.7500    144.6026      8.4919      7.9798     10.9715     91.5064
