~Version Information
VERS.                      2.0: CWLS Log ASCII Standard - VERSION 2.0
WRAP.                       NO: One line per depth step
~Well Information Block
STRT.FT                 0.0000: 
STOP.FT              2006.5000: 
STEP.FT                 0.2500: 
NULL.                -999.2500: 
COMP.          Petrogulf Corporation: COMPANY
WELL.           Lavedure 7-44R: WELL
FLD.           Purgatorie River: FIELD
LOC.           946' FSL & 521' FEL: LOCATION
STAT.                 Colorado: State
CNTY.               Las Animas: COUNTY
CTRY. USA : Country
SECT. 7 : Section
TOWN. 33S : Township
RANG. 67W : Range
SRVC.                Patterson: SERVICE COMPANY
DATE.          Thu Nov 10 15:49:38 2005: LOG DATE
API. 05-071-08090       : UNIQUE WELL ID
~Curve Information Block
DEPT.FT            0 000 00 00: Depth
CCL.                          : Casing Collar Locator
TT3.usec                      : CBL 3' Travel Time
AMP3.mV                       : CBL 3' Amplitude
GR.GAPI                       : Gamma Ray
~Parameter Information Block
~A  Depth       CCL         TT3         AMP3         GR     
# ...
  1440.5000      0.0000    623.5654      7.2651    134.6405
  1440.7500      0.0000    617.1487      7.6164    136.1847
  1441.0000      0.0000    613.0699      7.8429    135.7122
  1441.2500      0.0000    618.8054      7.9229    132.4823
  1441.5000      0.0000    633.8307      7.8667    127.1523
  1441.7500      0.0000    651.1849      7.6678    121.7005
  1442.0000      0.0000    665.8542      7.3172    118.3494
  1442.2500      0.0000    673.6204      6.8531    118.0884
  1442.5000      0.0000    671.1785      6.3641    120.0165
  1442.7500      0.0000    662.3506      5.9064    122.1392
  1443.0000      0.0000    654.8082      5.4648    122.7607
  1443.2500      0.0000    653.6652      5.0409    121.1998
  1443.5000      0.0000    661.1954      4.6735    117.5996
  1443.7500      0.0000    676.2083      4.3293    112.4645
  1444.0000      0.0000    693.4442      3.9299    106.4977
  1444.2500      0.0000    707.5796      3.5256    100.7182
  1444.5000      0.0000    716.6758      3.2491     96.4107
  1444.7500      0.0000    720.0021      3.1473     94.8522
  1445.0000      2.0000    716.8197      3.2212     97.0514
  1445.2500      0.0000    710.1882      3.4784    103.3812
  1445.5000      0.0000    708.6926      3.8430    112.9203
  1445.7500      0.0000    716.0462      4.1631    123.2170
  1446.0000      0.0000    720.0748      4.3730    131.3323
  1446.2500      0.0000    707.8555      4.5164    135.7256
  1446.5000      0.0000    687.6813      4.6098    137.4216
  1446.7500      0.0000    676.9103      4.6853    139.2422
  1447.0000      0.0000    676.4971      4.8623    143.4036
  1447.2500      0.0000    673.9078      5.1744    149.4926
  1447.5000      0.0000    664.3401      5.4957    154.8693
  1447.7500      0.0000    655.4856      5.7061    157.0979
  1448.0000      0.0000    653.2937      5.7820    155.7444
  1448.2500      0.0000    655.5797      5.7448    152.0617
  1448.5000      0.0000    659.4141      5.6670    147.6344
  1448.7500      0.0000    665.2458      5.6948    143.3648
  1449.0000      0.0000    672.4692      5.9338    139.2007
  1449.2500      0.0000    676.1249      6.3567    134.7597
  1449.5000      0.0000    672.6819      6.8552    130.3267
  1449.7500      0.0000    665.7114      7.3061    126.9889
  1450.0000      0.0000    660.3243      7.6316    125.6273
  1450.2500      0.0000    656.5331      7.8685    125.9834
  1450.5000      0.0000    651.5504      8.1181    126.8015
  1450.7500      0.0000    647.0916      8.3967    126.7240
  1451.0000      0.0000    651.4071      8.6091    125.0856
  1451.2500      0.0000    665.8642      8.6658    122.1674
  1451.5000      0.0000    674.7847      8.5590    118.9520
  1451.7500      0.0000    666.3325      8.3328    116.6630
  1452.0000      0.0000    652.2173      8.0293    116.3047
  1452.2500      0.0000    648.2105      7.7111    118.1717
  1452.5000      0.0000    653.0326      7.4869    121.5341
  1452.7500      0.0000    658.0988      7.4683    125.1003
  1453.0000      0.0000    660.4105      7.7059    128.0648
  1453.2500      0.0000    660.9313      8.1415    130.4916
  1453.5000      0.0000    660.2925      8.6266    132.5980
  1453.7500      0.0000    657.6946      9.0034    134.1175
  1454.0000      0.0000    651.3216      9.1964    134.6112
  1454.2500      0.0000    640.8927      9.2602    134.0651
  1454.5000      0.0000    629.5509      9.3173    132.8997
  1454.7500      0.0000    621.2381      9.4321    131.4718
  1455.0000      0.0000    620.9033      9.5480    129.8563
  1455.2500      0.0000    635.5736      9.5739    128.2712
  1455.5000      0.0000    662.4752      9.4962    127.5343
  1455.7500      0.0000    683.2972      9.3544    128.6065
  1456.0000      0.0000    685.0780      9.1639    131.2545
  1456.2500      0.0000    675.1201      8.8843    133.3804
  1456.5000      0.0000    665.9712      8.4433    132.5838
  1456.7500      0.0000    660.5148      7.8161    128.8117
  1457.0000      0.0000    655.3797      7.0963    124.7188
  1457.2500      0.0000    648.6117      6.4235    122.6572
  1457.5000      0.0000    642.0449      5.8311    121.8611
  1457.7500      0.0000    638.6716      5.2599    119.5493
  1458.0000      0.0000    640.0201      4.6969    114.5240
  1458.2500      0.0000    645.8527      4.1987    108.6698
  1458.5000      0.0000    654.1041      3.8191    104.8234
  1458.7500      0.0000    662.0913      3.5705    104.0670
  1459.0000      0.0000    667.6650      3.4210    105.4021
  1459.2500      0.0000    669.3854      3.3190    107.2480
  1459.5000      0.0000    666.4793      3.2197    108.6613
  1459.7500      0.0000    658.0245      3.0948    109.4724
  1460.0000      0.0000    642.2145      2.9668    109.8302
  1460.2500      0.0000    619.0179      2.8845    109.7879
  1460.5000      0.0000    597.4731      2.8389    109.3905
  1460.7500      0.0000    591.3059      2.7738    109.1779
  1461.0000      0.0000    599.5699      2.6600    110.2103
  1461.2500      0.0000    609.5850      2.5171    113.1217
  1461.5000      0.0000    622.1965      2.3895    117.3670
  1461.7500      0.0000    646.1910      2.3212    121.7802
  1462.0000      0.0000    672.5273      2.3325    125.5466
  1462.2500      0.0000    683.1779      2.4142    128.1340
  1462.5000      0.0000    676.5022      2.5507    128.6079
  1462.7500      0.0000    665.2200      2.7393    125.7703
  1463.0000      0.0000    658.5064      2.9868    119.0406
  1463.2500      0.0000    656.5595      3.2939    108.8632
  1463.5000      0.0000    656.1193      3.6389     96.4610
  1463.7500      0.0000    654.3517      3.9951     83.7066
  1464.0000      0.0000    650.0532      4.3772     72.9435
  1464.2500      0.0000    644.9178      4.8250     65.9798
  1464.5000      0.0000    642.6636      5.3305     62.8452
  1464.7500      0.0000    644.8651      5.8137     61.7906
  1465.0000      0.0000    648.2866      6.1665     60.7965
  1465.2500      0.0000    648.2262      6.3250     59.1975
  1465.5000      0.0000    644.2084      6.3182     57.9273
  1465.7500      0.0000    639.7122      6.2462     58.2728
  1466.0000      0.0000    637.1106      6.1984     60.4391
  1466.2500      0.0000    636.0623      6.2030     63.2644
  1466.5000      0.0000    635.5712      6.2463     65.2025
  1466.7500      0.0000    635.1747      6.2886     65.5497
  1467.0000      0.0000    634.7646      6.2935     64.7820
  1467.2500      0.0000    634.3036      6.2810     63.8918
  1467.5000      0.0000    633.7844      6.2929     63.5450
  1467.7500      0.0000    633.2985      6.3207     63.7810
  1468.0000      0.0000    632.9683      6.3312     64.1724
  1468.2500      0.0000    632.8144      6.3221     64.1561
  1468.5000      0.0000    632.7739      6.3060     63.4382
  1468.7500      0.0000    632.8083      6.2842     62.2127
  1469.0000      0.0000    632.9088      6.2554     60.9014
  1469.2500      0.0000    633.0292      6.2328     59.6769
  1469.5000      0.0000    633.1082      6.2338     58.4412
  1469.7500      0.0000    633.1607      6.2421     57.3202
  1470.0000      0.0000    633.2614      6.2246     56.9003
  1470.2500      0.0000    633.3997      6.1712     57.6731
  1470.5000      0.0000    633.4287      6.0869     59.2341
  1470.7500      0.0000    633.0290      5.9849     60.3447
  1471.0000      0.0000    631.2036      5.8871     59.9437
  1471.2500      0.0000    625.8077      5.8214     57.9938
  1471.5000      0.0000    615.3549      5.8072     55.4554
  1471.7500      0.0000    602.5396      5.8274     53.7134
  1472.0000      0.0000    593.5026      5.8435     53.8630
  1472.2500      0.0000    592.2948      5.8440     56.0537
  1472.5000      0.0000    597.8058      5.8420     59.2965
  1472.7500      0.0000    606.0853      5.8459     62.0359
  1473.0000      0.0000    615.3658      5.8514     63.1696
  1473.2500      0.0000    626.8547      5.8449     62.6961
  1473.5000      0.0000    640.0712      5.8206     61.4108
  1473.7500      0.0000    651.7791      5.7913     59.9832
