~Version Information
VERS.                      2.0: CWLS Log ASCII Standard - VERSION 2.0
WRAP.                       NO: One line per depth step
~Well Information Block
STRT.FT                 0.0000: 
STOP.FT              1439.5000: 
STEP.FT                 0.2500: 
NULL.                -999.2500: 
COMP.          Petrogulf Corporation: COMPANY
WELL.          Robinson 15-12R: WELL
FLD.           Purgatorie River: FIELD
LOC.           1752' FNL & 561' FWL: LOCATION
PROV.                 Colorado: PROVINCE
CNTY.               Las Animas: COUNTRY
SRVC.                Patterson: SERVICE COMPANY
DATE.          Tue Oct 04 09:17:52 2005: LOG DATE
UWI.                          : UNIQUE WELL ID
~Curve Information Block
DEPT.FT            0 000 00 00: Depth
GR.GAPI                       : Gamma Ray
CCL.                          : Casing Collar Locator
TT3.usec                      : CBL 3' Travel Time
AMP3.mV                       : CBL 3' Amplitude
~Parameter Information Block
~A  Depth        GR         CCL         TT3         AMP3    
# ...
   837.5000     63.2449      0.0000    741.1575      4.1171
   837.7500     64.7692      0.0000    743.8063      3.7073
   838.0000     65.4699      0.0000    739.0471      3.2904
   838.2500     65.6035      0.0000    728.2223      2.9819
   838.5000     65.4732      0.0000    716.1322      2.8801
   838.7500     65.3965      0.0000    708.1229      3.0687
   839.0000     65.8293      0.0000    707.8481      3.6022
   839.2500     67.3733      0.0000    717.0103      4.4477
   839.5000     70.6794      0.0000    733.6084      5.4900
   839.7500     76.2513      0.0000    747.9083      6.6499
   840.0000     84.1047      0.0000    749.8223      7.9810
   840.2500     93.5635      0.0000    742.3221      9.6094
   840.5000    103.4363      0.0000    730.3691     11.6278
   840.7500    112.2922      0.0000    697.5920     14.0747
   841.0000    118.6950      0.0000    620.7820     16.9373
   841.2500    121.7064      0.0000    511.8244     20.1598
   841.5000    121.5637      0.0000    415.3203     23.6719
   841.7500    119.7486      0.0000    358.2067     27.3402
   842.0000    118.1487      0.0000    331.4816     30.8427
   842.2500    117.9551      0.0000    317.7947     33.6984
   842.5000    119.0987      0.0000    309.9164     35.6134
   842.7500    120.5759      0.0000    306.2882     36.8229
   843.0000    121.5022      0.0000    305.2086     37.8413
   843.2500    121.9244      0.0000    304.9932     38.8379
   843.5000    122.3507      0.0000    304.8779     39.5850
   843.7500    122.5670      0.0000    304.8109     39.9123
   844.0000    121.6945      0.0000    305.9223     39.7039
   844.2500    119.6199      0.0000    312.3401     38.5525
   844.5000    117.5485      0.0000    330.1356     36.1172
   844.7500    116.6848      0.0000    356.1752     33.1209
   845.0000    116.8735      0.0000    370.7181     31.0818
   845.2500    116.7773      0.0000    359.6400     30.4991
   845.5000    115.0766      0.0000    335.6797     30.6596
   845.7500    111.5561      0.0000    318.2925     31.0992
   846.0000    107.5383      0.0000    311.3153     31.6726
   846.2500    105.2192      0.0000    309.4885     32.0900
   846.5000    106.0445     -2.0000    309.0820     32.2363
   846.7500    109.5612     -2.0000    308.9787     32.3004
   847.0000    113.9501      0.0000    308.8594     32.5283
   847.2500    117.5016      0.0000    308.0782     33.1518
   847.5000    119.4913      0.0000    305.2374     34.5813
   847.7500    119.9445      0.0000    299.3448     37.1703
   848.0000    118.9556      0.0000    291.4684     40.3969
   848.2500    116.3261      0.0000    283.3489     43.1503
   848.5000    111.8488      0.0000    275.8103     44.9529
   848.7500    105.7632      0.0000    269.9851     45.9726
   849.0000     98.7440      0.0000    266.8149     46.4909
   849.2500     91.6327      0.0000    265.6633     46.8073
   849.5000     85.5371      0.0000    265.3357     47.0995
   849.7500     81.9226      0.0000    265.2109     47.3439
   850.0000     82.0583      0.0000    265.1404     47.4342
   850.2500     86.2066      0.0000    265.1325     47.2891
   850.5000     93.2928      0.0000    265.2124     46.9057
   850.7500    101.1520      0.0000    265.3622     46.4023
   851.0000    107.2758      0.0000    265.5181     45.9902
   851.2500    110.0080      0.0000    265.6199     45.8264
   851.5000    109.4898      0.0000    265.6588     45.8963
   851.7500    107.4622      0.0000    265.6636     46.0764
   852.0000    106.0449      0.0000    265.6631     46.2287
   852.2500    106.5268      0.0000    265.6762     46.2370
   852.5000    108.9610      0.0000    265.7022     46.0860
   852.7500    112.3714      0.0000    265.7094     45.9085
   853.0000    115.1275      0.0000    265.6642     45.8876
   853.2500    115.6332      0.0000    265.5684     46.1399
   853.5000    113.4963      0.0000    265.4466     46.6841
   853.7500    110.0980      0.0000    265.3152     47.4493
   854.0000    107.4813      0.0000    265.1875     48.3023
   854.2500    106.6509      0.0000    265.0827     49.1106
   854.5000    107.2742      0.0000    265.0171     49.7873
   854.7500    108.7295      0.0000    264.9928     50.2905
   855.0000    110.8000      0.0000    264.9887     50.6418
   855.2500    113.3697      0.0000    264.9785     50.9315
   855.5000    116.1002      0.0000    264.9637     51.2261
   855.7500    118.7483      0.0000    264.9639     51.4964
   856.0000    121.4568      0.0000    264.9874     51.6722
   856.2500    124.4735      0.0000    265.0322     51.7345
   856.5000    127.7964      0.0000    265.0941     51.7213
   856.7500    131.0671      0.0000    265.1624     51.6149
   857.0000    133.4805      0.0000    265.2579     51.2388
   857.2500    133.9144      0.0000    265.6166     50.3654
   857.5000    131.7605      0.0000    267.1238     48.9177
   857.7500    127.7957      0.0000    271.6474     46.9920
   858.0000    123.8895      0.0000    281.5146     44.7021
   858.2500    121.6466      0.0000    300.2617     42.0365
   858.5000    121.3661      0.0000    337.9577     38.8959
   858.7500    122.3035      0.0000    410.4147     35.2512
   859.0000    123.6453      0.0000    518.0928     31.2148
   859.2500    124.9105      0.0000    630.4451     26.9911
   859.5000    125.5451      0.0000    711.3691     22.8281
   859.7500    124.8919      0.0000    753.0650     18.9766
   860.0000    123.1588      0.0000    770.6760     15.5920
   860.2500    121.9199      0.0000    779.5690     12.6968
   860.5000    122.8341      0.0000    786.6423     10.2692
   860.7500    125.8294      0.0000    791.9374      8.3049
   861.0000    128.8052      0.0000    794.4206      6.7747
   861.2500    129.0871      0.0000    796.0029      5.5788
   861.5000    125.4053      0.0000    799.6479      4.6158
   861.7500    118.8595      0.0000    805.8702      3.8805
   862.0000    112.0241      0.0000    811.9906      3.4170
   862.2500    107.1797      0.0000    815.0499      3.2201
   862.5000    105.5235      0.0000    815.2354      3.2301
   862.7500    107.4017      0.0000    818.3615      3.3838
   863.0000    112.2391      0.0000    834.5844      3.6540
   863.2500    118.2968      0.0000    863.9261      4.0241
   863.5000    123.3747      0.0000    886.8076      4.4195
   863.7500    126.0910      0.0000    890.4078      4.7213
   864.0000    126.3997      0.0000    892.8434      4.8485
   864.2500    125.0332      0.0000    918.2089      4.7649
   864.5000    122.7312      0.0000    967.5605      4.4801
   864.7500    119.8205      0.0000   1026.0870      4.0990
   865.0000    116.1239      0.0000   1075.0592      3.7870
   865.2500    111.1849      0.0000   1100.7898      3.6832
   865.5000    104.8811      0.0000   1113.1979      3.8462
   865.7500     98.0099      0.0000   1128.2205      4.2207
   866.0000     92.0941      0.0000   1134.0226      4.6782
   866.2500     88.4043      0.0000   1117.3015      5.1332
   866.5000     87.1238      0.0000   1098.0679      5.5898
   866.7500     87.4554      0.0000   1098.4807      6.0637
   867.0000     88.5250      0.0000   1105.4519      6.5143
   867.2500     90.2351      0.0000   1089.6515      6.9028
   867.5000     93.1835      0.0000   1037.4673      7.1777
   867.7500     97.5182      0.0000    958.2530      7.1540
   868.0000    101.8789      0.0000    875.3083      6.6400
   868.2500    103.8334      0.0000    811.5285      5.6781
   868.5000    101.5299      0.0000    784.2091      4.5111
   868.7500     94.8006      0.0000    812.1685      3.4032
   869.0000     84.9309      0.0000    903.1360      2.5263
   869.2500     73.8692      0.0000   1021.7714      1.9127
   869.5000     63.5090      0.0000   1100.7607      1.4833
   869.7500     55.0564      0.0000   1094.2316      1.1395
   870.0000     48.7462      0.0000   1006.4879      0.8411
   870.2500     44.1703      0.0000    885.9421      0.6015
   870.5000     40.9017      0.0000    795.2367      0.4451
   870.7500     38.9016      0.0000    774.4733      0.3982
