~Version Information
VERS.                      2.0: CWLS Log ASCII Standard - VERSION 2.0
WRAP.                       NO: One line per depth step
~Well Information Block
STRT.FT               482.2000: 
STOP.FT              2349.0000: 
STEP.FT                 0.1000: 
NULL.                -999.2500: 
COMP.          Pioneer Natural Resources: COMPANY
WELL.          Hill Climb 22-2: WELL
FLD.           Purgatoire River: FIELD
LOC.           1820' FNL & 2193' FWL: LOCATION
PROV.                 Colorado: PROVINCE
CNTY.               Las Animas: COUNTRY
SRVC.                Patterson: SERVICE COMPANY
DATE.          Wed Oct 20 09:25:25 2004: LOG DATE
UWI.           05 071 08175 00: UNIQUE WELL ID
~Curve Information Block
DEPT.FT            0 000 00 00: Depth
DCAL.in                       : CDL Caliper
DPOR.pu                       : CDL Density Porosity
NPOR.pu                       : Neutron Porosity
RHOB.g/cc                     : CDL Bulk Density
RHOC.g/cc                     : CDL Density Correction
GR.GAPI                       : Gamma Ray
~Parameter Information Block
~A  Depth       DCAL        DPOR        NPOR        RHOB        RHOC         GR     
# ...
  2335.0000      7.8737     10.8004     14.3888      2.4718      0.0141   -999.2500
  2335.1000      7.8737     11.4062     14.2347      2.4618      0.0063   -999.2500
  2335.2000      7.8737     12.3682     14.8013      2.4459      0.0350   -999.2500
  2335.3000      7.8740     13.3123     15.3172      2.4303     -0.0183   -999.2500
  2335.4000      7.8740     13.3777     15.2357      2.4293      0.0116   -999.2500
  2335.5000      7.8749     12.6747     15.2297      2.4409      0.0562   -999.2500
  2335.6000      7.8749     11.7636     15.4463      2.4559      0.0032   -999.2500
  2335.7000      7.8749     11.0107     15.5023      2.4683      0.0668   -999.2500
  2335.8000      7.8751     10.8215     15.1433      2.4714      0.0449   -999.2500
  2335.9000      7.8751     11.4457     14.3801      2.4611      0.0661   -999.2500
  2336.0000      7.8756     13.1283     13.8771      2.4334      0.0637   -999.2500
  2336.1000      7.8756     15.1548     13.9999      2.3999     -0.0194   -999.2500
  2336.2000      7.8756     15.9830     14.1807      2.3863      0.0074   -999.2500
  2336.3000      7.8768     15.3593     14.6301      2.3966      0.0744   -999.2500
  2336.4000      7.8768     14.2124     17.5025      2.4155      0.0548   -999.2500
  2336.5000      7.8783     13.5863     26.3181      2.4258      0.0737   -999.2500
  2336.6000      7.8783     13.6431     39.6825      2.4249      0.0278   -999.2500
  2336.7000      7.8783     13.1690     49.0146      2.4327      0.0333   -999.2500
  2336.8000      7.8776     11.9206     52.2818      2.4533      0.0727   -999.2500
  2336.9000      7.8776     11.1464     52.9124      2.4661      0.0623   -999.2500
  2337.0000      7.8749     11.2494     52.9789      2.4644      0.0698   -999.2500
  2337.1000      7.8749     11.6732     52.9826      2.4574      0.0543   -999.2500
  2337.2000      7.8749     12.0825   -999.2500      2.4506      0.0811   -999.2500
  2337.3000      7.8741     12.1591   -999.2500      2.4494      0.0188   -999.2500
  2337.4000      7.8741     11.9006   -999.2500      2.4536      0.0632   -999.2500
  2337.5000      7.8794     12.2635   -999.2500      2.4477     -0.0026   -999.2500
  2337.6000      7.8794     13.5726   -999.2500      2.4261      0.0000   -999.2500
  2337.7000      7.8794     14.6608   -999.2500      2.4081     -0.0334   -999.2500
  2337.8000      7.8884     14.3594   -999.2500      2.4131     -0.0101   -999.2500
  2337.9000      7.8884     13.1649   -999.2500      2.4328      0.0220   -999.2500
  2338.0000      7.8893     12.2912   -999.2500      2.4472      0.0179   -999.2500
  2338.1000      7.8893     12.2105   -999.2500      2.4485      0.0345   -999.2500
  2338.2000      7.8893     12.6660   -999.2500      2.4410      0.0092   -999.2500
  2338.3000      7.8830     13.1826   -999.2500      2.4325      0.0165   -999.2500
  2338.4000      7.8830     13.6305   -999.2500      2.4251      0.0351   -999.2500
  2338.5000      7.8815     13.9674   -999.2500      2.4195      0.0130   -999.2500
  2338.6000      7.8815     14.0029   -999.2500      2.4190      0.0095   -999.2500
  2338.7000      7.8815     13.6530   -999.2500      2.4247      0.0112   -999.2500
  2338.8000      7.8898     12.6892   -999.2500      2.4406      0.0115   -999.2500
  2338.9000      7.8898     11.4206   -999.2500      2.4616      0.0813   -999.2500
  2339.0000      7.9097     10.8987   -999.2500      2.4702      0.0382   -999.2500
  2339.1000      7.9097     11.2423   -999.2500      2.4645      0.0469   -999.2500
  2339.2000      7.9097     11.6677   -999.2500      2.4575      0.0116   -999.2500
  2339.3000      7.9250     11.6347   -999.2500      2.4580      0.0245   -999.2500
  2339.4000      7.9250     11.6855   -999.2500      2.4572      0.0520   -999.2500
  2339.5000      7.9067     12.5748   -999.2500      2.4425      0.0425   -999.2500
  2339.6000      7.9067     13.9186   -999.2500      2.4203      0.0075   -999.2500
  2339.7000      7.9067     14.8914   -999.2500      2.4043      0.0018   -999.2500
  2339.8000      7.8560     15.1516   -999.2500      2.4000      0.0261   -999.2500
  2339.9000      7.8560     14.8757   -999.2500      2.4046     -0.0138   -999.2500
  2340.0000      7.7906     14.5115   -999.2500      2.4106      0.0195   -999.2500
  2340.1000      7.7906     14.7027   -999.2500      2.4074      0.0059   -999.2500
  2340.2000      7.7906     15.4233   -999.2500      2.3955      0.0013   -999.2500
  2340.3000      7.7433     15.6948   -999.2500      2.3910      0.0000   -999.2500
  2340.4000      7.7433     14.8798   -999.2500      2.4045     -0.0022   -999.2500
  2340.5000      7.7253     13.5130   -999.2500      2.4270      0.0403   -999.2500
  2340.6000      7.7253     12.7581   -999.2500      2.4395      0.0472   -999.2500
  2340.7000      7.7253     13.2235   -999.2500      2.4318      0.0334   -999.2500
  2340.8000      7.7216     14.4242   -999.2500      2.4120      0.0150   -999.2500
  2340.9000      7.7216     15.4479   -999.2500      2.3951     -0.0185   -999.2500
  2341.0000      7.7148     16.1855   -999.2500      2.3829      0.0284   -999.2500
  2341.1000      7.7148     16.9186   -999.2500      2.3708     -0.0410   -999.2500
  2341.2000      7.7148     17.2871   -999.2500      2.3648     -0.0022   -999.2500
  2341.3000      7.7076     17.1684   -999.2500      2.3667     -0.0173   -999.2500
  2341.4000      7.7076     16.8168   -999.2500      2.3725     -0.0057   -999.2500
  2341.5000      7.7069     16.1164   -999.2500      2.3841     -0.0266   -999.2500
  2341.6000      7.7069     14.9918   -999.2500      2.4026     -0.0048   -999.2500
  2341.7000      7.7069     14.0128   -999.2500      2.4188      0.0264   -999.2500
  2341.8000      7.7079     13.3209   -999.2500      2.4302      0.0305   -999.2500
  2341.9000      7.7079     12.1783   -999.2500      2.4491      0.0196   -999.2500
  2342.0000      7.7064     10.7236   -999.2500      2.4731      0.0496   -999.2500
  2342.1000      7.7064     10.5009   -999.2500      2.4767      0.0718   -999.2500
  2342.2000      7.7064     12.3609   -999.2500      2.4460      0.0383   -999.2500
  2342.3000      7.7056     14.9294   -999.2500      2.4037     -0.0178   -999.2500
  2342.4000      7.7056     16.1971   -999.2500      2.3827     -0.0355   -999.2500
  2342.5000      7.7069     15.6292   -999.2500      2.3921     -0.0217   -999.2500
  2342.6000      7.7069     14.1337   -999.2500      2.4168      0.0104   -999.2500
  2342.7000      7.7069     12.9452   -999.2500      2.4364      0.0185   -999.2500
  2342.8000      7.7101     12.7322   -999.2500      2.4399      0.0486   -999.2500
  2342.9000      7.7101     13.1591   -999.2500      2.4329      0.0120   -999.2500
  2343.0000      7.7107     13.3407   -999.2500      2.4299      0.0215   -999.2500
  2343.1000      7.7107     13.0987   -999.2500      2.4339      0.0576   -999.2500
  2343.2000      7.7107     13.3002   -999.2500      2.4305      0.0805   -999.2500
  2343.3000      7.7037     14.5953   -999.2500      2.4092      0.0459   -999.2500
  2343.4000      7.7037     16.3521   -999.2500      2.3802      0.0048   -999.2500
  2343.5000      7.6754     17.5806   -999.2500      2.3599     -0.0113   -999.2500
  2343.6000      7.6754     17.9313   -999.2500      2.3541     -0.0211   -999.2500
  2343.7000      7.6754     17.3966   -999.2500      2.3630      0.0012   -999.2500
  2343.8000      7.6232     16.2297   -999.2500      2.3822      0.0308   -999.2500
  2343.9000      7.6232     14.4248   -999.2500      2.4120      0.0445   -999.2500
  2344.0000      7.5430     10.2162   -999.2500      2.4814      0.0170   -999.2500
  2344.1000      7.5430      9.0025   -999.2500      2.5015      0.0242   -999.2500
  2344.2000      7.5430     33.6785   -999.2500      2.0943      0.5659   -999.2500
  2344.3000      7.1603     88.3738   -999.2500      1.1918      0.0400   -999.2500
  2344.4000      7.1603    136.0682   -999.2500      0.4049      0.0400   -999.2500
  2344.5000      5.6898    155.9412   -999.2500      0.0770   -999.2500   -999.2500
