~Version Information
VERS.                      2.0: CWLS Log ASCII Standard - VERSION 2.0
WRAP.                       NO: One line per depth step
~Well Information Block
STRT.FT               259.0000: 
STOP.FT              2379.0000: 
STEP.FT                 0.2500: 
NULL.                -999.2500: 
COMP.          Pioneer Natural Resources: COMPANY
WELL.          Foothills 12-36: WELL
FLD.           Purgatoire River: FIELD
LOC.           2450' FNL & 201' FWL: LOCATION
PROV.                 Colorado: PROVINCE
CNTY.               Las Animas: COUNTRY
SRVC.                Patterson: SERVICE COMPANY
DATE.          Thu Apr 21 09:19:57 2005: LOG DATE
UWI.           05 071 08339 00: UNIQUE WELL ID
~Curve Information Block
DEPT.FT            0 000 00 00: Depth
DCAL.in                       : CDL Caliper
RHOB.g/cc                     : CDL Bulk Density
RHOC.g/cc                     : CDL Density Correction
DPOR.pu                       : CDL Density Porosity
GR.GAPI                       : Gamma Ray
NPOR.pu                       : Neutron Porosity
~Parameter Information Block
~A  Depth       DCAL        RHOB        RHOC        DPOR         GR         NPOR    
# ...
   403.0000      7.9442      2.4582      0.0656     11.6269    116.3114     27.4721
   403.2500      7.9418      2.4744      0.0891     10.6453    124.3051     28.5738
   403.5000      7.9388      2.4773      0.1022     10.4676    120.3952     28.6372
   403.7500      7.9380      2.4928      0.0708      9.5262    113.5849     27.0213
   404.0000      7.9378      2.5389      0.1284      6.7346    103.6752     26.9137
   404.2500      7.9374      2.5207      0.0712      7.8335    115.1631     25.2664
   404.5000      7.9369      2.5544      0.0963      5.7947    134.1923     25.1615
   404.7500      7.9375      2.5556      0.0819      5.7240    129.0880     24.2228
   405.0000      7.9386      2.5399      0.1164      6.6747    116.3346     25.7084
   405.2500      7.9391      2.5589      0.1208      5.5211    117.7561     25.1574
   405.5000      7.9387      2.5371      0.0856      6.8415    124.3084     27.3176
   405.7500      7.9382      2.5367      0.0882      6.8649    118.7245     27.0081
   406.0000      7.9374      2.5677      0.1343      4.9904    117.6708     26.9254
   406.2500      7.9350      2.5702      0.1103      4.8375    117.9647     28.5563
   406.5000      7.9331      2.5971      0.1316      3.2066    114.0312     27.5080
   406.7500      7.9354      2.6418      0.1473      0.4948     98.6614     27.6668
   407.0000      7.9379      2.6051      0.1462      2.7233    110.5435     26.8351
   407.2500      7.9379      2.5623      0.1153      5.3177    112.2629     26.8902
   407.5000      7.9365      2.4914      0.0177      9.6123    101.8285     24.3589
   407.7500      7.9354      2.4689      0.0534     10.9754    100.2776     23.4834
   408.0000      7.9362      2.5126      0.1623      8.3269     99.7534     21.1826
   408.2500      7.9373      2.5070      0.1812      8.6674    107.8555     19.7004
   408.5000      7.9386      2.4155      0.1712     14.2122    127.8777     19.0609
   408.7500      7.9393      2.3595      0.1163     17.6046    124.8515     19.5785
   409.0000      7.9381      2.4522      0.2708     11.9881    121.7487     20.3571
   409.2500      7.9374      2.5134      0.3581      8.2769    127.4245     22.9164
   409.5000      7.9376      2.5364      0.3638      6.8850    121.6629     25.3214
   409.7500      7.9380      2.4688      0.2577     10.9831    110.3753     26.8006
   410.0000      7.9382      2.5083      0.2526      8.5853     94.5146     29.7164
   410.2500      7.9379      2.5995      0.3156      3.0616     91.2900     28.5662
   410.5000      7.9371      2.6290      0.2892      1.2744     81.3157     25.4110
   410.7500      7.9359      2.6122      0.3204      2.2895     79.9829     24.8939
   411.0000      7.9351      2.4863      0.1834      9.9187     68.7610     24.8789
   411.2500      7.9340      2.4409      0.0996     12.6731     63.1208     22.7291
   411.5000      7.9306      2.5022      0.0845      8.9562     61.1831     21.6169
   411.7500      7.9197      2.5817      0.1636      4.1378     53.3234     20.3703
   412.0000      7.9012      2.6747      0.3082     -1.4952     49.8273     17.9222
   412.2500      7.8999      2.5504      0.1587      6.0340     56.4725     16.3633
   412.5000      7.9370      2.2446     -0.0332     24.5689     48.8994     15.3101
   412.7500      7.9903      2.0856     -0.0340     34.2060     41.1168     15.4807
   413.0000      8.0237      1.9666     -0.0366     41.4154     38.8604     16.0603
   413.2500      8.0034      2.0594      0.2143     35.7944     42.2053     15.5952
   413.5000      7.9419      2.1677      0.6161     29.2292     50.1599     14.4923
   413.7500      7.9094      1.9388      0.5243     43.1035     55.6195     14.1557
   414.0000      7.9207      1.5632      0.2845     65.8694     49.0599     14.4295
   414.2500      7.9424      1.8787      0.4979     46.7472     46.9028     15.7497
   414.5000      7.9687      2.4642      0.7071     11.2618     54.6042     14.6172
   414.7500      7.9817      2.5339      0.4974      7.0366     51.6801     15.2941
   415.0000      7.9782      2.3873      0.1059     15.9220     47.4900     17.1480
   415.2500      7.9699      2.2758      0.0572     22.6781     52.6046     18.1572
   415.5000      7.9679      2.3615      0.1271     17.4855     51.0723     18.2805
   415.7500      8.0071      2.6249      0.4047      1.5221     39.2655     16.4326
   416.0000      8.1021      2.7324      0.3743     -4.9939     40.0873     15.7120
   416.2500      8.1512      2.6784      0.2470     -1.7191     43.0537     15.5972
   416.5000      8.0940      2.5827      0.1142      4.0812     41.5475     16.4655
   416.7500      8.0237      2.5554      0.0650      5.7311     44.4273     16.7719
   417.0000      8.0004      2.5346      0.0414      6.9944     42.8966     17.9092
   417.2500      8.0231      2.5442      0.0402      6.4093     39.4383     17.1571
   417.5000      8.0479      2.5398      0.0202      6.6797     48.1144     19.1651
   417.7500      8.0156      2.5447      0.0804      6.3842     55.3868     20.6880
   418.0000      7.9517      2.5399      0.0587      6.6699     62.9541     22.3531
   418.2500      7.9173      2.5441      0.0628      6.4177     67.1919     22.2278
   418.5000      7.9120      2.5993      0.0867      3.0742     74.3460     23.4021
   418.7500      7.9153      2.5955      0.0619      3.3035     70.5828     23.7343
   419.0000      7.9212      2.6035      0.0662      2.8161     76.8287     26.2928
   419.2500      7.9274      2.5796      0.0365      4.2673     81.8051     25.9491
   419.5000      7.9364      2.5759      0.0348      4.4903     87.4787     23.2499
   419.7500      7.9521      2.5923     -0.0096      3.4981     99.8733     24.0132
   420.0000      7.9724      2.5922      0.0230      3.5057    114.9827     23.5445
   420.2500      7.9898      2.5754      0.0148      4.5191    131.3173     24.1272
   420.5000      7.9993      2.5061     -0.0056      8.7185    128.5753     26.2405
   420.7500      8.0041      2.5247      0.0242      7.5923    119.0135     26.3398
   421.0000      8.0059      2.5503      0.0372      6.0415    112.7144     28.5588
   421.2500      8.0032      2.5515      0.0193      5.9717    113.1986     29.5708
   421.5000      7.9984      2.5180     -0.0245      8.0028    102.7492     29.7735
   421.7500      7.9934      2.5557      0.0385      5.7148    107.0943     29.4497
   422.0000      7.9911      2.6127      0.0851      2.2625    108.5346     30.1037
   422.2500      7.9912      2.6167      0.0695      2.0201    103.6866     28.0327
   422.5000      7.9908      2.6041      0.0290      2.7842     99.9119     25.8106
   422.7500      7.9892      2.5780      0.0173      4.3618    106.4554     26.7728
   423.0000      7.9839      2.5015     -0.0342      9.0019    121.4961     25.7453
   423.2500      7.9752      2.4895      0.0660      9.7247    130.2841     25.2772
   423.5000      7.9760      2.5196      0.1010      7.9057    137.4861     25.8172
   423.7500      7.9910      2.5696      0.1374      4.8723    135.6127     27.4193
   424.0000      8.0006      2.6227      0.1796      1.6516    127.7806     27.7288
   424.2500      8.0025      2.6234      0.1907      1.6113    141.1560     29.1907
   424.5000      8.0060      2.5325      0.0558      7.1204    134.0372     30.1065
   424.7500      8.0085      2.5545      0.0288      5.7856    132.2440     29.4796
   425.0000      8.0086      2.6055      0.0800      2.6969    124.4172     26.8883
   425.2500      8.0084      2.6129      0.1042      2.2479    111.8633     27.7314
   425.5000      8.0085      2.5553      0.0444      5.7381    113.0636     26.3597
   425.7500      8.0087      2.5161      0.0298      8.1167    117.7837     28.1616
   426.0000      8.0084      2.4764      0.0422     10.5210    113.0371     25.8784
   426.2500      8.0083      2.4583      0.0216     11.6181    121.5120     24.9728
   426.5000      8.0072      2.5011      0.0279      9.0259    129.7085     24.2460
   426.7500      8.0020      2.5679      0.1044      4.9751    126.3748     25.4505
