~Version Information
VERS.                      2.0: CWLS Log ASCII Standard - VERSION 2.0
WRAP.                       NO: One line per depth step
~Well Information Block
STRT.FT                -2.2500: 
STOP.FT              1676.7500: 
STEP.FT                 0.2500: 
NULL.                -999.2500: 
COMP.          Pioneer Natural Resources: COMPANY
WELL.              Patten 22-2: WELL
FLD.           Purgatoire River: FIELD
LOC.           2157' FNL & 1528' FWL: LOCATION
PROV.                 Colorado: PROVINCE
CNTY.               Las Animas: COUNTRY
SRVC.                Patterson: SERVICE COMPANY
DATE.          Tue Dec 14 11:45:47 2004: LOG DATE
UWI.           05 071 08168 00: UNIQUE WELL ID
~Curve Information Block
DEPT.FT            0 000 00 00: Depth
GR.GAPI                       : Gamma Ray
CCL.                          : Casing Collar Locator
TT3.usec                      : CBL 3' Travel Time
AMP3.mV                       : CBL 3' Amplitude
~Parameter Information Block
~A  Depth        GR         CCL         TT3         AMP3    
# ...
   232.2500     87.7036      0.0000    799.9501     18.2101
   232.5000     87.9643      0.0000    789.6978     18.1782
   232.7500     87.3559      0.0000    764.2517     18.1773
   233.0000     86.0629      0.0000    732.3867     18.1905
   233.2500     84.2081      0.0000    703.0397     18.1825
   233.5000     82.0735      0.0000    680.2022     18.0920
   233.7500     80.0710      0.0000    662.5870     17.8261
   234.0000     78.4251      0.0000    650.4099     17.2832
   234.2500     77.0848      0.0000    649.3038     16.4447
   234.5000     75.9952      0.0000    664.9481     15.4845
   234.7500     75.1587      0.0000    695.6420     14.7095
   235.0000     74.3934      0.0000    732.2566     14.2858
   235.2500     73.4298      0.0000    765.0106     14.0711
   235.5000     72.3517      0.0000    789.0668     13.8203
   235.7500     71.5498      0.0000    804.2441     13.4804
   236.0000     71.1348     -2.0000    811.8245     13.1757
   236.2500     70.8055      2.0000    812.8758     12.9909
   236.5000     70.3662      0.0000    808.5065     12.8986
   236.7500     69.9668     -2.0000    799.8316     12.8599
   237.0000     69.8004      0.0000    786.2272     12.9283
   237.2500     69.9635      0.0000    764.8051     13.2641
   237.5000     70.6896      0.0000    734.8495     14.0261
   237.7500     72.2303      0.0000    704.0751     15.1741
   238.0000     74.2500      0.0000    686.5890     16.3955
   238.2500     75.6879      0.0000    690.7850     17.3210
   238.5000     75.6103      0.0000    711.0219     17.8053
   238.7500     74.1532      0.0000    733.7878     17.9482
   239.0000     72.4718      0.0000    749.6830     17.9154
   239.2500     71.8062      0.0000    757.5732     17.8200
   239.5000     72.6649      0.0000    760.5679     17.7282
   239.7500     74.7761      0.0000    761.5397     17.6831
   240.0000     77.5174      0.0000    761.8189     17.7005
   240.2500     80.1309      0.0000    761.7613     17.7665
   240.5000     81.5926      0.0000    761.4437     17.8529
   240.7500     80.7814      0.0000    761.0228     17.9346
   241.0000     77.2409      0.0000    760.6955     17.9982
   241.2500     71.7873      0.0000    760.5886     18.0381
   241.5000     66.0811      0.0000    760.7185     18.0503
   241.7500     61.4615      0.0000    761.1133     18.0311
   242.0000     58.3155      0.0000    762.0132     17.9803
   242.2500     56.3980      0.0000    763.9470     17.9027
   242.5000     55.2535      0.0000    767.4344     17.8060
   242.7500     54.2811      0.0000    772.3242     17.6980
   243.0000     52.9882      0.0000    777.3179     17.5901
   243.2500     51.4718      0.0000    780.3687     17.5001
   243.5000     50.3467      0.0000    779.8938     17.4508
   243.7500     50.0214      0.0000    775.8400     17.4601
   244.0000     50.2149      0.0000    769.6880     17.5292
   244.2500     50.2041      0.0000    763.1476     17.6384
   244.5000     49.4035      0.0000    756.1873     17.7560
   244.7500     47.7464      0.0000    745.4485     17.8544
   245.0000     45.7218      0.0000    724.4281     17.9240
   245.2500     44.2250      0.0000    687.1833     17.9728
   245.5000     44.3101      0.0000    635.1037     18.0090
   245.7500     46.7540      0.0000    581.2457     18.0257
   246.0000     51.4887      0.0000    545.6007     18.0035
   246.2500     57.4414      0.0000    542.6947     17.9282
   246.5000     63.2152      0.0000    571.5433     17.8035
   246.7500     68.1067      0.0000    616.6096     17.6479
   247.0000     72.4018      0.0000    658.8203     17.4828
   247.2500     76.5572      0.0000    687.0458     17.3236
   247.5000     80.1367      0.0000    701.0034     17.1814
   247.7500     81.8412      0.0000    706.0685     17.0660
   248.0000     80.8514      0.0000    707.3839     16.9835
   248.2500     77.9281      0.0000    707.8073     16.9316
   248.5000     74.9816      0.0000    708.6489     16.8979
   248.7500     73.7289      0.0000    710.5507     16.8649
   249.0000     74.7444      0.0000    713.4841     16.8170
   249.2500     77.4154      0.0000    716.4225     16.7457
   249.5000     80.5842      0.0000    717.7799     16.6517
   249.7500     83.1949      0.0000    716.7675     16.5432
   250.0000     84.3968      0.0000    714.1470     16.4296
   250.2500     83.5056      0.0000    711.3885     16.3167
   250.5000     80.5236      0.0000    709.1233     16.2090
   250.7500     76.6837      0.0000    706.3818     16.1128
   251.0000     73.7986      0.0000    700.6355     16.0358
   251.2500     72.6874      0.0000    688.6761     15.9803
   251.5000     72.4796      0.0000    668.9308     15.9400
   251.7500     71.6742      0.0000    644.4878     15.9047
   252.0000     69.7086      0.0000    623.5296     15.8679
   252.2500     67.4159      0.0000    615.1242     15.8282
   252.5000     66.3345      0.0000    623.2408     15.7862
   252.7500     67.8901      0.0000    643.9481     15.7400
   253.0000     72.8798      0.0000    668.1119     15.6858
   253.2500     80.9820      0.0000    687.4638     15.6203
   253.5000     90.5281      0.0000    698.9327     15.5440
   253.7500     99.2554      0.0000    704.1742     15.4628
   254.0000    105.6082      0.0000    706.4203     15.3873
   254.2500    109.1530      0.0000    708.3503     15.3284
   254.5000    109.9441      0.0000    711.7928     15.2921
   254.7500    108.1694      0.0000    717.8613     15.2759
   255.0000    104.6292      0.0000    726.5056     15.2678
   255.2500    100.9098      0.0000    736.2224     15.2509
   255.5000     98.5671      0.0000    744.7902     15.2109
   255.7500     98.1840      0.0000    750.7111     15.1382
   256.0000     98.9893      0.0000    753.9131     15.0187
   256.2500     99.1678      0.0000    755.2454     14.8226
   256.5000     97.0693      0.0000    755.6197     14.5108
   256.7500     92.6265      0.0000    755.6054     14.0556
   257.0000     87.4576      0.0000    755.4654     13.4576
   257.2500     83.4789      0.0000    755.3651     12.7438
   257.5000     81.4762      0.0000    755.6633     11.9553
   257.7500     80.8886      0.0000    757.2881     11.1363
   258.0000     80.7010      0.0000    761.9192     10.3277
   258.2500     80.4211      0.0000    771.3840      9.5643
   258.5000     80.2541      0.0000    786.0326      8.8757
   258.7500     80.4659      0.0000    803.0280      8.2847
   259.0000     80.7636      0.0000    816.3891      7.8018
   259.2500     80.4197      0.0000    819.8181      7.4223
   259.5000     79.0081      0.0000    810.9655      7.1384
   259.7500     77.0009      0.0000    793.5958      6.9580
   260.0000     75.4523      0.0000    775.1647      6.9088
   260.2500     74.8638      0.0000    761.9268      7.0216
   260.5000     74.6816      0.0000    756.3532      7.3108
   260.7500     74.3683      0.0000    758.2747      7.7700
   261.0000     74.5836      0.0000    766.7368      8.3806
   261.2500     76.5798      0.0000    780.0786      9.1162
   261.5000     80.5185      0.0000    795.2410      9.9375
   261.7500     84.9449      0.0000    808.4402     10.7926
   262.0000     88.0777      0.0000    816.9267     11.6324
   262.2500     89.4321      0.0000    819.8729     12.4322
   262.5000     90.2359      0.0000    817.9682     13.2012
   262.7500     92.4348      0.0000    812.9387     13.9728
   263.0000     97.1922      0.0000    807.2982     14.7735
   263.2500    104.0218      0.0000    803.3141     15.5902
   263.5000    111.1617      0.0000    801.6329     16.3654
   263.7500    116.8399      0.0000    801.7444     17.0339
   264.0000    120.2907      0.0000    804.3610     17.5649
   264.2500    121.6497      0.0000    812.0318     17.9646
   264.5000    121.1542      0.0000    825.9423     18.2465
   264.7500    118.8320      0.0000    842.9158     18.4097
   265.0000    115.0643      0.0000    857.2690     18.4467
   265.2500    111.0502      0.0000    865.5401     18.3626
   265.5000    108.2521      0.0000    868.6524     18.1839
