~Version Information
VERS.                      2.0: CWLS Log ASCII Standard - VERSION 2.0
WRAP.                       NO: One line per depth step
~Well Information Block
STRT.FT                -4.0000: 
STOP.FT              2464.0000: 
STEP.FT                 0.2500: 
NULL.                -999.2500: 
COMP.          Pioneer Natural Resources: COMPANY
WELL.            Rancher 12-35: WELL
FLD.           Purgatorie River: FIELD
LOC.           2131' FNL & 297' FWL--: LOCATION
PROV.                       CO: PROVINCE
CNTY.               Las Animas: COUNTRY
SRVC.                         : SERVICE COMPANY
DATE.          Wed Oct 20 13:17:53 2004: LOG DATE
UWI.                          : UNIQUE WELL ID
~Curve Information Block
DEPT.FT            0 000 00 00: Depth
GR.GAPI                       : Gamma Ray
CCL.                          : Casing Collar Locator
TT3.usec                      : CBL 3' Travel Time
AMP3.mV                       : CBL 3' Amplitude
~Parameter Information Block
~A  Depth        GR         CCL         TT3         AMP3    
# ...
   800.0000    123.3891      0.0000    799.5443      6.5840
   800.2500    119.2219      0.0000    811.7960      6.5465
   800.5000    120.0387      0.0000    820.8117      6.5261
   800.7500    123.5254      0.0000    821.7202      6.5535
   801.0000    126.7410      0.0000    813.8891      6.6164
   801.2500    127.8992      0.0000    802.2107      6.6569
   801.5000    126.8359      0.0000    793.3960      6.6111
   801.7500    125.0094      0.0000    790.7079      6.4603
   802.0000    124.5973      0.0000    791.7809      6.2410
   802.2500    126.6919      0.0000    791.4981      6.0102
   802.5000    130.3043      0.0000    787.0126      5.8060
   802.7500    133.3445      0.0000    779.5338      5.6398
   803.0000    134.4610      0.0000    771.7891      5.5085
   803.2500    133.7173      0.0000    765.4243      5.4020
   803.5000    131.6984      0.0000    761.0111      5.3036
   803.7500    128.4375      0.0000    759.0093      5.1990
   804.0000    123.4187      0.0000    759.9805      5.0952
   804.2500    116.4997      0.0000    764.4655      5.0271
   804.5000    108.5946      0.0000    773.1084      5.0314
   804.7500    101.1755      0.0000    786.6704      5.1085
   805.0000     95.1711      0.0000    804.8919      5.2140
   805.2500     90.8079      0.0000    824.2838      5.2901
   805.5000     88.4491      0.0000    837.7493      5.3075
   805.7500     88.8290      0.0000    838.7794      5.2799
   806.0000     92.4597      0.0000    827.1208      5.2463
   806.2500     99.4827      0.0000    809.4529      5.2436
   806.5000    109.8018      0.0000    794.1138      5.2947
   806.7500    122.5275      0.0000    785.5303      5.4084
   807.0000    135.4963      0.0000    783.1271      5.5774
   807.2500    146.0338      0.0000    784.1042      5.7743
   807.5000    152.3116      0.0000    786.3046      5.9551
   807.7500    153.8447      0.0000    788.6856      6.0742
   808.0000    151.1522      0.0000    790.4095      6.1046
   808.2500    145.7299      0.0000    790.7610      6.0502
   808.5000    140.1928      0.0000    789.9042      5.9399
   808.7500    137.0783      0.0000    788.8130      5.8127
   809.0000    136.8280      0.0000    788.1111      5.7058
   809.2500    137.7339      0.0000    787.4557      5.6464
   809.5000    138.2050      0.0000    786.2266      5.6462
   809.7500    138.1549      0.0000    784.1930      5.7041
   810.0000    138.0507      0.0000    781.2026      5.8113
   810.2500    137.9603      0.0000    776.9659      5.9519
   810.5000    138.1052      0.0000    771.7141      6.0992
   810.7500    139.2601      0.0000    766.5734      6.2166
   811.0000    141.8655      0.0000    762.7970      6.2716
   811.2500    145.2618      0.0000    760.8793      6.2565
   811.5000    148.1095      0.0000    760.5848      6.1971
   811.7500    149.1324      0.0000    761.3970      6.1309
   812.0000    147.3730      0.0000    762.5204      6.0738
   812.2500    142.5428      0.0000    762.6499      6.0175
   812.5000    135.8118      0.0000    760.5173      5.9595
   812.7500    129.8718      0.0000    756.1351      5.9219
   813.0000    127.2762      0.0000    751.0930      5.9287
   813.2500    128.3390      0.0000    747.1896      5.9743
   813.5000    130.9157      0.0000    745.0706      6.0276
   813.7500    132.3763      0.0000    744.3311      6.0654
   814.0000    131.5854      0.0000    744.3520      6.0890
   814.2500    129.2702      0.0000    744.8124      6.1083
   814.5000    127.2528      0.0000    745.6622      6.1264
   814.7500    127.2479      0.0000    746.7049      6.1454
   815.0000    129.5074      0.0000    747.4391      6.1732
   815.2500    132.4879      0.0000    747.6327      6.2172
   815.5000    134.4288      0.0000    747.7072      6.2775
   815.7500    135.3791      0.0000    748.1642      6.3527
   816.0000    137.0544      0.0000    749.1898      6.4393
   816.2500    140.5730      0.0000    751.2890      6.5172
   816.5000    144.9543      0.0000    755.4149      6.5451
   816.7500    148.1194      0.0000    761.4468      6.4846
   817.0000    148.8767      0.0000    767.0815      6.3310
   817.2500    147.6529      0.0000    769.4104      6.1211
   817.5000    145.7817      0.0000    767.6099      5.9187
   817.7500    144.7091      0.0000    763.4847      5.7902
   818.0000    145.5539      0.0000    759.6496      5.7762
   818.2500    148.4938      0.0000    757.9078      5.8715
   818.5000    152.3788      0.0000    759.1215      6.0329
   818.7500    155.5575      0.0000    763.5563      6.2091
   819.0000    157.1286      0.0000    770.6740      6.3619
   819.2500    156.9208      0.0000    778.9041      6.4647
   819.5000    154.5877      0.0000    786.2883      6.4998
   819.7500    149.7678      0.0000    791.7126      6.4714
   820.0000    143.2985      0.0000    795.6311      6.4187
   820.2500    137.3018      0.0000    799.9175      6.4012
   820.5000    133.3891      0.0000    807.0703      6.4597
   820.7500    131.3710      0.0000    818.4761      6.5871
   821.0000    130.3011      0.0000    832.1398      6.7386
   821.2500    129.9554      0.0000    842.5609      6.8704
   821.5000    130.5367      0.0000    844.7686      6.9615
   821.7500    131.7105      0.0000    838.9238      7.0000
   822.0000    132.6394      0.0000    829.5374      6.9663
   822.2500    132.4657      0.0000    820.5431      6.8430
   822.5000    130.6255      0.0000    813.6919      6.6322
   822.7500    127.4317      0.0000    811.4157      6.3589
   823.0000    124.3629      0.0000    816.9531      6.0649
   823.2500    123.0127      0.0000    830.0252      5.7931
   823.5000    123.7079      0.0000    845.6859      5.5640
   823.7500    125.7838      2.0000    858.8768      5.3735
   824.0000    129.0585     -2.0000    867.6464      5.2179
   824.2500    134.2151      0.0000    871.6301      5.1102
   824.5000    141.4209      0.0000    869.6033      5.0777
   824.7500    149.0484      0.0000    859.2265      5.1576
   825.0000    154.3234      0.0000    839.5595      5.3782
   825.2500    155.3768      0.0000    814.4581      5.7130
   825.5000    152.6546      0.0000    791.8828      6.0651
   825.7500    148.3233      0.0000    778.0389      6.3315
   826.0000    144.4616      0.0000    773.2592      6.4790
   826.2500    142.0618      0.0000    774.2673      6.5411
   826.5000    141.4385      0.0000    778.2306      6.5606
   826.7500    142.5501      0.0000    783.4714      6.5530
   827.0000    144.5553      0.0000    788.2906      6.5075
   827.2500    146.0417      0.0000    790.7946      6.4070
   827.5000    146.4359      0.0000    789.4048      6.2489
   827.7500    146.5934      0.0000    783.1299      6.0521
   828.0000    147.4073      0.0000    772.1415      5.8397
   828.2500    148.4285      0.0000    758.7905      5.6232
   828.5000    148.2477      0.0000    747.7034      5.4104
   828.7500    145.8019      0.0000    743.9775      5.2189
   829.0000    141.3018      0.0000    750.5288      5.0684
   829.2500    136.2370      0.0000    766.4296      4.9633
   829.5000    132.2453      0.0000    787.0007      4.8929
   829.7500    129.7066      0.0000    805.5167      4.8497
   830.0000    127.7966      0.0000    816.3774      4.8356
   830.2500    125.8600      0.0000    818.4583      4.8493
   830.5000    124.0423      0.0000    815.7651      4.8743
   830.7500    122.4914      0.0000    814.0624      4.8899
   831.0000    120.7952      0.0000    816.2101      4.8902
   831.2500    118.5185      0.0000    820.3328      4.8853
   831.5000    115.4395      0.0000    822.3571      4.8747
   831.7500    110.9297      0.0000    820.7101      4.8293
   832.0000    104.2109      0.0000    818.3508      4.7075
   832.2500     95.9723      0.0000    819.6625      4.4937
   832.5000     88.7509      0.0000    825.6165      4.2165
   832.7500     84.8320      0.0000    832.5130      3.9308
   833.0000     84.2734      0.0000    835.1973      3.6841
   833.2500     85.2984      0.0000    831.1915      3.5005
