~Version Information
VERS.                      2.0: CWLS Log ASCII Standard - VERSION 2.0
WRAP.                       NO: One line per depth step
~Well Information Block
STRT.FT               962.7000: 
STOP.FT              2435.5000: 
STEP.FT                 0.1000: 
NULL.                -999.2500: 
COMP.          Petrogulf Corporation: COMPANY
WELL.              Hand 8-44 V: WELL
FLD.           Purgatorie River: FIELD
LOC.           1076' FEL & 820' FSL: LOCATION
CNTY.               Las Animas: COUNTY
SRVC.                         : SERVICE COMPANY
DATE.          Fri Nov 21 14:12:41 2003: LOG DATE
UWI.                          : UNIQUE WELL ID
STAT.                 Colorado: STATE
~Curve Information Block
DEPT.FT            0 000 00 00: Depth
DCAL.in                       : CDL Caliper
RHOB.g/cc                     : CDL Bulk Density
RHOC.g/cc                     : CDL Density Correction
DPOR.pu                       : CDL Density Porosity
GR.GAPI                       : Gamma Ray
NPOR.pu                       : Neutron Porosity
~Parameter Information Block
~A  Depth       DCAL        RHOB        RHOC        DPOR         GR         NPOR    
# ...
  1653.9000      8.1697      2.5710      0.1504      4.7893    147.0010     28.8754
  1654.0000      8.1962      2.6350      0.2330      0.9098    147.9780     29.0096
  1654.1000      8.1962      2.6765      0.2594     -1.6088    147.3465     29.7962
  1654.2000      8.1962      2.6981      0.3002     -2.9128    144.2174     30.0353
  1654.3000      8.2886      2.7122      0.2443     -3.7715    141.2336     29.3862
  1654.4000      8.2886      2.7301      0.2468     -4.8557    143.0987     29.0415
  1654.5000      8.3294      2.7256      0.3641     -4.5831    143.1358     29.2594
  1654.6000      8.3294      2.6645      0.2335     -0.8772    138.3931     29.3894
  1654.7000      8.3294      2.5830      0.0008      4.0628    137.6487     29.2849
  1654.8000      8.3552      2.5479      0.0295      6.1891    142.1682     29.1583
  1654.9000      8.3552      2.5608      0.0715      5.4068    143.9693     29.2442
  1655.0000      8.2572      2.5792      0.1065      4.2937    142.7362     29.5726
  1655.1000      8.2572      2.5805      0.1189      4.2114    143.0754     30.1226
  1655.2000      8.2572      2.5762      0.1293      4.4742    146.6941     30.8036
  1655.3000      8.2355      2.5862      0.1002      3.8665    151.7188     31.1006
  1655.4000      8.2355      2.6145      0.0874      2.1538    151.6227     30.9531
  1655.5000      8.2370      2.6474      0.2244      0.1584    147.5900     30.9858
  1655.6000      8.2370      2.6751      0.2323     -1.5189    147.7094     31.1508
  1655.7000      8.2370      2.6980      0.2812     -2.9071    149.9775     31.0822
  1655.8000      8.2618      2.7098      0.2588     -3.6259    146.4294     30.8826
  1655.9000      8.2618      2.7014      0.2241     -3.1172    140.3162     30.6090
  1656.0000      8.2632      2.6744      0.1549     -1.4784    140.0157     30.0644
  1656.1000      8.2632      2.6409      0.2019      0.5513    145.8678     29.0725
  1656.2000      8.2632      2.6141      0.1010      2.1753    153.9931     27.9619
  1656.3000      8.2604      2.5929      0.1221      3.4624    158.4317     27.4512
  1656.4000      8.2604      2.5593      0.0946      5.4964    154.2051     27.5948
  1656.5000      8.2922      2.5094      0.0797      8.5240    147.4100     27.7473
  1656.6000      8.2922      2.4618      0.0600     11.4054    146.4837     27.5844
  1656.7000      8.2922      2.4418      0.0990     12.6210    147.4530     27.3217
  1656.8000      8.2592      2.4636      0.0760     11.2988    144.6405     27.2507
  1656.9000      8.2592      2.5158      0.1102      8.1351    142.3069     27.5046
  1657.0000      8.2081      2.5581      0.1637      5.5673    144.8937     27.8534
  1657.1000      8.2081      2.5587      0.1262      5.5354    148.2750     28.2598
  1657.2000      8.2081      2.5452      0.0767      6.3540    149.6115     28.8968
  1657.3000      8.2470      2.5823      0.0763      4.1005    151.7573     29.5064
  1657.4000      8.2470      2.6774      0.4073     -1.6582    152.6679     29.9005
  1657.5000      8.3237      2.7589      0.4368     -6.5985    152.0884     30.1264
  1657.6000      8.3237      2.7758      0.3682     -7.6226    154.5675     30.0189
  1657.7000      8.3237      2.7421      0.3637     -5.5848    158.0753     29.7002
  1657.8000      8.3442      2.6940      0.1631     -2.6655    158.9275     29.5871
  1657.9000      8.3442      2.6641      0.0830     -0.8548    161.2438     29.7112
  1658.0000      8.4023      2.6670      0.0399     -1.0312    164.6246     29.7286
  1658.1000      8.4023      2.6855      0.0763     -2.1544    160.0411     29.3462
  1658.2000      8.4023      2.6886      0.1341     -2.3386    146.9840     28.8611
  1658.3000      8.2952      2.6746      0.0483     -1.4917    140.2125     28.6879
  1658.4000      8.2952      2.6592      0.0835     -0.5564    145.2941     28.5174
  1658.5000      8.2582      2.6405      0.0178      0.5769    151.6631     28.2263
  1658.6000      8.2582      2.6233      0.0343      1.6163    154.4439     28.3911
  1658.7000      8.2582      2.6177      0.0484      1.9565    155.0465     28.9587
  1658.8000      8.2616      2.6091      0.1111      2.4760    151.7525     29.2572
  1658.9000      8.2616      2.5852      0.0290      3.9248    146.2513     29.4067
  1659.0000      8.2688      2.5676      0.0097      4.9930    140.9467     29.5747
  1659.1000      8.2688      2.5758      0.0112      4.4982    133.6562     29.3481
  1659.2000      8.2688      2.6002      0.0328      3.0170    126.9860     28.8753
  1659.3000      8.2952      2.6202      0.0965      1.8089    125.5434     28.7298
  1659.4000      8.2952      2.6195      0.0980      1.8513    128.8677     28.9591
  1659.5000      8.3267      2.5914      0.0644      3.5488    134.3564     29.0806
  1659.6000      8.3267      2.5462      0.0229      6.2887    137.7229     29.0101
  1659.7000      8.3267      2.5203      0.0337      7.8625    137.8658     29.2138
  1659.8000      8.3066      2.5332      0.0883      7.0805    140.5949     29.8233
  1659.9000      8.3066      2.5508      0.1442      6.0143    149.7856     30.2190
  1660.0000      8.3069      2.5438      0.0650      6.4372    162.7988     29.6930
  1660.1000      8.3069      2.5246      0.0718      7.5992    171.8173     28.4750
  1660.2000      8.3069      2.5093      0.0597      8.5300    168.5978     27.2610
  1660.3000      8.3063      2.4989      0.1397      9.1564    153.4859     26.2709
  1660.4000      8.3063      2.4856      0.0851      9.9656    137.2599     25.3506
  1660.5000      8.3298      2.4670      0.1120     11.0888    135.2817     24.5032
  1660.6000      8.3298      2.4460      0.1843     12.3623    147.5426     24.0456
  1660.7000      8.3298      2.4262      0.1300     13.5656    155.1273     24.0788
  1660.8000      8.3378      2.4114      0.1648     14.4584    150.2795     24.4450
  1660.9000      8.3378      2.3886      0.1653     15.8407    145.0242     24.9692
  1661.0000      8.3395      2.3415      0.0813     18.6954    146.4309     25.6523
  1661.1000      8.3395      2.2748      0.1079     22.7419    151.9836     26.4789
  1661.2000      8.3395      2.2105      0.0916     26.6348    160.9921     27.3386
  1661.3000      8.3770      2.1877      0.1341     28.0200    170.0923     28.2047
  1661.4000      8.3770      2.2339      0.2293     25.2158    170.9290     29.0062
  1661.5000      8.4885      2.3197      0.4737     20.0193    164.5342     29.6757
  1661.6000      8.4885      2.4058      0.4123     14.8017    161.7310     30.2956
  1661.7000      8.4885      2.5143      0.4279      8.2261    160.2224     30.9743
  1661.8000      8.7238      2.6546      0.5732     -0.2761    153.9767     31.6266
  1661.9000      8.7238      2.7719      0.6989     -7.3896    151.9608     32.1092
  1662.0000      8.9141      2.8382      0.6316    -11.4062    159.0760     32.1674
  1662.1000      8.9141      2.8799      0.6411    -13.9360    165.6401     31.7995
  1662.2000      8.9141      2.9040      0.5832    -15.3967    165.2171     31.1393
  1662.3000      8.6223      2.8808      0.5457    -13.9886    158.0605     30.1502
  1662.4000      8.6223      2.8029      0.2233     -9.2642    148.5403     28.6807
  1662.5000      8.4007      2.7084      0.1125     -3.5411    141.8181     26.8672
  1662.6000      8.4007      2.6220      0.0938      1.6987    135.7029     25.2311
  1662.7000      8.4007      2.5388      0.0360      6.7419    127.0680     24.0526
  1662.8000      8.3468      2.4589     -0.0015     11.5825    123.4271     22.8223
  1662.9000      8.3468      2.3782      0.0020     16.4723    130.2293     20.6729
  1663.0000      8.2856      2.2766     -0.0091     22.6318    136.8927     17.7894
  1663.1000      8.2856      2.1541     -0.0892     30.0531    134.1808     15.0072
  1663.2000      8.2856      2.0436     -0.0578     36.7516    127.9984     12.8468
  1663.3000      8.2401      1.9423     -0.0414     42.8896    125.4086     12.0643
  1663.4000      8.2401      1.7838      0.0296     52.4980    124.0476     12.9166
