~Version Information
VERS.                      2.0: CWLS Log ASCII Standard - VERSION 2.0
WRAP.                       NO: One line per depth step
~Well Information Block
STRT.FT               420.0000: 
STOP.FT              1528.5000: 
STEP.FT                 0.2500: 
NULL.                -999.2500: 
COMP.          Evergreen Operating Corporation: COMPANY
WELL.              Chase 21-10: WELL
FLD.           Purgatoire River: FIELD
LOC.           1122' FNL & 1544' FWL: LOCATION
PROV.                       CO: PROVINCE
CNTY.               Las Animas: COUNTRY
SRVC.                         : SERVICE COMPANY
DATE.          Sun May 23 21:20:45 2004: LOG DATE
UWI.           05 071 08006 00: UNIQUE WELL ID
~Curve Information Block
DEPT.FT            0 000 00 00: Depth
SN.Ohm-m                      : IEL Short Normal
SP.mV                         : IEL Spontaneous Potential
DIR.Ohm-m                     : IEL Induction Resistivity
GR.GAPI                       : Gamma Ray
~Parameter Information Block
~A  Depth        SN          SP         DIR          GR     
# ...
  1291.0000     14.5244    141.7039     12.6582     82.9175
  1291.2500     14.5611    141.7214     12.6475     84.6404
  1291.5000     14.6212    141.7440     12.6378     87.6027
  1291.7500     14.6847    141.7728     12.6363     88.9711
  1292.0000     14.7321    141.8099     12.6517     89.1143
  1292.2500     14.7492    141.8575     12.6923     88.1113
  1292.5000     14.7342    141.9176     12.7632     86.1664
  1292.7500     14.7027    141.9915     12.8657     85.2435
  1293.0000     14.6878    142.0790     12.9998     84.9622
  1293.2500     14.7307    142.1786     13.1668     85.4664
  1293.5000     14.8661    142.2869     13.3710     86.6302
  1293.7500     15.1085    142.3990     13.6163     87.1324
  1294.0000     15.4497    142.5093     13.9009     86.7485
  1294.2500     15.8676    142.6113     14.2118     85.6085
  1294.5000     16.3413    142.6985     14.5216     82.8286
  1294.7500     16.8605    142.7650     14.7905     80.6888
  1295.0000     17.4245    142.8057     14.9755     78.0949
  1295.2500     18.0318    142.8172     15.0437     77.2103
  1295.5000     18.6681    142.7981     14.9821     76.9862
  1295.7500     19.2991    142.7489     14.8006     77.1167
  1296.0000     19.8703    142.6728     14.5252     77.0416
  1296.2500     20.3109    142.5746     14.1881     76.5496
  1296.5000     20.5431    142.4609     13.8222     74.8064
  1296.7500     20.4980    142.3390     13.4601     72.9851
  1297.0000     20.1338    142.2164     13.1331     70.1704
  1297.2500     19.4532    142.0995     12.8680     69.2408
  1297.5000     18.5106    141.9941     12.6801     70.7301
  1297.7500     17.4076    141.9040     12.5679     73.6606
  1298.0000     16.2738    141.8314     12.5145     79.4645
  1298.2500     15.2374    141.7769     12.4956     83.2285
  1298.5000     14.3971    141.7398     12.4919     87.9352
  1298.7500     13.8082    141.7181     12.4991     90.5077
  1299.0000     13.4931    141.7092     12.5299     93.4872
  1299.2500     13.4655    141.7106     12.6066     94.5271
  1299.5000     13.7510    141.7199     12.7520     94.0663
  1299.7500     14.3839    141.7358     12.9856     92.5595
  1300.0000     15.3824    141.7581     13.3262     89.9371
  1300.2500     16.7209    141.7879     13.7946     89.0774
  1300.5000     18.3246    141.8273     14.4135     89.8828
  1300.7500     20.0919    141.8790     15.1988     90.8626
  1301.0000     21.9271    141.9453     16.1503     89.6823
  1301.2500     23.7557    142.0279     17.2475     85.6462
  1301.5000     25.5134    142.1274     18.4574     75.0149
  1301.7500     27.1269    142.2427     19.7484     66.5292
  1302.0000     28.5124    142.3715     21.0924     55.0989
  1302.2500     29.5967    142.5102     22.4490     49.6971
  1302.5000     30.3439    142.6542     23.7445     45.4588
  1302.7500     30.7676    142.7981     24.8756     44.6222
  1303.0000     30.9202    142.9362     25.7470     44.6891
  1303.2500     30.8733    143.0624     26.3180     44.8226
  1303.5000     30.6974    143.1708     26.6145     44.5715
  1303.7500     30.4492    143.2561     26.6997     44.0683
  1304.0000     30.1640    143.3141     26.6347     42.8148
  1304.2500     29.8557    143.3424     26.4612     41.6483
  1304.5000     29.5216    143.3403     26.2083     39.5907
  1304.7500     29.1524    143.3094     25.9012     38.2860
  1305.0000     28.7409    143.2535     25.5592     37.1093
  1305.2500     28.2874    143.1776     25.1883     37.2645
  1305.5000     27.7992    143.0878     24.7812     39.3058
  1305.7500     27.2868    142.9907     24.3286     41.7032
  1306.0000     26.7596    142.8923     23.8320     45.8358
  1306.2500     26.2246    142.7978     23.3060     48.2832
  1306.5000     25.6881    142.7111     22.7713     51.1274
  1306.7500     25.1613    142.6350     22.2471     52.7521
  1307.0000     24.6635    142.5708     21.7503     55.1356
  1307.2500     24.2211    142.5186     21.2993     56.4964
  1307.5000     23.8578    142.4775     20.9162     57.8954
  1307.7500     23.5846    142.4457     20.6242     58.6552
  1308.0000     23.3969    142.4210     20.4429     60.2205
  1308.2500     23.2829    142.4014     20.3866     61.5779
  1308.5000     23.2388    142.3852     20.4650     63.4067
  1308.7500     23.2786    142.3722     20.6851     64.0274
  1309.0000     23.4338    142.3635     21.0512     63.8333
  1309.2500     23.7434    142.3615     21.5646     63.2869
  1309.5000     24.2454    142.3702     22.2213     62.8105
  1309.7500     24.9761    142.3936     23.0118     62.9776
  1310.0000     25.9788    142.4358     23.9199     63.1209
  1310.2500     27.3100    142.4993     24.9239     62.1247
  1310.5000     29.0307    142.5850     25.9998     57.7448
  1310.7500     31.1742    142.6914     27.1276     53.0819
  1311.0000     33.7016    142.8147     28.3007     45.1251
  1311.2500     36.4706    142.9491     29.5306     40.2803
  1311.5000     39.2438    143.0876     30.8426     34.9464
  1311.7500     41.7429    143.2224     32.2567     32.9547
  1312.0000     43.7253    143.3458     33.7578     32.1832
  1312.2500     45.0457    143.4510     35.2731     32.8297
  1312.5000     45.6788    143.5323     36.6826     34.9917
  1312.7500     45.6998    143.5864     37.8705     37.1327
  1313.0000     45.2431    143.6116     38.7796     41.4958
  1313.2500     44.4593    143.6089     39.4086     45.0319
  1313.5000     43.4848    143.5813     39.7541     50.3667
  1313.7500     42.4260    143.5335     39.7733     53.2859
  1314.0000     41.3566    143.4716     39.4195     56.0723
  1314.2500     40.3206    143.4023     38.7113     56.8702
  1314.5000     39.3383    143.3320     37.7532     56.8401
  1314.7500     38.4112    143.2664     36.6891     56.3241
  1315.0000     37.5299    143.2097     35.6449     55.6143
  1315.2500     36.6828    143.1647     34.7033     55.7020
  1315.5000     35.8627    143.1323     33.9040     57.0067
  1315.7500     35.0687    143.1122     33.2509     58.3515
  1316.0000     34.3029    143.1026     32.7162     60.2878
  1316.2500     33.5667    143.1011     32.2516     61.3521
  1316.5000     32.8587    143.1048     31.8096     62.7720
  1316.7500     32.1773    143.1109     31.3618     63.5710
  1317.0000     31.5252    143.1170     30.9035     63.9633
  1317.2500     30.9115    143.1218     30.4409     63.3188
  1317.5000     30.3482    143.1248     29.9759     61.0735
  1317.7500     29.8437    143.1269     29.5043     59.2271
  1318.0000     29.3970    143.1301     29.0253     56.9000
  1318.2500     28.9987    143.1370     28.5511     55.9667
  1318.5000     28.6354    143.1510     28.1054     55.5728
  1318.7500     28.2952    143.1750     27.7118     55.7624
  1319.0000     27.9695    143.2111     27.3814     55.8298
  1319.2500     27.6524    143.2605     27.1079     55.1864
  1319.5000     27.3401    143.3224     26.8712     53.1636
  1319.7500     27.0304    143.3946     26.6448     51.6801
  1320.0000     26.7232    143.4733     26.4007     50.1628
  1320.2500     26.4206    143.5534     26.1130     49.6330
  1320.5000     26.1261    143.6290     25.7661     49.0520
  1320.7500     25.8429    143.6940     25.3672     48.6417
  1321.0000     25.5729    143.7426     24.9498     48.1205
  1321.2500     25.3164    143.7698     24.5616     47.9736
  1321.5000     25.0717    143.7724     24.2408     48.1835
  1321.7500     24.8356    143.7489     23.9988     48.6590
  1322.0000     24.6043    143.7004     23.8200     49.9793
  1322.2500     24.3751    143.6298     23.6749     51.2688
  1322.5000     24.1484    143.5421     23.5395     53.5039
  1322.7500     23.9292    143.4435     23.4059     54.8377
  1323.0000     23.7256    143.3406     23.2816     56.1203
  1323.2500     23.5473    143.2396     23.1788     56.5423
  1323.5000     23.4031    143.1456     23.1036     57.0329
  1323.7500     23.2987    143.0620     23.0532     57.3787
  1324.0000     23.2360    142.9905     23.0196     57.3713
  1324.2500     23.2127    142.9311     22.9986     56.6571
