~Version Information
VERS.                      2.0: CWLS Log ASCII Standard - VERSION 2.0
WRAP.                       NO: One line per depth step
~Well Information Block
STRT.FT                -3.7500: 
STOP.FT               930.7500: 
STEP.FT                 0.2500: 
NULL.                -999.2500: 
COMP.          Pioneer Natural Resources: COMPANY
WELL.                Pug 33-19: WELL
FLD.           Purgatorie River: FIELD
LOC.           1381' FSL & 2140' FEL--: LOCATION
PROV.                       CO: PROVINCE
CNTY.               Las Animas: COUNTRY
SRVC.                         : SERVICE COMPANY
DATE.          Mon Dec 20 15:44:45 2004: LOG DATE
UWI.                          : UNIQUE WELL ID
~Curve Information Block
DEPT.FT            0 000 00 00: Depth
GR.GAPI                       : Gamma Ray
CCL.                          : Casing Collar Locator
TT3.usec                      : CBL 3' Travel Time
AMP3.mV                       : CBL 3' Amplitude
~Parameter Information Block
~A  Depth        GR         CCL         TT3         AMP3    
# ...
   364.7500     99.3505      0.0000    761.6420      9.6415
   365.0000    102.0344      0.0000    762.7661      9.6502
   365.2500    105.6630      0.0000    763.2925      9.6381
   365.5000    110.5318      0.0000    763.6599      9.6108
   365.7500    116.0817      0.0000    763.9996      9.5704
   366.0000    120.7902      0.0000    764.2847      9.5258
   366.2500    123.1152      0.0000    764.4547      9.4973
   366.5000    122.4983      0.0000    764.4941      9.5067
   366.7500    119.3390      0.0000    764.4585      9.5574
   367.0000    114.3316      0.0000    764.4472      9.6268
   367.2500    108.2402      0.0000    764.5295      9.6843
   367.5000    102.0819      0.0000    764.6741      9.7158
   367.7500     96.8662      0.0000    764.7098      9.7270
   368.0000     92.9159      0.0000    764.3093      9.7282
   368.2500     89.7077      0.0000    762.9623      9.7257
   368.5000     86.5729      0.0000    760.0033      9.7255
   368.7500     83.4989      0.0000    754.9290      9.7330
   369.0000     81.2989      0.0000    748.0493      9.7432
   369.2500     81.0982      0.0000    740.9127      9.7432
   369.5000     83.5076      0.0000    735.7498      9.7259
   369.7500     88.0065      0.0000    734.1436      9.6949
   370.0000     93.0550      0.0000    736.1176      9.6563
   370.2500     96.9458      0.0000    740.4102      9.6167
   370.5000     98.6708      0.0000    745.3693      9.5883
   370.7500     98.0496      0.0000    749.5686      9.5862
   371.0000     95.2570      0.0000    752.1727      9.6143
   371.2500     90.6364      0.0000    753.3799      9.6575
   371.5000     85.0974      0.0000    754.3170      9.6842
   371.7500     80.1824      0.0000    755.9030      9.6541
   372.0000     77.1588      0.0000    757.8166      9.5384
   372.2500     76.1042      0.0000    758.8839      9.3465
   372.5000     76.1593      0.0000    758.4307      9.1272
   372.7500     76.5393      0.0000    757.0950      8.9346
   373.0000     77.2166      0.0000    756.2697      8.7976
   373.2500     78.8510      0.0000    756.7341      8.7176
   373.5000     82.0940      0.0000    757.8841      8.6835
   373.7500     86.9582      0.0000    758.4179      8.6851
   374.0000     93.0213      0.0000    757.7051      8.7228
   374.2500    100.0684      0.0000    756.4497      8.8054
   374.5000    107.9819      0.0000    756.0511      8.9297
   374.7500    116.1433      0.0000    757.2941      9.0610
   375.0000    123.6175      0.0000    759.6545      9.1450
   375.2500    129.8451      0.0000    761.8531      9.1468
   375.5000    134.5048      0.0000    762.8315      9.0781
   375.7500    136.7601      0.0000    762.2058      8.9872
   376.0000    135.5440      0.0000    760.2814      8.9261
   376.2500    131.1601      0.0000    757.9409      8.9209
   376.5000    125.8723      0.0000    756.0421      8.9635
   376.7500    121.8893      0.0000    754.3959      9.0237
   377.0000    118.9166      0.0000    751.6134      9.0744
   377.2500    114.5240      0.0000    746.5243      9.1098
   377.5000    106.9536      0.0000    739.6412      9.1445
   377.7500     97.0854      0.0000    732.8341      9.1922
   378.0000     87.7711      0.0000    727.6979      9.2475
   378.2500     81.6729      0.0000    724.3845      9.2860
   378.5000     79.6393      0.0000    721.5847      9.2831
   378.7500     80.7001      0.0000    717.0121      9.2318
   379.0000     83.0576      0.0000    708.5067      9.1441
   379.2500     84.9660      0.0000    696.5209      9.0374
   379.5000     85.4476      0.0000    686.3653      8.9246
   379.7500     84.8439      0.0000    685.9611      8.8180
   380.0000     84.5085      0.0000    698.8929      8.7373
   380.2500     85.7259      0.0000    720.2857      8.7079
   380.5000     89.0921      0.0000    741.0419      8.7419
   380.7500     94.5981      0.0000    755.2212      8.8211
   381.0000    101.4196      0.0000    762.4964      8.9023
   381.2500    107.5745      0.0000    765.4348      8.9465
   381.5000    110.8023      0.0000    766.4166      8.9444
   381.7500    110.4558      0.0000    766.6644      8.9152
   382.0000    108.2224      0.0000    766.6313      8.8836
   382.2500    106.4644      0.0000    766.5027      8.8600
   382.5000    105.8997      0.0000    766.3992      8.8423
   382.7500    105.3046      0.0000    766.3248      8.8277
   383.0000    103.4495      0.0000    766.1387      8.8198
   383.2500    100.7652      0.0000    765.5688      8.8228
   383.5000     98.8218      0.0000    764.1541      8.8359
   383.7500     98.5345      0.0000    761.1806      8.8497
   384.0000     99.3521      0.0000    755.9993      8.8485
   384.2500    100.0462      0.0000    748.8201      8.8183
   384.5000     99.8006      0.0000    741.2708      8.7564
   384.7500     98.4889      0.0000    735.7921      8.6758
   385.0000     96.3636      0.0000    734.1002      8.5999
   385.2500     93.8649      0.0000    736.0829      8.5512
   385.5000     91.7042      0.0000    740.0477      8.5395
   385.7500     90.9184      0.0000    743.8555      8.5513
   386.0000     92.7264      0.0000    746.0137      8.5522
   386.2500     98.1497      0.0000    746.3893      8.5060
   386.5000    107.3277      0.0000    746.0447      8.4023
   386.7500    118.9838      0.0000    745.6030      8.2654
   387.0000    130.7532      0.0000    743.2294      8.1362
   387.2500    140.2118      0.0000    735.5520      8.0418
   387.5000    145.6584      0.0000    722.5970      7.9782
   387.7500    146.3858      0.0000    711.9864      7.9139
   388.0000    142.9928      0.0000    715.5521      7.8093
   388.2500    137.6246      0.0000    739.1646      7.6431
   388.5000    133.0807      0.0000    776.4374      7.4260
   388.7500    130.8767      0.0000    814.0704      7.1849
   389.0000    130.1718      0.0000    842.8788      6.9384
   389.2500    128.7437      0.0000    862.5500      6.7014
   389.5000    125.0043      0.0000    877.0190      6.5019
   389.7500    119.3471      0.0000    887.7095      6.3690
   390.0000    113.9247      0.0000    892.2956      6.3044
   390.2500    110.9858      2.0000    889.0828      6.2818
   390.5000    110.9839      0.0000    880.8047      6.2715
   390.7500    112.3855      0.0000    872.4088      6.2741
   391.0000    113.4905      0.0000    864.6712      6.3462
   391.2500    114.1291      0.0000    852.2383      6.5753
   391.5000    115.3891      0.0000    830.0516      6.9882
   391.7500    118.0365      0.0000    800.6141      7.4862
   392.0000    121.6476      0.0000    772.7336      7.9111
   392.2500    125.2682      0.0000    753.6320      8.1726
   392.5000    128.3735      0.0000    744.0078      8.2865
   392.7500    130.7222      0.0000    740.1924      8.3115
   393.0000    131.5699      0.0000    738.7523      8.2919
   393.2500    129.7031      0.0000    738.3679      8.2556
   393.5000    124.4467      0.0000    739.1188      8.2313
   393.7500    116.4441      0.0000    741.5441      8.2503
   394.0000    107.6010      0.0000    746.0377      8.3294
   394.2500    100.4423      0.0000    752.1068      8.4579
   394.5000     97.0938      0.0000    758.2617      8.6013
   394.7500     98.0644      0.0000    763.0743      8.7192
   395.0000    101.6240      0.0000    766.2287      8.7800
   395.2500    104.6653      0.0000    768.5272      8.7660
   395.5000    104.5726      0.0000    771.2055      8.6752
   395.7500    100.6123      0.0000    775.2030      8.5288
   396.0000     94.1404      0.0000    780.4200      8.3710
   396.2500     87.8180      0.0000    785.3608      8.2489
   396.5000     84.1967      0.0000    788.0143      8.1819
   396.7500     84.2972      0.0000    787.7365      8.1542
   397.0000     87.2171      0.0000    786.4109      8.1372
   397.2500     91.0975      0.0000    787.5140      8.1197
   397.5000     94.3183      0.0000    793.8513      8.1113
   397.7500     95.9600      0.0000    805.6889      8.1235
   398.0000     95.8419      0.0000    820.3009      8.1546
