~Version Information
 VERS.                      2.0: CWLS Log ASCII Standard - VERSION 2.0
 WRAP.                       NO: One line per depth step
 ~Well Information Block
 STRT.FT               462.4000: 
 STOP.FT              2260.5000: 
 STEP.FT                 0.1000: 
 NULL.                -999.2500: 
 COMP.          Petrogulf Corporation: COMPANY
 WELL.             McLeod 9-42V: WELL
 FLD.           Purgatorie River: FIELD
 LOC.           1658' FNL & 415' FEL: LOCATION
 CNTY.               Las Animas: COUNTY
 SRVC.                         : SERVICE COMPANY
 DATE.          Fri Nov 12 10:12:24 2004: LOG DATE
 UWI.           05 071 08071 00: UNIQUE WELL ID
 STAT.                 Colorado: STATE
 PROV.                         :Province
 ~Curve Information Block
 DEPT.FT            0 000 00 00: Depth
 DCAL.in                       : CDL Caliper
 RHOB.g/cc                     : CDL Bulk Density
 RHOC.g/cc                     : CDL Density Correction
 DPOR.pu                       : CDL Density Porosity
 GR.GAPI                       : Gamma Ray
 NPOR.pu                       : Neutron Porosity
 ~Parameter Information Block
 ~A  Depth       DCAL        RHOB        RHOC        DPOR         GR         NPOR    
# ...
  1297.6000      8.1026      2.5572      0.0107      5.6238    130.4789     28.5861
  1297.7000      8.1026      2.5608      0.0354      5.4038    136.9289     28.4518
  1297.8000      8.1005      2.5586      0.0195      5.5375    141.7521     28.3108
  1297.9000      8.1005      2.5433      0.0315      6.4676    144.7085     28.3997
  1298.0000      8.1061      2.5193     -0.0108      7.9203    149.2019     28.7338
  1298.1000      8.1061      2.5028      0.0101      8.9223    154.8266     28.9840
  1298.2000      8.1061      2.5003      0.0271      9.0751    159.3010     29.1202
  1298.3000      8.1192      2.5024      0.0324      8.9450    159.7186     29.3974
  1298.4000      8.1192      2.5049     -0.0073      8.7953    157.3643     29.6307
  1298.5000      8.1188      2.5132     -0.0228      8.2895    156.5390     29.3533
  1298.6000      8.1188      2.5236      0.0170      7.6603    157.4178     28.7703
  1298.7000      8.1188      2.5257      0.0298      7.5345    157.5935     28.5470
  1298.8000      8.1182      2.5223      0.0220      7.7376    155.3263     28.7229
  1298.9000      8.1182      2.5248     -0.0031      7.5892    152.0835     28.8472
  1299.0000      8.1162      2.5348      0.0328      6.9803    151.9173     28.9303
  1299.1000      8.1162      2.5438      0.0151      6.4355    153.6144     29.1841
  1299.2000      8.1162      2.5491      0.0135      6.1127    152.3987     29.5054
  1299.3000      8.1167      2.5568      0.0299      5.6477    148.6121     29.7196
  1299.4000      8.1167      2.5721      0.0314      4.7198    146.2051     29.7615
  1299.5000      8.1144      2.5938      0.0280      3.4086    145.9790     29.5452
  1299.6000      8.1144      2.6100      0.0415      2.4230    145.8970     28.9441
  1299.7000      8.1144      2.6055      0.0435      2.6954    144.0649     27.9532
  1299.8000      8.1110      2.5796      0.0010      4.2685    138.1456     26.7299
  1299.9000      8.1110      2.5523     -0.0375      5.9199    128.9174     25.3672
  1300.0000      8.1032      2.5426     -0.0307      6.5079    121.0619     23.9452
  1300.1000      8.1032      2.5468     -0.0143      6.2530    114.6793     22.8613
  1300.2000      8.1032      2.5443      0.0334      6.4058    107.0467     22.3385
  1300.3000      8.1005      2.5270      0.0166      7.4568     99.2744     21.8386
  1300.4000      8.1005      2.5090     -0.0278      8.5452     93.2800     20.8496
  1300.5000      8.0970      2.4936      0.0174      9.4775     89.1018     19.5584
  1300.6000      8.0970      2.4778     -0.0443     10.4376     85.1318     18.7874
  1300.7000      8.0970      2.4775     -0.0328     10.4556     80.8235     19.0907
  1300.8000      8.1029      2.4964      0.0290      9.3071     78.7890     20.0502
  1300.9000      8.1029      2.5118      0.0412      8.3759     80.4190     20.8000
  1301.0000      8.1053      2.5097      0.0195      8.5028     82.8577     21.0260
  1301.1000      8.1053      2.4972      0.0401      9.2617     82.8812     20.9137
  1301.2000      8.1053      2.4878      0.0002      9.8316     80.6695     20.6396
  1301.3000      8.1080      2.4903     -0.0162      9.6768     79.5054     20.6962
  1301.4000      8.1080      2.5036     -0.0123      8.8732     80.3273     21.2569
  1301.5000      8.1042      2.5211      0.0216      7.8120     81.2361     21.7470
  1301.6000      8.1042      2.5413      0.0054      6.5869     81.3065     21.8997
  1301.7000      8.1042      2.5612      0.0742      5.3812     80.8189     21.8616
  1301.8000      8.1026      2.5607      0.0819      5.4149     80.0676     21.6474
  1301.9000      8.1026      2.5298      0.0310      7.2859     80.4041     21.4077
  1302.0000      8.0948      2.4948     -0.0584      9.4031     83.0920     21.2952
  1302.1000      8.0948      2.4835     -0.0055     10.0895     86.4226     21.2821
  1302.2000      8.0948      2.4959     -0.0428      9.3374     87.8275     21.5715
  1302.3000      8.0911      2.5235     -0.0144      7.6641     87.4078     22.1105
  1302.4000      8.0911      2.5464      0.0389      6.2760     88.0837     22.2910
  1302.5000      8.0950      2.5447      0.0271      6.3792     91.7609     21.6626
  1302.6000      8.0950      2.5283      0.0071      7.3761     95.0035     20.5334
  1302.7000      8.0950      2.5162      0.0166      8.1121     93.9196     19.6587
  1302.8000      8.0957      2.5115     -0.0107      8.3959     91.1454     19.3144
  1302.9000      8.0957      2.5058      0.0330      8.7373     92.1551     19.2060
  1303.0000      8.0991      2.4963      0.0147      9.3141     97.5904     19.2636
  1303.1000      8.0991      2.4931      0.0414      9.5115    104.4418     19.6115
  1303.2000      8.0991      2.4954      0.0354      9.3704    111.4296     20.0930
  1303.3000      8.1357      2.4869      0.0433      9.8841    117.2427     20.7330
  1303.4000      8.1357      2.4628      0.0176     11.3472    120.3344     21.6231
  1303.5000      8.2788      2.4243      0.1012     13.6773    122.6919     22.5860
  1303.6000      8.2788      2.3690      0.0094     17.0293    126.4340     23.2164
  1303.7000      8.2788      2.3164     -0.0161     20.2207    130.3078     23.2878
  1303.8000      8.2850      2.2918      0.0080     21.7069    133.4648     23.1573
  1303.9000      8.2850      2.3021     -0.0287     21.0845    136.1912     23.4330
  1304.0000      8.3142      2.3407      0.0642     18.7474    137.2133     24.2432
  1304.1000      8.3142      2.3933      0.0699     15.5562    135.6533     25.0051
  1304.2000      8.3142      2.4580      0.0633     11.6368    132.5108     25.3172
  1304.3000      8.2304      2.5395      0.1988      6.6968    131.0129     25.3759
  1304.4000      8.2304      2.6210      0.3111      1.7574    132.3374     25.3464
  1304.5000      8.1969      2.6743      0.4379     -1.4745    133.6029     25.0946
  1304.6000      8.1969      2.6858      0.3585     -2.1709    132.5152     24.7236
  1304.7000      8.1969      2.6630      0.3223     -0.7892    130.6040     24.7337
  1304.8000      8.1746      2.6220      0.2312      1.6942    131.5818     24.9982
  1304.9000      8.1746      2.5760      0.1647      4.4865    136.6103     25.1070
  1305.0000      8.1674      2.5319      0.0408      7.1558    143.1881     25.2848
  1305.1000      8.1674      2.4952      0.0440      9.3795    148.7433     25.8482
  1305.2000      8.1674      2.4639      0.0407     11.2761    150.7632     26.6758
  1305.3000      8.1614      2.4276      0.0290     13.4806    149.6409     27.4823
  1305.4000      8.1614      2.3843      0.0765     16.1007    151.0909     28.0506
  1305.5000      8.1380      2.3671     -0.0482     17.1466    156.3530     28.3257
  1305.6000      8.1380      2.4057      0.0432     14.8073    159.7967     28.4235
  1305.7000      8.1380      2.4635      0.0449     11.3050    158.1701     28.4359
  1305.8000      8.1422      2.5011      0.0175      9.0230    154.9541     28.3884
  1305.9000      8.1422      2.5246      0.0440      7.6013    156.2861     28.3941
  1306.0000      8.1280      2.5446      0.0621      6.3892    163.1454     28.5200
  1306.1000      8.1280      2.5602      0.1044      5.4399    169.1505     28.5678
  1306.2000      8.1280      2.5679      0.0998      4.9749    170.3808     28.4837
  1306.3000      8.1218      2.5684      0.0725      4.9431    170.5584     28.3952
  1306.4000      8.1218      2.5626      0.0701      5.2965    171.9759     28.3879
  1306.5000      8.1218      2.5535      0.0424      5.8483    171.8036     28.5797
  1306.6000      8.1218      2.5484      0.0654      6.1569    168.3820     28.9775
  1306.7000      8.1218      2.5469      0.0132      6.2494    162.9006     29.3465
  1306.8000      8.1267      2.5373      0.0603      6.8318    159.5678     29.5178
  1306.9000      8.1267      2.5110      0.0013      8.4251    161.9242     29.6581
  1307.0000      8.1312      2.4884     -0.0231      9.7963    168.5127     29.8400
  1307.1000      8.1312      2.4896      0.0075      9.7234    174.2418     29.7793
