~Version Information
VERS.                      2.0: CWLS Log ASCII Standard - VERSION 2.0
WRAP.                       NO: One line per depth step
~Well Information Block
STRT.FT                -8.2500: 
STOP.FT               836.2500: 
STEP.FT                 0.2500: 
NULL.                -999.2500: 
COMP.          Pioneer Natural Res.: COMPANY
WELL.            Hustler 12-17: WELL
FLD.           Purgatorie River: FIELD
LOC.           2150' FNL & 450' FWL----------: LOCATION
PROV.                       CO: PROVINCE
CNTY.               Las Animas: COUNTRY
SRVC.                Patterson: SERVICE COMPANY
DATE.          Wed Dec 29 13:37:10 2004: LOG DATE
UWI.           05 071 08236 00: UNIQUE WELL ID
~Curve Information Block
DEPT.FT            0 000 00 00: Depth
AMP3.mV                       : CBL 3' Amplitude
CCL.                          : Casing Collar Locator
GR.GAPI                       : Gamma Ray
TT3.usec                      : CBL 3' Travel Time
~Parameter Information Block
~A  Depth       AMP3        CCL          GR         TT3     
# ...
   159.2500      5.6770      0.0000    110.0626    942.0117
   159.5000      5.9864      0.0000    106.4797    959.3405
   159.7500      6.4171      0.0000    107.3294    959.8958
   160.0000      6.9739      0.0000    112.2475    942.7663
   160.2500      7.6224      0.0000    119.5279    915.4261
   160.5000      8.2810      0.0000    126.7015    887.4277
   160.7500      8.8621      0.0000    131.4253    865.2338
   161.0000      9.3345      0.0000    132.5466    852.3038
   161.2500      9.7478      0.0000    130.6336    849.5144
   161.5000     10.1888      0.0000    127.4553    852.1654
   161.7500     10.7143      0.0000    124.6015    850.0393
   162.0000     11.3211      0.0000    122.4890    835.6166
   162.2500     11.9605      0.0000    120.8438    811.9998
   162.5000     12.5649      0.0000    119.9187    790.3953
   162.7500     13.0653      0.0000    120.6118    780.6568
   163.0000     13.4160      0.0000    123.2493    784.7944
   163.2500     13.6258      0.0000    126.7197    796.6578
   163.5000     13.7581      0.0000    129.2620    806.0794
   163.7500     13.8819      0.0000    130.1301    806.0442
   164.0000     14.0185      0.0000    130.3364    798.6164
   164.2500     14.1413      0.0000    131.7629    793.8814
   164.5000     14.2134      0.0000    135.4259    802.2128
   164.7500     14.2096      0.0000    140.1861    826.8047
   165.0000     14.1167      0.0000    143.1776    861.8832
   165.2500     13.9312      0.0000    142.2097    896.5344
   165.5000     13.6603      0.0000    138.0735    920.0007
   165.7500     13.3294      0.0000    133.8250    924.7953
   166.0000     13.0033      0.0000    131.4839    907.2702
   166.2500     12.7850      0.0000    130.0461    868.0771
   166.5000     12.7530      0.0000    126.9968    814.1124
   166.7500     12.8848      0.0000    120.9347    759.3498
   167.0000     13.0519      0.0000    112.3870    719.4182
   167.2500     13.1036      0.0000    103.0238    700.4360
   167.5000     12.9600      0.0000     94.6414    693.9659
   167.7500     12.6406      0.0000     88.1973    687.2388
   168.0000     12.2244      0.0000     83.2978    678.3325
   168.2500     11.7916      0.0000     78.9641    677.3988
   168.5000     11.4037      0.0000     75.0196    692.8350
   168.7500     11.1175      0.0000     72.3234    720.7443
   169.0000     10.9793      0.0000     71.7160    749.6181
   169.2500     10.9833      0.0000     73.1986    771.2860
   169.5000     11.0531      0.0000     76.0361    784.6806
   169.7500     11.0823      0.0000     79.2841    792.3010
   170.0000     11.0010      0.0000     82.4183    796.5878
   170.2500     10.8179      0.0000     85.8005    799.2557
   170.5000     10.6101      0.0000     90.3211    801.5980
   170.7500     10.4622      0.0000     96.2701    804.2076
   171.0000     10.4010      0.0000    102.5422    806.5633
   171.2500     10.3877      0.0000    107.0631    807.3450
   171.5000     10.3757      0.0000    108.3093    805.5867
   171.7500     10.3582      0.0000    106.7092    801.5269
   172.0000     10.3472      0.0000    104.3241    796.4935
   172.2500     10.3338      0.0000    102.8184    792.2603
   172.5000     10.3042      0.0000    102.0339    790.3061
   172.7500     10.2889      0.0000    100.9480    791.0053
   173.0000     10.3561      0.0000     99.6645    793.3602
   173.2500     10.5451      0.0000     99.6982    795.8143
   173.5000     10.8202      0.0000    102.1655    797.3862
   173.7500     11.1005      0.0000    106.3108    797.9860
   174.0000     11.3225      0.0000    110.2043    797.8885
   174.2500     11.4782      0.0000    112.5943    797.1116
   174.5000     11.6145      0.0000    113.7437    795.2927
   174.7500     11.7997      0.0000    114.7274    792.1820
   175.0000     12.0755      0.0000    116.2410    788.3177
   175.2500     12.4269      0.0000    118.0557    785.1486
   175.5000     12.7913      0.0000    119.6019    784.3497
   175.7500     13.0883      0.0000    121.0679    786.9547
   176.0000     13.2468      0.0000    123.7359    792.9216
   176.2500     13.2280      0.0000    128.8504    801.0851
   176.5000     13.0418      0.0000    136.0058    809.2746
   176.7500     12.7422      0.0000    142.9069    814.9179
   177.0000     12.3983      0.0000    146.9251    816.4801
   177.2500     12.0674      0.0000    146.8338    814.8188
   177.5000     11.7778      0.0000    143.2269    812.7221
   177.7500     11.5159      0.0000    137.6034    812.5307
   178.0000     11.2319      0.0000    131.1231    813.9388
   178.2500     10.8780      0.0000    124.1289    814.0889
   178.5000     10.4524      0.0000    116.5065    810.0502
   178.7500     10.0104      0.0000    108.1585    801.4014
   179.0000      9.6298      0.0000     99.2757    790.4355
   179.2500      9.3572      0.0000     90.5230    780.2747
   179.5000      9.1796      0.0000     82.9998    773.5164
   179.7500      9.0509      0.0000     77.8682    772.3382
   180.0000      8.9453      0.0000     75.8817    778.2964
   180.2500      8.8771      0.0000     76.9236    790.9080
   180.5000      8.8770      0.0000     79.8424    806.8391
   180.7500      8.9635      0.0000     83.0248    821.5109
   181.0000      9.1320      0.0000     85.4019    831.9296
   181.2500      9.3488      0.0000     86.6941    837.9229
   181.5000      9.5515      0.0000     86.6529    841.0211
   181.7500      9.6725      0.0000     84.7050    842.7632
   182.0000      9.6871      0.0000     80.8054    843.9743
   182.2500      9.6383      0.0000     76.2437    844.9323
   182.5000      9.6042      0.0000     73.0324    845.6844
   182.7500      9.6283      0.0000     72.4262    846.1650
   183.0000      9.6878      0.0000     74.1332    846.1589
   183.2500      9.7215      0.0000     76.8244    845.2006
   183.5000      9.6811      0.0000     79.2024    842.5729
   183.7500      9.5578      0.0000     80.6666    837.6357
   184.0000      9.3747      0.0000     81.1731    830.4960
   184.2500      9.1683      0.0000     80.7400    822.3922
   184.5000      8.9798      0.0000     79.4067    815.0710
   184.7500      8.8504      0.0000     77.5182    809.5515
   185.0000      8.7990      0.0000     75.5526    805.5162
   185.2500      8.7945      0.0000     73.6263    801.9033
   185.5000      8.7593      0.0000     71.6033    798.0860
   185.7500      8.6186      0.0000     69.7427    794.6141
   186.0000      8.3565      0.0000     68.8157    792.7809
   186.2500      8.0318      0.0000     69.4053    793.3386
   186.5000      7.7378      0.0000     71.3051    795.8011
   186.7500      7.5372      0.0000     73.6142    799.1510
   187.0000      7.4246      0.0000     75.3007    802.8188
   187.2500      7.3384      0.0000     75.7727    806.5773
   187.5000      7.2075      0.0000     75.0350    809.8497
   187.7500      7.0010      0.0000     73.4037    811.9278
   188.0000      6.7489      0.0000     71.3370    813.1623
   188.2500      6.5180      0.0000     69.5855    815.3714
   188.5000      6.3598      0.0000     68.9398    820.3881
   188.7500      6.2735      0.0000     69.3680    828.2307
   189.0000      6.2089      0.0000     69.8300    836.8694
   189.2500      6.1035      0.0000     69.4463    843.7568
   189.5000      5.9216      0.0000     68.5496    848.1987
   189.7500      5.6687      0.0000     68.2009    852.6874
   190.0000      5.3847      0.0000     68.8961    860.5256
   190.2500      5.1313      0.0000     69.9092    871.1152
   190.5000      4.9709      0.0000     69.8208    879.9627
   190.7500      4.9348      0.0000     67.8462    885.5013
   191.0000      5.0042      0.0000     64.8146    893.2813
   191.2500      5.1310      2.0000     62.6736    910.5176
   191.5000      5.2885      2.0000     62.8953    937.7600
   191.7500      5.5050     -2.0000     65.3055    967.3606
   192.0000      5.8542      0.0000     68.3806    988.8809
   192.2500      6.4121      0.0000     70.5002    995.5078
   192.5000      7.1856      0.0000     70.9673    987.3735
