~Version Information
VERS.                      2.0: CWLS Log ASCII Standard - VERSION 2.0
WRAP.                       NO: One line per depth step
~Well Information Block
STRT.FT               801.5000: 
STOP.FT              2513.0000: 
STEP.FT                 0.2500: 
NULL.                -999.2500: 
COMP.          Petrogulf Corporation: COMPANY
WELL.               YWAM 7-32V: WELL
FLD.           Purgatoire River: FIELD
LOC.           2423' FNL & 2412' FEL: LOCATION
PROV.                 Colorado: PROVINCE
CNTY.               Las Animas: COUNTRY
SRVC.                Patterson: SERVICE COMPANY
DATE.          Sun Dec 14 06:58:17 2003: LOG DATE
UWI.                          : UNIQUE WELL ID
~Curve Information Block
DEPT.FT            0 000 00 00: Depth
SP.mV                         : DIL Spontaneous Potential
RILD.Ohm-m                    : DIL Deep Resistivity
RILM.Ohm-m                    : DIL Medium Resistivity
RLL3.Ohm-m                    : DIL Shallow Resistivity
GR.GAPI                       : Gamma Ray
~Parameter Information Block
~A  Depth        SP         RILD        RILM        RLL3         GR     
# ...
  2145.5000   -228.6966     16.0656     18.9152     31.4943     64.2406
  2145.7500   -228.5751     16.5423     19.1415     30.0658     63.3019
  2146.0000   -227.8471     16.9201     19.4187     29.0604     63.8560
  2146.2500   -226.7284     17.1765     19.7382     28.6889     65.2468
  2146.5000   -225.3972     17.2984     20.0651     29.0061     67.9176
  2146.7500   -223.9427     17.2880     20.3492     30.1245     69.3487
  2147.0000   -222.3507     17.1697     20.5353     32.2999     69.7801
  2147.2500   -220.5291     16.9919     20.5698     35.7965     68.5637
  2147.5000   -218.3640     16.8136     20.4088     40.6058     64.8427
  2147.7500   -215.7918     16.6843     20.0363     46.0536     61.8726
  2148.0000   -212.8609     16.6252     19.4874     50.4677     58.3996
  2148.2500   -209.7418     16.6222     18.8564     51.5862     57.4837
  2148.5000   -206.6629     16.6302     18.2711     48.1518     58.5900
  2148.7500   -203.8136     16.5855     17.8470     41.6164     60.9384
  2149.0000   -201.2728     16.4255     17.6471     36.0239     67.2128
  2149.2500   -198.9827     16.1086     17.6597     35.6440     73.7454
  2149.5000   -196.7663     15.6303     17.7939     42.1310     87.4670
  2149.7500   -194.4059     15.0242     17.8953     53.3054     98.3775
  2150.0000   -191.7610     14.3488     17.7922     64.2128    113.5482
  2150.2500   -188.8539     13.6669     17.3689     69.6449    120.0708
  2150.5000   -185.8605     13.0278     16.6237     66.7565    121.6390
  2150.7500   -183.0260     12.4603     15.6611     56.4843    117.6636
  2151.0000   -180.5659     11.9733     14.6265     42.8307    107.6089
  2151.2500   -178.5984     11.5609     13.6416     30.2947    100.4560
  2151.5000   -177.1266     11.2087     12.7773     21.3977     91.8446
  2151.7500   -176.0672     10.8989     12.0592     16.1739     88.2609
  2152.0000   -175.3101     10.6147     11.4844     13.4060     86.0033
  2152.2500   -174.7708     10.3446     11.0360     11.9741     85.9985
  2152.5000   -174.4082     10.0858     10.6923     11.3123     87.1091
  2152.7500   -174.2069      9.8412     10.4323     11.1986     88.0472
  2153.0000   -174.1453      9.6149     10.2390     11.4787     88.9581
  2153.2500   -174.1736      9.4084     10.1008     11.9874     88.8770
  2153.5000   -174.2086      9.2223     10.0101     12.5870     87.5639
  2153.7500   -174.1547      9.0593      9.9595     13.1820     86.1660
  2154.0000   -173.9563      8.9254      9.9376     13.6919     84.0769
  2154.2500   -173.6581      8.8268      9.9294     14.0435     83.0467
  2154.5000   -173.4032      8.7663      9.9201     14.1932     82.3944
  2154.7500   -173.3449      8.7421      9.9010     14.1501     82.8081
  2155.0000   -173.5402      8.7491      9.8722     13.9771     85.1686
  2155.2500   -173.9211      8.7811      9.8400     13.7691     87.7623
  2155.5000   -174.3574      8.8326      9.8114     13.6025     91.8121
  2155.7500   -174.7398      8.8999      9.7909     13.4794     93.6655
  2156.0000   -175.0224      8.9809      9.7806     13.3292     94.6735
  2156.2500   -175.2237      9.0735      9.7826     13.0951     94.6518
  2156.5000   -175.4120      9.1756      9.8003     12.8182     94.7557
  2156.7500   -175.6827      9.2856      9.8381     12.6134     95.3252
  2157.0000   -176.1331      9.4057      9.9006     12.5714     97.0130
  2157.2500   -176.8400      9.5439      9.9925     12.7013     98.4899
  2157.5000   -177.8442      9.7128     10.1201     12.9604    100.5876
  2157.7500   -179.1327      9.9256     10.2901     13.3165    101.4481
  2158.0000   -180.6315     10.1930     10.5096     13.7761    101.3046
  2158.2500   -182.2268     10.5205     10.7846     14.3650    100.1660
  2158.5000   -183.8124     10.9052     11.1204     15.1020     97.3147
  2158.7500   -185.3282     11.3350     11.5212     16.0031     95.0056
  2159.0000   -186.7574     11.7914     11.9880     17.1095     91.2878
  2159.2500   -188.0987     12.2592     12.5169     18.4718     88.7671
  2159.5000   -189.3553     12.7353     13.0997     20.0318     85.2781
  2159.7500   -190.5535     13.2275     13.7254     21.5032     83.3558
  2160.0000   -191.7586     13.7454     14.3822     22.5000     81.1746
  2160.2500   -193.0599     14.2925     15.0564     22.9327     80.1400
  2160.5000   -194.5337     14.8684     15.7348     23.2306     78.9462
  2160.7500   -196.2125     15.4787     16.4125     23.9985     77.9534
  2161.0000   -198.0721     16.1413     17.1008     25.4205     75.2052
  2161.2500   -200.0372     16.8798     17.8221     27.0949     72.4109
  2161.5000   -201.9996     17.7034     18.5902     28.4404     67.8901
  2161.7500   -203.8417     18.5896     19.3907     29.1516     65.5932
  2162.0000   -205.4537     19.4844     20.1830     29.2855     63.8744
  2162.2500   -206.7479     20.3230     20.9220     29.0851     63.5006
  2162.5000   -207.6726     21.0602     21.5786     28.8167     63.0189
  2162.7500   -208.2190     21.6905     22.1407     28.6930     62.4035
  2163.0000   -208.4180     22.2461     22.5995     28.8168     61.1747
  2163.2500   -208.3273     22.7713     22.9421     29.1489     60.4660
  2163.5000   -208.0164     23.2815     23.1586     29.5433     59.9179
  2163.7500   -207.5530     23.7364     23.2553     29.8364     59.7745
  2164.0000   -206.9911     24.0595     23.2602     29.9283     59.5201
  2164.2500   -206.3582     24.1991     23.2185     29.8221     59.4554
  2164.5000   -205.6452     24.1781     23.1816     29.6284     60.2413
  2164.7500   -204.8205     24.0784     23.1931     29.5284     61.4556
  2165.0000   -203.8732     23.9829     23.2763     29.6847     63.4541
  2165.2500   -202.8466     23.9350     23.4246     30.1338     64.2821
  2165.5000   -201.8344     23.9404     23.6000     30.7505     64.4016
  2165.7500   -200.9518     23.9907     23.7419     31.3314     63.8052
  2166.0000   -200.3051     24.0819     23.7882     31.7357     61.8699
  2166.2500   -199.9557     24.2179     23.7049     31.9556     59.8948
  2166.5000   -199.8857     24.4035     23.5104     32.0684     56.7156
  2166.7500   -199.9915     24.6373     23.2794     32.1409     55.3244
  2167.0000   -200.1240     24.9078     23.1141     32.1866     55.2734
  2167.2500   -200.1540     25.1944     23.0988     32.2021     56.3672
  2167.5000   -200.0200     25.4698     23.2627     32.2240     58.5429
  2167.7500   -199.7364     25.7015     23.5710     32.3363     59.8139
  2168.0000   -199.3657     25.8551     23.9438     32.6061     61.0439
  2168.2500   -198.9725     25.9072     24.2939     33.0124     61.2623
  2168.5000   -198.5828     25.8647     24.5586     33.4436     60.4920
  2168.7500   -198.1791     25.7744     24.7132     33.7565     59.3678
  2169.0000   -197.7361     25.7036     24.7641     33.8337     57.5057
  2169.2500   -197.2643     25.7004     24.7336     33.6265     56.6415
  2169.5000   -196.8228     25.7668     24.6477     33.1930     56.2733
  2169.7500   -196.4913     25.8720     24.5308     32.6815     56.5031
  2170.0000   -196.3262     25.9981     24.4059     32.2334     57.0816
  2170.2500   -196.3256     26.1747     24.2959     31.8805     57.4362
  2170.5000   -196.4195     26.4630     24.2228     31.5294     57.8664
  2170.7500   -196.4920     26.9020     24.2047     31.0459     58.1485
  2171.0000   -196.4304     27.4677     24.2542     30.4058     58.6979
  2171.2500   -196.1797     28.0798     24.3779     29.8414     59.1222
  2171.5000   -195.7737     28.6487     24.5760     29.8492     59.4470
  2171.7500   -195.3240     29.1215     24.8421     30.9479     59.1120
  2172.0000   -194.9677     29.4938     25.1671     33.2872     57.5151
  2172.2500   -194.7947     29.7891     25.5495     36.4229     55.9194
  2172.5000   -194.7973     30.0342     26.0016     39.5041     53.4552
  2172.7500   -194.8702     30.2452     26.5398     41.7907     52.1654
  2173.0000   -194.8560     30.4284     27.1553     43.1341     50.9988
  2173.2500   -194.6035     30.5888     27.7876     44.0589     50.4591
