~Version Information
VERS.                      2.0: CWLS Log ASCII Standard - VERSION 2.0
WRAP.                       NO: One line per depth step
~Well Information Block
STRT.FT               -10.0000: 
STOP.FT              2544.2500: 
STEP.FT                 0.2500: 
NULL.                -999.2500: 
COMP.          Pioneer Natural Resources: COMPANY
WELL.            Cortina 23-25: WELL
FLD.           Purgatorie River: FIELD
LOC.           2344' FWL  & 2526' FSL------: LOCATION
PROV.                       CO: PROVINCE
CNTY.               Las Animas: COUNTRY
SRVC.          Patterson Wireline: SERVICE COMPANY
DATE.          Fri Apr 01 11:50:55 2005: LOG DATE
UWI.           05 071 08340 00: UNIQUE WELL ID
~Curve Information Block
DEPT.FT            0 000 00 00: Depth
CCL.                          : Casing Collar Locator
TT3.usec                      : CBL 3' Travel Time
AMP3.mV                       : CBL 3' Amplitude
GR.GAPI                       : Gamma Ray
~Parameter Information Block
~A  Depth       CCL         TT3         AMP3         GR     
# ...
  1832.5000      0.0000    691.7841      5.3261     83.7371
  1832.7500      0.0000    681.7799      5.3091     81.8367
  1833.0000      0.0000    668.2711      5.2333     79.3873
  1833.2500      0.0000    657.3253      5.0956     76.6377
  1833.5000      0.0000    656.7982      4.9547     74.1848
  1833.7500      0.0000    670.3857      4.8591     72.6882
  1834.0000      2.0000    694.3395      4.8123     72.5729
  1834.2500      2.0000    720.5800      4.7989     73.8789
  1834.5000      0.0000    742.7858      4.8103     76.1598
  1834.7500      0.0000    759.4625      4.8504     78.5797
  1835.0000      0.0000    771.8896      4.9290     80.3204
  1835.2500      0.0000    780.4142      5.0389     80.8242
  1835.5000      0.0000    784.1579      5.1503     79.6412
  1835.7500      0.0000    784.0859      5.2494     76.5458
  1836.0000      0.0000    783.9669      5.3553     72.1595
  1836.2500      0.0000    787.0063      5.4763     68.0101
  1836.5000      0.0000    792.8100      5.5761     65.4462
  1836.7500      0.0000    798.5766      5.6046     64.6541
  1837.0000      0.0000    802.0991      5.5433     65.0285
  1837.2500      0.0000    802.9616      5.4177     66.1737
  1837.5000      0.0000    801.9563      5.2811     67.9204
  1837.7500      0.0000    800.3867      5.1861     69.3848
  1838.0000      0.0000    799.4799      5.1605     68.9137
  1838.2500      0.0000    799.5452      5.1966     65.7598
  1838.5000      0.0000    799.4574      5.2605     61.5237
  1838.7500      0.0000    797.3655      5.3110     59.2909
  1839.0000      0.0000    792.3828      5.3231     61.4538
  1839.2500      0.0000    785.7113      5.3007     68.4385
  1839.5000      0.0000    779.8357      5.2666     78.6826
  1839.7500      0.0000    776.5389      5.2433     89.3433
  1840.0000      0.0000    776.1306      5.2436     97.7912
  1840.2500      0.0000    778.1915      5.2707    103.1522
  1840.5000      0.0000    781.8261      5.3192    106.4386
  1840.7500      0.0000    785.3516      5.3791    109.2543
  1841.0000      0.0000    787.1722      5.4401    112.5234
  1841.2500      0.0000    787.1963      5.4925    116.1471
  1841.5000      0.0000    786.7612      5.5276    119.2600
  1841.7500      0.0000    787.3787      5.5401    120.7397
  1842.0000      0.0000    789.8599      5.5281    119.9971
  1842.2500      0.0000    793.9844      5.4939    117.6729
  1842.5000      0.0000    797.9238      5.4510    115.4243
  1842.7500      0.0000    797.9078      5.4211    114.7181
  1843.0000      0.0000    789.8303      5.4189    115.5978
  1843.2500      0.0000    772.8253      5.4393    116.4643
  1843.5000      0.0000    751.3046      5.4675    115.1184
  1843.7500      0.0000    732.2045      5.4944    110.3796
  1844.0000      0.0000    719.8889      5.5217    102.8877
  1844.2500      0.0000    714.1271      5.5586     94.2668
  1844.5000      0.0000    712.1934      5.6157     85.8399
  1844.7500      0.0000    711.6157      5.6977     78.4312
  1845.0000      0.0000    711.1217      5.7919     72.8340
  1845.2500      0.0000    710.3785      5.8633     69.8431
  1845.5000      0.0000    709.6534      5.8722     69.8514
  1845.7500      0.0000    709.5042      5.8135     72.7571
  1846.0000      0.0000    710.3635      5.7306     78.3736
  1846.2500      0.0000    712.3304      5.6714     86.8393
  1846.5000      0.0000    715.0551      5.6363     98.4103
  1846.7500      0.0000    717.2791      5.5913    112.7420
  1847.0000      0.0000    716.9769      5.5201    128.5109
  1847.2500      0.0000    713.3278      5.4402    143.8773
  1847.5000      0.0000    708.7992      5.3818    157.1358
  1847.7500      0.0000    708.2748      5.3621    166.8678
  1848.0000      0.0000    715.0964      5.3690    172.1305
  1848.2500      0.0000    727.3964      5.3780    173.1989
  1848.5000      0.0000    738.6024      5.3846    171.8948
  1848.7500      0.0000    742.5002      5.3979    170.5472
  1849.0000      0.0000    738.1307      5.4054    170.5277
  1849.2500      0.0000    729.6270      5.3786    171.7962
  1849.5000      0.0000    721.8809      5.3120    173.3985
  1849.7500      0.0000    717.1654      5.2359    174.1650
  1850.0000      0.0000    715.1671      5.1887    173.2949
  1850.2500      0.0000    714.6696      5.1899    170.7834
  1850.5000      0.0000    714.6669      5.2387    167.5057
  1850.7500      0.0000    714.5265      5.3162    164.7947
  1851.0000      0.0000    713.7558      5.3770    163.6158
  1851.2500      0.0000    711.8521      5.3705    164.0151
  1851.5000      0.0000    708.4435      5.3096    165.5490
  1851.7500      0.0000    703.5657      5.2829    168.0714
  1852.0000      0.0000    697.6458      5.3572    171.4605
  1852.2500      0.0000    691.2418      5.4932    174.7045
  1852.5000      0.0000    685.0653      5.5956    176.2587
  1852.7500      0.0000    680.2843      5.6243    175.4517
  1853.0000      0.0000    678.3783      5.6148    172.6831
  1853.2500      0.0000    680.2858      5.6151    168.1221
  1853.5000      0.0000    685.4359      5.6503    161.0187
  1853.7500      0.0000    691.6110      5.7237    150.6311
  1854.0000      0.0000    696.1788      5.7971    137.4608
  1854.2500      0.0000    697.8265      5.7908    123.3579
  1854.5000      0.0000    696.9982      5.6631    110.6075
  1854.7500      0.0000    694.8326      5.4792    100.9789
  1855.0000      0.0000    692.3914      5.3500     95.2693
  1855.2500      0.0000    690.8757      5.3214     93.1348
  1855.5000      0.0000    691.3212      5.3607     93.1307
  1855.7500      0.0000    693.3383      5.4162     93.3604
  1856.0000      0.0000    694.7727      5.4428     92.6772
  1856.2500      0.0000    692.9879      5.4120     91.3261
  1856.5000      0.0000    686.4019      5.3564     90.2886
  1856.7500      0.0000    675.7371      5.3694     90.3056
  1857.0000      0.0000    665.0907      5.5039     91.9281
  1857.2500      0.0000    660.7626      5.6825     96.2019
  1857.5000      0.0000    666.5533      5.7505    104.5050
  1857.7500      0.0000    679.9003      5.6266    117.1083
  1858.0000      0.0000    693.7744      5.3965    131.8992
  1858.2500      0.0000    701.5762      5.2541    144.9825
  1858.5000      0.0000    699.1436      5.3389    152.9871
  1858.7500      0.0000    684.1161      5.6115    155.1365
  1859.0000      0.0000    656.8749      5.8810    153.4581
  1859.2500      0.0000    622.8513      5.9545    151.1628
  1859.5000      0.0000    592.0408      5.7801    150.3508
  1859.7500      0.0000    574.8577      5.4771    150.7366
  1860.0000      0.0000    577.3826      5.2511    150.6260
  1860.2500      0.0000    597.9532      5.2580    149.1408
  1860.5000      0.0000    626.4804      5.4973    147.1057
  1860.7500      0.0000    648.9219      5.8105    145.9408
  1861.0000      0.0000    656.0554      5.9947    146.3195
  1861.2500      0.0000    650.0255      5.9470    147.6903
  1861.5000      0.0000    642.3873      5.7208    148.4720
  1861.7500      0.0000    644.3483      5.4552    146.9432
  1862.0000      0.0000    657.6445      5.2692    142.5443
  1862.2500      0.0000    674.5692      5.2228    136.3381
  1862.5000      0.0000    686.0459      5.3245    130.2099
  1862.7500      0.0000    688.6082      5.5174    125.8329
  1863.0000      0.0000    684.7158      5.6809    124.0257
  1863.2500      0.0000    678.8226      5.7166    124.3933
  1863.5000      0.0000    673.9879      5.6459    125.4564
  1863.7500      0.0000    671.0334      5.5887    125.4973
  1864.0000      0.0000    669.4551      5.6295    123.4848
  1864.2500      0.0000    668.4013      5.7242    119.4536
  1864.5000      0.0000    666.7761      5.7561    114.4257
  1864.7500      0.0000    662.7969      5.6770    110.0621
  1865.0000      0.0000    654.1674      5.5682    107.8919
  1865.2500      0.0000    639.9946      5.5506    108.3214
  1865.5000      0.0000    623.6597      5.6426    110.3166
  1865.7500      0.0000    612.9600      5.7307    112.3346
