~Version Information
VERS.                      2.0: CWLS Log ASCII Standard - VERSION 2.0
WRAP.                       NO: One line per depth step
~Well Information Block
STRT.FT                -7.0000: 
STOP.FT              2389.2500: 
STEP.FT                 0.2500: 
NULL.                -999.2500: 
COMP.          Pioneer Natural Resources: COMPANY
WELL.            Victory 12-14: WELL
FLD.           Purgatorie River: FIELD
LOC.           2434' FNL & 188' FWL------: LOCATION
PROV.                       CO: PROVINCE
CNTY.               Las Animas: COUNTRY
SRVC.          Patterson Wireline: SERVICE COMPANY
DATE.          Fri Apr 22 14:29:17 2005: LOG DATE
UWI.           05 071 08332 00: UNIQUE WELL ID
~Curve Information Block
DEPT.FT            0 000 00 00: Depth
CCL.                          : Casing Collar Locator
TT3.usec                      : CBL 3' Travel Time
AMP3.mV                       : CBL 3' Amplitude
GR.GAPI                       : Gamma Ray
~Parameter Information Block
~A  Depth       CCL         TT3         AMP3         GR     
# ...
  1098.5000      0.0000    796.3078      6.0398    135.0870
  1098.7500      0.0000    792.9154      5.9177    139.4555
  1099.0000      0.0000    790.7173      5.7176    143.1899
  1099.2500      0.0000    788.6338      5.5018    144.0065
  1099.5000      0.0000    786.4454      5.3010    141.0445
  1099.7500      0.0000    785.3104      5.1115    134.8641
  1100.0000      0.0000    787.0248      4.9228    126.9865
  1100.2500      0.0000    791.9260      4.7414    119.5660
  1100.5000      0.0000    797.6661      4.5884    114.7636
  1100.7500      0.0000    801.4030      4.4862    113.3846
  1101.0000      0.0000    803.1964      4.4542    113.9090
  1101.2500      0.0000    805.9056      4.5110    113.3734
  1101.5000      0.0000    811.5230      4.6705    109.7497
  1101.7500      0.0000    818.8297      4.9361    103.8113
  1102.0000      0.0000    824.9933      5.2989     98.8476
  1102.2500      0.0000    828.2236      5.7333     98.2333
  1102.5000      0.0000    828.4500      6.1884    102.8256
  1102.7500      0.0000    826.7001      6.5879    110.6173
  1103.0000      0.0000    824.5051      6.8492    118.9839
  1103.2500      0.0000    823.0972      6.9148    126.7895
  1103.5000      0.0000    822.3311      6.7727    133.8658
  1103.7500      0.0000    820.5122      6.4532    139.1830
  1104.0000      0.0000    815.9976      6.0189    141.0653
  1104.2500      0.0000    809.3054      5.5622    139.3399
  1104.5000      0.0000    803.1238      5.1939    135.9948
  1104.7500      0.0000    799.8519      5.0026    133.2681
  1105.0000      0.0000    799.8041      5.0103    131.8515
  1105.2500      0.0000    801.9696      5.1697    131.1322
  1105.5000      0.0000    805.3351      5.4037    130.4464
  1105.7500      0.0000    809.0287      5.6450    129.6930
  1106.0000      0.0000    812.2042      5.8476    128.9485
  1106.2500      0.0000    814.3657      5.9799    128.0616
  1106.5000      0.0000    815.5218      6.0179    127.0079
  1106.7500      0.0000    815.9509      5.9465    126.1949
  1107.0000      0.0000    816.0405      5.7663    125.8675
  1107.2500      0.0000    816.2994      5.5013    125.5448
  1107.5000      0.0000    817.2728      5.2033    124.7605
  1107.7500      0.0000    819.2854      4.9509    124.1307
  1108.0000      0.0000    822.1049      4.8338    124.9320
  1108.2500      0.0000    824.7375      4.9153    127.3410
  1108.5000      0.0000    825.8269      5.1892    129.6246
  1108.7500      0.0000    824.7097      5.5703    129.9017
  1109.0000      0.0000    822.1461      5.9363    128.7544
  1109.2500      0.0000    819.7988      6.1876    129.0046
  1109.5000      0.0000    819.0725      6.2795    132.2017
  1109.7500      0.0000    820.4594      6.2133    136.2420
  1110.0000      0.0000    823.5062      6.0249    137.4448
  1110.2500      0.0000    827.0386      5.7853    134.4429
  1110.5000      0.0000    829.7238      5.5952    129.0711
  1110.7500      0.0000    830.8445      5.5457    124.0145
  1111.0000      0.0000    830.2476      5.6647    120.5452
  1111.2500      0.0000    827.4224      5.8958    118.1167
  1111.5000      0.0000    821.6389      6.1297    115.0669
  1111.7500      0.0000    813.7445      6.2572    109.7050
  1112.0000      0.0000    806.4882      6.2136    101.6339
  1112.2500      0.0000    801.7990      6.0100     92.3775
  1112.5000      0.0000    799.2155      5.7427     84.5167
  1112.7500      0.0000    798.3299      5.5536     80.2462
  1113.0000      0.0000    800.4543      5.5392     80.4266
  1113.2500      0.0000    805.5774      5.6752     84.2264
  1113.5000      0.0000    809.6657      5.8310     89.4231
  1113.7500      0.0000    807.8981      5.8686     93.5732
  1114.0000      0.0000    800.3803      5.7423     95.3168
  1114.2500      0.0000    792.6431      5.5256     94.7377
  1114.5000      0.0000    789.8136      5.3553     92.8138
  1114.7500      0.0000    791.8149      5.3262     90.8797
  1115.0000      0.0000    795.6650      5.4133     90.4585
  1115.2500      0.0000    800.6827      5.4958     93.0577
  1115.5000      0.0000    808.4417      5.4701     99.4602
  1115.7500      0.0000    818.3203      5.3426    108.8476
  1116.0000      0.0000    826.0740      5.2134    118.7687
  1116.2500      0.0000    827.2232      5.1783    126.5018
  1116.5000      0.0000    820.4187      5.2457    130.6760
  1116.7500      0.0000    807.8434      5.3335    131.6315
  1117.0000      0.0000    794.0207      5.3376    130.7013
  1117.2500      0.0000    784.3884      5.2197    129.5407
  1117.5000      0.0000    783.1221      5.0498    129.3901
  1117.7500      0.0000    790.6521      4.9617    129.9701
  1118.0000      0.0000    803.3281      5.0438    129.3386
  1118.2500      0.0000    816.2537      5.2577    125.6552
  1118.5000      0.0000    826.7516      5.4667    119.0375
  1118.7500      0.0000    835.0214      5.5502    111.3313
  1119.0000      0.0000    842.0094      5.5020    104.3931
  1119.2500      0.0000    847.6038      5.4268     98.9129
  1119.5000      0.0000    850.8517      5.4352     94.5116
  1119.7500      0.0000    850.9490      5.5336     90.3811
  1120.0000      0.0000    847.7258      5.6192     85.7762
  1120.2500      0.0000    841.8245      5.5938     80.4063
  1120.5000      0.0000    834.7610      5.4726     74.7268
  1120.7500      0.0000    828.3906      5.3716     69.7127
  1121.0000      0.0000    823.9388      5.3876     66.0814
  1121.2500      0.0000    821.5276      5.4994     63.7270
  1121.5000      0.0000    820.5489      5.5932     61.8819
  1121.7500      0.0000    820.3029      5.5863     59.7652
  1122.0000      0.0000    820.3364      5.5136     57.1658
  1122.2500      0.0000    820.4443      5.4814     54.5130
  1122.5000      0.0000    820.5847      5.5452     52.3343
  1122.7500      0.0000    820.8508      5.6543     50.7932
  1123.0000      0.0000    821.4893      5.7194     50.0110
  1123.2500      0.0000    822.8232      5.7071     50.5267
  1123.5000      0.0000    824.9536      5.6583     52.8610
  1123.7500      0.0000    827.4777      5.6340     56.5767
  1124.0000      0.0000    829.7014      5.6573     60.1939
  1124.2500      0.0000    831.2345      5.6962     62.1607
  1124.5000      0.0000    832.1936      5.7000     61.7844
  1124.7500      0.0000    832.8229      5.6650     59.3876
  1125.0000      0.0000    833.2051      5.6542     56.0235
  1125.2500      0.0000    833.3272      5.7229     53.0442
  1125.5000      0.0000    833.3054      5.8342     51.5173
  1125.7500      0.0000    833.7272      5.8855     51.8188
  1126.0000      0.0000    835.6234      5.8284     53.7132
  1126.2500      0.0000    839.5099      5.7362     56.6158
  1126.5000      0.0000    844.3715      5.7343     59.7514
  1126.7500      0.0000    848.0266      5.8714     62.3611
  1127.0000      0.0000    848.7498      6.0673     64.0026
  1127.2500      0.0000    846.5422      6.1798     64.7289
  1127.5000      0.0000    842.8687      6.1159     64.8996
  1127.7500      0.0000    839.2477      5.8944     64.6606
  1128.0000      0.0000    836.2188      5.6298     63.7730
  1128.2500      0.0000    833.5392      5.4581     62.2367
  1128.5000      0.0000    830.6742      5.4490     60.8382
  1128.7500      0.0000    826.1237      5.5586     60.4445
  1129.0000      0.0000    816.6584      5.6683     60.7898
  1129.2500      0.0000    798.9077      5.6861     60.6240
  1129.5000      0.0000    773.4094      5.6124     59.2387
  1129.7500      0.0000    747.2789      5.4986     57.3191
  1130.0000      0.0000    731.2573      5.3755     56.1055
  1130.2500      0.0000    732.0016      5.2603     56.1637
  1130.5000      0.0000    746.4090      5.2057     57.2678
  1130.7500      0.0000    764.6036      5.2802     59.2490
  1131.0000      0.0000    778.9666      5.4951     62.6961
  1131.2500      2.0000    788.8619      5.7829     68.7914
  1131.5000      2.0000    797.0469      6.0476     78.4417
  1131.7500     -2.0000    804.8171      6.2279     91.3618
