~Version Information
VERS.                      2.0: CWLS Log ASCII Standard - VERSION 2.0
WRAP.                       NO: One line per depth step
~Well Information Block
STRT.FT                -4.7500: 
STOP.FT              2809.5000: 
STEP.FT                 0.2500: 
NULL.                -999.2500: 
COMP.          Pioneer Natural Resources: COMPANY
WELL.              Lynch 43-30: WELL
FLD.           Purgatorie River: FIELD
LOC.           1438' FSL & 429' FEL--: LOCATION
PROV.                       CO: PROVINCE
CNTY.               Las Animas: COUNTRY
SRVC.                         : SERVICE COMPANY
DATE.          Sat Oct 30 09:52:34 2004: LOG DATE
UWI.          005 071 08170   : UNIQUE WELL ID
~Curve Information Block
DEPT.FT            0 000 00 00: Depth
GR.GAPI                       : Gamma Ray
CCL.                          : Casing Collar Locator
TT3.usec                      : CBL 3' Travel Time
AMP3.mV                       : CBL 3' Amplitude
~Parameter Information Block
~A  Depth        GR         CCL         TT3         AMP3    
# ...
   564.7500     82.4339      0.0000    768.6237      8.9594
   565.0000     79.8790      0.0000    768.5708      8.8099
   565.2500     77.1347      0.0000    768.4928      8.6901
   565.5000     74.4360      0.0000    768.4039      8.6131
   565.7500     72.0825      0.0000    768.3302      8.5754
   566.0000     70.3502      0.0000    768.2859      8.5702
   566.2500     69.3803      0.0000    768.2674      8.5961
   566.5000     69.1005      0.0000    768.2640      8.6513
   566.7500     69.3115      0.0000    768.2695      8.7209
   567.0000     69.8815      0.0000    768.2759      8.7807
   567.2500     70.8544      0.0000    768.2634      8.8172
   567.5000     72.3418      0.0000    768.2083      8.8364
   567.7500     74.2915      0.0000    768.1044      8.8485
   568.0000     76.3380      0.0000    767.9738      8.8544
   568.2500     77.8332      0.0000    767.8520      8.8531
   568.5000     78.1217      0.0000    767.7652      8.8531
   568.7500     76.9562      0.0000    767.7161      8.8658
   569.0000     74.8176      0.0000    767.6910      8.8928
   569.2500     72.7597      0.0000    767.6795      8.9270
   569.5000     71.6872      0.0000    767.6882      8.9590
   569.7500     71.6474      0.0000    767.7336      8.9767
   570.0000     72.0217      0.0000    767.8209      8.9657
   570.2500     72.5884      0.0000    767.9236      8.9199
   570.5000     74.2127      0.0000    767.9830      8.8557
   570.7500     78.2014      0.0000    767.9479      8.8049
   571.0000     85.0039      0.0000    767.8306      8.7888
   571.2500     93.8317      0.0000    767.7198      8.7982
   571.5000    103.4601      0.0000    767.7205      8.8053
   571.7500    113.0215      0.0000    767.8742      8.7942
   572.0000    122.1062      0.0000    768.1331      8.7723
   572.2500    130.6201      0.0000    768.4002      8.7509
   572.5000    138.6255      0.0000    768.5942      8.7280
   572.7500    145.9495      0.0000    768.6876      8.6973
   573.0000    152.0459      0.0000    768.6959      8.6645
   573.2500    156.5959      0.0000    768.6354      8.6467
   573.5000    160.0164      0.0000    768.4996      8.6572
   573.7500    162.7919      0.0000    768.2787      8.6938
   574.0000    164.4488      0.0000    767.9935      8.7391
   574.2500    163.7908      0.0000    767.6993      8.7740
   574.5000    160.1607      0.0000    767.4547      8.7945
   574.7500    154.0374      0.0000    767.2908      8.8126
   575.0000    146.5110      0.0000    767.2076      8.8380
   575.2500    138.7704      0.0000    767.1901      8.8624
   575.5000    132.1090      0.0000    767.2226      8.8693
   575.7500    127.7468      0.0000    767.2905      8.8543
   576.0000    126.2499      0.0000    767.3768      8.8318
   576.2500    127.2593      0.0000    767.4647      8.8200
   576.5000    129.8632      0.0000    767.5460      8.8235
   576.7500    133.1126      0.0000    767.6187      8.8317
   577.0000    136.1438      0.0000    767.6706      8.8312
   577.2500    137.7677      0.0000    767.6823      8.8173
   577.5000    136.2488      0.0000    767.6602      8.7950
   577.7500    130.2684      0.0000    767.6523      8.7729
   578.0000    120.5413      0.0000    767.7074      8.7594
   578.2500    109.8650      0.0000    767.8188      8.7614
   578.5000    101.0729      0.0000    767.9302      8.7767
   578.7500     95.3888      0.0000    767.9908      8.7878
   579.0000     92.9600      0.0000    767.9838      8.7710
   579.2500     93.7744      0.0000    767.9095      8.7150
   579.5000     96.9582      0.0000    767.7745      8.6304
   579.7500     99.9514      0.0000    767.6015      8.5408
   580.0000     99.6786      0.0000    767.4258      8.4643
   580.2500     94.6091      0.0000    767.2714      8.4013
   580.5000     85.6631      0.0000    767.1421      8.3389
   580.7500     75.5909      0.0000    767.0373      8.2650
   581.0000     67.4158      0.0000    766.9702      8.1808
   581.2500     62.7966      0.0000    766.9643      8.1007
   581.5000     61.5098      0.0000    767.0306      8.0450
   581.7500     62.3439      0.0000    767.1478      8.0304
   582.0000     64.2499      0.0000    767.2688      8.0621
   582.2500     66.6282      0.0000    767.3519      8.1293
   582.5000     68.9303      0.0000    767.3850      8.2085
   582.7500     70.5186      0.0000    767.3791      8.2769
   583.0000     71.0815      0.0000    767.3439      8.3257
   583.2500     71.0053      0.0000    767.2761      8.3623
   583.5000     71.1943      0.0000    767.1766      8.4012
   583.7500     72.5227      0.0000    767.0725      8.4506
   584.0000     75.4213      0.0000    767.0127      8.5048
   584.2500     79.8283      0.0000    767.0333      8.5475
   584.5000     85.1580      0.0000    767.1301      8.5674
   584.7500     90.0920      0.0000    767.2692      8.5723
   585.0000     92.9330      0.0000    767.4197      8.5868
   585.2500     92.7348      0.0000    767.5683      8.6377
   585.5000     90.0671      0.0000    767.7096      8.7367
   585.7500     86.5017      0.0000    767.8427      8.8684
   586.0000     83.4691      0.0000    767.9761      8.9940
   586.2500     81.5224      0.0000    768.1182      9.0753
   586.5000     80.2439      0.0000    768.2548      9.1010
   586.7500     78.8346      0.0000    768.3530      9.0878
   587.0000     77.0327      0.0000    768.3879      9.0572
   587.2500     75.3716      0.0000    768.3554      9.0177
   587.5000     74.3524      0.0000    768.2625      8.9626
   587.7500     73.6913      0.0000    768.1167      8.8779
   588.0000     72.7990      0.0000    767.9262      8.7528
   588.2500     71.8297      0.0000    767.7049      8.5898
   588.5000     71.7701      0.0000    767.4719      8.4082
   588.7500     73.3740      0.0000    767.2460      8.2366
   589.0000     76.1930      0.0000    767.0411      8.0980
   589.2500     78.7270      0.0000    766.8651      7.9996
   589.5000     79.5223      0.0000    766.7216      7.9363
   589.7500     78.1197      0.0000    766.6157      7.9015
   590.0000     75.1421      0.0000    766.5538      7.8955
   590.2500     71.7627      0.0000    766.5377      7.9206
   590.5000     69.2384      0.0000    766.5596      7.9711
   590.7500     68.7924      0.0000    766.6100      8.0312
   591.0000     71.3782      0.0000    766.6881      8.0872
   591.2500     76.9985      0.0000    766.8027      8.1404
   591.5000     84.3969      0.0000    766.9642      8.2056
   591.7500     91.8415      0.0000    767.1763      8.2968
   592.0000     98.1389      0.0000    767.4253      8.4216
   592.2500    102.7841      0.0000    767.6780      8.5853
   592.5000    105.5982      0.0000    767.9012      8.7909
   592.7500    106.7258      0.0000    768.0865      9.0296
   593.0000    106.8752      0.0000    768.2495      9.2781
   593.2500    107.1837      0.0000    768.4004      9.5101
   593.5000    108.6886      0.0000    768.5217      9.7083
   593.7500    111.7641      0.0000    768.5764      9.8652
   594.0000    115.7812      0.0000    768.5396      9.9797
   594.2500    119.3405      0.0000    768.4319     10.0589
   594.5000    121.3352      0.0000    768.3173     10.1168
   594.7500    121.9443      0.0000    768.2523     10.1583
   595.0000    122.1638      0.0000    768.2287     10.1661
   595.2500    122.2380      0.0000    768.1756     10.1120
   595.5000    121.1976      0.0000    768.0216      9.9838
   595.7500    118.3419      0.0000    767.7491      9.7994
   596.0000    114.6510      0.0000    767.3996      9.5922
   596.2500    112.1371      0.0000    767.0481      9.3807
   596.5000    112.0068      0.0000    766.7726      9.1547
   596.7500    113.5641      0.0000    766.6146      8.8959
   597.0000    114.4404      0.0000    766.5472      8.6059
   597.2500    112.0062      0.0000    766.4924      8.3111
   597.5000    105.3418      0.0000    766.3865      8.0455
   597.7500     96.0398      0.0000    766.2325      7.8348
   598.0000     86.7661      0.0000    766.0923      7.6904
