~Version Information
VERS.                      2.0: CWLS Log ASCII Standard - VERSION 2.0
WRAP.                       NO: One line per depth step
~Well Information Block
STRT.FT                -7.0000: 
STOP.FT              1656.2500: 
STEP.FT                 0.2500: 
NULL.                -999.2500: 
COMP.          Pioneer Natural Resources: COMPANY
WELL.               Elmo 14-21: WELL
FLD.           Purgatorie River: FIELD
LOC.           623' FSL & 450' FWL--: LOCATION
PROV.                       CO: PROVINCE
CNTY.               Las Animas: COUNTRY
SRVC.          Patterson Wireline: SERVICE COMPANY
DATE.          Mon Jun 27 15:45:41 2005: LOG DATE
UWI.           05 071 08360 00: UNIQUE WELL ID
~Curve Information Block
DEPT.FT            0 000 00 00: Depth
CCL.                          : Casing Collar Locator
TT3.usec                      : CBL 3' Travel Time
AMP3.mV                       : CBL 3' Amplitude
GR.GAPI                       : Gamma Ray
~Parameter Information Block
~A  Depth       CCL         TT3         AMP3         GR     
# ...
   428.5000      0.0000    261.0243     83.8259    185.8749
   428.7500      0.0000    260.9628     83.8761    186.2100
   429.0000      0.0000    260.9347     83.9254    185.7140
   429.2500      0.0000    260.9422     84.0078    183.8850
   429.5000      0.0000    260.9796     84.1289    182.4277
   429.7500      0.0000    261.0349     84.2588    183.7499
   430.0000      0.0000    261.0938     84.3627    188.3996
   430.2500      0.0000    261.1482     84.4254    194.4754
   430.5000      0.0000    261.2057     84.4435    199.2988
   430.7500      0.0000    261.2925     84.4151    201.0304
   431.0000      0.0000    261.4375     84.3506    199.0403
   431.2500      0.0000    261.6352     84.2834    193.4880
   431.5000      0.0000    261.8176     84.2506    184.5922
   431.7500      0.0000    261.8861     84.2529    172.1598
   432.0000      0.0000    261.7974     84.2387    156.1083
   432.2500      0.0000    261.6071     84.1464    137.3064
   432.5000      0.0000    261.4122     83.9711    117.4074
   432.7500      0.0000    261.2678     83.7788     98.0522
   433.0000      0.0000    261.1686     83.6384     80.6050
   433.2500      0.0000    261.0894     83.5480     66.3018
   433.5000      0.0000    261.0184     83.4468     56.1323
   433.7500      0.0000    260.9579     83.2977     50.5043
   434.0000      0.0000    260.9097     83.1379     49.0803
   434.2500      0.0000    260.8689     83.0451     51.0873
   434.5000      0.0000    260.8271     83.0609     56.0403
   434.7500      0.0000    260.7813     83.1611     64.1168
   435.0000      0.0000    260.7357     83.2912     75.5894
   435.2500      0.0000    260.6992     83.4122     90.0846
   435.5000      0.0000    260.6807     83.5066    106.6264
   435.7500      0.0000    260.6862     83.5610    123.9482
   436.0000      0.0000    260.7183     83.5661    140.3920
   436.2500      0.0000    260.7762     83.5295    154.1075
   436.5000      0.0000    260.8571     83.4798    164.1545
   436.7500      0.0000    260.9541     83.4523    171.4174
   437.0000      0.0000    261.0544     83.4649    177.8849
   437.2500      0.0000    261.1409     83.4971    184.7927
   437.5000      0.0000    261.2001     83.4960    191.7669
   437.7500      0.0000    261.2262     83.4215    197.7756
   438.0000      0.0000    261.2202     83.2886    202.1643
   438.2500      0.0000    261.1847     83.1527    204.4094
   438.5000      0.0000    261.1236     83.0519    203.6422
   438.7500      0.0000    261.0442     82.9760    199.1563
   439.0000      0.0000    260.9574     82.8937    191.0934
   439.2500      0.0000    260.8756     82.8019    180.2917
   439.5000      0.0000    260.8081     82.7385    167.9581
   439.7500      0.0000    260.7597     82.7383    155.7358
   440.0000      0.0000    260.7316     82.7912    145.4700
   440.2500      0.0000    260.7218     82.8653    138.6126
   440.5000      0.0000    260.7250     82.9579    136.0517
   440.7500      0.0000    260.7359     83.0889    138.1752
   441.0000      0.0000    260.7550     83.2496    144.6467
   441.2500      0.0000    260.7891     83.3906    154.5275
   441.5000      0.0000    260.8444     83.4671    166.7174
   441.7500      0.0000    260.9193     83.4777    179.4814
   442.0000      0.0000    261.0030     83.4515    189.6408
   442.2500      0.0000    261.0761     83.4150    193.6807
   442.5000      0.0000    261.1144     83.3787    190.3739
   442.7500      0.0000    261.1001     83.3423    181.5602
   443.0000      0.0000    261.0371     83.2961    169.9777
   443.2500      0.0000    260.9545     83.2300    156.9250
   443.5000      0.0000    260.8914     83.1515    142.2268
   443.7500      0.0000    260.8752     83.0920    125.9319
   444.0000      0.0000    260.9077     83.0851    109.7003
   444.2500      0.0000    260.9647     83.1370     96.5363
   444.5000      0.0000    261.0092     83.2180     88.9624
   444.7500      0.0000    261.0134     83.2897     87.3892
   445.0000      0.0000    260.9773     83.3461     90.5483
   445.2500      0.0000    260.9292     83.4197     97.4013
   445.5000      0.0000    260.9061     83.5329    108.0591
   445.7500      0.0000    260.9297     83.6457    122.9228
   446.0000      0.0000    260.9961     83.6728    141.3465
   446.2500      0.0000    261.0808     83.5613    160.8909
   446.5000      0.0000    261.1507     83.3420    177.5829
   446.7500      0.0000    261.1775     83.1029    187.6277
   447.0000      0.0000    261.1496     82.9241    189.8041
   447.2500      0.0000    261.0753     82.8374    186.4211
   447.5000      0.0000    260.9767     82.8254    181.8346
   447.7500      0.0000    260.8809     82.8429    179.6807
   448.0000      0.0000    260.8130     82.8539    180.7538
   448.2500      0.0000    260.7905     82.8664    182.9244
   448.5000      0.0000    260.8179     82.9290    183.2001
   448.7500      0.0000    260.8856     83.0729    180.2885
   449.0000      0.0000    260.9759     83.2546    175.4657
   449.2500      0.0000    261.0707     83.3752    171.0851
   449.5000      0.0000    261.1516     83.3666    168.2581
   449.7500      0.0000    261.1972     83.2553    166.1187
   450.0000      0.0000    261.1899     83.1340    163.3985
   450.2500      0.0000    261.1288     83.0769    160.1189
   450.5000      0.0000    261.0356     83.0938    157.1677
   450.7500      0.0000    260.9441     83.1646    154.8217
   451.0000      0.0000    260.8820     83.2835    152.7634
   451.2500      0.0000    260.8623     83.4457    151.5253
   451.5000      0.0000    260.8871     83.6118    152.9456
   451.7500      0.0000    260.9513     83.7213    158.8206
   452.0000      0.0000    261.0394     83.7378    169.3969
   452.2500      0.0000    261.1246     83.6628    182.9542
   452.5000      0.0000    261.1780     83.5186    196.2127
   452.7500      0.0000    261.1843     83.3481    205.3072
   453.0000      0.0000    261.1515     83.2155    207.4561
   453.2500      0.0000    261.1035     83.1738    202.3912
   453.5000      0.0000    261.0645     83.2280    192.0141
   453.7500      0.0000    261.0486     83.3455    178.6167
   454.0000      0.0000    261.0603     83.4876    163.6272
   454.2500      0.0000    261.0938     83.6202    147.7488
   454.5000      0.0000    261.1324     83.7091    131.5286
   454.7500      0.0000    261.1537     83.7255    115.7201
   455.0000      0.0000    261.1406     83.6648    101.7712
   455.2500      0.0000    261.0910     83.5624     92.1091
   455.5000      0.0000    261.0207     83.4838     89.1190
   455.7500      0.0000    260.9577     83.4876     93.0356
   456.0000      0.0000    260.9297     83.5913    100.7009
   456.2500      0.0000    260.9506     83.7609    106.9186
   456.5000      0.0000    261.0123     83.9257    107.7455
   456.7500      0.0000    261.0867     84.0142    102.8530
   457.0000      0.0000    261.1371     83.9941     94.7558
   457.2500      0.0000    261.1367     83.8865     85.9465
   457.5000      0.0000    261.0830     83.7476     77.2148
   457.7500      0.0000    260.9998     83.6395     68.6821
   458.0000      0.0000    260.9240     83.5956     61.4549
   458.2500      0.0000    260.8943     83.5660     57.4199
   458.5000      0.0000    260.9543     83.3407     57.5482
   458.7500      0.0000    261.1743     82.4798     60.9420
   459.0000      0.0000    261.6641     80.3391     65.5593
   459.2500      0.0000    262.5294     76.3549     69.7478
   459.5000      0.0000    263.7659     70.5923     73.2069
   459.7500      0.0000    265.1860     64.1033     76.7178
   460.0000      0.0000    266.4923     58.5167     81.0562
   460.2500      0.0000    267.4576     55.0115     86.3098
   460.5000      0.0000    268.0429     53.6353     92.2566
   460.7500      0.0000    268.3542     53.5757     98.9329
   461.0000      2.0000    268.5183     53.9111    106.2526
   461.2500      2.0000    268.6002     54.0921    113.3523
   461.5000      0.0000    268.5922     54.0016    119.1495
   461.7500      0.0000    268.4352     53.8941    123.4889
