~Version Information
VERS.                      2.0: CWLS Log ASCII Standard - VERSION 2.0
WRAP.                       NO: One line per depth step
~Well Information Block
STRT.FT               480.0000: 
STOP.FT              1994.2000: 
STEP.FT                 0.1000: 
NULL.                -999.2500: 
COMP.          Evergreen Operating Corporation: COMPANY
WELL.          McCullough 34-32 Tr: WELL
FLD.           Purgatoire River: FIELD
LOC.           394' FSL & 2077' FEL: LOCATION
PROV.                 Colorado: PROVINCE
CNTY.               Las Animas: COUNTRY
SRVC.                Patterson: SERVICE COMPANY
DATE.          Mon Sep 20 07:30:00 2004: LOG DATE
UWI.           05 071 08157 00: UNIQUE WELL ID
~Curve Information Block
DEPT.FT            0 000 00 00: Depth
DCAL.in                       : CDL Caliper
RHOB.g/cc                     : CDL Bulk Density
RHOC.g/cc                     : CDL Density Correction
DPOR.pu                       : CDL Density Porosity
NPOR.pu                       : Neutron Porosity
GR.GAPI                       : Gamma Ray
~Parameter Information Block
~A  Depth       DCAL        RHOB        RHOC        DPOR        NPOR         GR     
# ...
   873.6000      8.1493      2.6584      0.0608     -0.5107     27.0501    134.3527
   873.7000      8.1493      2.6812      0.0933     -1.8880     27.4983    132.8561
   873.8000      8.1494      2.6816      0.0766     -1.9130     28.2741    134.1061
   873.9000      8.1494      2.6626      0.0599     -0.7643     28.2869    134.9111
   874.0000      8.1523      2.6374      0.0285      0.7648     27.6208    131.6115
   874.1000      8.1523      2.6148      0.0025      2.1312     26.7027    127.9206
   874.2000      8.1523      2.5905      0.0273      3.6089     25.9892    127.8002
   874.3000      8.1534      2.5574     -0.0362      5.6105     25.8406    131.7160
   874.4000      8.1534      2.5249     -0.0175      7.5828     25.8646    140.0284
   874.5000      8.1478      2.5061     -0.0020      8.7210     25.7085    149.8326
   874.6000      8.1478      2.5033      0.0190      8.8929     25.4835    152.3847
   874.7000      8.1478      2.5152     -0.0090      8.1698     25.0185    145.9253
   874.8000      8.1405      2.5414      0.0347      6.5808     24.1673    139.7464
   874.9000      8.1405      2.5682      0.0516      4.9592     23.1474    138.3017
   875.0000      8.1374      2.5755      0.0402      4.5137     21.9979    133.5001
   875.1000      8.1374      2.5628      0.0494      5.2860     20.8353    120.5453
   875.2000      8.1374      2.5485      0.0120      6.1520     19.6064    109.4328
   875.3000      8.1316      2.5480     -0.0096      6.1836     18.3355    108.2093
   875.4000      8.1316      2.5628      0.0030      5.2825     17.5781    109.6770
   875.5000      8.1147      2.5886      0.0140      3.7185     17.4724    105.6130
   875.6000      8.1147      2.6163      0.0616      2.0403     17.4303     98.5430
   875.7000      8.1147      2.6347      0.0466      0.9248     17.2623     91.5562
   875.8000      8.1002      2.6405      0.0426      0.5778     17.2473     83.7023
   875.9000      8.1002      2.6347      0.0372      0.9249     17.1802     75.5399
   876.0000      8.0958      2.6234      0.0349      1.6101     16.7801     69.7111
   876.1000      8.0958      2.6191      0.0385      1.8726     16.1647     69.4665
   876.2000      8.0958      2.6278      0.0433      1.3477     15.7926     72.8070
   876.3000      8.0943      2.6401      0.0481      0.5993     15.7803     74.6487
   876.4000      8.0943      2.6461      0.0387      0.2372     15.5358     75.1008
   876.5000      8.0927      2.6455      0.0462      0.2698     14.8942     77.6987
   876.6000      8.0927      2.6339      0.0349      0.9764     14.5855     83.3812
   876.7000      8.0927      2.6066      0.0503      2.6322     14.7684     88.5084
   876.8000      8.0924      2.5792     -0.0197      4.2881     15.0227     88.0770
   876.9000      8.0924      2.5778     -0.0216      4.3747     15.4286     83.2368
   877.0000      8.0933      2.5996      0.0368      3.0548     15.7503     78.8932
   877.1000      8.0933      2.6167      0.0468      2.0199     15.4856     76.5678
   877.2000      8.0933      2.6162      0.0711      2.0461     15.1169     76.3366
   877.3000      8.0926      2.6045      0.0642      2.7603     15.3347     77.1009
   877.4000      8.0926      2.5997      0.0357      3.0462     15.7853     78.3085
   877.5000      8.0879      2.6138      0.0545      2.1962     15.7171     80.4978
   877.6000      8.0879      2.6277      0.0943      1.3536     15.3810     80.4926
   877.7000      8.0879      2.6215      0.0529      1.7261     15.7107     77.1336
   877.8000      8.0847      2.6041      0.0560      2.7828     16.7622     75.0490
   877.9000      8.0847      2.5937      0.0362      3.4142     17.5926     74.4580
   878.0000      8.0897      2.5998      0.0206      3.0430     17.5361     72.1600
   878.1000      8.0897      2.6220      0.0578      1.6998     17.1907     70.6804
   878.2000      8.0897      2.6500      0.1060     -0.0030     17.5755     74.6191
   878.3000      8.0954      2.6688      0.0988     -1.1392     18.6691     80.2709
   878.4000      8.0954      2.6666      0.0805     -1.0048     19.8040     80.1212
   878.5000      8.0992      2.6448      0.0469      0.3135     20.5749     78.4084
   878.6000      8.0992      2.6134      0.0734      2.2153     20.7360     81.1996
   878.7000      8.0992      2.5804      0.0303      4.2200     20.2112     84.5850
   878.8000      8.1031      2.5586      0.0246      5.5407     19.5082     85.7569
   878.9000      8.1031      2.5554      0.0190      5.7351     19.0865     87.5723
   879.0000      8.1072      2.5552      0.0824      5.7446     18.5793     90.8308
   879.1000      8.1072      2.5444      0.0339      6.4021     17.9495     91.7853
   879.2000      8.1072      2.5372      0.0020      6.8357     17.9146     86.6762
   879.3000      8.1121      2.5501      0.0187      6.0557     18.3692     77.8212
   879.4000      8.1121      2.5720      0.0611      4.7259     18.6692     72.4074
   879.5000      8.1155      2.5863      0.0472      3.8633     18.7532     74.0025
   879.6000      8.1155      2.5909      0.0795      3.5800     18.7183     78.3032
   879.7000      8.1155      2.5827      0.0747      4.0794     18.7308     79.2504
   879.8000      8.1138      2.5644      0.0350      5.1905     18.9619     75.6617
   879.9000      8.1138      2.5512      0.0172      5.9869     19.1918     71.3635
   880.0000      8.1109      2.5447      0.0603      6.3809     19.1957     68.8036
   880.1000      8.1109      2.5350      0.0032      6.9705     18.9786     67.8101
   880.2000      8.1109      2.5225      0.0333      7.7250     18.8607     67.9065
   880.3000      8.1107      2.5116      0.0343      8.3850     18.9590     66.7314
   880.4000      8.1107      2.5046      0.0405      8.8147     18.8380     65.3399
   880.5000      8.1124      2.5032      0.0333      8.8991     18.7853     69.6904
   880.6000      8.1124      2.5106     -0.0071      8.4486     19.4719     79.3321
   880.7000      8.1124      2.5260      0.0416      7.5143     20.6103     87.5584
   880.8000      8.1127      2.5372      0.0607      6.8376     21.4691     91.7781
   880.9000      8.1127      2.5427      0.0201      6.5024     21.5597     93.5711
   881.0000      8.1109      2.5555      0.0459      5.7284     21.0492     93.5426
   881.1000      8.1109      2.5715      0.0789      4.7596     20.5946     91.0928
   881.2000      8.1109      2.5702      0.0986      4.8373     20.2764     88.6311
   881.3000      8.1075      2.5480      0.0506      6.1794     19.8786     90.0596
   881.4000      8.1075      2.5303      0.0041      7.2562     19.5066     94.3827
   881.5000      8.1061      2.5321      0.0711      7.1434     19.3114     97.1063
   881.6000      8.1061      2.5378      0.0852      6.8025     19.1725     95.9378
   881.7000      8.1061      2.5403      0.0261      6.6496     18.9725     92.3850
   881.8000      8.1084      2.5480      0.0621      6.1801     19.0101     88.3337
   881.9000      8.1084      2.5553      0.0571      5.7419     19.2288     85.9521
   882.0000      8.1126      2.5593      0.0312      5.4942     19.2210     87.2912
   882.1000      8.1126      2.5647      0.0550      5.1727     19.1488     91.0433
   882.2000      8.1126      2.5633      0.0371      5.2557     19.3310     91.7509
   882.3000      8.1153      2.5472      0.0573      6.2317     19.6615     86.2605
   882.4000      8.1153      2.5122      0.0714      8.3532     19.9594     79.0984
   882.5000      8.1153      2.4638      0.0332     11.2830     20.2112     76.3150
   882.6000      8.1153      2.4267     -0.0170     13.5346     20.4145     78.1446
   882.7000      8.1153      2.4201     -0.0175     13.9331     20.6185     81.2591
   882.8000      8.1164      2.4319      0.0490     13.2160     20.7146     85.3674
   882.9000      8.1164      2.4359      0.0469     12.9762     20.5210     93.9894
   883.0000      8.1179      2.4293      0.0292     13.3730     19.9987    106.8583
   883.1000      8.1179      2.4282      0.0235     13.4441     19.3179    116.3286
