~Version Information
 VERS.                                  2.0 : CWLS LAS VERSION
 WRAP.                                   NO : WRAPING MODE
 SWARE .                 MController 2.5.0J : SOFTWARE VERSION
~Well Information
 WELL.                           Ywam 7-23V : WELL
 COMP.                       Petrogulf Corp : COMPANY
 FLD.                      Purgatorie River : FIELD
 LOC.                 NE/SW Sec 7 T33S R67W : LOCATION
 DATE.                          10/29-30/04 : DATE(S) LOGGED
 SRVC.       Blanco Geological Services LLC : SERVICE COMPANY
 STAT.                                   CO : STATE
 CNTY.                           Las Animas : COUNTY
 CTRY.                                  USA : COUNTRY
 API.                       05-071-08227-00 : API NUMBER
 STRT.FT                             634.00 : START DEPTH
 STOP.FT                            2611.00 : STOP DEPTH
 STEP.FT                               1.00 : DEPTH INCREMENT
 NULL.                                -9999 : NULL VALUE
~Curve information
 DEPTH.FT                                   :
 ROP.MIN/FT                                 :
 GAS.UNITS                                  :
~ASCII Log data
# ...
      1434.0         0.17         15.1 
      1435.0         0.17         14.3 
      1436.0         0.20         15.1 
      1437.0         0.27         16.7 
      1438.0         0.17         16.7 
      1439.0         0.20         16.7 
      1440.0         0.28         18.3 
      1441.0         0.27         17.8 
      1442.0         0.20         18.2 
      1443.0         0.27         17.4 
      1444.0         0.23         16.8 
      1445.0         0.25         16.0 
      1446.0         0.23         14.6 
      1447.0         0.23         15.4 
      1448.0         0.20         15.4 
      1449.0         0.20         16.3 
      1450.0         0.20         16.3 
      1451.0         0.23         16.0 
      1452.0         0.23         15.8 
      1453.0         0.23         15.0 
      1454.0         0.27         15.1 
      1455.0         0.33         15.2 
      1456.0         0.30         14.7 
      1457.0         0.33         15.1 
      1458.0         0.32         15.5 
      1459.0         0.33         14.8 
      1460.0         0.27         14.5 
      1461.0         0.33         14.5 
      1462.0         0.33         14.6 
      1463.0         0.17         14.1 
      1464.0         0.20         14.1 
      1465.0         0.23         13.9 
      1466.0         0.20         14.3 
      1467.0         0.27         15.1 
      1468.0         0.23         19.8 
      1469.0         0.30         15.2 
      1470.0         0.32         15.6 
      1471.0         0.27         15.9 
      1472.0         0.27         14.7 
      1473.0         0.33         14.9 
      1474.0         0.27         15.2 
      1475.0         0.50         16.2 
      1476.0         0.53         14.6 
      1477.0         0.28         15.9 
      1478.0         0.27         15.6 
      1479.0         0.70         16.0 
      1480.0         0.40         16.1 
      1481.0         0.33         15.6 
      1482.0         0.27         15.4 
      1483.0         0.27         15.3 
      1484.0         0.53         16.8 
      1485.0         0.47         16.3 
      1486.0         0.22         16.0 
      1487.0         0.30         16.8 
      1488.0         0.33         15.7 
      1489.0         0.33         16.0 
      1490.0         0.23         15.5 
      1491.0         0.20         15.5 
      1492.0         0.23         15.2 
      1493.0         0.20         15.4 
      1494.0         0.33         15.4 
      1495.0         0.27         16.4 
      1496.0         0.27         16.3 
      1497.0         0.20         16.5 
      1498.0         0.28         22.8 
      1499.0         0.27         22.0 
      1500.0         0.27         20.7 
      1501.0         0.38         20.2 
      1502.0         0.27         19.7 
      1503.0         0.23         20.0 
      1504.0         0.23         17.8 
      1505.0         0.30         17.8 
      1506.0         0.23         15.1 
      1507.0         0.30         17.4 
      1508.0         0.23         17.1 
      1509.0         0.27         16.7 
      1510.0         0.37         16.6 
      1511.0         0.37         18.5 
      1512.0         0.27         16.3 
      1513.0         0.32         15.8 
      1514.0         0.20         15.8 
      1515.0         0.23         17.4 
      1516.0         0.20         17.6 
      1517.0         0.27         16.8 
      1518.0         0.23         17.6 
      1519.0         0.27         18.8 
      1520.0         0.23         16.5 
      1521.0         0.23         16.5 
      1522.0         0.20         17.1 
      1523.0         0.20         16.9 
      1524.0         0.20         17.6 
      1525.0         0.23         17.7 
      1526.0         0.20         17.7 
      1527.0         0.22         17.2 
      1528.0         0.27         24.4 
      1529.0         0.27         23.8 
      1530.0         0.30         23.3 
      1531.0         0.20         20.4 
      1532.0         0.30         18.0 
      1533.0         0.27         17.9 
      1534.0         0.43         17.9 
      1535.0         0.33         17.2 
      1536.0         0.30         18.1 
      1537.0         0.43         19.4 
      1538.0         0.48         19.5 
      1539.0         0.33         18.5 
      1540.0         0.27         18.0 
      1541.0         0.37         18.7 
      1542.0         0.33         18.2 
      1543.0         0.37         16.9 
      1544.0         0.37         18.1 
      1545.0         0.43         17.4 
      1546.0         0.37         18.5 
      1547.0         0.38         18.7 
      1548.0         0.33         16.8 
      1549.0         0.37         17.7 
      1550.0         0.27         18.6 
      1551.0         0.23         18.7 
      1552.0         0.20         18.1 
      1553.0         0.30         16.9 
      1554.0         0.30         16.7 
      1555.0         0.27         17.9 
      1556.0         0.23         17.8 
      1557.0         0.30         17.4 
      1558.0         0.23         26.9 
      1559.0         0.32         26.6 
      1560.0         0.27         25.1 
      1561.0         0.23         24.2 
      1562.0         0.17         22.6 
      1563.0         0.30         21.5 
      1564.0         0.43         20.4 
      1565.0         0.40         19.3 
      1566.0         0.27         18.8 
      1567.0         0.20         18.4 
      1568.0         0.20         17.6 
      1569.0         0.17         17.2 
      1570.0         0.23         17.9 
      1571.0         0.22         17.6 
      1572.0         0.23         17.7 
      1573.0         0.20         18.0 
      1574.0         0.20         18.0 
      1575.0         0.13         18.9 
      1576.0         0.33         19.0 
      1577.0         0.33         18.1 
      1578.0         0.30         18.0 
      1579.0         0.23         18.1 
      1580.0         0.13         18.1 
      1581.0         0.20         18.5 
      1582.0         0.17         19.4 
      1583.0         0.17         18.5 
      1584.0         0.17         18.5 
      1585.0         0.20         19.4 
      1586.0         0.22         18.5 
      1587.0         0.17         28.1 
      1588.0         0.17         24.3 
      1589.0         0.20         24.2 
      1590.0         0.27         19.0 
      1591.0         0.33         18.6 
      1592.0         0.30         20.2 
      1593.0         0.27         19.0 
      1594.0         0.27         19.5 
      1595.0         0.38         19.7 
      1596.0         0.47         18.7 
      1597.0         0.27         17.5 
      1598.0         0.23         18.6 
      1599.0         0.27         18.7 
      1600.0         0.23         18.5 
      1601.0         0.23         18.4 
      1602.0         0.20         17.9 
      1603.0         0.27         18.4 
      1604.0         0.20         18.2 
      1605.0         0.23         17.2 
      1606.0         0.20         18.1 
      1607.0         0.20         18.0 
      1608.0         0.22         18.0 
      1609.0         0.23         18.0 
      1610.0         0.20         18.7 
      1611.0         0.20         18.3 
      1612.0         0.30         18.6 
      1613.0         0.40         19.2 
      1614.0         0.27         17.9 
      1615.0         0.20         18.4 
      1616.0         0.20         18.5 
      1617.0         0.20         29.6 
      1618.0         0.20         27.4 
      1619.0         0.23         25.2 
      1620.0         0.27         21.9 
      1621.0         0.43         19.4 
      1622.0         0.43         19.6 
      1623.0         0.47         19.7 
      1624.0         0.33         19.1 
      1625.0         0.33         18.2 
      1626.0         0.30         18.7 
      1627.0         0.32         19.7 
      1628.0         0.30         19.2 
      1629.0         0.30         19.1 
      1630.0         0.33         18.5 
      1631.0         0.23         18.6 
      1632.0         0.20         18.7 
      1633.0         0.23         18.6 
