~Version Information
VERS.                      2.0: CWLS Log ASCII Standard - VERSION 2.0
WRAP.                       NO: One line per depth step
~Well Information Block
STRT.FT               492.8000: 
STOP.FT              1992.0000: 
STEP.FT                 0.1000: 
NULL.                -999.2500: 
COMP.          Petrogulf Corporation: COMPANY
WELL.               Furu 6-23R: WELL
FLD.           Purgatoire River: FIELD
LOC.           2211' FSL & 1780' FWL--: LOCATION
CNTY.               Las Animas: COUNTY
SRVC.                Patterson: SERVICE COMPANY
DATE.          Thu Jun 22 14:21:35 2006: LOG DATE
UWI.           05 071 08266 00: UNIQUE WELL ID
STAT.                 Colorado: STATE
~Curve Information Block
DEPT.FT            0 000 00 00: Depth
DCAL.in                       : CDL Caliper
RHOB.g/cc                     : CDL Bulk Density
RHOC.g/cc                     : CDL Density Correction
DPOR.pu                       : CDL Density Porosity
NPOR.pu                       : Neutron Porosity
GR.GAPI                       : Gamma Ray
~Parameter Information Block
~A  Depth       DCAL        RHOB        RHOC        DPOR        NPOR         GR     
# ...
   886.4000      7.8009      2.5572      0.1133      5.6217     28.9688    127.4956
   886.5000      7.7974      2.5676      0.1236      4.9946     28.9210    123.1529
   886.6000      7.7974      2.5739      0.1625      4.6150     29.1761    128.4648
   886.7000      7.7974      2.5612      0.1214      5.3804     29.4593    136.6262
   886.8000      7.7951      2.5352      0.0580      6.9558     29.4756    138.3071
   886.9000      7.7951      2.5247      0.0265      7.5922     29.3676    136.7971
   887.0000      7.7960      2.5467      0.0604      6.2584     29.2472    140.9053
   887.1000      7.7960      2.5819      0.1127      4.1302     29.0585    148.7871
   887.2000      7.7960      2.5938      0.1222      3.4035     28.7115    152.1696
   887.3000      7.7974      2.5678      0.1350      4.9798     28.2220    149.7949
   887.4000      7.7974      2.5326      0.0162      7.1171     27.7261    146.3364
   887.5000      7.7979      2.5208      0.0590      7.8302     27.2767    143.2609
   887.6000      7.7979      2.5171      0.0801      8.0544     26.9571    139.1309
   887.7000      7.7979      2.5069      0.0225      8.6732     26.8119    134.3488
   887.8000      7.7969      2.5146      0.0276      8.2080     26.6077    129.2874
   887.9000      7.7969      2.5502      0.0697      6.0457     26.4723    127.0729
   888.0000      7.7959      2.5921      0.0684      3.5120     26.7344    129.5751
   888.1000      7.7959      2.6212      0.1151      1.7464     27.0700    132.9616
   888.2000      7.7959      2.6306      0.1141      1.1772     27.1477    133.7723
   888.3000      7.7960      2.6204      0.0991      1.7929     27.1410    131.8883
   888.4000      7.7960      2.6022      0.0790      2.8979     27.1465    128.1418
   888.5000      7.7968      2.6000      0.0317      3.0319     27.2735    123.0936
   888.6000      7.7968      2.6262      0.0879      1.4416     27.6798    116.6929
   888.7000      7.7968      2.6606      0.1248     -0.6416     28.1735    108.3774
   888.8000      7.7990      2.6754      0.1822     -1.5418     28.5107    103.1440
   888.9000      7.7990      2.6689      0.1091     -1.1456     28.6018    106.7011
   889.0000      7.7999      2.6622      0.1101     -0.7400     28.3992    113.5420
   889.1000      7.7999      2.6629      0.0695     -0.7789     28.0365    115.6868
   889.2000      7.7999      2.6553      0.1185     -0.3227     27.8559    114.5396
   889.3000      7.7988      2.6285      0.0522      1.3030     27.8495    113.1057
   889.4000      7.7988      2.5966      0.0199      3.2351     27.5926    109.0955
   889.5000      7.7980      2.5826      0.0341      4.0874     26.9974    103.7114
   889.6000      7.7980      2.5908      0.0703      3.5894     26.5754     98.1802
   889.7000      7.7980      2.6036      0.0703      2.8142     26.6522     90.1357
   889.8000      7.7962      2.6091      0.0376      2.4802     26.8466     82.2978
   889.9000      7.7962      2.6186      0.0494      1.9021     26.9634     77.1945
   890.0000      7.7956      2.6365      0.0781      0.8210     27.1328     74.5251
   890.1000      7.7956      2.6433      0.1209      0.4081     27.0423     76.1925
   890.2000      7.7956      2.6296      0.0791      1.2367     26.6054     80.7660
   890.3000      7.7963      2.6165      0.0298      2.0298     26.1898     84.5943
   890.4000      7.7963      2.6185      0.0846      1.9103     25.8791     85.9080
   890.5000      7.7966      2.6136      0.1287      2.2069     25.5605     83.6239
   890.6000      7.7966      2.5839      0.0763      4.0038     25.0826     79.0793
   890.7000      7.7966      2.5461      0.0655      6.2977     24.5469     76.2379
   890.8000      7.7951      2.5293      0.0068      7.3130     24.1999     77.7845
   890.9000      7.7951      2.5467      0.0384      6.2627     24.1024     82.7358
   891.0000      7.7916      2.5810      0.0804      4.1799     24.2699     86.1376
   891.1000      7.7916      2.6022      0.0831      2.8977     24.5125     85.9382
   891.2000      7.7916      2.6038      0.0591      2.8024     24.7156     85.6323
   891.3000      7.7882      2.6054      0.1010      2.7010     24.7667     85.5577
   891.4000      7.7882      2.6156      0.1027      2.0825     24.5321     83.4369
   891.5000      7.7847      2.6228      0.1397      1.6504     24.1988     81.4329
   891.6000      7.7847      2.6194      0.0929      1.8522     23.8627     82.6753
   891.7000      7.7847      2.6115      0.1052      2.3322     23.6928     86.1655
   891.8000      7.7825      2.5997      0.1050      3.0495     23.8974     88.0619
   891.9000      7.7825      2.5816      0.0787      4.1443     24.1897     86.6018
   892.0000      7.7849      2.5719      0.0148      4.7334     24.3814     83.5060
   892.1000      7.7849      2.5856      0.0291      3.9006     24.6243     81.0019
   892.2000      7.7849      2.6081      0.0696      2.5380     24.7793     79.4334
   892.3000      7.7869      2.6162      0.0847      2.0504     24.5212     76.9713
   892.4000      7.7869      2.6108      0.0749      2.3784     23.8905     72.4153
   892.5000      7.7845      2.6045      0.0523      2.7590     23.2636     69.2669
   892.6000      7.7845      2.5921      0.0938      3.5067     22.9625     71.3651
   892.7000      7.7845      2.5694      0.0133      4.8856     23.0250     75.4078
   892.8000      7.7820      2.5550      0.0396      5.7576     23.0871     75.9435
   892.9000      7.7820      2.5568      0.0723      5.6490     22.7677     73.7565
   893.0000      7.7819      2.5679      0.0323      4.9742     22.1725     71.5988
   893.1000      7.7819      2.5828      0.0817      4.0710     21.5800     67.3327
   893.2000      7.7819      2.5906      0.0900      3.6008     21.0832     61.0941
   893.3000      7.7841      2.5941      0.0417      3.3866     20.7139     58.5775
   893.4000      7.7841      2.6053      0.0882      2.7110     20.4665     61.5628
   893.5000      7.7879      2.6114      0.1085      2.3391     20.4375     64.3797
   893.6000      7.7879      2.6038      0.0376      2.8001     20.6729     63.0067
   893.7000      7.7879      2.5944      0.1056      3.3684     21.0082     59.9872
   893.8000      7.7922      2.5856      0.0568      3.9041     21.3023     58.3901
   893.9000      7.7922      2.5722      0.0586      4.7177     21.4859     58.7274
   894.0000      7.7930      2.5566      0.0307      5.6601     21.4958     60.3025
   894.1000      7.7930      2.5467      0.0544      6.2595     21.2476     62.4000
   894.2000      7.7930      2.5473      0.0210      6.2267     20.6778     64.7612
   894.3000      7.7923      2.5547      0.0472      5.7774     20.1211     67.7064
   894.4000      7.7923      2.5593      0.0550      5.4981     20.0196     67.8736
   894.5000      7.7927      2.5586      0.0910      5.5396     20.1663     62.8029
   894.6000      7.7927      2.5608      0.0506      5.4058     19.9958     56.9618
   894.7000      7.7927      2.5727      0.1037      4.6842     19.5041     54.7542
   894.8000      7.7925      2.5845      0.0779      3.9712     19.1094     55.3717
   894.9000      7.7925      2.5847      0.0922      3.9564     18.8719     57.0869
   895.0000      7.7913      2.5726      0.0726      4.6915     18.7405     58.4169
   895.1000      7.7913      2.5570      0.0568      5.6380     18.9444     58.0224
   895.2000      7.7913      2.5520      0.0403      5.9393     19.3486     58.0576
   895.3000      7.7904      2.5616      0.1076      5.3574     19.5502     59.2227
   895.4000      7.7904      2.5786      0.0537      4.3285     19.4756     58.9011
   895.5000      7.7900      2.5908      0.1515      3.5869     19.1981     57.5860
   895.6000      7.7900      2.5869      0.0916      3.8217     18.9704     59.0421
   895.7000      7.7900      2.5800      0.0610      4.2439     19.0554     63.6180
   895.8000      7.7894      2.5834      0.0906      4.0374     19.3156     67.9084
   895.9000      7.7894      2.5848      0.1256      3.9524     19.7016     68.2634
