~Version Information
VERS.                      2.0: CWLS Log ASCII Standard - VERSION 2.0
WRAP.                       NO: One line per depth step
~Well Information Block
STRT.FT               -12.5000: 
STOP.FT              2487.7500: 
STEP.FT                 0.2500: 
NULL.                -999.2500: 
COMP.          Petrogulf Corporation: COMPANY
WELL.             Royal 8-33 V: WELL
FLD.           Purgatorie River: FIELD
LOC.           2365' FSL & 2336' FEL--: LOCATION
CNTY.               Las Animas: COUNTY
SRVC.                         : SERVICE COMPANY
DATE.          Sat Jan 17 11:43:49 2004: LOG DATE
UWI.           05 071 07934 00: UNIQUE WELL ID
STAT.                       CO: STATE
~Curve Information Block
DEPT.FT            0 000 00 00: Depth
CCL.                          : Casing Collar Locator
TT3.usec                      : CBL 3' Travel Time
AMP3.mV                       : CBL 3' Amplitude
GR.GAPI                       : Gamma Ray
~Parameter Information Block
~A  Depth       CCL         TT3         AMP3         GR     
# ...
  2466.5000      0.0000    667.5326      3.9663     78.1218
  2466.7500      0.0000    674.9855      4.0572     77.4955
  2467.0000      0.0000    686.6968      4.2746     75.7115
  2467.2500      0.0000    700.9947      4.5569     73.4728
  2467.5000      0.0000    712.9630      4.8605     72.0127
  2467.7500      0.0000    718.3806      5.1515     72.6631
  2468.0000      0.0000    718.1304      5.3855     75.8700
  2468.2500      0.0000    717.1766      5.5032     80.6118
  2468.5000      0.0000    718.6356      5.4583     85.1296
  2468.7500      0.0000    720.4097      5.2589     88.3021
  2469.0000      0.0000    718.9638      4.9832     90.1796
  2469.2500      0.0000    715.3168      4.7480     91.3796
  2469.5000      0.0000    715.0645      4.6437     92.3350
  2469.7500      0.0000    721.8939      4.6710     93.1325
  2470.0000      0.0000    732.5126      4.7302     93.7760
  2470.2500      0.0000    739.0454      4.6861     94.3678
  2470.5000      0.0000    735.9445      4.4643     94.8858
  2470.7500      0.0000    723.9460      4.0974     94.8980
  2471.0000      0.0000    708.0479      3.6906     93.7407
  2471.2500      0.0000    693.1874      3.3510     90.9922
  2471.5000      0.0000    682.1396      3.1382     86.8360
  2471.7500      0.0000    675.9575      3.0601     82.2317
  2472.0000      0.0000    674.6066      3.0974     78.6901
  2472.2500      0.0000    676.8400      3.2251     77.5050
  2472.5000      0.0000    680.4167      3.4100     78.8632
  2472.7500      0.0000    683.5174      3.5990     81.5022
  2473.0000      0.0000    686.4247      3.7312     83.1648
  2473.2500      0.0000    691.7032      3.7775     81.6459
  2473.5000      0.0000    702.4845      3.7706     75.8043
  2473.7500      0.0000    720.0764      3.7854     65.8364
  2474.0000      0.0000    741.8976      3.8724     52.8294
  2474.2500      0.0000    760.8170      3.9989     38.3900
  2474.5000      0.0000    767.4845      4.0642     24.5752
  2474.7500      0.0000    756.0723      3.9911     13.4527
  2475.0000      0.0000    730.1570      3.8097      6.1342
  2475.2500      0.0000    702.8462      3.6477      2.2826
  2475.5000      0.0000    687.9904      3.6337      0.6829
  2475.7500      0.0000    689.0302      3.8032      0.1623
  2476.0000      0.0000    698.0280      4.0851      0.0301
  2476.2500      0.0000    705.9890      4.3544      0.0041
  2476.5000      0.0000    710.7454      4.5043      0.0000
  2476.7500      0.0000    714.1546      4.5028   -999.2500
  2477.0000      0.0000    716.4937      4.3968   -999.2500
  2477.2500      0.0000    716.5533      4.2602   -999.2500
  2477.5000      0.0000    714.5853      4.1501   -999.2500
  2477.7500      0.0000    712.2662      4.1108   -999.2500
  2478.0000      0.0000    710.7039      4.1717   -999.2500
  2478.2500      0.0000    709.5762      4.3084   -999.2500
  2478.5000      0.0000    705.8540      4.4272   -999.2500
  2478.7500      0.0000    690.3584      4.4043   -999.2500
  2479.0000     -4.0000    646.8312      4.1386   -999.2500
  2479.2500      0.0000    560.3631      3.5931   -999.2500
  2479.5000      0.0000    432.4195      2.8301   -999.2500
  2479.7500      0.0000    287.5361      2.0077   -999.2500
  2480.0000      0.0000    160.4240      1.3075   -999.2500
  2480.2500      0.0000     73.5985      0.8357   -999.2500
  2480.5000      0.0000     27.3563      0.5852   -999.2500
  2480.7500      0.0000      8.1478      0.4809   -999.2500
  2481.0000      0.0000      1.9268      0.4469   -999.2500
  2481.2500      0.0000      0.3557      0.4382   -999.2500
  2481.5000      0.0000      0.0473      0.4365   -999.2500
  2481.7500      0.0000   -999.2500   -999.2500   -999.2500
  2482.0000      0.0000   -999.2500   -999.2500   -999.2500
  2482.2500      0.0000   -999.2500   -999.2500   -999.2500
  2482.5000      0.0000   -999.2500   -999.2500   -999.2500
  2482.7500      0.0000   -999.2500   -999.2500   -999.2500
  2483.0000      0.0000   -999.2500   -999.2500   -999.2500
  2483.2500      0.0000   -999.2500   -999.2500   -999.2500
  2483.5000      0.0000   -999.2500   -999.2500   -999.2500
  2483.7500      0.0000   -999.2500   -999.2500   -999.2500
  2484.0000      0.0000   -999.2500   -999.2500   -999.2500
  2484.2500      0.0000   -999.2500   -999.2500   -999.2500
  2484.5000      0.0000   -999.2500   -999.2500   -999.2500
  2484.7500      0.0000   -999.2500   -999.2500   -999.2500
  2485.0000      0.0000   -999.2500   -999.2500   -999.2500
  2485.2500      0.0000   -999.2500   -999.2500   -999.2500
  2485.5000      0.0000   -999.2500   -999.2500   -999.2500
  2485.7500      0.0000   -999.2500   -999.2500   -999.2500
  2486.0000      0.0000   -999.2500   -999.2500   -999.2500
  2486.2500      0.0000   -999.2500   -999.2500   -999.2500
  2486.5000      0.0000   -999.2500   -999.2500   -999.2500
  2486.7500      0.0000   -999.2500   -999.2500   -999.2500
  2487.0000      0.0000   -999.2500   -999.2500   -999.2500
  2487.2500      0.0000   -999.2500   -999.2500   -999.2500
  2487.5000   -999.2500   -999.2500   -999.2500   -999.2500
  2487.7500   -999.2500   -999.2500   -999.2500   -999.2500
