~Version Information
VERS.                      2.0: CWLS Log ASCII Standard - VERSION 2.0
WRAP.                       NO: One line per depth step
~Well Information Block
STRT.FT                -8.2500: 
STOP.FT              2356.2500: 
STEP.FT                 0.2500: 
NULL.                -999.2500: 
COMP.          Petrogulf Corporation: COMPANY
WELL.             State 16-12V: WELL
FLD.           Purgatorie River: FIELD
LOC.           1992' FNL & 1237' FWL: LOCATION
PROV.                 Colorado: PROVINCE
CNTY.               Las Animas: COUNTRY
SRVC.                Patterson: SERVICE COMPANY
DATE.          Thu Aug 11 14:44:06 2005: LOG DATE
UWI.                          : UNIQUE WELL ID
~Curve Information Block
DEPT.FT            0 000 00 00: Depth
GR.GAPI                       : Gamma Ray
CCL.                          : Casing Collar Locator
TT3.usec                      : CBL 3' Travel Time
AMP3.mV                       : CBL 3' Amplitude
~Parameter Information Block
~A  Depth        GR         CCL         TT3         AMP3    
    -8.2500   -999.2500   -999.2500   -999.2500   -999.2500
    -8.0000   -999.2500   -999.2500   -999.2500   -999.2500
    -7.7500   -999.2500   -999.2500   -999.2500   -999.2500
    -7.5000   -999.2500   -999.2500   -999.2500   -999.2500
    -7.2500   -999.2500   -999.2500   -999.2500   -999.2500
    -7.0000   -999.2500   -999.2500   -999.2500   -999.2500
    -6.7500   -999.2500   -999.2500   -999.2500   -999.2500
    -6.5000   -999.2500   -999.2500   -999.2500   -999.2500
    -6.2500   -999.2500   -999.2500   -999.2500   -999.2500
    -6.0000   -999.2500   -999.2500   1200.0000      0.6883
    -5.7500   -999.2500   -999.2500   1200.0000      0.6919
    -5.5000   -999.2500   -999.2500   1200.0000      0.7006
    -5.2500   -999.2500   -999.2500   1200.0000      0.7136
    -5.0000   -999.2500   -999.2500   1200.0000      0.7192
    -4.7500   -999.2500   -999.2500   1200.0000      0.7175
    -4.5000   -999.2500   -999.2500   1200.0000      0.7248
    -4.2500   -999.2500   -999.2500   1200.0000      0.7465
    -4.0000   -999.2500   -999.2500   1200.0000      0.7680
    -3.7500   -999.2500   -999.2500   1200.0000      0.7779
    -3.5000   -999.2500   -999.2500   1200.0000      0.7768
    -3.2500   -999.2500   -999.2500   1200.0000      0.7686
    -3.0000   -999.2500   -999.2500   1200.0000      0.7626
    -2.7500   -999.2500   -999.2500   1200.0000      0.7667
    -2.5000   -999.2500   -999.2500   1200.0000      0.7744
    -2.2500   -999.2500   -999.2500   1200.0000      0.7795
    -2.0000   -999.2500   -999.2500   1200.0000      0.7903
    -1.7500   -999.2500   -999.2500   1200.0000      0.8062
    -1.5000   -999.2500   -999.2500   1200.0000      0.8094
    -1.2500   -999.2500   -999.2500   1200.0000      0.7891
    -1.0000   -999.2500   -999.2500   1200.0000      0.7503
    -0.7500   -999.2500   -999.2500   1200.0000      0.7089
    -0.5000   -999.2500   -999.2500   1200.0000      0.6881
    -0.2500   -999.2500   -999.2500   1200.0000      0.7123
     0.0000   -999.2500      0.0000   1200.0000      0.7353
     0.2500   -999.2500      0.0000   1200.0000      0.7417
     0.5000   -999.2500      0.0000   1200.0000      0.7366
     0.7500   -999.2500      0.0000   1200.0000      0.7315
     1.0000   -999.2500      0.0000   1200.0000      0.7320
     1.2500   -999.2500      0.0000   1200.0000      0.7354
     1.5000   -999.2500      0.0000   1200.0000      0.7302
     1.7500   -999.2500      0.0000   1200.0000      0.7090
     2.0000   -999.2500      0.0000   1200.0000      0.6800
     2.2500   -999.2500      0.0000   1200.0000      0.6565
     2.5000   -999.2500      0.0000   1200.0000      0.6442
     2.7500   -999.2500      0.0000   1200.0000      0.6429
     3.0000   -999.2500      0.0000   1200.0000      0.6556
     3.2500   -999.2500      0.0000   1200.0000      0.6863
     3.5000   -999.2500      0.0000   1200.0000      0.7268
     3.7500   -999.2500      0.0000   1200.0000      0.7604
     4.0000   -999.2500      0.0000   1200.0000      0.7769
     4.2500   -999.2500      0.0000   1200.0000      0.7732
     4.5000   -999.2500      0.0000   1200.0000      0.7560
     4.7500     80.1901      0.0000   1200.0000      0.7439
     5.0000     83.5935      0.0000   1200.0000      0.7434
     5.2500     86.4222      0.0000   1200.0000      0.7376
     5.5000     87.9396      0.0000   1200.0000      0.7149
     5.7500     88.2063      0.0000   1200.0000      0.6884
     6.0000     87.9024      0.0000   1200.0000      0.6812
     6.2500     87.8539      0.0000   1200.0000      0.7040
     6.5000     88.5510      0.0000   1200.0000      0.7422
     6.7500     89.7229      0.0000   1200.0000      0.7654
     7.0000     90.3621      0.0000   1200.0000      0.7572
     7.2500     89.5160      0.0000   1200.0000      0.7226
     7.5000     87.0768      0.0000   1200.0000      0.6804
     7.7500     83.6069      0.0000   1200.0000      0.6573
     8.0000     79.7421      0.0000   1200.0000      0.6698
     8.2500     76.0516      0.0000   1200.0000      0.7114
     8.5000     72.9796      0.0000   1200.0000      0.7583
     8.7500     70.4638      0.0000   1200.0000      0.7861
     9.0000     67.9264      0.0000   1200.0000      0.7869
     9.2500     65.0076      0.0000   1200.0000      0.7646
     9.5000     62.1120      0.0000   1200.0000      0.7236
     9.7500     59.9945      0.0000   1200.0000      0.6770
    10.0000     58.9649      0.0000   1199.9696      0.6426
    10.2500     58.5976      0.0000   1199.6160      0.6251
    10.5000     58.0663      0.0000   1196.9387      0.6408
    10.7500     56.8014      0.0000   1183.8080      0.8045
    11.0000     54.9443      0.0000   1140.8989      1.6465
    11.2500     53.1248      0.0000   1043.8533      4.9573
    11.5000     51.8385      0.0000    883.3873     14.1931
    11.7500     51.1072      0.0000    680.4815     31.4947
    12.0000     50.6548      0.0000    485.0636     52.7857
    12.2500     50.1640      0.0000    348.5753     69.8645
    12.5000     49.2771      0.0000    283.0458     78.7818
    12.7500     47.5479      2.0000    262.1770     81.8128
    13.0000     44.7857      0.0000    257.8582     82.4753
    13.2500     41.5718      0.0000    257.2918     82.5690
    13.5000     39.0877      0.0000    257.2437     82.6111
    13.7500     38.1852      0.0000    257.2221     82.6954
    14.0000     38.7856      0.0000    257.1778     82.8182
    14.2500     40.2003      0.0000    257.1388     82.9452
    14.5000     41.7468      0.0000    257.1384     83.0297
    14.7500     43.0358      0.0000    257.1786     83.0417
    15.0000     43.8892      0.0000    257.2250     83.0024
    15.2500     44.2200      0.0000    257.2379     82.9642
    15.5000     44.2030      0.0000    257.2112     82.9581
    15.7500     44.4896      0.0000    257.1809     82.9780
    16.0000     45.8108      0.0000    257.1824     83.0039
    16.2500     48.1285      0.0000    257.2104     83.0219
    16.5000     50.4941      0.0000    257.2427     83.0194
    16.7500     51.9633      0.0000    257.2715     82.9895
    17.0000     52.4182      0.0000    257.2961     82.9451
    17.2500     52.3992      0.0000    257.3076     82.9183
    17.5000     52.4159      0.0000    257.2956     82.9372
    17.7500     52.5136      0.0000    257.2628     82.9813
    18.0000     52.4003      0.0000    257.2214     82.9804
    18.2500     51.9649      0.0000    257.1748     82.9005
    18.5000     51.5418      0.0000    257.1211     82.8004
    18.7500     51.5392      0.0000    257.0775     82.7707
    19.0000     51.9655      0.0000    257.0668     82.8269
    19.2500     52.4913      0.0000    257.0854     82.8952
    19.5000     52.7899      0.0000    257.1129     82.9153
    19.7500     52.6528      0.0000    257.1354     82.9111
    20.0000     51.8931      0.0000    257.1461     82.9409
    20.2500     50.3725      0.0000    257.1397     83.0134
    20.5000     48.3248      0.0000    257.1157     83.0523
    20.7500     46.6134      0.0000    257.0834     82.9704
    21.0000     46.2781      0.0000    257.0607     82.8067
    21.2500     47.6038      0.0000    257.0630     82.7008
    21.5000     49.8014      0.0000    257.0913     82.7053
    21.7500     51.7685      0.0000    257.1300     82.7478
    22.0000     53.1491      0.0000    257.1536     82.7643
    22.2500     54.5671      0.0000    257.1500     82.7565
    22.5000     56.7195      0.0000    257.1374     82.7413
    22.7500     59.2822      0.0000    257.1434     82.7101
    23.0000     61.1058      0.0000    257.1728     82.6502
    23.2500     61.6555      0.0000    257.2044     82.5991
    23.5000     61.6846      0.0000    257.2155     82.6171
    23.7500     62.1525      0.0000    257.2045     82.6823
    24.0000     63.1526      0.0000    257.1891     82.7019
    24.2500     64.4203      0.0000    257.1795     82.6600
    24.5000     66.1653      0.0000    257.1697     82.6486
    24.7500     68.5860      0.0000    257.1617     82.7108
    25.0000     70.9355      0.0000    257.1728     82.7670
