~Version Information
VERS.                      2.0: CWLS Log ASCII Standard - VERSION 2.0
WRAP.                       NO: One line per depth step
~Well Information Block
STRT.FT                -5.7500: 
STOP.FT              1965.7500: 
STEP.FT                 0.2500: 
NULL.                -999.2500: 
COMP.          Pioneer Natural Resources: COMPANY
WELL.          Easton 12-30 Tr: WELL
FLD.           Purgatorie River: FIELD
LOC.           549' FWL & 2416' FNL--: LOCATION
PROV.                       CO: PROVINCE
CNTY.               Las Animas: COUNTRY
SRVC.          Patterson Wireline: SERVICE COMPANY
DATE.          Mon Jun 06 16:13:03 2005: LOG DATE
UWI.           05 071 08379 00: UNIQUE WELL ID
~Curve Information Block
DEPT.FT            0 000 00 00: Depth
CCL.                          : Casing Collar Locator
TT3.usec                      : CBL 3' Travel Time
AMP3.mV                       : CBL 3' Amplitude
GR.GAPI                       : Gamma Ray
~Parameter Information Block
~A  Depth       CCL         TT3         AMP3         GR     
# ...
  1669.2500      0.0000    739.2289      5.7047    111.8418
  1669.5000      0.0000    756.1146      5.8143    119.4115
  1669.7500      0.0000    762.1880      5.8759    129.3721
  1670.0000      0.0000    753.1548      5.8923    140.0964
  1670.2500      0.0000    730.4316      5.8767    149.8797
  1670.5000      0.0000    700.4075      5.8377    156.3494
  1670.7500      0.0000    671.7426      5.7687    157.8879
  1671.0000      0.0000    652.1199      5.6590    155.4432
  1671.2500      0.0000    645.5872      5.5176    151.9686
  1671.5000      0.0000    652.2116      5.3806    149.8810
  1671.7500      0.0000    669.7761      5.2936    149.5059
  1672.0000      0.0000    694.5442      5.2946    149.7762
  1672.2500      0.0000    720.8707      5.4124    149.4676
  1672.5000      0.0000    742.6099      5.6514    147.3423
  1672.7500      0.0000    756.2104      5.9689    142.0324
  1673.0000      0.0000    762.2428      6.2873    132.8242
  1673.2500      0.0000    764.3931      6.5392    120.6651
  1673.5000      0.0000    767.4240      6.7004    108.1141
  1673.7500      0.0000    774.6656      6.7838     98.1462
  1674.0000      0.0000    785.7307      6.8092     92.7202
  1674.2500      0.0000    796.7437      6.7806     92.0960
  1674.5000      0.0000    803.4980      6.6860     95.2595
  1674.7500      0.0000    804.4301      6.5167    100.9217
  1675.0000      0.0000    800.4392      6.2892    108.2162
  1675.2500      0.0000    792.1065      6.0462    116.6647
  1675.5000      0.0000    777.7165      5.8305    125.7932
  1675.7500      0.0000    755.1391      5.6601    134.7817
  1676.0000      0.0000    725.9113      5.5344    142.3054
  1676.2500      0.0000    696.9102      5.4528    146.6210
  1676.5000      0.0000    677.9510      5.4156    146.0353
  1676.7500      0.0000    677.0045      5.4069    139.8359
  1677.0000      0.0000    694.4731      5.3937    129.1874
  1677.2500      0.0000    719.9068      5.3526    116.9735
  1677.5000      0.0000    736.2894      5.2974    106.3232
  1677.7500      0.0000    730.6972      5.2714     99.0207
  1678.0000      0.0000    702.2931      5.3058     94.9547
  1678.2500      0.0000    661.3439      5.3881     92.5141
  1678.5000      0.0000    622.1628      5.4754     89.3840
  1678.7500      0.0000    596.8021      5.5334     83.8364
  1679.0000      0.0000    592.4937      5.5616     76.2811
  1679.2500      0.0000    611.0743      5.5835     69.5872
  1679.5000      0.0000    648.2853      5.6162     67.1276
  1679.7500      0.0000    694.2995      5.6503     70.2154
  1680.0000      0.0000    737.6354      5.6558     77.6628
  1680.2500      0.0000    770.2047      5.6087     87.3660
  1680.5000      0.0000    788.9740      5.5103     97.4718
  1680.7500      0.0000    794.0472      5.3828    106.3242
  1681.0000      0.0000    786.7508      5.2512    112.5203
  1681.2500      0.0000    769.6577      5.1306    115.5477
  1681.5000      0.0000    747.2062      5.0267    116.0784
  1681.7500      0.0000    724.7773      4.9441    115.6015
  1682.0000      0.0000    705.8188      4.8826    115.8332
  1682.2500      0.0000    689.1637      4.8297    117.9248
  1682.5000      0.0000    669.8719      4.7713    121.3457
  1682.7500      0.0000    644.4656      4.7102    123.3992
  1683.0000      0.0000    615.3248      4.6709    120.8002
  1683.2500      0.0000    588.3434      4.6906    112.5239
  1683.5000      0.0000    566.3713      4.8070    100.8095
  1683.7500      0.0000    546.5293      5.0364     89.0654
  1684.0000      0.0000    524.1421      5.3336     79.2180
  1684.2500      0.0000    498.3355      5.5806     71.3485
  1684.5000      0.0000    473.3242      5.6624     65.2667
  1684.7500      0.0000    454.6559      5.5719     61.6401
  1685.0000      0.0000    446.1421      5.4165     61.4422
  1685.2500      0.0000    451.3510      5.3116     64.7696
  1685.5000      0.0000    474.2739      5.2824     70.5118
  1685.7500      0.0000    512.9311      5.2784     77.0156
  1686.0000      0.0000    552.7134      5.2550     82.9955
  1686.2500      0.0000    572.1254      5.2184     88.1879
  1686.5000      0.0000    559.4175      5.2023     93.3653
  1686.7500      0.0000    523.1247      5.2208     99.4205
  1687.0000      0.0000    485.4741      5.2600    106.1718
  1687.2500      0.0000    466.6600      5.3070    111.9819
  1687.5000      0.0000    474.4471      5.3583    114.5470
  1687.7500      0.0000    503.1727      5.3957    112.5849
  1688.0000      0.0000    538.4097      5.3820    107.5268
  1688.2500      0.0000    565.0124      5.2911    103.2516
  1688.5000      0.0000    576.2181      5.1316    103.1070
  1688.7500      0.0000    577.4871      4.9345    107.0626
  1689.0000      0.0000    581.0265      4.7314    112.4168
  1689.2500      0.0000    595.2921      4.5516    116.9298
  1689.5000      0.0000    618.8832      4.4173    120.3078
  1689.7500      0.0000    643.9019      4.3358    122.8840
  1690.0000      0.0000    664.4657      4.3068    124.1271
  1690.2500      0.0000    681.1924      4.3319    123.0026
  1690.5000      0.0000    698.0635      4.4153    119.3465
  1690.7500      0.0000    716.5110      4.5668    114.4547
  1691.0000      0.0000    733.2303      4.8058    110.3132
  1691.2500      0.0000    743.2946      5.1424    108.2665
  1691.5000      0.0000    744.6141      5.5484    108.2934
  1691.7500      2.0000    739.1967      5.9562    109.5138
  1692.0000      2.0000    731.2808      6.2967    111.4411
  1692.2500      0.0000    725.7078      6.5617    114.5676
  1692.5000      0.0000    726.4083      6.8355    119.5155
  1692.7500      0.0000    733.2549      7.2118    125.9465
  1693.0000      0.0000    741.5320      7.6421    132.8286
  1693.2500      0.0000    747.6137      7.9373    139.4418
  1693.5000      0.0000    753.3812      7.9903    145.4043
  1693.7500      0.0000    761.7949      7.9192    149.9660
  1694.0000      0.0000    770.3375      7.9053    152.2851
  1694.2500      0.0000    772.5009      7.9694    152.6008
  1694.5000      0.0000    765.2621      7.9929    152.4030
  1694.7500      0.0000    753.0178      7.8862    152.9182
  1695.0000      0.0000    743.7736      7.6575    153.4748
  1695.2500      0.0000    741.5452      7.3644    151.6663
  1695.5000      0.0000    742.5528      7.0631    145.2985
  1695.7500      0.0000    739.4861      6.7947    134.2100
  1696.0000      0.0000    729.2718      6.5832    120.4615
  1696.2500      0.0000    715.8688      6.4317    107.1573
  1696.5000      0.0000    705.8889      6.3263     96.9749
  1696.7500      0.0000    702.8606      6.2435     91.1808
  1697.0000      0.0000    705.5960      6.1572     89.4571
  1697.2500      0.0000    710.5827      6.0557     90.5127
  1697.5000      0.0000    715.0616      5.9555     93.1921
  1697.7500      0.0000    718.3760      5.8866     97.1874
  1698.0000      0.0000    721.4649      5.8560    102.5633
  1698.2500      0.0000    725.3293      5.8370    108.7921
  1698.5000      0.0000    728.8217      5.8021    114.7348
  1698.7500      0.0000    726.8146      5.7556    119.4931
  1699.0000      0.0000    711.7845      5.7279    122.8479
  1699.2500      0.0000    680.0864      5.7367    125.0127
  1699.5000      0.0000    637.2972      5.7566    126.4405
  1699.7500      0.0000    595.4111      5.7391    127.8451
  1700.0000      0.0000    564.1169      5.6669    129.9553
  1700.2500      0.0000    546.3475      5.5747    132.8550
  1700.5000      0.0000    542.0357      5.5116    135.5161
  1700.7500      0.0000    552.8328      5.4956    136.2530
  1701.0000      0.0000    580.1247      5.5145    133.8631
  1701.2500      0.0000    619.1429      5.5477    128.2072
  1701.5000      0.0000    658.6458      5.5731    119.8393
  1701.7500      0.0000    688.2485      5.5765    109.6799
  1702.0000      0.0000    704.7055      5.5724     99.1774
  1702.2500      0.0000    710.7693      5.6089     90.1941
  1702.5000      0.0000    710.0529      5.7228     84.3434
