~Version Information
VERS.                      2.0: CWLS Log ASCII Standard - VERSION 2.0
WRAP.                       NO: One line per depth step
~Well Information Block
STRT.FT               450.0000: 
STOP.FT              2753.5000: 
STEP.FT                 0.1000: 
NULL.                -999.2500: 
COMP.          Pioneer Natural Resources: COMPANY
WELL.             Squeal 11-26: WELL
FLD.           Purgatoire River: FIELD
LOC.           1186' FNL & 152' FWL: LOCATION
PROV.                 Colorado: PROVINCE
CNTY.               Las Animas: COUNTRY
SRVC.                Patterson: SERVICE COMPANY
DATE.          Wed Jun 15 09:11:52 2005: LOG DATE
UWI.           05 071 08404 00: UNIQUE WELL ID
~Curve Information Block
DEPT.FT            0 000 00 00: Depth
DCAL.in                       : CDL Caliper
RHOB.g/cc                     : CDL Bulk Density
RHOC.g/cc                     : CDL Density Correction
DPOR.pu                       : CDL Density Porosity
GR.GAPI                       : Gamma Ray
NPOR.pu                       : Neutron Porosity
~Parameter Information Block
~A  Depth       DCAL        RHOB        RHOC        DPOR         GR         NPOR    
# ...
   757.2000      8.1570      2.5410      0.0472      6.6074    152.1052     27.9660
   757.3000      8.1070      2.5532      0.0663      5.8658    155.0056     28.3588
   757.4000      8.1070      2.5525      0.0417      5.9069    153.6941     28.8887
   757.5000      8.1165      2.5451      0.0544      6.3589    151.3135     29.2260
   757.6000      8.1165      2.5319      0.0164      7.1559    150.9243     29.3574
   757.7000      8.1165      2.5238     -0.0104      7.6491    153.3545     29.3291
   757.8000      8.1181      2.5395      0.0444      6.6981    158.1842     29.2652
   757.9000      8.1181      2.5763      0.0749      4.4697    162.9702     29.1489
   758.0000      8.1010      2.6087      0.0793      2.5002    164.3598     28.9485
   758.1000      8.1010      2.6213      0.0964      1.7372    161.5942     28.7977
   758.2000      8.1010      2.6257      0.0396      1.4718    158.5779     28.7365
   758.3000      8.1050      2.6374      0.1033      0.7650    157.0431     28.7753
   758.4000      8.1050      2.6548      0.1048     -0.2938    153.0865     28.8399
   758.5000      8.0948      2.6692      0.0890     -1.1621    147.3740     28.7161
   758.6000      8.0948      2.6753      0.0676     -1.5316    143.3648     28.3689
   758.7000      8.0948      2.6725      0.0891     -1.3665    141.3764     27.9319
   758.8000      8.0415      2.6604      0.0539     -0.6305    138.7710     27.5912
   758.9000      8.0415      2.6303      0.0973      1.1938    135.2982     27.4670
   759.0000      8.0250      2.5707      0.0471      4.8034    135.7993     27.4080
   759.1000      8.0250      2.4846     -0.0073     10.0230    139.5731     27.3961
   759.2000      8.0250      2.3800     -0.0478     16.3609    140.2331     27.5911
   759.3000      8.0363      2.2697     -0.1329     23.0464    139.4376     27.8321
   759.4000      8.0363      2.1802     -0.1275     28.4749    141.4607     27.8953
   759.5000      8.0153      2.1219     -0.0332     32.0039    143.3717     27.9054
   759.6000      8.0153      2.0800      0.0089     34.5464    143.6305     27.6636
   759.7000      8.0153      2.0472      0.0308     36.5363    144.9873     27.1025
   759.8000      8.0380      2.0313      0.1492     37.4991    147.7129     26.6384
   759.9000      8.0380      2.0465      0.2179     36.5736    150.6781     26.3189
   760.0000      8.0796      2.1221      0.3269     31.9961    154.2860     25.9565
   760.1000      8.0796      2.2704      0.5328     23.0046    158.7702     25.6072
   760.2000      8.0796      2.4488      0.5419     12.1921    162.3195     25.4464
   760.3000      8.1903      2.5871      0.6365      3.8138    162.0494     25.5039
   760.4000      8.1903      2.6592      0.5017     -0.5606    156.7494     25.7526
   760.5000      8.3482      2.7020      0.5748     -3.1520    150.2167     26.1205
   760.6000      8.3482      2.7399      0.6307     -5.4473    148.0816     26.4057
   760.7000      8.3482      2.7514      0.6560     -6.1466    150.7695     26.4505
   760.8000      8.1540      2.7123      0.5062     -3.7752    154.3276     26.3891
   760.9000      8.1540      2.6327      0.3116      1.0499    157.5510     26.5584
   761.0000      8.0194      2.5390      0.1862      6.7280    160.7822     26.9495
   761.1000      8.0194      2.4470      0.0663     12.3045    162.8952     27.1520
   761.2000      8.0194      2.3724      0.0024     16.8269    163.2685     27.1351
   761.3000      8.0503      2.3337     -0.0135     19.1712    161.0704     27.1216
   761.4000      8.0503      2.3335      0.0188     19.1817    156.4129     27.1961
   761.5000      8.1156      2.3547      0.0223     17.8982    151.9031     27.4222
   761.6000      8.1156      2.3751      0.0883     16.6616    149.3320     27.5761
   761.7000      8.1156      2.3874      0.0815     15.9164    146.9812     27.5336
   761.8000      8.0459      2.4095      0.1074     14.5784    141.4199     27.6963
   761.9000      8.0459      2.4631      0.1133     11.3254    135.1907     28.1941
   762.0000      8.0308      2.5357      0.2389      6.9257    136.8995     28.7989
   762.1000      8.0308      2.5878      0.1857      3.7709    146.0659     29.3293
   762.2000      8.0308      2.6011      0.1445      2.9637    153.5041     29.3860
   762.3000      8.0670      2.5952      0.0556      3.3203    156.4295     28.8081
   762.4000      8.0670      2.6059      0.0900      2.6725    156.0612     28.0902
   762.5000      8.0600      2.6401      0.1790      0.6007    151.4647     27.6217
   762.6000      8.0600      2.6627      0.2465     -0.7703    145.5911     27.4704
   762.7000      8.0600      2.6521      0.1439     -0.1278    141.4080     27.6354
   762.8000      8.0459      2.6374      0.0880      0.7660    135.9362     27.8499
   762.9000      8.0459      2.6480      0.0367      0.1212    131.5347     27.9014
   763.0000      8.0615      2.6668      0.0970     -1.0170    134.3392     27.9725
   763.1000      8.0615      2.6642      0.0627     -0.8636    141.4626     28.0516
   763.2000      8.0615      2.6420      0.0911      0.4870    144.7747     28.0187
   763.3000      8.0915      2.6213      0.1027      1.7411    143.6253     27.9928
   763.4000      8.0915      2.6247      0.0413      1.5359    142.7701     27.8960
   763.5000      8.0589      2.6532      0.0874     -0.1939    144.2496     27.5417
   763.6000      8.0589      2.6802      0.1692     -1.8278    146.8596     27.1785
   763.7000      8.0589      2.6728      0.1531     -1.3812    149.5164     27.0482
   763.8000      8.0619      2.6275      0.0832      1.3637    153.3345     26.9677
   763.9000      8.0619      2.5804      0.0138      4.2197    156.9357     26.7206
   764.0000      8.0699      2.5553      0.0465      5.7366    155.8999     26.3452
   764.1000      8.0699      2.5315      0.0238      7.1797    148.5726     26.0857
   764.2000      8.0699      2.4987     -0.0049      9.1687    138.9054     26.1084
   764.3000      8.0640      2.4828      0.0143     10.1307    131.5180     26.2841
   764.4000      8.0640      2.4951      0.0001      9.3853    128.6711     26.4136
   764.5000      8.0645      2.5078      0.0541      8.6189    130.8322     26.3852
   764.6000      8.0645      2.4988     -0.0013      9.1612    136.6949     26.1493
   764.7000      8.0645      2.4891      0.0160      9.7541    143.1618     25.9708
   764.8000      8.0713      2.4966      0.0838      9.2958    145.1038     26.1873
   764.9000      8.0713      2.5164      0.0492      8.0996    143.5611     26.7329
   765.0000      8.0728      2.5401      0.1126      6.6581    147.0126     27.2809
   765.1000      8.0728      2.5547      0.0883      5.7743    156.5816     27.7029
   765.2000      8.0728      2.5464      0.0736      6.2771    165.2038     28.1215
   765.3000      8.0970      2.5127      0.0738      8.3212    165.2205     28.4232
   765.4000      8.0970      2.4598      0.0964     11.5283    154.5521     28.2374
   765.5000      8.1215      2.3924      0.0574     15.6101    143.1925     27.5935
   765.6000      8.1215      2.3043      0.1125     20.9485    142.4117     26.9094
   765.7000      8.1215      2.1838      0.0544     28.2524    149.1787     26.1637
   765.8000      8.1220      2.0461     -0.1140     36.5975    153.0451     25.3026
   765.9000      8.1220      1.9280     -0.0775     43.7596    153.3772     24.6478
   766.0000      8.1280      1.8533     -0.0801     48.2824    155.7747     24.4029
   766.1000      8.1280      1.8497     -0.0575     48.5015    159.7528     24.3242
   766.2000      8.1280      1.9504      0.0555     42.4004    162.8793     24.0121
   766.3000      8.1153      2.1553      0.2120     29.9790    162.2126     23.5920
   766.4000      8.1153      2.4115      0.5204     14.4543    156.6729     23.4444
   766.5000      8.2160      2.6334      0.6945      1.0036    152.0871     23.7120
   766.6000      8.2160      2.7516      0.7815     -6.1603    152.8208     24.5238
   766.7000      8.2160      2.7649      0.5869     -6.9647    156.6122     25.9308
