~Version Information
VERS.                      2.0: CWLS Log ASCII Standard - VERSION 2.0
WRAP.                       NO: One line per depth step
~Well Information Block
STRT.FT               -19.5000: 
STOP.FT              2456.0000: 
STEP.FT                 0.2500: 
NULL.                -999.2500: 
COMP.          Petrogulf Corporation: COMPANY
WELL.           Montoya 12-44V: WELL
FLD.           Purgatorie River: FIELD
LOC.           698' FSL & 599' FEL: LOCATION
CNTY.               Las Animas: COUNTY
SRVC.                         : SERVICE COMPANY
DATE.          Mon Sep 13 13:44:10 2004: LOG DATE
UWI.           05-071-08094-00: UNIQUE WELL ID
STAT.                 Colorado: STATE
~Curve Information Block
DEPT.FT            0 000 00 00: Depth
TT3.usec                      : CBL 3' Travel Time
AMP3.mV                       : CBL 3' Amplitude
GR.GAPI                       : Gamma Ray
CCL.                          : Casing Collar Locator
~Parameter Information Block
~A  Depth       TT3         AMP3         GR         CCL     
# ...
   315.5000    290.5113     85.2708    108.2429      0.0000
   315.7500    290.5113     85.2920    108.4280      0.0000
   316.0000    290.6340     85.3601    108.7118      0.0000
   316.2500    290.7093     85.4673    109.2053      0.0000
   316.5000    290.6340     85.5668    110.7068      0.0000
   316.7500    290.5114     85.6186    113.7796      0.0000
   317.0000    290.5124     85.6203    117.9137      0.0000
   317.2500    290.6416     85.6004    122.0904      0.0000
   317.5000    290.7452     85.5986    125.9302      0.0000
   317.7500    290.7423     85.6373    129.5774      0.0000
   318.0000    290.7168     85.6989    132.6207      0.0000
   318.2500    290.7423     85.7386    134.0977      0.0000
   318.5000    290.7452     85.7301    133.7380      0.0000
   318.7500    290.6416     85.6914    132.4912      0.0000
   319.0000    290.5125     85.6485    131.5748      0.0000
   319.2500    290.5125     85.5941    131.5435      0.0000
   319.5000    290.6415     85.5063    132.4747      0.0000
   319.7500    290.7443     85.3845    134.3385      0.0000
   320.0000    290.7357     85.2527    136.6456      0.0000
   320.2500    290.6884     85.1501    138.1304      0.0000
   320.5000    290.6689     85.1104    137.4570      0.0000
   320.7500    290.6406     85.1397    134.2814      0.0000
   321.0000    290.5811     85.2265    129.4351      0.0000
   321.2500    290.5305     85.3539    124.4014      0.0000
   321.5000    290.5143     85.4903    120.8568      0.0000
   321.7500    290.5379     85.5973    120.1065      0.0000
   322.0000    290.6161     85.6627    122.3138      0.0000
   322.2500    290.7424     85.6923    126.3804      0.0000
   322.5000    290.8470     85.6645    130.7178      0.0000
   322.7500    290.8535     85.5598    134.0497      0.0000
   323.0000    290.7782     85.4331    135.6653      0.0000
   323.2500    290.7244     85.3667    135.4395      0.0000
   323.5000    290.7433     85.3710    133.8986      0.0000
   323.7500    290.7453     85.4025    132.0468      0.0000
   324.0000    290.6416     85.4412    130.8717      0.0000
   324.2500    290.5124     85.5010    130.9259      0.0000
   324.5000    290.5114     85.5911    132.2166      0.0000
   324.7500    290.6340     85.6988    134.2343      0.0000
   325.0000    290.7092     85.7934    136.2415      0.0000
   325.2500    290.6330     85.8415    137.8914      0.0000
   325.5000    290.5038     85.8438    139.5850      0.0000
   325.7500    290.4763     85.8438    142.0024      0.0000
   326.0000    290.5322     85.8900    145.3578      0.0000
   326.2500    290.5313     85.9953    149.2494      0.0000
   326.5000    290.4688     86.1348    152.9813      0.0000
   326.7500    290.4688     86.2738    155.6388      0.0000
   327.0000    290.5312     86.3773    155.9586      0.0000
   327.2500    290.5312     86.4127    152.7706      0.0000
   327.5000    290.4688     86.3842    146.1002      0.0000
   327.7500    290.4678     86.3405    137.6529      0.0000
   328.0000    290.5237     86.3291    129.6518      0.0000
   328.2500    290.4962     86.3609    123.0648      0.0000
   328.5000    290.3670     86.4266    117.4412      0.0000
   328.7500    290.2909     86.5212    112.4649      0.0000
   329.0000    290.3670     86.6253    108.9531      0.0000
   329.2500    290.4962     86.6790    108.1355      0.0000
   329.5000    290.5237     86.6150    110.5304      0.0000
   329.7500    290.4678     86.4472    115.5934      0.0000
   330.0000    290.4688     86.2874    121.9750      0.0000
   330.2500    290.5313     86.2297    128.1086      0.0000
   330.5000    290.5323     86.2603    132.9498      0.0000
   330.7500    290.4775     86.2902    136.3000      0.0000
   331.0000    290.5125     86.2431    138.4935      0.0000
   331.2500    290.6765     86.1292    140.0588      0.0000
   331.5000    290.8535     86.0372    141.5925      0.0000
   331.7500    290.9488     86.0317    143.4693      0.0000
   332.0000    290.9554     86.0843    145.3849      0.0000
   332.2500    290.8895     86.1204    146.3981      0.0000
   332.5000    290.7858     86.0932    145.7721      0.0000
   332.7500    290.7254     85.9995    143.8831      0.0000
   333.0000    290.7434     85.8801    142.1219      0.0000
   333.2500    290.7452     85.7988    141.6926      0.0000
   333.5000    290.6406     85.7775    142.5228      0.0000
   333.7500    290.5049     85.7830    143.3873      0.0000
   334.0000    290.4766     85.7789    143.0077      0.0000
   334.2500    290.5348     85.7315    140.8581      0.0000
   334.5000    290.5534     85.5466    137.0377      0.0000
   334.7500    290.5963     84.9782    131.8497      0.0000
   335.0000    290.9798     83.5620    125.8044      0.0000
   335.2500    291.9992     80.6841    119.9069      0.0000
   335.5000    293.6466     75.7857    115.5615      0.0000
   335.7500    295.5303     69.1115    113.7096      0.0000
   336.0000    297.0821     62.7880    113.8348      0.0000
   336.2500    297.9727     59.4504    114.1618      0.0000
   336.5000    298.2934     59.2343    113.1404      0.0000
   336.7500    298.3373     60.2428    110.7029      0.0000
   337.0000    298.3273     61.1079    108.0992      0.0000
   337.2500    298.3016     61.5672    106.7884     -3.5446
   337.5000    298.2105     61.7403    107.5047      0.0000
   337.7500    298.0534     61.7090    110.0126      0.0000
   338.0000    297.8090     61.6936    113.3293      0.0000
   338.2500    297.3349     62.7279    115.9935      0.0000
   338.5000    296.4484     66.2782    116.5630      0.0000
   338.7500    295.1043     71.8439    114.6334      0.0000
   339.0000    293.5287     76.6933    111.4357      0.0000
   339.2500    292.1316     79.2473    108.8071      0.0000
   339.5000    291.1944     80.3669    107.5157      0.0000
   339.7500    290.6968     81.4739    106.9427      0.0000
   340.0000    290.4420     82.9992    106.0541      0.0000
   340.2500    290.2689     84.2099    104.1233      0.0000
   340.5000    290.1631     84.0049    100.7965      0.0000
   340.7500    290.1938     81.7413     96.1755      0.0000
   341.0000    290.4011     77.4020     91.0546      0.0000
   341.2500    290.8095     71.4103     86.7309      0.0000
   341.5000    291.7089     64.3919     84.3073      0.0000
   341.7500    294.1585     56.8382     84.1490      0.0000
   342.0000    299.9463     49.0037     85.9008      0.0000
   342.2500    309.8025     41.3345     88.7217      0.0000
   342.5000    321.1949     34.6994     91.4632      0.0000
   342.7500    329.9173     29.7764     93.0471      0.0000
   343.0000    334.3331     26.3787     93.0385      0.0000
   343.2500    336.0277     23.7121     91.8440      0.0000
   343.5000    337.3313     21.2042     90.2273      0.0000
   343.7500    340.2516     18.8756     88.7070      0.0000
   344.0000    346.2836     17.0283     87.5680      0.0000
   344.2500    354.0268     15.8309     87.3449      0.0000
   344.5000    357.8810     15.2033     88.9490      0.0000
   344.7500    354.3063     14.9250     93.0354      0.0000
   345.0000    347.2054     14.7933     99.1594      0.0000
   345.2500    342.0595     14.7061    105.7433      0.0000
   345.5000    339.9131     14.6212    111.1623      0.0000
   345.7500    339.3335     14.4927    114.8134      0.0000
   346.0000    339.2725     14.2901    117.0127      0.0000
   346.2500    339.3205     14.0595    118.2805      0.0000
   346.5000    339.3769     13.9070    119.1905      0.0000
   346.7500    339.5212     13.8903    120.3966      0.0000
   347.0000    339.8241     13.9405    122.0314      0.0000
   347.2500    340.2281     13.9462    123.1699      0.0000
   347.5000    340.6252     13.9017    122.3472      0.0000
   347.7500    340.9454     13.8985    118.8971      0.0000
   348.0000    341.1562     13.9869    113.9071      0.0000
   348.2500    341.1949     14.1423    109.6947      0.0000
   348.5000    340.9672     14.3537    107.9608      0.0000
   348.7500    340.4242     14.6567    108.4177      0.0000
