~Version Information
VERS.                      2.0: CWLS Log ASCII Standard - VERSION 2.0
WRAP.                       NO: One line per depth step
~Well Information Block
STRT.FT                15.0000: 
STOP.FT              2409.7500: 
STEP.FT                 0.2500: 
NULL.                -999.2500: 
COMP.          Pioneer Natural Resources: COMPANY
WELL.          Oink Oink 14-36: WELL
FLD.           Purgatoire River: FIELD
LOC.           216' FSL & 263' FWL: LOCATION
PROV.                 Colorado: PROVINCE
CNTY.               Las Animas: COUNTRY
SRVC.                Patterson: SERVICE COMPANY
DATE.          Wed Jun 22 11:05:26 2005: LOG DATE
UWI.           05 071 08394 00: UNIQUE WELL ID
~Curve Information Block
DEPT.FT            0 000 00 00: Depth
GR.GAPI                       : Gamma Ray
CCL.                          : Casing Collar Locator
TT3.usec                      : CBL 3' Travel Time
AMP3.mV                       : CBL 3' Amplitude
~Parameter Information Block
~A  Depth        GR         CCL         TT3         AMP3    
# ...
   484.0000    104.1149      0.0000    718.7473      5.6298
   484.2500    103.4295      0.0000    718.1400      5.5728
   484.5000    106.3967      0.0000    715.0155      5.5344
   484.7500    110.9311      0.0000    708.1038      5.5105
   485.0000    116.0266      0.0000    695.4439      5.4958
   485.2500    121.7901      0.0000    675.3049      5.4864
   485.5000    128.2574      0.0000    647.7936      5.4821
   485.7500    134.5866      0.0000    616.2343      5.4865
   486.0000    139.3126      0.0000    586.7070      5.5049
   486.2500    141.3167      0.0000    565.5851      5.5409
   486.5000    140.6176      0.0000    557.1313      5.5926
   486.7500    138.2817      0.0000    562.7267      5.6516
   487.0000    135.6526      0.0000    581.1954      5.7058
   487.2500    133.5595      0.0000    609.1847      5.7441
   487.5000    131.9479      0.0000    641.5930      5.7594
   487.7500    130.0692      0.0000    672.4902      5.7506
   488.0000    127.1217      0.0000    696.4841      5.7228
   488.2500    122.9502      0.0000    710.1716      5.6865
   488.5000    118.2976      0.0000    713.4040      5.6540
   488.7500    114.3185      0.0000    709.5129      5.6363
   489.0000    111.7154      0.0000    703.6820      5.6415
   489.2500    110.2943      0.0000    700.2728      5.6716
   489.5000    109.4744      0.0000    701.0238      5.7192
   489.7500    109.1877      0.0000    704.9244      5.7690
   490.0000    109.8873      0.0000    709.4503      5.8054
   490.2500    111.4810      0.0000    712.5299      5.8212
   490.5000    112.6910      0.0000    714.0087      5.8224
   490.7500    111.9856      0.0000    715.1945      5.8267
   491.0000    109.1511      0.0000    717.0803      5.8565
   491.2500    105.7100      0.0000    719.3674      5.9286
   491.5000    103.8198      0.0000    721.0431      6.0416
   491.7500    104.8846      0.0000    721.4285      6.1724
   492.0000    109.0534      0.0000    720.6839      6.2876
   492.2500    115.4521      0.0000    719.5913      6.3635
   492.5000    122.4581      0.0000    719.0097      6.3944
   492.7500    128.1308      0.0000    719.5345      6.3856
   493.0000    131.2091      0.0000    721.4655      6.3435
   493.2500    131.9712      0.0000    724.6995      6.2781
   493.5000    131.5978      0.0000    728.4181      6.2081
   493.7500    130.5343      0.0000    731.1395      6.1541
   494.0000    128.0783      0.0000    731.5848      6.1213
   494.2500    123.8559      0.0000    729.5568      6.0915
   494.5000    119.0199      0.0000    725.6289      6.0374
   494.7500    115.4501      0.0000    720.1974      5.9473
   495.0000    114.0876      0.0000    713.6551      5.8341
   495.2500    114.5109      0.0000    707.4156      5.7223
   495.5000    115.8143      0.0000    703.6037      5.6292
   495.7500    117.1963      0.0000    703.2443      5.5572
   496.0000    117.7803      0.0000    705.4542      5.4962
   496.2500    116.6967      0.0000    708.4266      5.4318
   496.5000    113.6894      0.0000    710.4335      5.3479
   496.7500    109.1968      0.0000    710.0682      5.2285
   497.0000    103.7075      0.0000    706.5728      5.0605
   497.2500     97.6193      0.0000    700.3638      4.8413
   497.5000     91.8693      0.0000    693.0189      4.5846
   497.7500     87.9243      0.0000    686.5363      4.3176
   498.0000     86.4459      0.0000    682.1635      4.0705
   498.2500     86.1458      0.0000    679.1146      3.8669
   498.5000     84.5309      0.0000    674.2120      3.7181
   498.7500     80.0614      0.0000    664.2406      3.6209
   499.0000     73.4402      0.0000    650.0251      3.5567
   499.2500     66.7257      0.0000    637.6458      3.4979
   499.5000     61.4426      0.0000    634.1016      3.4265
   499.7500     57.6792      0.0000    641.1171      3.3526
   500.0000     54.7746      0.0000    653.5560      3.3110
   500.2500     52.5598      0.0000    664.0027      3.3345
   500.5000     51.6745      0.0000    668.5413      3.4295
   500.7500     52.6192      0.0000    668.3227      3.5789
   501.0000     54.9053      0.0000    666.7334      3.7618
   501.2500     57.4063      0.0000    665.8534      3.9661
   501.5000     59.2021      0.0000    665.3343      4.1845
   501.7500     59.8314      0.0000    663.9098      4.4034
   502.0000     59.1510      0.0000    661.2519      4.6023
   502.2500     57.3570      0.0000    657.9707      4.7628
   502.5000     55.0053      0.0000    654.4030      4.8780
   502.7500     52.7108      0.0000    650.4523      4.9520
   503.0000     50.7616      0.0000    646.4189      4.9915
   503.2500     49.0575      0.0000    643.0957      5.0014
   503.5000     47.4506      0.0000    641.0072      4.9863
   503.7500     46.0834      0.0000    640.0436      4.9533
   504.0000     45.2493      0.0000    639.7900      4.9087
   504.2500     44.8977      0.0000    639.9012      4.8563
   504.5000     44.5457      0.0000    640.1578      4.7993
   504.7500     43.8709      0.0000    640.3465      4.7401
   505.0000     43.2082      0.0000    640.1422      4.6783
   505.2500     43.2833      0.0000    639.2000      4.6102
   505.5000     44.6729      0.0000    637.6171      4.5338
   505.7500     47.6907      0.0000    636.5867      4.4550
   506.0000     52.5255      0.0000    638.4485      4.3861
   506.2500     59.0800      0.0000    645.3718      4.3386
   506.5000     66.7342      0.0000    657.3101      4.3163
   506.7500     74.7180      0.0000    671.3154      4.3137
   507.0000     82.8928      0.0000    683.4072      4.3182
   507.2500     91.8073      0.0000    691.1913      4.3144
   507.5000    101.7257      0.0000    694.3593      4.2888
   507.7500    111.7776      0.0000    693.1654      4.2353
   508.0000    120.3148      0.0000    687.5696      4.1539
   508.2500    126.1509      0.0000    678.1256      4.0438
   508.5000    129.4268      0.0000    666.7903      3.9008
   508.7500    131.1400      0.0000    656.2465      3.7258
   509.0000    131.8550      0.0000    648.6828      3.5323
   509.2500    131.1713      0.0000    645.2569      3.3426
   509.5000    128.4330      0.0000    646.0018      3.1771
   509.7500    123.4844      0.0000    650.0029      3.0475
   510.0000    116.6499      0.0000    656.1840      2.9560
   510.2500    108.3872      0.0000    664.2034      2.8998
   510.5000     99.2631      0.0000    674.2187      2.8807
   510.7500     90.2402      0.0000    685.4939      2.9084
   511.0000     82.7163      0.0000    695.5028      2.9944
   511.2500     78.0631      0.0000    701.0973      3.1411
   511.5000     77.1771      0.0000    701.2238      3.3412
   511.7500     80.3486      0.0000    698.3691      3.5849
   512.0000     87.0498      0.0000    696.4605      3.8655
   512.2500     95.7065      0.0000    697.1365      4.1813
   512.5000    104.1546      0.0000    698.7551      4.5351
   512.7500    110.6761      0.0000    699.0452      4.9271
   513.0000    114.6197      0.0000    697.7991      5.3386
   513.2500    116.3389      0.0000    696.6560      5.7228
   513.5000    117.0244      0.0000    696.9419      6.0220
   513.7500    118.2740      0.0000    698.2848      6.1995
   514.0000    120.9043      0.0000    699.2154      6.2591
   514.2500    123.9819      0.0000    698.7564      6.2359
   514.5000    125.7264      0.0000    697.2222      6.1702
   514.7500    125.7349      0.0000    695.5953      6.0891
   515.0000    125.8286      0.0000    694.4664      6.0068
   515.2500    128.2030      0.0000    693.6641      5.9353
   515.5000    132.8986      0.0000    692.5672      5.8848
   515.7500    137.6373      0.0000    690.6356      5.8558
   516.0000    140.1537      0.0000    687.9650      5.8391
   516.2500    140.0333      0.0000    685.5841      5.8252
   516.5000    138.0577      0.0000    684.8629      5.8123
   516.7500    134.6808      0.0000    686.1301      5.8060
   517.0000    129.9080      0.0000    687.9034      5.8123
   517.2500    124.1214      0.0000    687.7971      5.8300
