~Version Information
VERS.                      2.0: CWLS Log ASCII Standard - VERSION 2.0
WRAP.                       NO: One line per depth step
~Well Information Block
STRT.FT                -9.2500: 
STOP.FT              1945.2500: 
STEP.FT                 0.2500: 
NULL.                -999.2500: 
COMP.          Pioneer Natural Resources: COMPANY
WELL.          Titan Federal 34-17: WELL
FLD.           Purgatorie River: FIELD
LOC.           321' FSL & 1911' FEL: LOCATION
STAT.                       CO: State
CNTY.               Las Animas: COUNTY
CTRY. USA : Country
SECT. 17 : Section
TOWN. 32S : Township
RANG. 65W : Range
SRVC.          Patterson Wireline: SERVICE COMPANY
DATE.          Tue Oct 11 10:22:27 2005: LOG DATE
API.           05 071 08272 00: UNIQUE WELL ID
~Curve Information Block
DEPT.FT            0 000 00 00: Depth
CCL.                          : Casing Collar Locator
TT3.usec                      : CBL 3' Travel Time
AMP3.mV                       : CBL 3' Amplitude
GR.GAPI                       : Gamma Ray
~Parameter Information Block
~A  Depth       CCL         TT3         AMP3         GR     
# ...
  1632.2500      0.0000    729.6574      7.1667     85.4135
  1632.5000      0.0000    714.5997      7.7494     97.7984
  1632.7500      0.0000    675.6985      8.2304    108.8369
  1633.0000      0.0000    613.3386      8.5172    117.0919
  1633.2500      0.0000    539.3247      8.7192    122.4685
  1633.5000      0.0000    471.5448      9.0235    126.4012
  1633.7500      0.0000    423.0215      9.4852    130.1689
  1634.0000      0.0000    395.6884      9.9975    132.7676
  1634.2500      0.0000    383.4787     10.4249    131.3078
  1634.5000      0.0000    379.0747     10.7090    124.1237
  1634.7500      0.0000    377.7251     10.8663    112.9331
  1635.0000      0.0000    377.3620     10.9333    101.4081
  1635.2500      0.0000    377.4007     10.9347     92.2074
  1635.5000      0.0000    378.0633     10.8857     85.9545
  1635.7500      0.0000    380.4991     10.8019     82.1695
  1636.0000      0.0000    387.2283     10.6997     79.9099
  1636.2500      0.0000    401.3202     10.5918     77.8270
  1636.5000      0.0000    423.2062     10.4876     74.7543
  1636.7500      0.0000    447.7429     10.3962     70.5986
  1637.0000      0.0000    467.6332     10.3260     66.4323
  1637.2500      0.0000    482.8382     10.2791     63.6841
  1637.5000      0.0000    503.9186     10.2450     63.2762
  1637.7500      0.0000    541.3614     10.2041     65.2086
  1638.0000      0.0000    592.6077     10.1411     68.5975
  1638.2500      0.0000    643.3318     10.0547     72.0812
  1638.5000      0.0000    680.4672      9.9570     74.4418
  1638.7500      0.0000    700.8759      9.8653     75.1196
  1639.0000      0.0000    708.9219      9.7923     74.3140
  1639.2500      0.0000    709.8921      9.7401     72.5502
  1639.5000      0.0000    706.9701      9.7013     70.0899
  1639.7500      0.0000    702.4924      9.6630     66.9099
  1640.0000      0.0000    699.9017      9.6099     63.4141
  1640.2500      0.0000    702.8201      9.5260     61.0801
  1640.5000      0.0000    711.7763      9.4036     62.0031
  1640.7500      0.0000    722.9094      9.2541     67.3046
  1641.0000      0.0000    730.9275      9.1060     75.6026
  1641.2500      0.0000    732.9678      8.9868     83.1721
  1641.5000      0.0000    729.6087      8.9080     86.3193
  1641.7500      0.0000    723.3082      8.8656     84.2366
  1642.0000      0.0000    716.3531      8.8504     79.5023
  1642.2500      0.0000    709.5851      8.8522     75.4716
  1642.5000      0.0000    702.5010      8.8597     73.2170
  1642.7500      0.0000    694.5477      8.8612     71.3172
  1643.0000      0.0000    686.2954      8.8495     68.4945
  1643.2500      0.0000    679.1948      8.8251     65.7010
  1643.5000      0.0000    674.3591      8.7963     65.2095
  1643.7500      0.0000    671.8224      8.7725     68.1862
  1644.0000      0.0000    670.8975      8.7593     73.5882
  1644.2500      0.0000    670.9630      8.7580     78.9244
  1644.5000      0.0000    671.9346      8.7690     81.6498
  1644.7500      0.0000    674.2277      8.7937     80.3131
  1645.0000      0.0000    678.2288      8.8319     75.1776
  1645.2500      0.0000    683.5726      8.8791     68.0065
  1645.5000      0.0000    689.0428      8.9287     61.0009
  1645.7500      0.0000    693.5278      8.9753     55.5828
  1646.0000      0.0000    696.9474      9.0179     51.8959
  1646.2500      0.0000    699.8607      9.0587     49.2888
  1646.5000      0.0000    702.3521      9.1009     47.2220
  1646.7500      0.0000    703.6805      9.1462     45.7119
  1647.0000      0.0000    702.8220      9.1940     45.0416
  1647.2500      0.0000    699.1378      9.2423     45.3764
  1647.5000      0.0000    692.8951      9.2894     46.6509
  1647.7500      0.0000    685.4628      9.3343     48.5174
  1648.0000      0.0000    678.7364      9.3766     50.3957
  1648.2500      0.0000    674.0347      9.4143     51.8007
  1648.5000      0.0000    671.5052      9.4446     52.6484
  1648.7500      0.0000    670.4870      9.4661     53.2189
  1649.0000      0.0000    670.2093      9.4795     53.8770
  1649.2500      0.0000    670.1648      9.4870     54.8325
  1649.5000      0.0000    670.1100      9.4904     56.1815
  1649.7500      0.0000    669.9647      9.4888     58.1224
  1650.0000      0.0000    669.7471      9.4787     60.9220
  1650.2500      0.0000    669.5153      9.4533     64.5689
  1650.5000      0.0000    669.3005      9.4018     68.6996
  1650.7500      0.0000    669.0765      9.3111     72.9557
  1651.0000      0.0000    668.8039      9.1731     77.2840
  1651.2500      0.0000    668.4904      8.9920     82.0431
  1651.5000      0.0000    668.2004      8.7851     87.9724
  1651.7500      0.0000    668.0187      8.5761     95.6731
  1652.0000      0.0000    668.0676      8.3886    104.5717
  1652.2500      0.0000    668.6052      8.2398    112.5207
  1652.5000      0.0000    670.1373      8.1366    117.0594
  1652.7500      0.0000    673.2949      8.0759    117.5573
  1653.0000      0.0000    678.3174      8.0497    116.0773
  1653.2500      0.0000    684.6392      8.0479    115.7533
  1653.5000      0.0000    691.4355      8.0574    118.1536
  1653.7500      0.0000    698.4612      8.0616    122.4013
  1654.0000      0.0000    705.2499      8.0453    126.6970
  1654.2500      0.0000    709.4057      8.0016    130.0998
  1654.5000      0.0000    707.5909      7.9343    132.5697
  1654.7500      0.0000    699.2320      7.8531    133.7010
  1655.0000      0.0000    687.9119      7.7655    132.1448
  1655.2500      0.0000    678.2829      7.6707    126.7494
  1655.5000      0.0000    672.5807      7.5602    118.1747
  1655.7500      0.0000    670.4241      7.4273    108.8352
  1656.0000      0.0000    670.8062      7.2728    101.0110
  1656.2500      0.0000    673.5202      7.1019     95.2899
  1656.5000      0.0000    679.0363      6.9204     90.7543
  1656.7500      0.0000    687.3404      6.7382     86.1615
  1657.0000      0.0000    696.8627      6.5727     80.7893
  1657.2500      0.0000    704.5937      6.4438     74.4899
  1657.5000      0.0000    707.6361      6.3626     67.3410
  1657.7500      0.0000    705.1835      6.3262     59.5699
  1658.0000      0.0000    699.4057      6.3220     51.7612
  1658.2500      0.0000    694.2746      6.3343     44.7443
  1658.5000      0.0000    692.9064      6.3491     39.1076
  1658.7500      0.0000    695.5569      6.3613     35.0986
  1659.0000      0.0000    700.0613      6.3797     33.0015
  1659.2500      0.0000    704.0111      6.4218     33.1262
  1659.5000      0.0000    706.3514      6.4996     35.2291
  1659.7500      0.0000    707.3356      6.6063     38.2884
  1660.0000      0.0000    707.6840      6.7184     41.2211
  1660.2500      0.0000    707.9564      6.8098     43.7653
  1660.5000      0.0000    708.3721      6.8670     46.3951
  1660.7500      0.0000    708.8751      6.8941     49.3939
  1661.0000      0.0000    709.2532      6.9090     52.2338
  1661.2500      0.0000    709.1783      6.9313     53.8624
  1661.5000      0.0000    708.1201      6.9738     53.4902
  1661.7500      0.0000    705.3008      7.0394     51.2132
  1662.0000      0.0000    700.0231      7.1237     48.0171
  1662.2500      0.0000    692.3992      7.2191     45.0916
  1662.5000      0.0000    683.7845      7.3187     42.9811
  1662.7500      0.0000    676.1628      7.4175     41.4132
  1663.0000      0.0000    670.8956      7.5124     39.9285
  1663.2500      0.0000    668.0781      7.6041     38.4981
  1663.5000      0.0000    666.9586      7.6991     37.4673
  1663.7500      0.0000    666.7140      7.8063     37.0386
  1664.0000      0.0000    666.8508      7.9315     36.9267
  1664.2500      0.0000    667.2047      8.0756     36.5681
  1664.5000      0.0000    667.8416      8.2371     35.7571
  1664.7500      0.0000    669.0197      8.4127     35.1406
  1665.0000      0.0000    671.0812      8.5955     35.9886
  1665.2500      0.0000    674.0889      8.7755     39.2950
  1665.5000      0.0000    677.4675      8.9440     44.9896
