~Version Information
VERS.                      2.0: CWLS Log ASCII Standard - VERSION 2.0
WRAP.                       NO: One line per depth step
~Well Information Block
STRT.FT                15.0000: 
STOP.FT              2409.7500: 
STEP.FT                 0.2500: 
NULL.                -999.2500: 
COMP.          Pioneer Natural Resources: COMPANY
WELL.          Oink Oink 14-36: WELL
FLD.           Purgatoire River: FIELD
LOC.           216' FSL & 263' FWL: LOCATION
PROV.                 Colorado: PROVINCE
CNTY.               Las Animas: COUNTRY
SRVC.                Patterson: SERVICE COMPANY
DATE.          Wed Jun 22 11:05:26 2005: LOG DATE
UWI.           05 071 08394 00: UNIQUE WELL ID
~Curve Information Block
DEPT.FT            0 000 00 00: Depth
GR.GAPI                       : Gamma Ray
CCL.                          : Casing Collar Locator
TT3.usec                      : CBL 3' Travel Time
AMP3.mV                       : CBL 3' Amplitude
~Parameter Information Block
~A  Depth        GR         CCL         TT3         AMP3    
# ...
  1422.0000    129.0615      0.0000    610.8873      5.3591
  1422.2500    125.8045      0.0000    618.6260      5.3712
  1422.5000    122.7366      0.0000    621.4946      5.3831
  1422.7500    120.7761      0.0000    619.6604      5.3954
  1423.0000    120.0647      0.0000    613.8399      5.4095
  1423.2500    120.6359      0.0000    605.7297      5.4268
  1423.5000    122.8424      0.0000    598.3202      5.4478
  1423.7500    126.6944      0.0000    594.5757      5.4714
  1424.0000    130.9260      0.0000    595.4342      5.4976
  1424.2500    133.2568      0.0000    599.1295      5.5305
  1424.5000    131.9347      0.0000    602.1057      5.5756
  1424.7500    127.1817      0.0000    600.7841      5.6303
  1425.0000    121.1339      0.0000    593.6855      5.6803
  1425.2500    116.2603      0.0000    582.6108      5.7082
  1425.5000    113.8884      0.0000    571.3770      5.7079
  1425.7500    114.2618      0.0000    563.1317      5.6898
  1426.0000    117.4356      0.0000    558.9791      5.6713
  1426.2500    123.3199      0.0000    558.7454      5.6626
  1426.5000    130.8572      0.0000    562.1216      5.6618
  1426.7500    137.7981      0.0000    568.3878      5.6643
  1427.0000    141.6922      0.0000    575.2163      5.6728
  1427.2500    141.3140      0.0000    578.9384      5.6948
  1427.5000    137.3718      0.0000    577.5603      5.7296
  1427.7500    131.9005      0.0000    573.6924      5.7663
  1428.0000    127.0615      0.0000    573.1966      5.7951
  1428.2500    124.4651      0.0000    580.0857      5.8168
  1428.5000    124.8820      0.0000    593.0471      5.8389
  1428.7500    128.0021      0.0000    607.0579      5.8677
  1429.0000    132.7149      0.0000    617.7809      5.9075
  1429.2500    137.9452      0.0000    624.2277      5.9641
  1429.5000    143.0006      0.0000    628.1970      6.0377
  1429.7500    147.2212      0.0000    632.3630      6.1081
  1430.0000    149.7519      0.0000    638.6863      6.1295
  1430.2500    149.8330      0.0000    647.3784      6.0529
  1430.5000    147.2023      0.0000    656.6909      5.8662
  1430.7500    142.1708      0.0000    663.9717      5.6117
  1431.0000    135.3003      0.0000    667.2189      5.3566
  1431.2500    126.9812      0.0000    665.9065      5.1462
  1431.5000    117.4188      0.0000    661.2995      4.9900
  1431.7500    107.0887      0.0000    656.3895      4.8834
  1432.0000     97.0460      0.0000    654.3787      4.8244
  1432.2500     88.6607      0.0000    656.3156      4.8005
  1432.5000     83.1225      0.0000    660.5350      4.7720
  1432.7500     81.0723      0.0000    664.4052      4.6895
  1433.0000     82.2889      0.0000    666.0792      4.5369
  1433.2500     85.6780      0.0000    664.9935      4.3531
  1433.5000     89.8156      0.0000    661.8286      4.2049
  1433.7500     93.5807      0.0000    658.2368      4.1395
  1434.0000     96.1528      0.0000    656.0186      4.1614
  1434.2500     96.8167      0.0000    656.1088      4.2460
  1434.5000     95.4246      0.0000    657.9506      4.3658
  1434.7500     93.0260      0.0000    659.3660      4.5031
  1435.0000     91.3073      0.0000    657.2635      4.6455
  1435.2500     90.9981      0.0000    649.2570      4.7796
  1435.5000     91.1854      0.0000    635.2842      4.8925
  1435.7500     90.4734      0.0000    618.0768      4.9773
  1436.0000     88.5492      0.0000    601.7783      5.0371
  1436.2500     86.5035      0.0000    588.7459      5.0862
  1436.5000     85.9318      0.0000    576.9492      5.1488
  1436.7500     87.6396      0.0000    561.8349      5.2484
  1437.0000     90.7316      0.0000    541.7825      5.3878
  1437.2500     93.1299      0.0000    520.7129      5.5424
  1437.5000     93.5494      0.0000    505.0853      5.6794
  1437.7500     92.8574      0.0000    499.2543      5.7859
  1438.0000     93.1600      0.0000    503.0023      5.8740
  1438.2500     95.8672      0.0000    511.4583      5.9606
  1438.5000    100.7387      0.0000    517.3583      6.0500
  1438.7500    106.1396      0.0000    515.8645      6.1364
  1439.0000    109.9448      0.0000    508.8950      6.2130
  1439.2500    110.8756      0.0000    503.8481      6.2746
  1439.5000    109.4988      0.0000    506.6313      6.3158
  1439.7500    107.7219      0.0000    516.7161      6.3338
  1440.0000    107.1882      0.0000    530.3560      6.3340
  1440.2500    108.4842      0.0000    546.1365      6.3301
  1440.5000    111.6506      0.0000    563.7853      6.3352
  1440.7500    116.5134      0.0000    579.5369      6.3485
  1441.0000    122.2040      0.0000    587.9587      6.3515
  1441.2500    127.0832      0.0000    588.9479      6.3216
  1441.5000    129.7430      0.0000    589.1239      6.2525
  1441.7500    130.0414      0.0000    594.2853      6.1612
  1442.0000    129.0495      0.0000    602.2488      6.0758
  1442.2500    128.0285      0.0000    605.2834      6.0174
  1442.5000    127.4435      0.0000    599.4360      5.9914
  1442.7500    126.9413      0.0000    589.5300      5.9899
  1443.0000    126.1720      0.0000    583.7824      6.0021
  1443.2500    125.2930      0.0000    585.0167      6.0247
  1443.5000    124.5772      0.0000    589.4135      6.0621
  1443.7500    123.9132      0.0000    593.3301      6.1123
  1444.0000    123.0489      0.0000    598.3439      6.1541
  1444.2500    122.2559      0.0000    608.3570      6.1552
  1444.5000    122.5080      0.0000    623.9529      6.0975
  1444.7500    124.7852      0.0000    641.4772      5.9914
  1445.0000    128.9165      0.0000    656.2928      5.8674
  1445.2500    133.0352      0.0000    665.2910      5.7557
  1445.5000    134.4976      0.0000    667.4766      5.6750
  1445.7500    131.8836      0.0000    663.9365      5.6271
  1446.0000    126.4321      0.0000    657.3223      5.5964
  1446.2500    121.5087      0.0000    650.5753      5.5513
  1446.5000    120.2547      0.0000    645.6088      5.4557
  1446.7500    123.2295      0.0000    643.1992      5.2951
  1447.0000    128.0817      0.0000    644.1094      5.0995
  1447.2500    131.5330      0.0000    649.5649      4.9356
  1447.5000    131.8326      0.0000    660.0377      4.8639
  1447.7500    129.4865      0.0000    674.1140      4.8972
  1448.0000    126.0754      0.0000    688.8555      4.9968
  1448.2500    122.8047      0.0000    700.5230      5.1025
  1448.5000    120.1772      0.0000    705.3113      5.1656
  1448.7500    118.6288      0.0000    701.1796      5.1614
  1449.0000    119.0574      3.0000    689.4560      5.0840
  1449.2500    122.2862      3.0000    673.6877      4.9384
  1449.5000    127.7079      0.0000    657.4890      4.7388
  1449.7500    132.8069      0.0000    644.6865      4.5054
  1450.0000    134.6417      0.0000    639.8008      4.2588
  1450.2500    131.8184      0.0000    645.3908      4.0165
  1450.5000    124.7611      0.0000    658.9322      3.7947
  1450.7500    114.6295      0.0000    674.2918      3.6037
  1451.0000    102.6334      0.0000    686.6849      3.4422
  1451.2500     90.1320      0.0000    695.3508      3.2996
  1451.5000     78.7811      0.0000    701.7711      3.1680
  1451.7500     70.3628      0.0000    706.8032      3.0507
  1452.0000     66.3880      0.0000    709.9805      2.9587
  1452.2500     67.5307      0.0000    710.5833      2.9000
  1452.5000     73.1617      0.0000    708.4258      2.8745
  1452.7500     81.5149      0.0000    703.7916      2.8774
  1453.0000     90.6798      0.0000    697.1448      2.9052
  1453.2500     99.5829      0.0000    688.8519      2.9578
  1453.5000    107.8828      0.0000    679.0913      3.0370
  1453.7500    115.1642      0.0000    668.1438      3.1421
  1454.0000    120.7144      0.0000    656.4871      3.2667
  1454.2500    124.0089      0.0000    643.8492      3.4022
  1454.5000    125.0803      0.0000    627.9318      3.5425
  1454.7500    124.6371      0.0000    605.2200      3.6840
  1455.0000    124.0904      0.0000    574.6897      3.8244
  1455.2500    124.9655      0.0000    540.6933      3.9628
