~Version Information
VERS.                      2.0: CWLS Log ASCII Standard - VERSION 2.0
WRAP.                       NO: One line per depth step
~Well Information Block
STRT.FT                 0.0000: 
STOP.FT              2159.0000: 
STEP.FT                 0.2500: 
NULL.                -999.2500: 
COMP.          Petrogulf Corporation: COMPANY
WELL.               Furu 6-23R: WELL
FLD.           Purgatoire River: FIELD
LOC.           2211' FSL & 1780' FWL: LOCATION
CNTY.               Las Animas: COUNTY
SRVC.                         : SERVICE COMPANY
DATE.          Fri Jul 14 16:00:32 2006: LOG DATE
UWI.           05 071 08266 00: UNIQUE WELL ID
STAT.                       CO: STATE
~Curve Information Block
DEPT.FT            0 000 00 00: Depth
GR.GAPI                       : Gamma Ray
CCL.                          : Casing Collar Locator
TT3.usec                      : CBL 3' Travel Time
AMP3.mV                       : CBL 3' Amplitude
~Parameter Information Block
~A  Depth        GR         CCL         TT3         AMP3    
# ...
  2110.5000    201.5843      0.0000    758.3137      7.4926
  2110.7500    187.4342      0.0000    760.4518      7.4407
  2111.0000    173.0606      0.0000    760.9689      7.3264
  2111.2500    161.8745      0.0000    759.7884      7.1160
  2111.5000    154.8696      0.0000    759.3598      6.7863
  2111.7500    150.9825      0.0000    761.0513      6.3356
  2112.0000    148.6937      0.0000    763.0437      5.7873
  2112.2500    147.0963      0.0000    762.6239      5.1847
  2112.5000    145.7320      0.0000    760.1302      4.5773
  2112.7500    144.0485      0.0000    759.1517      4.0067
  2113.0000    141.2981      0.0000    762.0201      3.4980
  2113.2500    136.8356      0.0000    766.1937      3.0592
  2113.5000    130.5144      0.0000    766.5120      2.6869
  2113.7500    122.8192      0.0000    760.3405      2.3742
  2114.0000    114.7108      0.0000    748.8879      2.1154
  2114.2500    107.3619      0.0000    734.2639      1.9077
  2114.5000    101.6781      0.0000    717.8568      1.7496
  2114.7500     97.6594      0.0000    701.6802      1.6396
  2115.0000     94.3747      0.0000    688.8116      1.5738
  2115.2500     90.7565      0.0000    681.3785      1.5466
  2115.5000     86.2610      0.0000    678.8166      1.5500
  2115.7500     80.8813      0.0000    678.4443      1.5757
  2116.0000     75.0036      0.0000    677.9021      1.6151
  2116.2500     69.2703      0.0000    677.6904      1.6608
  2116.5000     64.1320      0.0000    681.0664      1.7062
  2116.7500     59.5243      0.0000    690.1155      1.7462
  2117.0000     55.3089      0.0000    701.7733      1.7771
  2117.2500     51.8565      0.0000    709.2744      1.7966
  2117.5000     49.6404      0.0000    708.2513      1.8035
  2117.7500     48.3242      0.0000    700.6365      1.7980
  2118.0000     46.9525      0.0000    692.3688      1.7809
  2118.2500     45.2824      0.0000    688.4709      1.7545
  2118.5000     44.4109      0.0000    690.8413      1.7227
  2118.7500     45.7666      0.0000    699.8464      1.6908
  2119.0000     49.7136      0.0000    716.2380      1.6652
  2119.2500     55.2154      0.0000    739.3560      1.6508
  2119.5000     60.5815      0.0000    762.9193      1.6498
  2119.7500     64.3855      0.0000    775.7853      1.6603
  2120.0000     65.9454      0.0000    770.6488      1.6765
  2120.2500     65.4073      0.0000    751.3074      1.6912
  2120.5000     63.4863      0.0000    729.1599      1.6980
  2120.7500     61.0150      0.0000    713.6879      1.6944
  2121.0000     58.8077      0.0000    707.5499      1.6822
  2121.2500     57.7706      0.0000    708.6025      1.6672
  2121.5000     58.3957      0.0000    715.0228      1.6570
  2121.7500     59.9092      0.0000    729.3380      1.6591
  2122.0000     60.6017      0.0000    756.8206      1.6787
  2122.2500     59.3904      0.0000    797.3076      1.7182
  2122.5000     56.6075      0.0000    838.8380      1.7761
  2122.7500     53.2058      0.0000    863.6224      1.8475
  2123.0000     49.8434      0.0000    862.8489      1.9263
  2123.2500     46.9117      0.0000    843.6755      2.0063
  2123.5000     44.8244      0.0000    819.8127      2.0838
  2123.7500     43.9357      0.0000    798.2762      2.1565
  2124.0000     44.3662      0.0000    778.4777      2.2220
  2124.2500     45.9252      0.0000    760.6200      2.2758
  2124.5000     48.0081      0.0000    748.6970      2.3099
  2124.7500     49.8120      0.0000    745.0272      2.3149
  2125.0000     51.1335      2.0000    746.0592      2.2829
  2125.2500     52.9149      2.0000    745.6454      2.2115
  2125.5000     56.5450      0.0000    741.8150      2.1053
  2125.7500     62.3951      0.0000    738.6094      1.9744
  2126.0000     69.0431      0.0000    740.1910      1.8318
  2126.2500     73.9590      0.0000    744.4851      1.6892
  2126.5000     75.1665      0.0000    744.9706      1.5557
  2126.7500     72.6229      0.0000    738.5117      1.4366
  2127.0000     68.1936      0.0000    729.1866      1.3350
  2127.2500     64.3167      0.0000    724.3785      1.2520
  2127.5000     62.5983      0.0000    728.8585      1.1874
  2127.7500     63.2440      0.0000    741.9536      1.1399
  2128.0000     65.3179      0.0000    757.5857      1.1069
  2128.2500     67.5939      0.0000    767.4138      1.0852
  2128.5000     69.4564      0.0000    767.1454      1.0714
  2128.7500     71.0069      0.0000    760.2349      1.0627
  2129.0000     72.3150      0.0000    753.1432      1.0569
  2129.2500     72.8979      0.0000    747.3976      1.0523
  2129.5000     72.0836      0.0000    738.8636      1.0479
  2129.7500     69.6233      0.0000    724.4294      1.0432
  2130.0000     65.9124      0.0000    706.5404      1.0379
  2130.2500     61.9289      0.0000    690.5800      1.0319
  2130.5000     58.8304      0.0000    679.9413      1.0254
  2130.7500     57.3973      0.0000    674.6470      1.0193
  2131.0000     57.8757      0.0000    673.2990      1.0153
  2131.2500     59.9704      0.0000    675.0259      1.0159
  2131.5000     62.6825      0.0000    679.6738      1.0238
  2131.7500     64.6388      0.0000    686.8557      1.0417
  2132.0000     64.9964      0.0000    695.2684      1.0717
  2132.2500     63.8747      0.0000    703.1158      1.1159
  2132.5000     62.0614      0.0000    709.1406      1.1771
  2132.7500     60.8378      0.0000    712.9965      1.2591
  2133.0000     61.8074      0.0000    714.8741      1.3661
  2133.2500     65.8645      0.0000    715.4516      1.5018
  2133.5000     71.8376      0.0000    716.6526      1.6687
  2133.7500     76.6387      0.0000    721.8604      1.8675
  2134.0000     77.4754      0.0000    733.9714      2.0968
  2134.2500     74.2868      0.0000    753.1871      2.3531
  2134.5000     69.9502      0.0000    777.8987      2.6316
  2134.7500     67.9210      0.0000    806.4030      2.9275
  2135.0000     69.4562      0.0000    834.1040      3.2373
  2135.2500     72.7529      0.0000    850.6653      3.5592
  2135.5000     74.4975      0.0000    846.7256      3.8920
  2135.7500     72.4975      0.0000    825.0075      4.2331
  2136.0000     67.2712      0.0000    801.0250      4.5762
  2136.2500     61.2079      0.0000    793.1743      4.9119
  2136.5000     56.2068      0.0000    813.5493      5.2279
  2136.7500     52.4458      0.0000    863.2037      5.5097
  2137.0000     49.4997      0.0000    928.7878      5.7404
  2137.2500     47.8654      0.0000    983.5892      5.9015
  2137.5000     48.5487      0.0000    999.8162      5.9755
  2137.7500     51.4816      0.0000    967.8483      5.9504
  2138.0000     55.2648      0.0000    904.5733      5.8245
  2138.2500     58.5880      0.0000    839.8752      5.6094
  2138.5000     61.1984      0.0000    794.3127      5.3292
  2138.7500     63.2449      0.0000    770.4606      5.0156
  2139.0000     64.5383      0.0000    761.7303      4.7020
  2139.2500     65.2907      0.0000    762.9681      4.4167
  2139.5000     67.1076      0.0000    771.1022      4.1804
  2139.7500     72.0379      0.0000    780.4829      4.0067
  2140.0000     80.4829      0.0000    783.1344      3.9039
  2140.2500     90.9802      0.0000    775.2814      3.8777
  2140.5000    102.1698      0.0000    761.6898      3.9310
  2140.7500    113.7707      0.0000    751.4800      4.0620
  2141.0000    125.3784      0.0000    749.2329      4.2617
  2141.2500    135.6382      0.0000    750.8636      4.5123
  2141.5000    143.2396      0.0000    748.6070      4.7894
  2141.7500    147.7521      0.0000    739.6156      5.0643
  2142.0000    148.8499      0.0000    728.7878      5.3084
  2142.2500    145.5153      0.0000    724.0213      5.4952
  2142.5000    136.9390      0.0000    730.9327      5.6021
  2142.7500    124.1709      0.0000    751.4819      5.6122
  2143.0000    110.5375      0.0000    783.8896      5.5167
  2143.2500    100.3336      0.0000    822.5790      5.3187
  2143.5000     96.7723      0.0000    860.3542      5.0344
  2143.7500    100.4384      0.0000    890.7951      4.6927
