~Version Information
VERS.                      2.0: CWLS Log ASCII Standard - VERSION 2.0
WRAP.                       NO: One line per depth step
~Well Information Block
STRT.FT               420.0000: 
STOP.FT              1527.5000: 
STEP.FT                 0.1000: 
NULL.                -999.2500: 
COMP.          Evergreen Operating Corporation: COMPANY
WELL.              Chase 21-10: WELL
FLD.           Purgatoire River: FIELD
LOC.           1122' FNL & 1544' FWL: LOCATION
PROV.                       CO: PROVINCE
CNTY.               Las Animas: COUNTRY
SRVC.                         : SERVICE COMPANY
DATE.          Tue May 25 08:18:37 2004: LOG DATE
UWI.           05 071 08006 00: UNIQUE WELL ID
~Curve Information Block
DEPT.FT            0 000 00 00: Depth
DCAL.in                       : CDL Caliper
RHOB.g/cc                     : CDL Bulk Density
RHOC.g/cc                     : CDL Density Correction
DPOR.pu                       : CDL Density Porosity
GR.GAPI                       : Gamma Ray
NPOR.pu                       : Neutron Porosity
~Parameter Information Block
~A  Depth       DCAL        RHOB        RHOC        DPOR         GR         NPOR    
# ...
  1149.6000      7.9373      2.5499      0.0002      6.0669     85.0173     41.7767
  1149.7000      7.9373      2.5621      0.0554      5.3245     87.9191     41.7663
  1149.8000      7.9567      2.5672      0.0718      5.0210     87.4171     42.0507
  1149.9000      7.9567      2.5631      0.0109      5.2670     80.1636     42.2163
  1150.0000      7.9283      2.5669      0.0034      5.0377     71.9191     42.0277
  1150.1000      7.9283      2.5818      0.0262      4.1326     69.7735     41.7345
  1150.2000      7.9283      2.5829      0.1093      4.0649     70.1138     41.6722
  1150.3000      7.9490      2.5612      0.0613      5.3843     66.9619     41.8611
  1150.4000      7.9490      2.5436      0.0253      6.4495     60.2814     42.1075
  1150.5000      7.9741      2.5481      0.0303      6.1783     53.7546     42.2645
  1150.6000      7.9741      2.5643      0.0544      5.1956     48.9089     42.3415
  1150.7000      7.9741      2.5730      0.0972      4.6637     45.7823     42.2642
  1150.8000      7.9604      2.5644      0.0155      5.1873     46.2805     41.9265
  1150.9000      7.9604      2.5398      0.0358      6.6818     50.3054     41.6912
  1151.0000      7.9748      2.5025     -0.0019      8.9417     53.8036     42.0079
  1151.1000      7.9748      2.4778     -0.1416     10.4348     53.0587     42.6248
  1151.2000      7.9748      2.4881     -0.0226      9.8118     47.5701     42.8535
  1151.3000      7.9168      2.5016      0.0636      8.9946     41.9523     42.3693
  1151.4000      7.9168      2.4950      0.0281      9.3941     40.7079     41.5684
  1151.5000      7.8607      2.5075     -0.0610      8.6371     41.4237     41.0063
  1151.6000      7.8607      2.5650      0.1042      5.1523     40.3437     40.7809
  1151.7000      7.8607      2.6231      0.1336      1.6313     38.7218     40.7163
  1151.8000      7.7293      2.6430      0.0938      0.4245     40.8351     40.4137
  1151.9000      7.7293      2.6414      0.1184      0.5205     48.2588     39.7208
  1152.0000      7.7218      2.6396      0.0693      0.6284     58.9377     39.2356
  1152.1000      7.7218      2.6450      0.0647      0.3018     71.6330     39.2815
  1152.2000      7.7218      2.6653      0.0904     -0.9261     81.0223     39.5415
  1152.3000      7.6619      2.6917      0.0975     -2.5278     82.1408     39.8718
  1152.4000      7.6619      2.6941      0.1505     -2.6721     82.7466     40.2689
  1152.5000      7.7507      2.6565      0.0522     -0.3939     88.2620     40.5879
  1152.6000      7.7507      2.6065      0.0101      2.6373     91.5263     40.6258
  1152.7000      7.7507      2.5761      0.0592      4.4775     90.5865     40.5547
  1152.8000      7.8794      2.5661      0.0287      5.0823     90.3415     40.7844
  1152.9000      7.8794      2.5685      0.0804      4.9412     90.7158     41.2653
  1153.0000      7.8812      2.5757      0.0920      4.5025     90.0435     41.7178
  1153.1000      7.8812      2.5795      0.1468      4.2720     90.3469     42.1916
  1153.2000      7.8812      2.5809      0.0825      4.1883     95.0690     42.6211
  1153.3000      7.9148      2.5806      0.1395      4.2035    102.3174     42.7023
  1153.4000      7.9148      2.5645      0.1094      5.1793    104.4660     42.7762
  1153.5000      7.9144      2.5387      0.0304      6.7463    101.9335     43.3942
  1153.6000      7.9144      2.5279      0.0138      7.4000    104.0729     44.1551
  1153.7000      7.9144      2.5393      0.0238      6.7114    111.2335     44.4258
  1153.8000      7.9273      2.5610      0.1512      5.3967    115.4938     44.3559
  1153.9000      7.9273      2.5839      0.1292      4.0063    114.3172     44.2566
  1154.0000      7.9452      2.6086      0.1240      2.5120    110.0108     44.0475
  1154.1000      7.9452      2.6240      0.1883      1.5744    102.4775     43.8050
  1154.2000      7.9452      2.6175      0.0702      1.9696     89.3616     43.7755
  1154.3000      7.9034      2.6084      0.0758      2.5217     75.5509     43.7912
  1154.4000      7.9034      2.6178      0.0890      1.9539     72.1316     43.7473
  1154.5000      7.9195      2.6240      0.2254      1.5788     79.8642     43.9182
  1154.6000      7.9195      2.6002      0.1246      3.0190     89.6123     44.2744
  1154.7000      7.9195      2.5713      0.0224      4.7683     95.2551     44.4273
  1154.8000      7.9050      2.5712      0.1132      4.7771     98.2930     44.0618
  1154.9000      7.9050      2.5902      0.0682      3.6260    104.8267     43.2890
  1155.0000      7.9151      2.5957      0.1259      3.2884    113.6031     42.6945
  1155.1000      7.9151      2.5748      0.0354      4.5595    113.6796     42.7483
  1155.2000      7.9151      2.5546      0.0186      5.7829    104.6496     43.2874
  1155.3000      7.9005      2.5592      0.0580      5.5017     97.9410     43.7410
  1155.4000      7.9005      2.5704      0.0748      4.8248     97.6718     43.7489
  1155.5000      7.9271      2.5708      0.0342      4.7972     99.0231     43.3648
  1155.6000      7.9271      2.5742      0.0239      4.5948     97.9480     43.1877
  1155.7000      7.9271      2.5892      0.1533      3.6872     94.1049     43.6362
  1155.8000      7.9200      2.5995      0.1187      3.0604     92.2064     44.0667
  1155.9000      7.9200      2.5919      0.0823      3.5195     99.5438     43.8204
  1156.0000      7.9595      2.5699      0.0829      4.8540    112.6562     43.3635
  1156.1000      7.9595      2.5466      0.0600      6.2681    117.9338     43.4110
  1156.2000      7.9595      2.5443      0.0065      6.4082    113.0857     43.8202
  1156.3000      7.9312      2.5674      0.0781      5.0044    106.0883     44.0271
  1156.4000      7.9312      2.5870      0.0850      3.8182    100.8072     44.1040
  1156.5000      7.9215      2.5800      0.0670      4.2409     98.5136     44.1837
  1156.6000      7.9215      2.5590      0.0063      5.5172     97.1949     43.9694
  1156.7000      7.9215      2.5502      0.0077      6.0499     94.2907     43.6619
  1156.8000      7.9326      2.5550      0.0544      5.7565     92.2165     43.6681
  1156.9000      7.9326      2.5561      0.0708      5.6902     93.3680     43.7005
  1157.0000      7.9616      2.5457      0.0489      6.3184     95.6632     43.4291
  1157.1000      7.9616      2.5268      0.0916      7.4655     98.0214     43.0503
  1157.2000      7.9616      2.5075     -0.0424      8.6342    100.2527     42.9681
  1157.3000      7.9658      2.4915      0.0293      9.6051    101.9307     43.3327
  1157.4000      7.9658      2.4806      0.0265     10.2669    105.2166     43.9436
  1157.5000      7.9396      2.4969      0.0096      9.2776    109.5355     44.4571
  1157.6000      7.9396      2.5453      0.0698      6.3449    108.2280     44.6985
  1157.7000      7.9396      2.5858      0.1198      3.8930    104.2115     44.7853
  1157.8000      7.9251      2.5906      0.0976      3.5972    107.5618     44.7856
  1157.9000      7.9251      2.5866      0.0276      3.8426    114.6607     44.6574
  1158.0000      7.9430      2.6010      0.0555      2.9700    113.2226     44.5095
  1158.1000      7.9430      2.6122      0.1412      2.2897    102.4682     44.5415
  1158.2000      7.9430      2.5947      0.0536      3.3505     95.4965     44.7181
  1158.3000      7.9264      2.5652      0.1224      5.1373     98.7218     44.6830
  1158.4000      7.9264      2.5560      0.0330      5.6993    103.9059     44.2495
  1158.5000      7.9194      2.5680      0.0781      4.9697    106.5696     43.7290
  1158.6000      7.9194      2.5713      0.1014      4.7686    111.8360     43.5497
  1158.7000      7.9194      2.5521      0.0274      5.9351    120.9002     43.7552
  1158.8000      7.9189      2.5199      0.0518      7.8870    127.1893     44.0940
  1158.9000      7.9189      2.4904     -0.0362      9.6721    124.6450     44.2754
  1159.0000      7.9223      2.4838      0.0457     10.0707    116.2104     44.1926
  1159.1000      7.9223      2.4974      0.0540      9.2470    112.6162     44.1126
