~Version Information
VERS.                      2.0: CWLS Log ASCII Standard - VERSION 2.0
WRAP.                       NO: One line per depth step
~Well Information Block
STRT.FT               453.5000: 
STOP.FT              1386.0000: 
STEP.FT                 0.1000: 
NULL.                -999.2500: 
COMP.          Petrogulf Corporation: COMPANY
WELL.          Great Plains 22-22R: WELL
FLD.           Purgatoire River: FIELD
LOC.           2042' FNL & 1657' FWL--: LOCATION
PROV.                 Colorado: PROVINCE
CNTY.               Las Animas: COUNTRY
SRVC.                Patterson: SERVICE COMPANY
DATE.          Fri Sep 09 14:42:42 2005: LOG DATE
UWI.           05 071 08028 00: UNIQUE WELL ID
~Curve Information Block
DEPT.FT            0 000 00 00: Depth
DCAL.in                       : CDL Caliper
RHOB.g/cc                     : CDL Bulk Density
RHOC.g/cc                     : CDL Density Correction
DPOR.pu                       : CDL Density Porosity
NPOR.pu                       : Neutron Porosity
GR.GAPI                       : Gamma Ray
~Parameter Information Block
~A  Depth       DCAL        RHOB        RHOC        DPOR        NPOR         GR     
# ...
   645.5000      7.9655      2.6000     -0.0182      3.0315     22.3787     97.8867
   645.6000      7.9655      2.6616      0.0630     -0.7003     21.4540     89.4107
   645.7000      7.9655      2.7173      0.0575     -4.0814     20.9721     81.7980
   645.8000      7.9654      2.7497      0.0429     -6.0430     21.0311     74.1488
   645.9000      7.9654      2.7702      0.0303     -7.2864     21.3807     68.8930
   646.0000      7.9518      2.7848      0.0558     -8.1699     22.1564     66.9202
   646.1000      7.9518      2.7716      0.0424     -7.3704     23.3874     68.8400
   646.2000      7.9518      2.7202     -0.0044     -4.2523     24.5277     73.4978
   646.3000      7.9260      2.6593     -0.1132     -0.5664     25.2072     78.8102
   646.4000      7.9260      2.6144     -0.1232      2.1582     25.8223     84.1246
   646.5000      7.9029      2.5729     -0.0856      4.6738     26.9649     89.7588
   646.6000      7.9029      2.5178     -0.1147      8.0138     28.4438     97.8021
   646.7000      7.9029      2.4609     -0.1127     11.4617     29.4864    112.2062
   646.8000      7.8936      2.4175     -0.0512     14.0925     29.9501    131.9816
   646.9000      7.8936      2.3878     -0.0528     15.8922     30.2900    148.4394
   647.0000      7.8980      2.3739     -0.0114     16.7313     30.2513    151.4832
   647.1000      7.8980      2.3742      0.0399     16.7134     29.4216    141.5104
   647.2000      7.8980      2.3805      0.0533     16.3359     28.2812    131.9306
   647.3000      7.9177      2.3917      0.0632     15.6573     27.6330    133.6131
   647.4000      7.9177      2.4120      0.0836     14.4232     27.5711    142.2279
   647.5000      7.9425      2.4398      0.1380     12.7424     27.5773    145.7206
   647.6000      7.9425      2.4703      0.0697     10.8912     27.5712    140.6217
   647.7000      7.9425      2.5056      0.0276      8.7545     27.8342    136.6529
   647.8000      7.9535      2.5352      0.0771      6.9575     28.1040    138.3386
   647.9000      7.9535      2.5408      0.0257      6.6183     28.0817    142.0890
   648.0000      7.9522      2.5322      0.0076      7.1423     27.9345    144.5343
   648.1000      7.9522      2.5386      0.0163      6.7526     27.5080    142.9572
   648.2000      7.9522      2.5724      0.0276      4.7030     26.7833    139.7719
   648.3000      7.9470      2.6244      0.0383      1.5530     26.1224    140.1035
   648.4000      7.9470      2.6844      0.0415     -2.0840     25.7021    143.0276
   648.5000      7.9430      2.7449      0.0869     -5.7515     25.5754    142.0633
   648.6000      7.9430      2.7862      0.0977     -8.2533     25.4015    137.1278
   648.7000      7.9430      2.7974      0.0893     -8.9318     24.9635    133.5092
   648.8000      7.9405      2.7968      0.0852     -8.8962     24.7251    130.2234
   648.9000      7.9405      2.8000      0.0888     -9.0893     24.9005    125.5765
   649.0000      7.9383      2.8040      0.0648     -9.3346     25.1684    123.7690
   649.1000      7.9383      2.8028      0.0213     -9.2577     25.1908    126.7076
   649.2000      7.9383      2.7837      0.0505     -8.1058     25.0917    130.3727
   649.3000      7.9383      2.7450     -0.0335     -5.7593     25.1119    131.3399
   649.4000      7.9383      2.7129     -0.0346     -3.8096     25.1348    129.2573
   649.5000      7.9410      2.6978      0.0241     -2.8992     24.9406    126.5603
   649.6000      7.9410      2.6802      0.0459     -1.8299     24.8185    125.7681
   649.7000      7.9410      2.6507      0.0604     -0.0435     24.9087    127.3677
   649.8000      7.9471      2.6140      0.0560      2.1827     24.7876    130.5570
   649.9000      7.9471      2.5843     -0.0074      3.9790     24.5289    131.6259
   650.0000      7.9582      2.5795     -0.0075      4.2721     24.5306    127.7850
   650.1000      7.9582      2.5909      0.0471      3.5797     24.7700    121.0651
   650.2000      7.9582      2.5938      0.0253      3.4042     24.9731    115.5417
   650.3000      7.9729      2.5814      0.0368      4.1598     25.0749    113.4668
   650.4000      7.9729      2.5595      0.0194      5.4865     25.0476    115.0273
   650.5000      7.9858      2.5380     -0.0117      6.7890     24.5058    118.8694
   650.6000      7.9858      2.5367     -0.0308      6.8650     23.4649    120.8194
   650.7000      7.9858      2.5633      0.0196      5.2526     22.5554    118.3826
   650.8000      7.9897      2.6007      0.0431      2.9891     21.9232    110.3816
   650.9000      7.9897      2.6341      0.0365      0.9628     21.4120    101.6265
   651.0000      7.9749      2.6557      0.0723     -0.3443     21.0594    102.9611
   651.1000      7.9749      2.6571      0.0611     -0.4276     20.5931    113.1883
   651.2000      7.9749      2.6458      0.0413      0.2556     19.6913    119.8873
   651.3000      7.9396      2.6371      0.0349      0.7804     18.8551    117.9542
   651.4000      7.9396      2.6365      0.0003      0.8170     18.8835    112.1519
   651.5000      7.9073      2.6430      0.0395      0.4228     19.4088    104.7368
   651.6000      7.9073      2.6541     -0.0171     -0.2487     19.4602     94.4786
   651.7000      7.9073      2.6667      0.0298     -1.0091     18.9773     86.2581
   651.8000      7.8994      2.6809     -0.0311     -1.8701     18.7419     86.5658
   651.9000      7.8994      2.6947      0.0726     -2.7107     19.2491     92.4556
   652.0000      7.9046      2.6896      0.0609     -2.4003     19.8522     96.8286
   652.1000      7.9046      2.6557      0.0635     -0.3473     20.1505     96.8839
   652.2000      7.9046      2.6097      0.0290      2.4400     20.7280     94.3972
   652.3000      7.9076      2.5766     -0.0021      4.4512     21.5506     92.0497
   652.4000      7.9076      2.5567      0.0704      5.6542     22.0755     91.1703
   652.5000      7.9108      2.5358     -0.0304      6.9233     22.3730     91.1530
   652.6000      7.9108      2.5164      0.0080      8.0945     22.6287     91.4031
   652.7000      7.9108      2.5043      0.0066      8.8278     22.7120     92.7926
   652.8000      7.9137      2.5043     -0.0111      8.8306     22.7554     96.2652
   652.9000      7.9137      2.5164      0.0353      8.0998     22.6183     99.5460
   653.0000      7.9121      2.5270      0.0306      7.4523     21.9421    102.0760
   653.1000      7.9121      2.5273      0.0370      7.4356     21.2695    102.6903
   653.2000      7.9121      2.5216      0.0404      7.7846     21.2466     98.6082
   653.3000      7.9023      2.5162      0.0333      8.1109     21.3604     94.2202
   653.4000      7.9023      2.5123      0.0655      8.3462     20.7643     92.1472
   653.5000      7.8862      2.5124      0.0549      8.3370     19.8450     88.5876
   653.6000      7.8862      2.5168      0.1211      8.0724     19.3748     82.6906
   653.7000      7.8862      2.5164      0.0840      8.0958     19.1997     76.2524
   653.8000      7.8836      2.5133      0.0384      8.2868     18.7657     71.2132
   653.9000      7.8836      2.5147      0.0531      8.2012     18.0060     69.0589
   654.0000      7.9141      2.5129      0.0358      8.3079     17.4930     67.7289
   654.1000      7.9141      2.4994      0.0533      9.1245     17.5306     64.4456
   654.2000      7.9141      2.4849     -0.0180     10.0083     17.8093     59.0652
   654.3000      7.9538      2.4943     -0.0339      9.4355     17.7233     56.3375
   654.4000      7.9538      2.5255      0.0522      7.5425     17.0507     59.4773
   654.5000      7.9643      2.5412      0.0494      6.5921     16.4141     64.9568
   654.6000      7.9643      2.5269      0.0185      7.4609     16.4655     70.0414
   654.7000      7.9643      2.5049     -0.0060      8.7969     17.1943     73.7752
   654.8000      7.9541      2.4926      0.0154      9.5411     17.8242     74.2403
   654.9000      7.9541      2.4937      0.0210      9.4729     17.5776     70.0633
   655.0000      7.9432      2.5137      0.0228      8.2632     16.6960     65.5772
