~Version Information
VERS.                                  2.0 : CWLS LAS VERSION
WRAP.                                   NO : WRAPING MODE
SWARE .                 MController 2.5.0J : SOFTWARE VERSION
~Well Information
WELL.                         State 16-43V : WELL
COMP.                       Petrogulf CORP : COMPANY
FLD.                NE/SE Sec 16 T33S R67W : FIELD
LOC.                      Purgatoire River : LOCATION
DATE.                            12/3-4/04 : DATE(S) LOGGED
SRVC.        Blanco Geological Service LLC : SERVICE COMPANY
STAT.                                   CO : STATE
CNTY.                            Las Animas: COUNTY
CTRY.                                  USA : COUNTRY
API.                           05-071-08015: API NUMBER
STRT.FT                             626.00 : START DEPTH
STOP.FT                            2125.00 : STOP DEPTH
STEP.FT                               1.00 : DEPTH INCREMENT
NULL.                                -9999 : NULL VALUE
~Curve information
DEPTH.FT                                   :
ROP.MIN/FT                                 :
GAS.UNITS                                  :
~ASCII Log data
# ...
      1244.0         0.20          3.6
      1245.0         0.17          3.5
      1246.0         0.20          3.7
      1247.0         0.20          4.1
      1248.0         0.20          6.7
      1249.0         0.23          9.3
      1250.0         0.23         10.6
      1251.0         0.23         10.5
      1252.0         0.33         12.8
      1253.0         0.23         13.1
      1254.0         0.23         13.9
      1255.0         0.22         12.7
      1256.0         0.17         12.4
      1257.0         0.27         15.5
      1258.0         0.35         20.0
      1259.0         0.27         23.2
      1260.0         0.30         20.8
      1261.0         0.23         21.5
      1262.0         0.23         22.7
      1263.0         0.23         24.8
      1264.0         0.23         25.0
      1265.0         0.23         22.2
      1266.0         0.20         21.2
      1267.0         0.23         20.5
      1268.0         0.27         19.8
      1269.0         0.27         18.4
      1270.0         0.30         16.1
      1271.0         0.20         15.3
      1272.0         0.18         14.9
      1273.0         0.20         14.5
      1274.0         0.27         14.1
      1275.0         0.27         13.5
      1276.0         0.23         12.9
      1277.0         0.30         12.9
      1278.0         0.17         13.6
      1279.0         0.20         13.4
      1280.0         0.17         12.8
      1281.0         0.17         12.2
      1282.0         0.23         11.3
      1283.0         0.23         12.0
      1284.0         0.20         11.8
      1285.0         0.30         11.9
      1286.0         0.28         16.0
      1287.0         0.53         25.2
      1288.0         0.33         25.0
      1289.0         0.25         23.1
      1290.0         0.27         22.8
      1291.0         0.23         22.6
      1292.0         0.17         22.6
      1293.0         0.40         21.4
      1294.0         0.33         21.4
      1295.0         0.27         21.7
      1296.0         0.30         19.7
      1297.0         0.27         19.0
      1298.0         0.23         17.3
      1299.0         0.30         15.5
      1300.0         0.45         14.5
      1301.0         0.27         13.8
      1302.0         0.30         13.8
      1303.0         0.17         12.0
      1304.0         0.13         11.2
      1305.0         0.20         10.7
      1306.0         0.20         10.4
      1307.0         0.20         11.3
      1308.0         0.17         12.1
      1309.0         0.20         10.8
      1310.0         0.20         10.9
      1311.0         0.17         12.1
      1312.0         0.23         13.0
      1313.0         0.30         10.5
      1314.0         0.20         10.5
      1315.0         0.17         11.1
      1316.0         0.28         34.2
      1317.0         0.27         41.4
      1318.0         0.35         44.7
      1319.0         0.33         41.1
      1320.0         0.30         36.5
      1321.0         0.27         36.7
      1322.0         0.27         38.8
      1323.0         0.27         38.3
      1324.0         0.27         35.8
      1325.0         0.23         34.9
      1326.0         0.23         33.4
      1327.0         0.20         32.2
      1328.0         0.17         29.6
      1329.0         0.13         29.1
      1330.0         0.10         28.3
      1331.0         0.13         27.2
      1332.0         0.13         27.1
      1333.0         0.22         25.4
      1334.0         0.27         23.7
      1335.0         0.17         23.2
      1336.0         0.17         22.1
      1337.0         0.23         21.8
      1338.0         0.30         22.1
      1339.0         0.20         22.1
      1340.0         0.20         21.9
      1341.0         0.27         20.9
      1342.0         0.20         21.1
      1343.0         0.20         21.4
      1344.0         0.23         21.9
      1345.0         0.20         21.6
      1346.0         0.37         26.6
      1347.0         0.27         31.6
      1348.0         0.27         35.2
      1349.0         0.32         36.6
      1350.0         0.27         33.9
      1351.0         0.30         32.7
      1352.0         0.30         35.0
      1353.0         0.17         36.1
      1354.0         0.23         34.8
      1355.0         0.23         32.0
      1356.0         0.23         31.3
      1357.0         0.23         29.8
      1358.0         0.20         28.9
      1359.0         0.23         28.5
      1360.0         0.23         26.2
      1361.0         0.17         24.7
      1362.0         0.27         24.7
      1363.0         0.35         21.8
      1364.0         0.33         20.1
      1365.0         0.23         19.5
      1366.0         0.23         19.0
      1367.0         0.23         19.9
      1368.0         0.30         18.6
      1369.0         0.33         17.5
      1370.0         0.33         16.2
      1371.0         0.23         17.1
      1372.0         0.13         17.3
      1373.0         0.17         17.6
      1374.0         0.13         18.3
      1375.0         0.20         17.1
      1376.0         0.28         34.0
      1377.0         0.20         35.2
      1378.0         0.22         35.1
      1379.0         0.37         33.3
      1380.0         0.43         33.6
      1381.0         0.20         35.4
      1382.0         0.17         34.5
      1383.0         0.20         34.5
      1384.0         0.17         32.6
      1385.0         0.17         31.9
      1386.0         0.17         31.3
      1387.0         0.23         29.9
      1388.0         0.23         27.1
      1389.0         0.20         25.3
      1390.0         0.20         24.8
      1391.0         0.20         22.5
      1392.0         0.25         20.8
      1393.0         0.23         21.9
      1394.0         0.17         20.8
      1395.0         0.17         20.7
      1396.0         0.17         19.7
      1397.0         0.13         19.8
      1398.0         0.17         19.7
      1399.0         0.23         17.3
      1400.0         0.17         16.7
      1401.0         0.17         17.0
      1402.0         0.17         18.0
      1403.0         0.17         18.5
      1404.0         0.13         17.1
      1405.0         0.27         17.6
      1406.0         0.27         29.8
      1407.0         0.23         35.9
      1408.0         0.23         38.6
      1409.0         0.30         37.2
      1410.0         0.37         33.4
      1411.0         0.32         32.2
      1412.0         0.27         32.8
      1413.0         0.40         32.6
      1414.0         0.37         30.9
      1415.0         0.20         30.5
      1416.0         0.13         28.3
      1417.0         0.13         27.2
      1418.0         0.17         25.5
      1419.0         0.13         24.3
      1420.0         0.20         24.6
      1421.0         0.20         22.9
      1422.0         0.23         23.1
      1423.0         0.23         22.8
      1424.0         0.23         22.2
      1425.0         0.28         23.4
      1426.0         0.23         21.9
      1427.0         0.20         20.8
      1428.0         0.23         19.3
      1429.0         0.23         19.3
      1430.0         0.20         19.8
      1431.0         0.23         19.4
      1432.0         0.20         17.7
      1433.0         0.23         18.1
      1434.0         0.23         18.1
      1435.0         0.20         18.5
      1436.0         0.27         38.3
      1437.0         0.30         34.6
      1438.0         0.25         31.4
      1439.0         0.23         31.0
      1440.0         0.17         31.2
      1441.0         0.20         32.0
      1442.0         0.23         32.4
      1443.0         0.23         31.6
      1444.0         0.23         31.1
      1445.0         0.17         30.1
      1446.0         0.20         28.7
      1447.0         0.27         28.5
      1448.0         0.23         28.9
      1449.0         0.27         28.6
