~Version Information
VERS.                      2.0: CWLS Log ASCII Standard - VERSION 2.0
WRAP.                       NO: One line per depth step
~Well Information Block
STRT.FT               590.0000: 
STOP.FT              1563.5000: 
STEP.FT                 0.1000: 
NULL.                -999.2500: 
COMP.          Petrogulf Corporation: COMPANY
WELL.             State 16-43R: WELL
FLD.           Purgatorie River: FIELD
LOC.           2538' FSL & 716' FEL: LOCATION
PROV.                 Colorado: PROVINCE
CNTY.               Las Animas: COUNTRY
SRVC.                Patterson: SERVICE COMPANY
DATE.          Tue Aug 09 14:21:37 2005: LOG DATE
UWI.                          : UNIQUE WELL ID
~Curve Information Block
DEPT.FT            0 000 00 00: Depth
DCAL.in                       : CDL Caliper
RHOB.g/cc                     : CDL Bulk Density
RHOC.g/cc                     : CDL Density Correction
DPOR.pu                       : CDL Density Porosity
GR.GAPI                       : Gamma Ray
NPOR.pu                       : Neutron Porosity
~Parameter Information Block
~A  Depth       DCAL        RHOB        RHOC        DPOR         GR         NPOR    
# ...
  1463.6000      8.1121      1.9854      0.0507     40.2791    158.1153     19.7610
  1463.7000      8.1121      1.9994      0.0997     39.4303    157.6115     19.8203
  1463.8000      8.1416      2.0334      0.1288     37.3709    154.3243     20.1373
  1463.9000      8.1416      2.0815      0.1657     34.4525    149.1149     20.5993
  1464.0000      8.1617      2.1352      0.1932     31.2023    145.0293     20.9066
  1464.1000      8.1617      2.1803      0.1709     28.4663    144.0504     20.9932
  1464.2000      8.1617      2.2136      0.1170     26.4503    145.9105     21.0745
  1464.3000      8.0975      2.2514      0.0917     24.1598    148.0027     21.2848
  1464.4000      8.0975      2.3082      0.0797     20.7149    148.6302     21.5162
  1464.5000      8.0547      2.3734      0.1520     16.7618    149.2413     21.6675
  1464.6000      8.0547      2.4227      0.1519     13.7772    153.2253     21.7777
  1464.7000      8.0547      2.4492      0.1381     12.1678    160.7772     21.9515
  1464.8000      8.0477      2.4631      0.1126     11.3274    165.5074     22.3048
  1464.9000      8.0477      2.4707      0.1175     10.8651    164.2274     22.7129
  1465.0000      8.0420      2.4758      0.0842     10.5570    161.8529     22.9119
  1465.1000      8.0420      2.4874      0.0543      9.8521    163.0611     22.8986
  1465.2000      8.0420      2.5082      0.0520      8.5930    166.4239     22.8754
  1465.3000      8.0567      2.5282      0.0793      7.3806    167.1611     22.9609
  1465.4000      8.0567      2.5346      0.1029      6.9930    165.2004     23.2091
  1465.5000      8.0472      2.5234      0.0708      7.6699    163.3812     23.5026
  1465.6000      8.0472      2.5086      0.0131      8.5683    162.0647     23.7669
  1465.7000      8.0472      2.5090      0.0299      8.5428    161.0104     24.2206
  1465.8000      8.0259      2.5252      0.0437      7.5633    159.1347     24.9043
  1465.9000      8.0259      2.5431      0.0679      6.4798    154.9500     25.4411
  1466.0000      8.0195      2.5544      0.0622      5.7935    148.7962     25.5317
  1466.1000      8.0195      2.5587      0.0823      5.5328    142.5041     25.3283
  1466.2000      8.0195      2.5599      0.0283      5.4627    135.6197     25.1450
  1466.3000      8.0094      2.5646      0.0399      5.1732    126.2330     24.9174
  1466.4000      8.0094      2.5691      0.0919      4.9032    116.0141     24.6063
  1466.5000      7.9926      2.5633      0.0633      5.2519    107.8483     24.5195
  1466.6000      7.9926      2.5524      0.0109      5.9159    102.8438     24.6226
  1466.7000      7.9926      2.5446      0.0586      6.3857    100.0990     24.3507
  1466.8000      7.9872      2.5369      0.0548      6.8557     96.8623     23.4608
  1466.9000      7.9872      2.5340     -0.0058      7.0293     91.9342     22.5248
  1467.0000      8.0315      2.5418      0.0628      6.5560     87.7170     21.9846
  1467.1000      8.0315      2.5498      0.0631      6.0708     86.7230     21.5341
  1467.2000      8.0315      2.5568      0.0614      5.6464     87.7247     21.0187
  1467.3000      8.0669      2.5659      0.1160      5.0949     86.8338     20.7691
  1467.4000      8.0669      2.5679      0.1046      4.9763     82.4464     20.8295
  1467.5000      8.0942      2.5602      0.1070      5.4426     77.6447     20.8104
  1467.6000      8.0942      2.5499      0.0838      6.0652     75.3198     20.5761
  1467.7000      8.0942      2.5409      0.0840      6.6121     74.3262     20.3894
  1467.8000      8.0774      2.5337      0.0480      7.0494     74.4086     20.3257
  1467.9000      8.0774      2.5297      0.0508      7.2939     75.9252     20.1878
  1468.0000      8.0529      2.5311      0.0661      7.2077     77.7323     19.8572
  1468.1000      8.0529      2.5378      0.0953      6.7978     79.6104     19.3570
  1468.2000      8.0529      2.5471      0.0630      6.2354     80.9785     18.7768
  1468.3000      7.9979      2.5509      0.1300      6.0049     80.9477     18.2204
  1468.4000      7.9979      2.5416      0.0829      6.5683     81.2151     17.7755
  1468.5000      8.0172      2.5268      0.1091      7.4690     84.5125     17.4479
  1468.6000      8.0172      2.5178      0.0788      8.0117     89.0831     17.1542
  1468.7000      8.0172      2.5138      0.0912      8.2545     91.0482     17.0251
  1468.8000      8.0284      2.5063      0.0524      8.7093     90.1249     17.1292
  1468.9000      8.0284      2.4911      0.0873      9.6289     88.7819     17.1521
  1469.0000      7.9845      2.4720      0.0425     10.7893     88.7110     16.9008
  1469.1000      7.9845      2.4598      0.0400     11.5302     88.5048     16.6518
  1469.2000      7.9845      2.4606      0.0646     11.4788     87.0091     16.6401
  1469.3000      8.0086      2.4723      0.0893     10.7705     84.6089     16.7704
  1469.4000      8.0086      2.4891      0.0718      9.7528     81.7068     17.0020
  1469.5000      8.0874      2.4992      0.1246      9.1370     77.9348     17.2538
  1469.6000      8.0874      2.4964      0.0508      9.3063     72.4750     17.3028
  1469.7000      8.0874      2.4898      0.0627      9.7115     66.5626     17.0307
  1469.8000      8.0572      2.4817      0.0755     10.1987     62.8977     16.5208
  1469.9000      8.0572      2.4633      0.0912     11.3158     62.8407     16.1310
  1470.0000      8.0256      2.4359      0.0600     12.9732     64.6616     16.0366
  1470.1000      8.0256      2.4092      0.0454     14.5950     65.8153     16.1002
  1470.2000      8.0256      2.3810      0.1035     16.3056     66.5917     16.1871
  1470.3000      7.9963      2.3509      0.0504     18.1262     68.2408     16.1614
  1470.4000      7.9963      2.3393      0.0354     18.8281     70.5198     15.9320
  1470.5000      7.9565      2.3581      0.0862     17.6931     72.6851     15.5828
  1470.6000      7.9565      2.3935      0.1223     15.5477     73.4162     15.2281
  1470.7000      7.9565      2.4306      0.1394     13.2967     71.9538     15.0654
  1470.8000      7.9626      2.4636      0.1880     11.2953     69.7191     15.2537
  1470.9000      7.9626      2.4893      0.2212      9.7399     68.8274     15.6055
  1471.0000      7.9898      2.5091      0.1937      8.5369     69.5279     15.8039
  1471.1000      7.9898      2.5260      0.2087      7.5150     71.2877     15.7087
  1471.2000      7.9898      2.5351      0.1943      6.9618     72.5587     15.6260
  1471.3000      8.0025      2.5328      0.1799      7.1038     71.7959     15.8977
  1471.4000      8.0025      2.5272      0.1383      7.4454     71.1463     16.2456
  1471.5000      8.0113      2.5277      0.1062      7.4133     73.8345     16.4446
  1471.6000      8.0113      2.5287      0.1240      7.3495     79.2562     16.7536
  1471.7000      8.0113      2.5232      0.0913      7.6839     83.4361     17.3114
  1471.8000      8.0550      2.5174      0.1121      8.0386     86.4392     18.0805
  1471.9000      8.0550      2.5140      0.1381      8.2395     92.8318     19.0098
  1472.0000      8.0339      2.5108      0.0612      8.4336    102.8037     19.8709
  1472.1000      8.0339      2.5115      0.1184      8.3930    113.4342     20.3904
  1472.2000      8.0339      2.5179      0.0946      8.0032    123.9738     20.6465
  1472.3000      7.9593      2.5331      0.0818      7.0843    134.5211     21.0701
  1472.4000      7.9593      2.5572      0.1012      5.6240    144.6684     22.0177
  1472.5000      7.9664      2.5729      0.1893      4.6756    152.1063     23.2946
  1472.6000      7.9664      2.5593      0.2059      5.4949    155.5398     24.3328
  1472.7000      7.9664      2.5215      0.1752      7.7854    158.7612     25.0110
  1472.8000      7.8900      2.4866      0.1438      9.9035    163.7079     25.7805
  1472.9000      7.8900      2.4822      0.0834     10.1699    165.3983     27.0090
  1473.0000      7.8402      2.5199      0.1171      7.8852    163.3077     28.4917
  1473.1000      7.8402      2.5852      0.1542      3.9296    163.1832     29.6879
