~Version Information
VERS.                      2.0: CWLS Log ASCII Standard - VERSION 2.0
WRAP.                       NO: One line per depth step
~Well Information Block
STRT.FT                -9.5000: 
STOP.FT              2893.0000: 
STEP.FT                 0.2500: 
NULL.                -999.2500: 
COMP.          Pioneer Natural Resources: COMPANY
WELL.          Old Yeller 31-32: WELL
FLD.           Purgatoire River: FIELD
LOC.           1832' FEL & 793' FNL----: LOCATION
STAT.                 Colorado: State
CNTY.               Las Animas: COUNTY
CTRY. USA : Country
SECT. 32 : Section
TOWN. 32S : Township
RANG. 67W : Range
SRVC.                         : SERVICE COMPANY
DATE.          Fri Sep 02 16:45:38 2005: LOG DATE
API. 05-071-08356                         : UNIQUE WELL ID
~Curve Information Block
DEPT.FT            0 000 00 00: Depth
CCL.                          : Casing Collar Locator
TT3.usec                      : CBL 3' Travel Time
AMP5.mV                       : CBL 5' Amplitude
GR.GAPI                       : Gamma Ray
~Parameter Information Block
~A  Depth       CCL         TT3         AMP5         GR     
# ...
  2503.0000      0.0000    404.8201      0.3870    126.6334
  2503.2500      0.0000    397.5689      0.3000    135.4495
  2503.5000      0.0000    400.2164      0.2129    144.9129
  2503.7500      0.0000    411.2258     -0.0482    153.0611
  2504.0000      0.0000    429.1943      0.5611    158.6689
  2504.2500      0.0000    449.6024      0.7352    161.8345
  2504.5000      0.0000    465.5156      0.4741    163.3474
  2504.7500      0.0000    471.3672      0.8223    163.5967
  2505.0000      0.0000    465.4171      0.9093    162.4038
  2505.2500      0.0000    449.6190      0.3870    159.6700
  2505.5000      0.0000    428.5256      0.4741    155.5271
  2505.7500      0.0000    407.4644      0.7352    150.1991
  2506.0000      0.0000    390.1626      0.5611    144.5741
  2506.2500      0.0000    377.5348      0.9964    140.4048
  2506.5000      0.0000    368.5596      0.9964    138.8090
  2506.7500      0.0000    362.1192      0.6482    139.0067
  2507.0000      0.0000    358.1243      0.9093    139.4044
  2507.2500      0.0000    357.3529      0.6482    139.3708
  2507.5000      0.0000    360.4267      0.7352    139.3772
  2507.7500      0.0000    366.8568      0.3870    140.0774
  2508.0000      0.0000    374.8607      0.6482    141.5820
  2508.2500      0.0000    382.2032      0.5611    143.0000
  2508.5000      0.0000    387.4176      0.4741    142.6293
  2508.7500      0.0000    390.3197      0.9093    139.2278
  2509.0000      0.0000    391.5334      0.4741    133.2521
  2509.2500      0.0000    391.7589      0.4741    126.5968
  2509.5000      0.0000    391.4528      0.8223    121.2261
  2509.7500      0.0000    390.8672      0.3870    118.1609
  2510.0000      0.0000    390.1605      0.6482    117.2768
  2510.2500      0.0000    389.4547      0.5611    117.6410
  2510.5000      0.0000    388.8626      0.9964    118.2844
  2510.7500      0.0000    388.4881      0.9093    118.9733
  2511.0000      0.0000    388.4442      0.4741    119.9366
  2511.2500      0.0000    388.9528      0.8223    120.6236
  2511.5000      0.0000    390.5628      1.0834    119.4656
  2511.7500      0.0000    394.3206      1.0834    115.7037
  2512.0000      0.0000    401.5473      0.3870    111.1343
  2512.2500      0.0000    413.2369      0.6482    109.0372
  2512.5000      0.0000    429.7179      0.8223    110.9707
  2512.7500      0.0000    451.3419      0.6482    114.8965
  2513.0000      0.0000    479.3369      0.7352    116.7717
  2513.2500      0.0000    514.3588      0.3000    114.0243
  2513.5000      0.0000    551.8834      0.6482    107.6952
  2513.7500      0.0000    579.1031      0.2129    101.5547
  2514.0000      0.0000    580.1667      0.4741     99.1945
  2514.2500      0.0000    548.4709      0.7352    101.5741
  2514.5000      0.0000    494.1463      0.2129    106.7968
  2514.7500      0.0000    437.9053      0.1259    111.8276
  2515.0000      0.0000    397.5569      0.4741    114.4062
  2515.2500      0.0000    380.7113      0.7352    113.9509
  2515.5000      0.0000    387.3062      0.1259    111.4433
  2515.7500      0.0000    413.9593      0.2129    108.5721
  2516.0000      0.0000    453.9256      0.2129    106.5417
  2516.2500      0.0000    495.7266      0.7352    105.4351
  2516.5000      0.0000    525.6900      0.0389    104.6220
  2516.7500      0.0000    533.6034      0.3000    103.5774
  2517.0000      0.0000    517.1537      0.3870    102.2912
  2517.2500      0.0000    483.5192      0.2129    101.0261
  2517.5000      0.0000    447.9262      0.3000     99.7053
  2517.7500      0.0000    427.8025      0.2129     97.6375
  2518.0000      0.0000    433.1833      0.5611     94.1112
  2518.2500      0.0000    459.4294      0.3000     89.1806
  2518.5000      0.0000    490.4515      0.3870     83.5839
  2518.7500      0.0000    513.0117      0.6482     78.0678
  2519.0000      0.0000    528.6652      0.2129     73.1577
  2519.2500      0.0000    548.8616      0.9964     69.3951
  2519.5000      0.0000    579.1841      0.5611     67.3040
  2519.7500      0.0000    612.9650      1.1705     67.0220
  2520.0000      0.0000    639.8607      0.6482     68.0367
  2520.2500      0.0000    655.5921      0.6482     69.2744
  2520.5000      0.0000    662.5250      0.5611     69.6031
  2520.7500      0.0000    664.8716      0.9093     68.5338
  2521.0000      0.0000    665.4708      0.9964     66.5294
  2521.2500      0.0000    665.5283      0.7352     64.5905
  2521.5000      0.0000    665.4330      0.5611     63.4974
  2521.7500      0.0000    665.2930      0.8223     63.5123
  2522.0000      0.0000    665.0368      0.4741     64.7392
  2522.2500      0.0000    664.3453      0.2129     67.1956
  2522.5000      0.0000    662.7187      0.6482     70.0971
  2522.7500      0.0000    659.8273      0.6482     71.6010
  2523.0000      0.0000    655.8507      0.4741     70.1156
  2523.2500      0.0000    651.3277      0.5611     65.9239
  2523.5000      0.0000    646.7709      0.9093     60.9799
  2523.7500      0.0000    642.8159      0.2129     57.0788
  2524.0000      0.0000    640.4957      0.9964     54.6059
  2524.2500      0.0000    640.4261      0.5611     52.9327
  2524.5000      0.0000    641.4713      0.9093     51.4191
  2524.7500      0.0000    640.7913      0.7352     49.8613
  2525.0000      0.0000    635.6152      1.0834     48.4219
  2525.2500      0.0000    625.0248      1.0834     47.5287
  2525.5000      0.0000    610.0510      0.8223     47.8687
  2525.7500      0.0000    591.8398      0.9093     50.3026
  2526.0000      0.0000    569.7480      0.8223     55.5199
  2526.2500      0.0000    542.2011      0.5611     63.5565
  2526.5000      0.0000    510.9327      0.5611     73.5855
  2526.7500      0.0000    484.0016      0.8223     84.0356
  2527.0000      0.0000    471.6978      0.7352     92.9154
  2527.2500      0.0000    476.9400      0.5611     98.4590
  2527.5000      0.0000    490.1076      0.7352     99.8229
  2527.7500      0.0000    495.3743      0.6482     97.2365
  2528.0000      0.0000    483.2909      0.6482     91.6763
  2528.2500      0.0000    457.3430      0.5611     84.5934
  2528.5000      0.0000    429.1949      0.8223     77.6215
  2528.7500      0.0000    409.4988      0.9964     72.0903
  2529.0000      0.0000    404.0037      0.7352     68.7291
  2529.2500      0.0000    415.8481      1.1705     67.6964
  2529.5000      0.0000    447.0762      0.9093     68.6471
  2529.7500      0.0000    495.3681      1.0834     70.9499
  2530.0000      0.0000    550.9340      0.9964     74.1264
  2530.2500      0.0000    600.1754      1.0834     77.9537
  2530.5000      0.0000    633.8220      0.7352     82.0650
  2530.7500      0.0000    650.6252      0.9964     85.7391
  2531.0000      0.0000    653.4243      1.0834     88.3270
  2531.2500      0.0000    643.2127      0.7352     89.7880
  2531.5000      0.0000    617.6939      0.6482     90.7151
  2531.7500      0.0000    575.2944      0.8223     91.8861
  2532.0000      0.0000    520.2385      0.4741     93.7040
  2532.2500      0.0000    462.9696      0.7352     95.8396
  2532.5000      0.0000    414.8953      0.6482     97.3511
  2532.7500      0.0000    382.6191      1.1705     97.4174
  2533.0000      0.0000    366.6433      0.7352     96.2381
  2533.2500      0.0000    363.7405      1.0834     95.1118
  2533.5000      0.0000    369.4401      0.2129     95.4273
  2533.7500      0.0000    379.2436      1.3446     97.6290
  2534.0000      0.0000    389.4089      0.6482    101.2454
  2534.2500      0.0000    397.6735      1.4316    105.8655
  2534.5000      0.0000    403.4279      1.0834    111.8549
  2534.7500      0.0000    407.4056      1.3446    119.8699
  2535.0000      0.0000    411.3502      0.5611    129.6458
  2535.2500      0.0000    417.4368      1.5186    139.4504
  2535.5000      0.0000    427.1512      0.9093    146.7897
  2535.7500      0.0000    440.2967      1.1705    149.6326
  2536.0000      0.0000    454.8681      1.6057    147.2589
  2536.2500      0.0000    467.7316      1.1705    140.5000
