~Version Information
VERS.                      2.0: CWLS Log ASCII Standard - VERSION 2.0
WRAP.                       NO: One line per depth step
~Well Information Block
STRT.FT                -7.0000: 
STOP.FT              1863.5000: 
STEP.FT                 0.2500: 
NULL.                -999.2500: 
COMP.          Pioneer Natural Resources: COMPANY
WELL.            Formula 23-11: WELL
FLD.           Purgatorie River: FIELD
LOC.           1976' FSL & 1935' FWL--: LOCATION
PROV.                       CO: PROVINCE
CNTY.               Las Animas: COUNTRY
SRVC.          Patterson Wireline: SERVICE COMPANY
DATE.          Wed Jun 15 14:44:40 2005: LOG DATE
UWI.           05 071 08399 00: UNIQUE WELL ID
~Curve Information Block
DEPT.FT            0 000 00 00: Depth
CCL.                          : Casing Collar Locator
TT3.usec                      : CBL 3' Travel Time
AMP3.mV                       : CBL 3' Amplitude
GR.GAPI                       : Gamma Ray
~Parameter Information Block
~A  Depth       CCL         TT3         AMP3         GR     
# ...
   864.0000      0.0000    856.2211      5.4451    132.0411
   864.2500      0.0000    859.0587      5.4254    139.6847
   864.5000      0.0000    860.8158      5.3848    144.4735
   864.7500      0.0000    860.8122      5.3499    146.3064
   865.0000      0.0000    858.9595      5.3576    146.0625
   865.2500      0.0000    855.8104      5.4185    144.4525
   865.5000      0.0000    851.7039      5.5029    141.6530
   865.7500      0.0000    846.6182      5.5601    138.1835
   866.0000      0.0000    841.1318      5.5475    135.2890
   866.2500      0.0000    836.8823      5.4492    133.8624
   866.5000      0.0000    835.6209      5.2881    133.4961
   866.7500      0.0000    837.9111      5.1287    133.3361
   867.0000      0.0000    842.7102      5.0431    133.4956
   867.2500      0.0000    848.1088      5.0540    134.7689
   867.5000      0.0000    852.7069      5.1167    137.1234
   867.7500      0.0000    856.4030      5.1649    139.3331
   868.0000      0.0000    859.7540      5.1701    140.1589
   868.2500      0.0000    862.8804      5.1537    139.4259
   868.5000      0.0000    865.3854      5.1516    137.9751
   868.7500      0.0000    867.0201      5.1707    136.7795
   869.0000      0.0000    867.9499      5.1809    135.9838
   869.2500      0.0000    868.4860      5.1627    134.8194
   869.5000      0.0000    868.7994      5.1550    132.8010
   869.7500      0.0000    868.7750      5.2289    130.8372
   870.0000      0.0000    867.8927      5.3982    130.5212
   870.2500      0.0000    865.2841      5.5779    132.2317
   870.5000      0.0000    860.2874      5.6530    134.5760
   870.7500      0.0000    853.3945      5.5840    136.0142
   871.0000      0.0000    846.7091      5.4401    136.6407
   871.2500      0.0000    842.9003      5.3329    137.9379
   871.5000      0.0000    843.1862      5.3241    140.9405
   871.7500      0.0000    846.4758      5.3926    145.1895
   872.0000      0.0000    850.7360      5.4845    149.5073
   872.2500      0.0000    854.8033      5.5706    152.9527
   872.5000      0.0000    858.5154      5.6453    154.5904
   872.7500      0.0000    861.7256      5.6907    153.1512
   873.0000      0.0000    863.9510      5.6719    147.9852
   873.2500      0.0000    864.6743      5.5687    140.3811
   873.5000      0.0000    863.4366      5.4030    133.2900
   873.7500      0.0000    859.9409      5.2238    129.4056
   874.0000      0.0000    854.7174      5.0565    129.4290
   874.2500      0.0000    849.6900      4.8832    131.8108
   874.5000      0.0000    847.4429      4.6990    133.8810
   874.7500      0.0000    849.3839      4.5563    133.5897
   875.0000      0.0000    854.8171      4.5048    130.8090
   875.2500      0.0000    862.2350      4.5127    127.3116
   875.5000      0.0000    871.6620      4.4991    125.2882
   875.7500      0.0000    884.8955      4.4370    125.5022
   876.0000      0.0000    902.0393      4.3994    126.9013
   876.2500      0.0000    917.5941      4.5029    128.1637
   876.5000      0.0000    922.3980      4.8027    129.2062
   876.7500      0.0000    911.8725      5.2236    130.8147
   877.0000      0.0000    891.4178      5.5986    133.4122
   877.2500      0.0000    871.9123      5.8045    136.7632
   877.5000      0.0000    860.8081      5.8565    140.2633
   877.7500      0.0000    858.3992      5.8547    143.0681
   878.0000      0.0000    860.7278      5.8638    144.6378
   878.2500      0.0000    863.9741      5.8767    145.5526
   878.5000      0.0000    866.3944      5.8744    147.2755
   878.7500      0.0000    867.8057      5.8698    150.8667
   879.0000      0.0000    868.4329      5.8799    155.9310
   879.2500      0.0000    868.2717      5.8862    160.4645
   879.5000      0.0000    867.0757      5.8575    161.6451
   879.7500      0.0000    864.6176      5.8088    157.7019
   880.0000      0.0000    861.1999      5.8063    149.7674
   880.2500      0.0000    858.0513      5.8969    141.6345
   880.5000      0.0000    856.8361      6.0483    137.2108
   880.7500      0.0000    858.2924      6.1771    138.0729
   881.0000      0.0000    861.5019      6.2286    142.8127
   881.2500      0.0000    864.7911      6.2139    148.0915
   881.5000      0.0000    867.1506      6.1778    150.8158
   881.7500      0.0000    868.4632      6.1508    150.2610
   882.0000      0.0000    868.5687      6.1370    148.1805
   882.2500      0.0000    866.6246      6.1357    146.6163
   882.5000      0.0000    861.7408      6.1584    145.7279
   882.7500      0.0000    854.2074      6.2147    143.7126
   883.0000      0.0000    845.6890      6.2799    138.4053
   883.2500      0.0000    837.9617      6.2929    129.0034
   883.5000      0.0000    831.4530      6.2089    116.9060
   883.7500      0.0000    825.1138      6.0620    105.2420
   884.0000      0.0000    817.7869      5.9554     97.0736
   884.2500      0.0000    809.6065      5.9736     93.4354
   884.5000      0.0000    801.9483      6.1090     92.9679
   884.7500      0.0000    796.3430      6.2779     93.5195
   885.0000      0.0000    793.6343      6.3910     93.7913
   885.2500      0.0000    793.6135      6.4015     93.2989
   885.5000      0.0000    794.9748      6.3097     91.5206
   885.7500      0.0000    795.9980      6.1488     88.0555
   886.0000      0.0000    795.6547      5.9663     83.4026
   886.2500      0.0000    793.8779      5.7989     78.8300
   886.5000      0.0000    790.9080      5.6595     75.4487
   886.7500      0.0000    786.9231      5.5490     73.6860
   887.0000      0.0000    782.3359      5.4766     73.3880
   887.2500      0.0000    777.9689      5.4606     73.9232
   887.5000      0.0000    774.6205      5.5079     74.2124
   887.7500      0.0000    772.5828      5.5981     73.1702
   888.0000      0.0000    771.6776      5.6968     70.5015
   888.2500      0.0000    771.6365      5.7931     67.1309
   888.5000      0.0000    772.3847      5.9174     64.9177
   888.7500      0.0000    774.1665      6.1067     66.0221
   889.0000      0.0000    777.5131      6.3472     72.1871
   889.2500      0.0000    782.8823      6.5675     83.7445
   889.5000      0.0000    790.0074      6.6971     98.7625
   889.7500      0.0000    797.7738      6.7232    113.6686
   890.0000      0.0000    805.1540      6.6906    125.4241
   890.2500      0.0000    811.9795      6.6517    133.2862
   890.5000      0.0000    818.0339      6.6192    138.5352
   890.7500      0.0000    821.7407      6.5577    142.7955
   891.0000      0.0000    821.0593      6.4192    146.8991
   891.2500      0.0000    815.7757      6.1923    151.0336
   891.5000      0.0000    807.8810      5.9293    155.0319
   891.7500      0.0000    799.9039      5.7262    157.8776
   892.0000      0.0000    793.8071      5.6673    157.6215
   892.2500      0.0000    790.7571      5.7723    153.0285
   892.5000      0.0000    790.4615      5.9869    145.3916
   892.7500      0.0000    790.8597      6.2233    137.8916
   893.0000      0.0000    789.6252      6.4129    133.1054
   893.2500      0.0000    786.3184      6.5253    131.5267
   893.5000      0.0000    782.7281      6.5551    131.9684
   893.7500      0.0000    781.2382      6.5074    132.6693
   894.0000      0.0000    783.0610      6.3966    132.4338
   894.2500      0.0000    787.6025      6.2474    131.6014
   894.5000      0.0000    793.0570      6.0910    131.8512
   894.7500      0.0000    797.7400      5.9614    134.3861
   895.0000      0.0000    800.9295      5.8900    138.2794
   895.2500      0.0000    802.3640      5.8850    141.0729
   895.5000      0.0000    801.5186      5.9178    141.1405
   895.7500      0.0000    798.2032      5.9396    139.3219
   896.0000      0.0000    793.5745      5.9145    138.2081
   896.2500      0.0000    789.5330      5.8376    139.8551
   896.5000      0.0000    786.9067      5.7415    144.2921
   896.7500      0.0000    784.8702      5.6892    150.0699
   897.0000      0.0000    782.3515      5.7356    155.4100
   897.2500      0.0000    779.3877      5.8788    158.2595
