~Version Information
VERS.                      2.0: CWLS Log ASCII Standard - VERSION 2.0
WRAP.                       NO: One line per depth step
~Well Information Block
STRT.FT                39.7500: 
STOP.FT              1484.0000: 
STEP.FT                 0.2500: 
NULL.                -999.2500: 
COMP.          Evergreen Operating Corporation: COMPANY
WELL.              Chase 21-10: WELL
FLD.           Purgatoire River: FIELD
LOC.           1122' FNL & 1544' FWL: LOCATION
PROV.                       CO: PROVINCE
CNTY.               Las Animas: COUNTRY
SRVC.                         : SERVICE COMPANY
DATE.          Fri May 28 15:54:16 2004: LOG DATE
UWI.           05 071 08006 00: UNIQUE WELL ID
~Curve Information Block
DEPT.FT            0 000 00 00: Depth
TT3.usec                      : CBL 3' Travel Time
AMP3.mV                       : CBL 3' Amplitude
GR.GAPI                       : Gamma Ray
CCL.                          : Casing Collar Locator
~Parameter Information Block
~A  Depth       TT3         AMP3         GR         CCL     
# ...
  1178.7500    702.3707      5.9035     78.0363      0.0000
  1179.0000    701.0865      6.1167     78.4255      3.0000
  1179.2500    705.4306      6.3390     80.6366      3.0000
  1179.5000    716.3737      6.5451     83.2676     -3.0000
  1179.7500    728.7438      6.7509     84.4723      0.0000
  1180.0000    734.5615      7.0305     83.2561      0.0000
  1180.2500    727.2305      7.4954     80.1641      0.0000
  1180.5000    705.6806      8.1910     76.5131      0.0000
  1180.7500    676.1909      8.9766     73.1706      0.0000
  1181.0000    647.4810      9.5705     70.2826      0.0000
  1181.2500    622.4361      9.7800     67.8610      0.0000
  1181.5000    598.3344      9.6603     66.1740      0.0000
  1181.7500    576.8304      9.4166     65.5083      0.0000
  1182.0000    567.7527      9.1962     65.8170      0.0000
  1182.2500    578.5175      9.0090     66.6844      0.0000
  1182.5000    602.5809      8.7938     67.4206      0.0000
  1182.7500    621.7786      8.5034     67.0610      0.0000
  1183.0000    619.5585      8.1384     64.6451      0.0000
  1183.2500    592.0320      7.7409     59.9983      0.0000
  1183.5000    549.1078      7.3684     54.2692      0.0000
  1183.7500    506.9657      7.0611     49.4559      0.0000
  1184.0000    478.1785      6.8242     47.2611      0.0000
  1184.2500    466.1840      6.6397     48.1765      0.0000
  1184.5000    466.0545      6.4920     51.3006      0.0000
  1184.7500    468.7566      6.3798     54.9593      0.0000
  1185.0000    466.0691      6.3069     57.7545      0.0000
  1185.2500    454.6011      6.2696     59.2546      0.0000
  1185.5000    437.0879      6.2572     59.8080      0.0000
  1185.7500    419.8301      6.2577     59.8933      0.0000
  1186.0000    408.1943      6.2575     59.8666      0.0000
  1186.2500    403.6128      6.2385     60.2002      0.0000
  1186.5000    404.1463      6.1868     61.4329      0.0000
  1186.7500    407.8555      6.1071     63.5712      0.0000
  1187.0000    415.8235      6.0244     65.8695      0.0000
  1187.2500    431.6104      5.9681     67.6403      0.0000
  1187.5000    457.5866      5.9538     69.2257      0.0000
  1187.7500    492.1730      5.9762     71.6860      0.0000
  1188.0000    530.4886      6.0157     75.2853      0.0000
  1188.2500    566.1333      6.0499     78.6564      0.0000
  1188.5000    591.6708      6.0616     79.9395      0.0000
  1188.7500    600.2659      6.0417     78.6771      0.0000
  1189.0000    590.4025      5.9916     76.1782      0.0000
  1189.2500    568.2624      5.9282     74.0548      0.0000
  1189.5000    542.9834      5.8790     72.8894      0.0000
  1189.7500    519.8534      5.8649     72.3102      0.0000
  1190.0000    499.1106      5.8876     71.7326      0.0000
  1190.2500    479.8980      5.9355     70.7571      0.0000
  1190.5000    463.2006      6.0004     69.2783      0.0000
  1190.7500    450.9106      6.0842     67.6843      0.0000
  1191.0000    444.0011      6.1899     66.8810      0.0000
  1191.2500    442.8442      6.3128     67.6916      0.0000
  1191.5000    449.1487      6.4457     69.9689      0.0000
  1191.7500    466.7027      6.5871     72.3584      0.0000
  1192.0000    498.8089      6.7404     73.1609      0.0000
  1192.2500    543.6854      6.9037     71.6765      0.0000
  1192.5000    592.6609      7.0649     68.8297      0.0000
  1192.7500    634.7700      7.2017     66.4956      0.0000
  1193.0000    664.1006      7.2874     66.1931      0.0000
  1193.2500    682.4705      7.3032     68.1488      0.0000
  1193.5000    695.6971      7.2523     71.2280      0.0000
  1193.7500    708.5524      7.1583     73.7726      0.0000
  1194.0000    722.6904      7.0493     74.8265      0.0000
  1194.2500    736.9778      6.9484     74.6652      0.0000
  1194.5000    748.5142      6.8744     74.1837      0.0000
  1194.7500    754.0069      6.8396     74.0085      0.0000
  1195.0000    751.5162      6.8412     74.1654      0.0000
  1195.2500    742.1799      6.8599     74.1805      0.0000
  1195.5000    730.9261      6.8714     73.3948      0.0000
  1195.7500    724.0592      6.8632     71.5722      0.0000
  1196.0000    724.3273      6.8430     69.4197      0.0000
  1196.2500    728.9825      6.8301     68.2160      0.0000
  1196.5000    733.6630      6.8361     68.6503      0.0000
  1196.7500    736.7796      6.8508     70.1558      0.0000
  1197.0000    739.1639      6.8439     71.5540      0.0000
  1197.2500    741.5067      6.7822     72.3166      0.0000
  1197.5000    743.7877      6.6506     73.1901      0.0000
  1197.7500    746.1577      6.4610     75.5297      0.0000
  1198.0000    748.9602      6.2425     79.8571      0.0000
  1198.2500    751.9320      6.0229     85.0603      0.0000
  1198.5000    754.0334      5.8199     89.0339      0.0000
  1198.7500    754.3446      5.6433     89.9983      0.0000
  1199.0000    753.0934      5.4974     87.3951      0.0000
  1199.2500    751.4990      5.3787     82.0699      0.0000
  1199.5000    750.6105      5.2739     75.7522      0.0000
  1199.7500    750.5867      5.1623     70.1120      0.0000
  1200.0000    751.1448      5.0208     66.1459      0.0000
  1200.2500    752.2397      4.8300     64.2375      0.0000
  1200.5000    754.0499      4.5850     64.4200      0.0000
  1200.7500    756.5356      4.3000     66.3904      0.0000
  1201.0000    759.1738      4.0017     69.3896      0.0000
  1201.2500    761.1257      3.7165     72.2764      0.0000
  1201.5000    761.8271      3.4651     73.8573      0.0000
  1201.7500    761.5192      3.2644     73.3903      0.0000
  1202.0000    760.9480      3.1273     71.1395      0.0000
  1202.2500    760.3511      3.0610     68.5566      0.0000
  1202.5000    758.9849      3.0658     67.5886      0.0000
  1202.7500    755.9240      3.1352     69.3457      0.0000
  1203.0000    751.1669      3.2596     73.2403      0.0000
  1203.2500    745.7567      3.4384     77.4887      0.0000
  1203.5000    741.0715      3.6878     80.5362      0.0000
  1203.7500    738.1376      4.0294     82.1183      0.0000
  1204.0000    737.0723      4.4667     83.1057      0.0000
  1204.2500    736.4509      4.9741     84.4371      0.0000
  1204.5000    733.3585      5.5092     86.2613      0.0000
  1204.7500    725.2315      6.0290     88.0728      0.0000
  1205.0000    712.2876      6.4956     89.5059      0.0000
  1205.2500    697.8880      6.8745     90.6766      0.0000
  1205.5000    686.2930      7.1387     91.5746      0.0000
  1205.7500    680.0849      7.2802     91.5507      0.0000
  1206.0000    678.2507      7.3146     89.9711      0.0000
  1206.2500    675.0178      7.2698     87.1996      0.0000
  1206.5000    662.4988      7.1718     84.3745      0.0000
  1206.7500    638.3527      7.0436     82.2764      0.0000
  1207.0000    611.2107      6.9143     80.8513      0.0000
  1207.2500    595.9094      6.8196     79.6864      0.0000
  1207.5000    601.7021      6.7852     78.5653      0.0000
  1207.7500    623.7552      6.8086     77.7025      0.0000
  1208.0000    644.6053      6.8585     77.6663      0.0000
  1208.2500    645.0596      6.8948     78.8993      0.0000
  1208.5000    617.3904      6.8901     81.2272      0.0000
  1208.7500    570.2178      6.8378     83.9167      0.0000
  1209.0000    520.7337      6.7462     86.2508      0.0000
  1209.2500    482.3463      6.6311     88.0520      0.0000
  1209.5000    458.7844      6.5136     89.6211      0.0000
  1209.7500    446.7478      6.4159     91.0791      0.0000
  1210.0000    441.1887      6.3525     91.8908      0.0000
  1210.2500    438.4020      6.3252     91.3902      0.0000
  1210.5000    436.5246      6.3264     89.8186      0.0000
  1210.7500    434.9554      6.3443     88.3840      0.0000
  1211.0000    433.7937      6.3664     88.0804      0.0000
  1211.2500    433.5416      6.3814     88.6996      0.0000
  1211.5000    435.0063      6.3805     89.1295      0.0000
  1211.7500    439.0463      6.3591     88.2859      0.0000
  1212.0000    446.0479      6.3211     85.6663      0.0000
