~Version Information
VERS.                      2.0: CWLS Log ASCII Standard - VERSION 2.0
WRAP.                       NO: One line per depth step
~Well Information Block
STRT.FT                -6.7500: 
STOP.FT              1181.0000: 
STEP.FT                 0.2500: 
NULL.                -999.2500: 
COMP.          Pioneer Natural Resources: COMPANY
WELL.          Pacheco 33-27 Tr: WELL
FLD.           Purgatorie River: FIELD
LOC.           2251' FSL & 2342' FEL--: LOCATION
PROV.                       CO: PROVINCE
CNTY.               Las Animas: COUNTRY
SRVC.          Patterson Wireline: SERVICE COMPANY
DATE.          Wed Jun 15 10:58:02 2005: LOG DATE
UWI.           05 071 08384 00: UNIQUE WELL ID
~Curve Information Block
DEPT.FT            0 000 00 00: Depth
CCL.                          : Casing Collar Locator
TT3.usec                      : CBL 3' Travel Time
AMP3.mV                       : CBL 3' Amplitude
GR.GAPI                       : Gamma Ray
~Parameter Information Block
~A  Depth       CCL         TT3         AMP3         GR     
# ...
   160.7500      0.0000    856.6880     10.7213     95.4444
   161.0000      0.0000    859.6308     10.6869    100.0972
   161.2500      0.0000    866.8979     10.6607    103.1251
   161.5000      0.0000    874.3306     10.6236    104.2604
   161.7500      0.0000    879.2254     10.5842    105.1633
   162.0000      0.0000    881.4399     10.5736    107.4267
   162.2500      0.0000    881.9406     10.6215    110.6650
   162.5000      0.0000    881.1008     10.7363    112.7251
   162.7500      0.0000    878.0009     10.8990    111.6460
   163.0000      0.0000    870.9041     11.0699    107.4846
   163.2500      0.0000    859.2720     11.2048    102.4290
   163.5000      0.0000    846.1115     11.2754     99.0292
   163.7500      0.0000    837.0338     11.2774     98.0841
   164.0000      0.0000    834.1011     11.2239     98.2894
   164.2500      0.0000    831.0323     11.1285     97.9941
   164.5000      0.0000    818.9914     10.9783     96.7988
   164.7500      0.0000    798.8226     10.7180     95.1605
   165.0000      0.0000    782.9373     10.2963     93.0187
   165.2500      0.0000    781.7762      9.7494     89.5141
   165.5000      0.0000    792.2679      9.2080     84.0622
   165.7500      0.0000    803.3796      8.7961     77.3554
   166.0000      0.0000    810.4099      8.5431     71.1886
   166.2500      2.0000    820.6042      8.4051     67.1963
   166.5000      2.0000    844.8216      8.3350     65.5930
   166.7500      0.0000    884.0022      8.3189     65.1614
   167.0000      0.0000    923.6398      8.3702     64.5087
   167.2500      0.0000    942.6650      8.5048     63.1086
   167.5000      0.0000    929.2390      8.7171     61.2529
   167.7500      0.0000    888.8754      8.9859     59.7105
   168.0000      0.0000    838.5384      9.3183     59.5163
   168.2500      0.0000    794.6054      9.7577     61.2452
   168.5000      0.0000    765.1336     10.3090     64.1467
   168.7500      0.0000    749.5654     10.8829     66.4463
   169.0000      0.0000    742.9617     11.3502     66.6754
   169.2500      0.0000    740.6896     11.6372     64.5043
   169.5000      0.0000    740.5692     11.7589     60.4761
   169.7500      0.0000    742.0066     11.7850     55.5989
   170.0000      0.0000    744.4738     11.7855     51.3658
   170.2500      0.0000    747.4498     11.7956     49.4824
   170.5000      0.0000    751.2645     11.8151     50.8204
   170.7500      0.0000    757.0102     11.8343     54.4799
   171.0000      0.0000    764.8825     11.8554     58.2618
   171.2500      0.0000    772.5508     11.8886     60.4899
   171.5000      0.0000    776.2330     11.9415     61.3964
   171.7500      0.0000    774.5532     12.0180     62.5984
   172.0000      0.0000    771.1350     12.1072     65.3001
   172.2500      0.0000    772.6515     12.1679     69.1373
   172.5000      0.0000    784.0247     12.1499     72.5738
   172.7500      0.0000    804.7478     12.0449     74.1385
   173.0000      0.0000    828.6687     11.8993     73.4749
   173.2500      0.0000    847.6633     11.7725     71.7060
   173.5000      0.0000    856.9231     11.6975     70.8795
   173.7500      0.0000    857.1312     11.6782     72.5323
   174.0000      0.0000    851.2480     11.7084     76.3405
   174.2500      0.0000    840.0593     11.7864     80.2126
   174.5000      0.0000    822.6243     11.9091     81.8802
   174.7500      0.0000    800.7333     12.0542     80.4870
   175.0000      0.0000    780.4219     12.1815     76.8198
   175.2500      0.0000    768.4301     12.2654     72.1477
   175.5000      0.0000    768.5538     12.3158     66.8351
   175.7500      0.0000    780.7007     12.3570     60.2636
   176.0000      0.0000    800.6263     12.3989     52.2101
   176.2500      0.0000    820.1771     12.4406     43.8476
   176.5000      0.0000    831.0139     12.4928     36.9505
   176.7500      0.0000    830.7326     12.5722     32.3721
   177.0000      0.0000    824.3358     12.6733     29.5840
   177.2500      0.0000    817.7896     12.7669     27.5165
   177.5000      0.0000    811.0374     12.8348     25.6309
   177.7500      0.0000    799.6188     12.8950     24.3447
   178.0000      0.0000    782.3488     12.9819     24.6620
   178.2500      0.0000    764.3345     13.1033     27.4778
   178.5000      0.0000    752.5006     13.2257     33.0895
   178.7500      0.0000    750.7422     13.3008     41.0932
   179.0000      0.0000    759.4400     13.3085     50.5757
   179.2500      0.0000    776.9801     13.2647     60.6139
   179.5000      0.0000    800.6430     13.1760     70.7786
   179.7500      0.0000    826.6887     13.0036     80.9158
   180.0000      0.0000    850.3001     12.7047     90.2554
   180.2500      0.0000    867.4163     12.3010     97.0698
   180.5000      0.0000    878.6321     11.8831     99.7240
   180.7500      0.0000    889.8799     11.5484     98.1052
   181.0000      0.0000    905.8753     11.3412     93.8135
   181.2500      0.0000    922.2491     11.2455     88.9836
   181.5000      0.0000    926.3691     11.2242     84.9914
   181.7500      0.0000    908.3032     11.2550     82.1179
   182.0000      0.0000    871.8057     11.3194     80.2143
   182.2500      0.0000    833.0228     11.3798     79.4669
   182.5000      0.0000    807.2109     11.3946     80.1810
   182.7500      0.0000    797.7567     11.3495     82.0096
   183.0000      0.0000    798.7323     11.2604     84.1242
   183.2500      0.0000    805.6561     11.1500     86.2693
   183.5000      0.0000    820.9121     11.0348     88.8860
   183.7500      0.0000    849.1490     10.9345     91.9864
   184.0000      0.0000    890.5002     10.8767     94.6435
   184.2500      0.0000    938.5392     10.8781     95.9803
   184.5000      0.0000    981.2805     10.9206     96.2714
   184.7500      0.0000   1003.5881     10.9634     96.7443
   185.0000      0.0000    994.0106     10.9853     98.3914
   185.2500      0.0000    954.2316     11.0002    101.0655
   185.5000      0.0000    901.5970     11.0232    103.6081
   185.7500      0.0000    860.6306     11.0341    104.6728
   186.0000      0.0000    849.9868     10.9877    103.4726
   186.2500      0.0000    872.7821     10.8530    100.1432
   186.5000      0.0000    915.2482     10.6320     95.8903
   186.7500      0.0000    956.0199     10.3563     92.7921
   187.0000      0.0000    981.0251     10.0859     92.7694
   187.2500      0.0000    991.5068      9.8932     95.9944
   187.5000      0.0000    998.6882      9.8212    100.2853
   187.7500      0.0000   1012.2963      9.8530    102.7284
   188.0000      0.0000   1033.0063      9.9328    102.2460
   188.2500      0.0000   1051.9558     10.0118    100.4729
   188.5000      0.0000   1056.5587     10.0706    100.2159
   188.7500      0.0000   1040.2725     10.1098    103.2777
   189.0000      0.0000   1009.3297     10.1382    109.3200
   189.2500      0.0000    979.3685     10.1677    116.0212
   189.5000      0.0000    964.3147     10.2021    120.3117
   189.7500      0.0000    967.8320     10.2242    120.1579
   190.0000      0.0000    983.4111     10.2064    115.6294
   190.2500      0.0000   1001.4033     10.1354    108.4730
   190.5000      0.0000   1017.3174     10.0268    100.9837
   190.7500      0.0000   1034.4233      9.9175     95.2185
   191.0000      0.0000   1057.5112      9.8465     92.4938
   191.2500      0.0000   1083.8496      9.8344     92.7997
   191.5000      0.0000   1101.3093      9.8786     94.6386
   191.7500      0.0000   1095.9263      9.9673     95.9458
   192.0000      0.0000   1062.1765     10.0939     95.5318
   192.2500      0.0000   1008.6525     10.2543     93.7478
   192.5000      0.0000    956.0853     10.4313     91.9599
   192.7500      0.0000    927.7896     10.5910     91.4788
   193.0000      0.0000    936.3262     10.7008     92.5485
   193.2500      0.0000    974.4345     10.7485     94.0111
   193.5000      0.0000   1017.8062     10.7397     94.2497
   193.7500      0.0000   1039.9896     10.6859     92.6732
   194.0000      0.0000   1029.2900     10.6064     90.1135
