~Version Information
VERS.                      2.0: CWLS Log ASCII Standard - VERSION 2.0
WRAP.                       NO: One line per depth step
~Well Information Block
STRT.FT                -3.5000: 
STOP.FT              1745.0000: 
STEP.FT                 0.2500: 
NULL.                -999.2500: 
COMP.          Pioneer Natural Resources: COMPANY
WELL.           Labrador 34-30: WELL
FLD.           Purgatorie River: FIELD
LOC.           926' FSL & 2080' FEL--: LOCATION
PROV.                       CO: PROVINCE
CNTY.               Las Animas: COUNTRY
SRVC.                         : SERVICE COMPANY
DATE.          Fri Dec 10 09:58:23 2004: LOG DATE
UWI.                071-08202 : UNIQUE WELL ID
~Curve Information Block
DEPT.FT            0 000 00 00: Depth
GR.GAPI                       : Gamma Ray
CCL.                          : Casing Collar Locator
TT3.usec                      : CBL 3' Travel Time
AMP3.mV                       : CBL 3' Amplitude
~Parameter Information Block
~A  Depth        GR         CCL         TT3         AMP3    
    -3.5000   -999.2500   -999.2500   -999.2500   -999.2500
    -3.2500   -999.2500   -999.2500   -999.2500   -999.2500
    -3.0000   -999.2500   -999.2500   -999.2500   -999.2500
    -2.7500   -999.2500   -999.2500   -999.2500   -999.2500
    -2.5000   -999.2500   -999.2500   -999.2500   -999.2500
    -2.2500   -999.2500   -999.2500    921.0000      1.7489
    -2.0000   -999.2500   -999.2500    921.0000      1.7267
    -1.7500   -999.2500   -999.2500    921.0000      1.7105
    -1.5000   -999.2500   -999.2500    921.0000      1.7109
    -1.2500   -999.2500   -999.2500    921.0000      1.7288
    -1.0000   -999.2500   -999.2500    921.0000      1.7549
    -0.7500   -999.2500   -999.2500    921.0000      1.7753
    -0.5000   -999.2500   -999.2500    921.0000      1.7761
    -0.2500   -999.2500   -999.2500    921.0000      1.7531
     0.0000   -999.2500   -999.2500    921.0000      1.7188
     0.2500   -999.2500   -999.2500    921.0000      1.6960
     0.5000   -999.2500   -999.2500    921.0000      1.7000
     0.7500   -999.2500   -999.2500    921.0000      1.7261
     1.0000   -999.2500   -999.2500    921.0000      1.7526
     1.2500   -999.2500   -999.2500    921.0000      1.7575
     1.5000   -999.2500   -999.2500    921.0000      1.7027
     1.7500   -999.2500   -999.2500    921.0000      1.6798
     2.0000   -999.2500   -999.2500    921.0000      1.6789
     2.2500   -999.2500   -999.2500    921.0000      1.7018
     2.5000   -999.2500   -999.2500    921.0000      1.7453
     2.7500   -999.2500   -999.2500    921.0000      1.8020
     3.0000   -999.2500      0.0000    921.0000      1.8569
     3.2500   -999.2500      0.0000    921.0000      1.8904
     3.5000   -999.2500      0.0000    920.9937      1.8887
     3.7500   -999.2500      0.0000    920.9147      1.8581
     4.0000   -999.2500      0.0000    920.4584      1.8407
     4.2500   -999.2500      0.0000    918.3753      1.9752
     4.5000   -999.2500      0.0000    910.8562      2.6573
     4.7500   -999.2500      0.0000    889.4230      4.7916
     5.0000   -999.2500      0.0000    841.2343      9.8456
     5.2500   -999.2500      0.0000    755.9017     19.1753
     5.5000   -999.2500      0.0000    637.0660     32.6514
     5.7500   -999.2500      0.0000    507.1066     47.8834
     6.0000   -999.2500      0.0000    395.6499     61.3663
     6.2500   -999.2500      0.0000    320.7792     70.7408
     6.5000   -999.2500      2.0000    281.4300     75.8912
     6.7500   -999.2500      0.0000    265.2719     78.1410
     7.0000   -999.2500      0.0000    260.1049     78.9121
     7.2500   -999.2500      0.0000    258.8357     79.1004
     7.5000   -999.2500      0.0000    258.6127     79.1331
     7.7500   -999.2500      0.0000    258.5977     79.1804
     8.0000     81.5937     -2.0000    258.6075     79.2910
     8.2500     82.9960      2.0000    258.6030     79.4667
     8.5000     83.0102      0.0000    258.5882     79.6931
     8.7500     80.7100      0.0000    258.5734     79.9435
     9.0000     76.0318      0.0000    258.5693     80.1781
     9.2500     70.2185      0.0000    258.5795     80.3607
     9.5000     65.3398      0.0000    258.5970     80.4802
     9.7500     63.3245      0.0000    258.6121     80.5541
    10.0000     64.7400      0.0000    258.6212     80.6158
    10.2500     68.0633      0.0000    258.6286     80.6937
    10.5000     70.6028      0.0000    258.6389     80.7919
    10.7500     70.6069      0.0000    258.6503     80.8909
    11.0000     68.3135      0.0000    258.6560     80.9719
    11.2500     64.9366      0.0000    258.6506     81.0399
    11.5000     61.1986      0.0000    258.6353     81.1137
    11.7500     57.0911      0.0000    258.6171     81.1987
    12.0000     52.5227      0.0000    258.6029     81.2823
    12.2500     47.7488      0.0000    258.5961     81.3593
    12.5000     43.4337      0.0000    258.5962     81.4449
    12.7500     40.4983      0.0000    258.6018     81.5526
    13.0000     39.5792      0.0000    258.6111     81.6689
    13.2500     40.3170      0.0000    258.6213     81.7632
    13.5000     41.4231      0.0000    258.6306     81.8156
    13.7500     41.9022      0.0000    258.6390     81.8322
    14.0000     42.1535      0.0000    258.6460     81.8395
    14.2500     43.4091      0.0000    258.6484     81.8688
    14.5000     46.0397      0.0000    258.6425     81.9391
    14.7500     48.8224      0.0000    258.6297     82.0447
    15.0000     50.0343      0.0000    258.6169     82.1558
    15.2500     49.1538      0.0000    258.6113     82.2347
    15.5000     47.5831      0.0000    258.6144     82.2652
    15.7500     47.8352      0.0000    258.6208     82.2704
    16.0000     51.7414      0.0000    258.6245     82.2967
    16.2500     59.1738      0.0000    258.6237     82.3707
    16.5000     68.4047      0.0000    258.6215     82.4767
    16.7500     77.3635      0.0000    258.6198     82.5828
    17.0000     84.3009      0.0000    258.6176     82.6790
    17.2500     87.9578      0.0000    258.6125     82.7734
    17.5000     88.2083      0.0000    258.6018     82.8623
    17.7500     86.5826      0.0000    258.5848     82.9267
    18.0000     85.3021      0.0000    258.5671     82.9564
    18.2500     85.5193      0.0000    258.5604     82.9599
    18.5000     86.8702      0.0000    258.5719     82.9506
    18.7500     88.7895      0.0000    258.5958     82.9410
    19.0000     91.7192      0.0000    258.6180     82.9487
    19.2500     96.3298      0.0000    258.6287     82.9932
    19.5000    101.4673      0.0000    258.6256     83.0782
    19.7500    104.0092      0.0000    258.6115     83.1830
    20.0000    101.9122      0.0000    258.5926     83.2757
    20.2500     96.9135      0.0000    258.5788     83.3364
    20.5000     93.1575      0.0000    258.5786     83.3689
    20.7500     93.3378      0.0000    258.5923     83.3918
    21.0000     96.7765      0.0000    258.6109     83.4194
    21.2500    101.0278      0.0000    258.6236     83.4539
    21.5000    104.6935      0.0000    258.6237     83.4916
    21.7500    108.3539      0.0000    258.6126     83.5318
    22.0000    112.9979      0.0000    258.5974     83.5788
    22.2500    118.2813      0.0000    258.5868     83.6377
    22.5000    122.5370      0.0000    258.5839     83.7105
    22.7500    123.8031      0.0000    258.5848     83.7922
    23.0000    120.6224      0.0000    258.5826     83.8707
    23.2500    113.0762      0.0000    258.5748     83.9328
    23.5000    103.8297      0.0000    258.5656     83.9747
    23.7500     97.0520      0.0000    258.5638     84.0012
    24.0000     95.1677      0.0000    258.5768     84.0169
    24.2500     96.9635      0.0000    258.6033     84.0216
    24.5000     99.2794      0.0000    258.6325     84.0176
    24.7500    100.0320      0.0000    258.6515     84.0108
    25.0000     99.1820      0.0000    258.6553     84.0026
    25.2500     97.3231      0.0000    258.6498     83.9864
    25.5000     94.3497      0.0000    258.6444     83.9591
    25.7500     89.7553      0.0000    258.6434     83.9334
    26.0000     83.5438      0.0000    258.6440     83.9346
    26.2500     76.3125      0.0000    258.6414     83.9831
    26.5000     68.6726      0.0000    258.6352     84.0757
    26.7500     61.1423      0.0000    258.6297     84.1839
    27.0000     54.7617      0.0000    258.6293     84.2685
    27.2500     51.3848      0.0000    258.6341     84.2900
    27.5000     52.7024      0.0000    258.6434     84.1978
    27.7500     58.6447      0.0000    258.6656     83.8999
    28.0000     66.9554      0.0000    258.7169     83.2468
    28.2500     74.6691      0.0000    258.7967     82.0607
    28.5000     80.1457      0.0000    258.8580     80.2151
    28.7500     83.7395      0.0000    258.8262     77.7127
    29.0000     86.7498      0.0000    258.6725     74.6956
    29.2500     89.9370      0.0000    258.4571     71.3869
    29.5000     93.1503      0.0000    258.2835     68.0054
    29.7500     96.2415      0.0000    258.2256     64.6684
