~Version Information
VERS.                      2.0: CWLS Log ASCII Standard - VERSION 2.0
WRAP.                       NO: One line per depth step
~Well Information Block
STRT.FT               806.0000: 
STOP.FT              1812.2000: 
STEP.FT                 0.1000: 
NULL.                -999.2500: 
COMP.          Pioneer Natural Resources: COMPANY
WELL.            Hill 33-22 Tr: WELL
FLD.           Purgatoire River: FIELD
LOC.           1573' FSL & 1585' FEL: LOCATION
PROV.                 Colorado: PROVINCE
CNTY.               Las Animas: COUNTRY
SRVC.                Patterson: SERVICE COMPANY
DATE.          Thu Apr 14 12:25:33 2005: LOG DATE
UWI.           05 071 08316 00: UNIQUE WELL ID
~Curve Information Block
DEPT.FT            0 000 00 00: Depth
DCAL.in                       : CDL Caliper
RHOB.g/cc                     : CDL Bulk Density
RHOC.g/cc                     : CDL Density Correction
DPOR.pu                       : CDL Density Porosity
GR.GAPI                       : Gamma Ray
NPOR.pu                       : Neutron Porosity
~Parameter Information Block
~A  Depth       DCAL        RHOB        RHOC        DPOR         GR         NPOR    
# ...
  1132.4000      7.9672      2.7300      0.0870     -4.8506     93.2949     29.2971
  1132.5000      7.9409      2.7526      0.0640     -6.2190     90.3991     29.0887
  1132.6000      7.9409      2.7666      0.0319     -7.0677     92.4012     28.3496
  1132.7000      7.9409      2.7678      0.0259     -7.1407     93.4652     27.0944
  1132.8000      7.9412      2.7557      0.0021     -6.4049     92.3203     26.2032
  1132.9000      7.9412      2.7442     -0.0418     -5.7068     92.7932     25.5898
  1133.0000      7.9825      2.7340     -0.0274     -5.0909     97.7880     24.7766
  1133.1000      7.9825      2.7044     -0.0218     -3.2999    102.9567     24.1570
  1133.2000      7.9825      2.6555      0.0055     -0.3363    102.9419     23.9333
  1133.3000      8.0160      2.6110     -0.0191      2.3641    101.8430     23.5218
  1133.4000      8.0160      2.5785     -0.0178      4.3346    106.3906     22.8106
  1133.5000      7.9842      2.5422      0.0093      6.5312    113.4406     22.3629
  1133.6000      7.9842      2.5029     -0.0434      8.9148    116.1667     22.2754
  1133.7000      7.9842      2.4818      0.0030     10.1930    115.9997     22.3330
  1133.8000      7.9764      2.4820      0.0030     10.1825    118.5344     22.2590
  1133.9000      7.9764      2.4924      0.0262      9.5500    123.8947     21.9146
  1134.0000      7.9592      2.5129      0.0216      8.3117    127.7959     21.7153
  1134.1000      7.9592      2.5484      0.0282      6.1560    127.1826     22.0412
  1134.2000      7.9592      2.5873      0.0769      3.8026    124.8421     22.4687
  1134.3000      7.9137      2.6040      0.1077      2.7855    124.7379     22.4507
  1134.4000      7.9137      2.5922      0.0960      3.5040    126.3910     22.4091
  1134.5000      7.9196      2.5771      0.0292      4.4172    128.4724     22.6873
  1134.6000      7.9196      2.5853      0.0457      3.9235    131.2458     22.9453
  1134.7000      7.9196      2.6082      0.0936      2.5350    134.3429     23.2093
  1134.8000      7.9313      2.6201      0.0684      1.8131    136.9047     23.6547
  1134.9000      7.9313      2.6132      0.0963      2.2317    140.0555     24.2989
  1135.0000      7.9381      2.5992      0.0954      3.0799    141.9981     24.8844
  1135.1000      7.9381      2.5937      0.0455      3.4097    139.5972     25.1084
  1135.2000      7.9381      2.5977      0.0640      3.1686    135.8578     25.1317
  1135.3000      7.9362      2.5974      0.0278      3.1867    133.6808     25.2301
  1135.4000      7.9362      2.5897      0.0272      3.6553    132.3127     25.2654
  1135.5000      7.9449      2.5853      0.0316      3.9239    129.7218     25.0524
  1135.6000      7.9449      2.5871      0.0467      3.8139    125.3566     24.8530
  1135.7000      7.9449      2.5899      0.0582      3.6417    121.3133     24.9397
  1135.8000      7.9326      2.5918      0.0532      3.5291    116.2265     25.1686
  1135.9000      7.9326      2.5965      0.0534      3.2406    108.9921     25.2772
  1136.0000      7.9091      2.6046      0.0806      2.7530    104.0699     25.3663
  1136.1000      7.9091      2.6140      0.0714      2.1790    104.6462     25.4944
  1136.2000      7.9091      2.6366      0.0253      0.8146    108.2352     25.4689
  1136.3000      7.9062      2.6772      0.1096     -1.6491    109.4353     25.1935
  1136.4000      7.9062      2.7136      0.0808     -3.8564    107.1050     24.6722
  1136.5000      7.9083      2.7189      0.0587     -4.1771    106.8798     24.2714
  1136.6000      7.9083      2.6888      0.0489     -2.3487    109.8963     24.3072
  1136.7000      7.9083      2.6445      0.0391      0.3337    113.8993     24.4897
  1136.8000      7.9203      2.6061      0.0216      2.6580    119.9055     24.4168
  1136.9000      7.9203      2.5761     -0.0537      4.4803    127.1650     24.1236
  1137.0000      7.9194      2.5556     -0.0240      5.7210    131.7293     23.9310
  1137.1000      7.9194      2.5456      0.0269      6.3252    129.2897     23.8415
  1137.2000      7.9194      2.5388      0.0126      6.7377    122.5032     23.6803
  1137.3000      7.9182      2.5309     -0.0017      7.2176    120.2168     23.5726
  1137.4000      7.9182      2.5302     -0.0204      7.2601    125.2539     23.4028
  1137.5000      7.9434      2.5467      0.0034      6.2613    132.0042     22.9677
  1137.6000      7.9434      2.5759      0.0409      4.4904    136.1786     22.7108
  1137.7000      7.9434      2.5990      0.0702      3.0916    138.2087     23.1309
  1137.8000      7.9387      2.6098      0.0620      2.4358    139.6907     24.0962
  1137.9000      7.9387      2.6220      0.1148      1.6988    140.3548     25.1455
  1138.0000      7.9439      2.6371      0.1081      0.7836    137.8328     25.7165
  1138.1000      7.9439      2.6433      0.1044      0.4043    130.4197     25.5867
  1138.2000      7.9439      2.6327      0.0895      1.0456    118.4398     25.2130
  1138.3000      7.9151      2.6128      0.0080      2.2542    106.1336     25.1596
  1138.4000      7.9151      2.5948      0.0451      3.3458     99.2875     25.2959
  1138.5000      7.9233      2.5727      0.0364      4.6841     99.9732     25.1263
  1138.6000      7.9233      2.5466     -0.0113      6.2641    105.7009     24.7257
  1138.7000      7.9233      2.5309      0.0479      7.2197    110.3306     24.5629
  1138.8000      7.9547      2.5288     -0.0125      7.3472    112.3460     24.7776
  1138.9000      7.9547      2.5352      0.0303      6.9556    115.5857     25.0536
  1139.0000      7.9535      2.5387      0.0970      6.7432    118.9303     25.0332
  1139.1000      7.9535      2.5373      0.1179      6.8322    119.2035     24.6320
  1139.2000      7.9535      2.5573      0.1336      5.6202    114.9527     24.0876
  1139.3000      7.8701      2.6180      0.2056      1.9400    107.8545     23.7417
  1139.4000      7.8701      2.6947      0.2040     -2.7082    105.4346     23.7316
  1139.5000      7.8320      2.7452      0.2856     -5.7696    108.8977     23.8980
  1139.6000      7.8320      2.7549      0.2221     -6.3565    108.4634     23.8298
  1139.7000      7.8320      2.7382      0.1783     -5.3472    102.5924     23.4669
  1139.8000      7.8477      2.7056      0.2031     -3.3725     98.7471     23.1263
  1139.9000      7.8477      2.6712      0.1021     -1.2847     96.4014     22.8297
  1140.0000      7.8963      2.6565      0.1109     -0.3926     92.1182     22.4320
  1140.1000      7.8963      2.6533      0.1000     -0.1973     88.1750     21.8674
  1140.2000      7.8963      2.6374      0.0541      0.7641     86.7102     21.1744
  1140.3000      7.9170      2.6108      0.0301      2.3735     88.0308     20.4840
  1140.4000      7.9170      2.5932     -0.0062      3.4420     92.9289     20.0336
  1140.5000      7.9325      2.5899      0.0150      3.6414     98.7399     20.0910
  1140.6000      7.9325      2.5900      0.0586      3.6367    101.6015     20.4764
  1140.7000      7.9325      2.5893      0.0319      3.6805    104.3743     20.8656
  1140.8000      7.9289      2.5919      0.0671      3.5188    110.0275     21.2214
  1140.9000      7.9289      2.5849      0.0616      3.9443    115.0453     21.4409
  1141.0000      7.9076      2.5540      0.0287      5.8168    116.5982     21.4554
  1141.1000      7.9076      2.5135     -0.0048      8.2717    118.8945     21.5392
  1141.2000      7.9076      2.4937     -0.0562      9.4703    124.4203     22.0049
  1141.3000      7.9230      2.5062      0.0092      8.7144    128.4823     22.7508
  1141.4000      7.9230      2.5252      0.0461      7.5614    130.2292     23.4399
  1141.5000      7.9313      2.5287      0.0271      7.3494    133.5681     23.8806
  1141.6000      7.9313      2.5339     -0.0113      7.0348    137.5098     24.1591
  1141.7000      7.9313      2.5587      0.0412      5.5323    140.9027     24.5190
  1141.8000      7.9609      2.5904      0.0605      3.6147    142.8559     24.9491
  1141.9000      7.9609      2.6104      0.0584      2.3974    141.7575     25.2896
