~Version Information
VERS.                      2.0: CWLS Log ASCII Standard - VERSION 2.0
WRAP.                       NO: One line per depth step
~Well Information Block
STRT.FT                30.0000: 
STOP.FT              2789.0000: 
STEP.FT                 0.1000: 
NULL.                -999.2500: 
COMP.          Pioneer Natural Resources: COMPANY
WELL.          Rabbit Bush Federal 44-19: WELL
FLD.           Purgatorie River: FIELD
LOC.           826' FSL & 1127' FEL: LOCATION
CNTY.               Las Animas: COUNTY
SRVC.                Patterson: SERVICE COMPANY
DATE.          Mon Aug 28 10:56:57 2006: LOG DATE
UWI.           05-071-08149-00: UNIQUE WELL ID
STAT.                 Colorado: STATE
~Curve Information Block
DEPT.FT            0 000 00 00: Depth
DCAL.in                       : CDL Caliper
RHOB.g/cc                     : CDL Bulk Density
RHOC.g/cc                     : CDL Density Correction
DPOR.pu                       : CDL Density Porosity
GR.GAPI                       : Gamma Ray
NPOR.pu                       : Neutron Porosity
~Parameter Information Block
~A  Depth       DCAL        RHOB        RHOC        DPOR         GR         NPOR    
# ...
  1844.4000      7.9780      2.5849      0.1412      3.9471    177.7222     25.9809
  1844.5000      7.9729      2.6050      0.1539      2.7258    176.3027     25.8535
  1844.6000      7.9729      2.6359      0.1223      0.8517    181.2572     25.8377
  1844.7000      7.9729      2.6665      0.1248     -0.9999    187.2024     25.8733
  1844.8000      7.9474      2.6841      0.1728     -2.0670    188.5953     25.8002
  1844.9000      7.9474      2.6827      0.1832     -1.9792    186.5194     25.4853
  1845.0000      7.9175      2.6567      0.1942     -0.4088    184.9932     25.0930
  1845.1000      7.9175      2.6071      0.1484      2.5970    184.6333     24.8485
  1845.2000      7.9175      2.5595      0.1132      5.4855    184.7822     24.7316
  1845.3000      7.8972      2.5427      0.1241      6.5005    187.3700     24.6505
  1845.4000      7.8972      2.5589      0.1300      5.5204    190.7648     24.6815
  1845.5000      7.8910      2.5876      0.1887      3.7820    190.5817     24.8773
  1845.6000      7.8910      2.6126      0.1669      2.2655    186.7393     25.0456
  1845.7000      7.8910      2.6370      0.2353      0.7875    180.7734     25.0970
  1845.8000      7.8877      2.6620      0.2780     -0.7299    176.1184     25.1722
  1845.9000      7.8877      2.6762      0.2513     -1.5904    176.4273     25.3346
  1846.0000      7.8842      2.6718      0.2244     -1.3242    180.4311     25.6129
  1846.1000      7.8842      2.6561      0.1524     -0.3704    183.3668     26.0180
  1846.2000      7.8842      2.6435      0.1555      0.3932    182.9866     26.4464
  1846.3000      7.8916      2.6395      0.1523      0.6346    182.1967     26.6957
  1846.4000      7.8916      2.6399      0.1207      0.6134    184.7917     26.5718
  1846.5000      7.9132      2.6383      0.0981      0.7098    189.3930     26.2832
  1846.6000      7.9132      2.6296      0.1169      1.2337    191.4167     26.1787
  1846.7000      7.9132      2.6130      0.0502      2.2419    189.5728     26.1478
  1846.8000      7.9405      2.5903      0.0598      3.6153    187.5180     25.9607
  1846.9000      7.9405      2.5615      0.0283      5.3658    187.5512     25.5554
  1847.0000      7.9732      2.5302      0.0231      7.2617    186.2933     24.9844
  1847.1000      7.9732      2.5014      0.0331      9.0032    181.2630     24.5504
  1847.2000      7.9732      2.4783     -0.0071     10.4064    177.2967     24.5944
  1847.3000      8.0144      2.4733     -0.0645     10.7070    179.8587     24.9178
  1847.4000      8.0144      2.4882      0.0559      9.8037    188.0925     24.8770
  1847.5000      8.0541      2.5013      0.0888      9.0140    194.4577     24.4337
  1847.6000      8.0541      2.5051      0.0394      8.7823    193.9356     24.1295
  1847.7000      8.0541      2.5093      0.1104      8.5297    192.4023     24.0786
  1847.8000      8.0802      2.5179      0.1301      8.0089    193.7343     23.8829
  1847.9000      8.0802      2.5365      0.1603      6.8762    195.1510     23.2879
  1848.0000      8.0767      2.5638      0.2389      5.2226    194.0315     22.6393
  1848.1000      8.0767      2.5840      0.2729      4.0014    190.1488     22.5136
  1848.2000      8.0767      2.5881      0.2600      3.7534    187.1380     22.8165
  1848.3000      8.0199      2.5777      0.2316      4.3794    187.2576     22.8953
  1848.4000      8.0199      2.5506      0.2314      6.0218    187.4474     22.2711
  1848.5000      7.9476      2.4967      0.2029      9.2922    184.5146     20.9685
  1848.6000      7.9476      2.4115      0.1809     14.4560    177.3996     19.4753
  1848.7000      7.9476      2.3134      0.0937     20.4003    165.7259     18.3183
  1848.8000      7.9194      2.2187      0.1373     26.1391    153.3486     17.6036
  1848.9000      7.9194      2.1216      0.0681     32.0245    145.9489     16.9746
  1849.0000      7.9346      2.0229      0.0688     38.0054    143.0607     16.2625
  1849.1000      7.9346      1.9267      0.1411     43.8356    140.4393     15.7469
  1849.2000      7.9346      1.8389      0.1117     49.1585    136.3211     15.5060
  1849.3000      7.9746      1.7847      0.1176     52.4396    131.1441     15.3884
  1849.4000      7.9746      1.7881      0.1297     52.2373    124.2680     15.4202
  1849.5000      8.0177      1.8473      0.2101     48.6468    117.9095     15.7494
  1849.6000      8.0177      1.9379      0.2316     43.1586    117.6123     16.3940
  1849.7000      8.0177      2.0287      0.2134     37.6546    123.5885     17.1416
  1849.8000      8.0525      2.0949      0.2439     33.6441    131.5364     17.9087
  1849.9000      8.0525      2.1339      0.2042     31.2806    138.2843     18.7733
  1850.0000      8.0616      2.1775      0.1935     28.6373    142.3598     19.5351
  1850.1000      8.0616      2.2546      0.1569     23.9658    143.1394     20.0104
  1850.2000      8.0616      2.3464      0.1606     18.4001    139.5950     20.5134
  1850.3000      8.0467      2.4101      0.1571     14.5403    134.9600     21.1461
  1850.4000      8.0467      2.4313      0.1613     13.2566    135.8284     21.6262
  1850.5000      8.0350      2.4288      0.1413     13.4076    140.8652     22.0661
  1850.6000      8.0350      2.4272      0.1109     13.5002    143.3776     22.5391
  1850.7000      8.0350      2.4438      0.0982     12.4994    143.0826     22.6717
  1850.8000      8.0272      2.4810      0.1278     10.2411    143.8600     22.4666
  1850.9000      8.0272      2.5168      0.1850      8.0738    145.2837     22.2519
  1851.0000      8.0125      2.5313      0.1539      7.1915    145.9433     22.1192
  1851.1000      8.0125      2.5371      0.1878      6.8428    147.9845     22.0421
  1851.2000      8.0125      2.5510      0.1601      6.0027    152.4430     21.9447
  1851.3000      8.0144      2.5671      0.1486      5.0250    156.2753     21.6516
  1851.4000      8.0144      2.5674      0.1918      5.0087    156.8625     21.1898
  1851.5000      8.0435      2.5449      0.1846      6.3689    155.8212     20.8444
  1851.6000      8.0435      2.5101      0.1507      8.4814    156.7010     20.6509
  1851.7000      8.0435      2.4754      0.1234     10.5815    159.7251     20.5075
  1851.8000      8.0828      2.4576      0.0691     11.6583    162.6507     20.4709
  1851.9000      8.0828      2.4698      0.0879     10.9223    165.1961     20.4798
  1852.0000      8.1175      2.4992      0.1578      9.1416    167.2027     20.3551
  1852.1000      8.1175      2.5290      0.1323      7.3322    168.5671     20.2279
  1852.2000      8.1175      2.5521      0.2216      5.9358    169.0066     20.2701
  1852.3000      8.1257      2.5518      0.2612      5.9504    168.2014     20.2627
  1852.4000      8.1257      2.5187      0.2684      7.9606    168.3934     20.1711
  1852.5000      8.1073      2.4651      0.2239     11.2074    170.3188     20.2770
  1852.6000      8.1073      2.4092      0.1792     14.5930    171.8391     20.3676
  1852.7000      8.1073      2.3546      0.1539     17.9052    171.8575     20.1043
  1852.8000      8.0937      2.2973      0.1346     21.3782    170.6638     19.7238
  1852.9000      8.0937      2.2544      0.1337     23.9732    169.9647     19.3956
  1853.0000      8.1041      2.2485      0.2646     24.3356    172.7166     18.9713
  1853.1000      8.1041      2.2749      0.3462     22.7354    178.2324     18.4307
  1853.2000      8.1041      2.3244      0.3655     19.7318    180.6382     17.9132
  1853.3000      8.1044      2.3959      0.4561     15.3991    178.4442     17.5420
  1853.4000      8.1044      2.4624      0.5954     11.3674    175.0842     17.3334
  1853.5000      8.0585      2.4881      0.5378      9.8101    171.8603     17.2603
  1853.6000      8.0585      2.4880      0.3602      9.8203    170.9077     17.4348
  1853.7000      8.0585      2.5068      0.3404      8.6795    172.7265     17.9989
  1853.8000      8.0115      2.5570      0.3912      5.6380    172.4232     18.6721
  1853.9000      8.0115      2.6163      0.3560      2.0419    169.8930     19.0438
