~Version Information
VERS.                      2.0: CWLS Log ASCII Standard - VERSION 2.0
WRAP.                       NO: One line per depth step
~Well Information Block
STRT.FT                -8.7500: 
STOP.FT              1126.7500: 
STEP.FT                 0.2500: 
NULL.                -999.2500: 
COMP.          Evergreen Operating Corp.: COMPANY
WELL.             Bernice 21-3: WELL
FLD.           Purgatorie River: FIELD
LOC.           201' FNL & 2575' FWL--: LOCATION
PROV.                       CO: PROVINCE
CNTY.               Las Animas: COUNTRY
SRVC.          Patterson Wireline: SERVICE COMPANY
DATE.          Mon Feb 02 12:04:59 2004: LOG DATE
UWI.              05 071 07912: UNIQUE WELL ID
~Curve Information Block
DEPT.FT            0 000 00 00: Depth
CCL.                          : Casing Collar Locator
TT3.usec                      : CBL 3' Travel Time
AMP3.mV                       : CBL 3' Amplitude
GR.GAPI                       : Gamma Ray
~Parameter Information Block
~A  Depth       CCL         TT3         AMP3         GR     
# ...
   728.2500      0.0000    807.3730     10.9276    111.6339
   728.5000      0.0000    807.6977     10.6231    110.8383
   728.7500      0.0000    805.5386     10.0705    107.6810
   729.0000      0.0000    804.6666      9.4802    102.9120
   729.2500      0.0000    808.8959      8.9863     98.7182
   729.5000      0.0000    818.7876      8.5618     96.9254
   729.7500      0.0000    830.2390      8.1242     97.2004
   730.0000      0.0000    838.2252      7.6844     97.4952
   730.2500      0.0000    841.5003      7.3396     96.5205
   730.5000      0.0000    842.1888      7.1456     95.2753
   730.7500     -4.0000    842.2339      7.0503     95.8349
   731.0000     -4.0000    841.9478      6.9562     99.1730
   731.2500      0.0000    840.4849      6.8207    104.5693
   731.5000      0.0000    836.0045      6.6842    110.5694
   731.7500      0.0000    826.7396      6.6045    115.8048
   732.0000      0.0000    813.8378      6.5806    119.1295
   732.2500      0.0000    802.5997      6.5571    119.7994
   732.5000      0.0000    799.2332      6.5027    117.8523
   732.7500      0.0000    805.8834      6.4477    114.0418
   733.0000      0.0000    818.9075      6.4327    109.4150
   733.2500      0.0000    831.8042      6.4563    105.1871
   733.5000      0.0000    839.6201      6.4913    102.6842
   733.7500      0.0000    841.1571      6.5149    102.6792
   734.0000      0.0000    838.2680      6.5126    104.6838
   734.2500      0.0000    833.7684      6.4771    107.3942
   734.5000      0.0000    829.4568      6.4193    109.7278
   734.7500      0.0000    825.3536      6.3713    111.0637
   735.0000      0.0000    820.5653      6.3675    110.9250
   735.2500      0.0000    814.7036      6.4224    109.1452
   735.5000      0.0000    808.5281      6.5209    106.2019
   735.7500      0.0000    803.7579      6.6327    103.0597
   736.0000      0.0000    802.4091      6.7370    100.8080
   736.2500      0.0000    805.6368      6.8325    100.3131
   736.5000      0.0000    812.6982      6.9220    101.6377
   736.7500      0.0000    821.0602      6.9929    103.5332
   737.0000      0.0000    827.8019      7.0207    103.7891
   737.2500      0.0000    831.4656      6.9974    100.7568
   737.5000      0.0000    832.8452      6.9563     95.0115
   737.7500      0.0000    833.7275      6.9553     89.1181
   738.0000      0.0000    834.8869      7.0235     85.2835
   738.2500      0.0000    835.8054      7.1320     83.5189
   738.5000      0.0000    836.0936      7.2274     82.3134
   738.7500      0.0000    836.2997      7.2839     80.5713
   739.0000      0.0000    837.1167      7.3127     78.6255
   739.2500      0.0000    838.4088      7.3296     77.8013
   739.5000      0.0000    839.4593      7.3323     79.1344
   739.7500      0.0000    840.0748      7.3128     82.2497
   740.0000      0.0000    840.9924      7.2711     85.5706
   740.2500      0.0000    842.9578      7.2051     87.7280
   740.5000      0.0000    845.7642      7.1024     88.4923
   740.7500      0.0000    848.5126      6.9594     88.2030
   741.0000      0.0000    850.5269      6.8024     86.7136
   741.2500      0.0000    851.6990      6.6708     83.4108
   741.5000      0.0000    852.1089      6.5831     78.2873
   741.7500      0.0000    851.5378      6.5264     72.6502
   742.0000      0.0000    849.3101      6.4776     68.4955
   742.2500      0.0000    844.6827      6.4272     67.0576
   742.5000      0.0000    837.6627      6.3787     67.8836
   742.7500      0.0000    829.5155      6.3293     69.2585
   743.0000      0.0000    822.1907      6.2673     69.5391
   743.2500      0.0000    817.0717      6.1918     68.1285
   743.5000      0.0000    814.2957      6.1185     65.4848
   743.7500      0.0000    813.1350      6.0634     62.7764
   744.0000      0.0000    812.7430      6.0435     61.8676
   744.2500      0.0000    812.5630      6.0853     64.9421
   744.5000      0.0000    812.3593      6.1974     72.9806
   744.7500      0.0000    812.1453      6.3404     84.2666
   745.0000      0.0000    812.1574      6.4574     95.0113
   745.2500      0.0000    812.9090      6.5314    101.7912
   745.5000      0.0000    815.2209      6.5879    103.1983
   745.7500      0.0000    819.9125      6.6478     99.5723
   746.0000      0.0000    827.0402      6.7039     92.3308
   746.2500      0.0000    835.3412      6.7375     83.8712
   746.5000      0.0000    842.7618      6.7406     77.0160
   746.7500      0.0000    847.7888      6.7207     73.4424
   747.0000      0.0000    850.2330      6.6952     72.6001
   747.2500      0.0000    850.7787      6.6824     72.5625
   747.5000      0.0000    849.9942      6.6915     71.9562
   747.7500      0.0000    847.8298      6.7134     70.9032
   748.0000      0.0000    844.0057      6.7246     70.4110
   748.2500      0.0000    838.8304      6.7092     71.2106
   748.5000      0.0000    833.4506      6.6804     73.0158
   748.7500      0.0000    829.1015      6.6752     74.6821
   749.0000      0.0000    826.3915      6.7212     75.3487
   749.2500      0.0000    825.6605      6.8057     75.4250
   749.5000      0.0000    827.5119      6.8771     76.0159
   749.7500      0.0000    832.1479      6.8801     77.3780
   750.0000      0.0000    838.2855      6.8006     78.4335
   750.2500      0.0000    843.3919      6.6854     77.9799
   750.5000      0.0000    845.1389      6.6137     76.1123
   750.7500      0.0000    842.5966      6.6336     74.3102
   751.0000      0.0000    836.5117      6.7236     74.1964
   751.2500      0.0000    828.8867      6.8180     76.1782
   751.5000      0.0000    821.9791      6.8674     79.3141
   751.7500      0.0000    817.0698      6.8641     82.4245
   752.0000      0.0000    813.8898      6.8195     84.9261
   752.2500      0.0000    811.0524      6.7375     86.4757
   752.5000      0.0000    807.1502      6.6242     86.4420
   752.7500      0.0000    802.1224      6.5060     84.2036
   753.0000      0.0000    798.0226      6.4110     79.6226
   753.2500      0.0000    797.7109      6.3371     72.9553
   753.5000      0.0000    801.8971      6.2641     64.7490
   753.7500      0.0000    807.9805      6.1977     56.1170
   754.0000      0.0000    812.5803      6.1709     48.7573
   754.2500      0.0000    814.6733      6.1896     44.3036
   754.5000      0.0000    815.6761      6.2047     43.5131
   754.7500      0.0000    817.0988      6.1622     45.9045
   755.0000      0.0000    818.7844      6.0662     50.0002
   755.2500      0.0000    819.1458      5.9665     54.0094
   755.5000      0.0000    816.5405      5.8948     56.6487
   755.7500      0.0000    810.1756      5.8383     57.6462
   756.0000      0.0000    800.4523      5.7846     57.5383
   756.2500      0.0000    789.8704      5.7649     56.9721
   756.5000      0.0000    783.6197      5.8202     56.2590
   756.7500      0.0000    786.9824      5.9272     55.4163
   757.0000      0.0000    800.4658      5.9954     54.2578
   757.2500      0.0000    818.4686      5.9590     52.4811
   757.5000      0.0000    833.7633      5.8469     50.0716
   757.7500      0.0000    842.5429      5.7424     47.7130
   758.0000      0.0000    845.0850      5.6963     46.5291
   758.2500      4.0000    843.4431      5.7034     47.2259
   758.5000      4.0000    839.6223      5.7474     49.4342
   758.7500      0.0000    835.0845      5.8501     51.9158
   759.0000      0.0000    830.9337      6.0723     53.6215
   759.2500      0.0000    828.4264      6.4545     54.6541
   759.5000      0.0000    828.9453      6.9385     56.0060
   759.7500      0.0000    832.6839      7.3619     58.2890
   760.0000      0.0000    837.6194      7.5675     61.0515
   760.2500      0.0000    840.6182      7.5165     63.4613
   760.5000      0.0000    839.6882      7.2888     65.1678
   760.7500      0.0000    835.0482      7.0037     66.1220
   761.0000      0.0000    828.4982      6.7574     65.9755
   761.2500      0.0000    822.2433      6.6027     64.2489
   761.5000      0.0000    818.3063      6.5535     61.0392
