~Version Information
VERS.                      2.0: CWLS Log ASCII Standard - VERSION 2.0
WRAP.                       NO: One line per depth step
~Well Information Block
STRT.FT               260.0000: 
STOP.FT              2610.0000: 
STEP.FT                 0.1000: 
NULL.                -999.2500: 
COMP.          Pioneer Natural Resources: COMPANY
WELL.           Costello 44-24: WELL
FLD.           Purgatoire River: FIELD
LOC.           327' FSL & 378' FEL: LOCATION
PROV.                 Colorado: PROVINCE
CNTY.               Las Animas: COUNTRY
SRVC.                Patterson: SERVICE COMPANY
DATE.          Mon Jul 11 10:42:19 2005: LOG DATE
UWI.           05 071 08413 00: UNIQUE WELL ID
~Curve Information Block
DEPT.FT            0 000 00 00: Depth
DCAL.in                       : CDL Caliper
RHOB.g/cc                     : CDL Bulk Density
RHOC.g/cc                     : CDL Density Correction
DPOR.pu                       : CDL Density Porosity
GR.GAPI                       : Gamma Ray
NPOR.pu                       : Neutron Porosity
~Parameter Information Block
~A  Depth       DCAL        RHOB        RHOC        DPOR         GR         NPOR    
# ...
  1037.6000      8.1766      2.4237      0.0190     13.7166     51.9442     19.5238
  1037.7000      8.1766      2.4164      0.0525     14.1566     55.3347     19.9806
  1037.8000      8.1828      2.3960     -0.0083     15.3932     56.3769     20.3169
  1037.9000      8.1828      2.3826     -0.0178     16.2057     54.8089     20.1273
  1038.0000      8.1967      2.3978     -0.0780     15.2831     49.4583     19.7064
  1038.1000      8.1967      2.4304      0.0521     13.3091     43.6272     19.5197
  1038.2000      8.1967      2.4578      0.0133     11.6458     41.1423     19.5789
  1038.3000      8.1876      2.4778      0.0255     10.4372     40.7642     19.6507
  1038.4000      8.1876      2.4885      0.0384      9.7903     40.3311     19.7131
  1038.5000      8.1805      2.4861      0.0137      9.9344     40.5446     19.9869
  1038.6000      8.1805      2.4785      0.0209     10.3928     41.1193     20.2172
  1038.7000      8.1805      2.4734      0.0182     10.7043     39.7154     19.9962
  1038.8000      8.1501      2.4707      0.0379     10.8662     36.3943     19.6127
  1038.9000      8.1501      2.4729      0.0033     10.7363     33.6916     19.4802
  1039.0000      8.1312      2.4912      0.0155      9.6239     32.5123     19.2995
  1039.1000      8.1312      2.5217      0.0165      7.7757     32.0284     18.6591
  1039.2000      8.1312      2.5384      0.0805      6.7630     34.0102     17.9982
  1039.3000      8.1281      2.5345      0.0509      7.0014     38.9432     18.0238
  1039.4000      8.1281      2.5296      0.0843      7.2999     43.3096     18.6074
  1039.5000      8.1244      2.5365      0.0847      6.8768     46.6663     18.9796
  1039.6000      8.1244      2.5491      0.0968      6.1170     49.1039     18.7139
  1039.7000      8.1244      2.5554      0.0602      5.7324     47.6461     18.2226
  1039.8000      8.1289      2.5556      0.0877      5.7183     42.5942     17.9521
  1039.9000      8.1289      2.5544      0.0857      5.7970     38.2667     17.8239
  1040.0000      8.1324      2.5513      0.0739      5.9800     38.5334     17.6651
  1040.1000      8.1324      2.5394      0.0593      6.7057     42.8796     17.6192
  1040.2000      8.1324      2.5099      0.0189      8.4889     46.8132     17.7101
  1040.3000      8.1339      2.4814      0.0021     10.2199     48.5710     17.6799
  1040.4000      8.1339      2.4843     -0.0038     10.0422     49.9249     17.5634
  1040.5000      8.1394      2.5159      0.0581      8.1298     49.5797     17.7126
  1040.6000      8.1394      2.5463      0.1047      6.2840     47.7147     18.3868
  1040.7000      8.1394      2.5619      0.0666      5.3387     49.9576     19.4646
  1040.8000      8.1442      2.5739      0.0861      4.6112     56.0070     20.2626
  1040.9000      8.1442      2.5828      0.1215      4.0701     58.8933     20.1706
  1041.0000      8.1361      2.5717      0.0748      4.7472     57.7790     19.4600
  1041.1000      8.1361      2.5375      0.0633      6.8189     57.9768     18.7155
  1041.2000      8.1361      2.4982      0.0246      9.1998     59.6256     18.3529
  1041.3000      8.1237      2.4725      0.0366     10.7546     58.8366     18.4853
  1041.4000      8.1237      2.4662      0.0379     11.1395     56.5275     18.8790
  1041.5000      8.1346      2.4760      0.0749     10.5440     58.3382     19.2767
  1041.6000      8.1346      2.4944      0.1156      9.4301     65.5608     19.5200
  1041.7000      8.1346      2.5109      0.0919      8.4333     70.7474     19.5680
  1041.8000      8.1357      2.5193      0.0990      7.9189     69.3209     19.7192
  1041.9000      8.1357      2.5283      0.0924      7.3756     67.0122     20.2660
  1042.0000      8.1349      2.5562      0.1143      5.6837     69.5512     20.9573
  1042.1000      8.1349      2.6007      0.1623      2.9877     74.4864     21.3168
  1042.2000      8.1349      2.6286      0.2126      1.2991     77.3488     21.4556
  1042.3000      8.1319      2.6253      0.1415      1.4980     80.2769     21.8763
  1042.4000      8.1319      2.6158      0.1188      2.0744     83.5442     22.5945
  1042.5000      8.1270      2.6137      0.1477      2.1999     82.8423     23.1533
  1042.6000      8.1270      2.6146      0.1167      2.1477     82.1846     23.4089
  1042.7000      8.1270      2.6155      0.1100      2.0897     88.8318     23.5213
  1042.8000      8.1260      2.6079      0.1018      2.5492    100.3604     23.5819
  1042.9000      8.1260      2.5946      0.0645      3.3584    109.3229     23.8539
  1043.0000      8.1442      2.6017      0.0122      2.9261    113.5025     24.5584
  1043.1000      8.1442      2.6310      0.1202      1.1489    112.5125     25.3534
  1043.2000      8.1442      2.6465      0.1044      0.2131    104.8341     25.8210
  1043.3000      8.1536      2.6401      0.0411      0.5971     93.9935     26.1198
  1043.4000      8.1536      2.6429      0.0109      0.4328     85.9598     26.4480
  1043.5000      8.1643      2.6624      0.0753     -0.7512     84.1411     26.7049
  1043.6000      8.1643      2.6796      0.0897     -1.7965     88.5264     26.7950
  1043.7000      8.1643      2.6861      0.0893     -2.1907     94.8201     26.7136
  1043.8000      8.1675      2.6866      0.0761     -2.2157     98.3978     26.7315
  1043.9000      8.1675      2.6943      0.0186     -2.6821     97.6328     27.1346
  1044.0000      8.1773      2.7090      0.0525     -3.5738     91.6890     27.5618
  1044.1000      8.1773      2.7079      0.0076     -3.5118     84.0372     27.4458
  1044.2000      8.1773      2.6909     -0.0435     -2.4807     81.3706     26.6052
  1044.3000      8.1774      2.6773      0.0433     -1.6528     85.2429     25.3912
  1044.4000      8.1774      2.6684     -0.0003     -1.1135     91.9798     24.4962
  1044.5000      8.1976      2.6609      0.0156     -0.6616     96.5570     24.2000
  1044.6000      8.1976      2.6538      0.0022     -0.2324     96.6419     24.1695
  1044.7000      8.1976      2.6278      0.0639      1.3426     95.1832     23.9407
  1044.8000      8.1994      2.5616      0.0265      5.3565     95.8020     23.4334
  1044.9000      8.1994      2.4861     -0.0832      9.9308     99.1831     23.0151
  1045.0000      8.2072      2.4518     -0.0218     12.0105    103.7494     23.1128
  1045.1000      8.2072      2.4538      0.0054     11.8922    105.8119     23.7644
  1045.2000      8.2072      2.4601      0.0004     11.5109    105.4832     24.4860
  1045.3000      8.2046      2.4650     -0.0289     11.2122    110.7245     24.8869
  1045.4000      8.2046      2.4774      0.0359     10.4630    122.6413     24.8476
  1045.5000      8.2427      2.4902      0.1565      9.6866    133.9643     24.7062
  1045.6000      8.2427      2.5002      0.1514      9.0768    141.1093     24.8857
  1045.7000      8.2427      2.5223      0.2397      7.7419    144.7047     25.1046
  1045.8000      8.2878      2.5551      0.2080      5.7525    145.7500     25.0498
  1045.9000      8.2878      2.5863      0.1434      3.8581    146.5742     24.8779
  1046.0000      8.4297      2.6143      0.1037      2.1627    149.8038     24.6336
  1046.1000      8.4297      2.6314      0.1641      1.1281    152.8770     24.3464
  1046.2000      8.4297      2.6251      0.1102      1.5121    151.6898     24.2629
  1046.3000      8.3901      2.6033      0.1523      2.8283    146.4916     24.3166
  1046.4000      8.3901      2.5839      0.1670      4.0079    141.0601     24.0633
  1046.5000      8.3929      2.5750      0.1256      4.5482    138.4974     23.5097
  1046.6000      8.3929      2.5695      0.0722      4.8786    138.4768     22.9588
  1046.7000      8.3929      2.5553      0.0404      5.7364    139.9347     22.4766
  1046.8000      8.4454      2.5299      0.0569      7.2797    143.3123     22.1809
  1046.9000      8.4454      2.4978      0.0323      9.2213    146.9029     22.2578
  1047.0000      8.4531      2.4619      0.0360     11.3999    146.5009     22.4564
  1047.1000      8.4531      2.4185     -0.0168     14.0300    144.2772     22.3630
