~Version Information
 VERS.                                  2.0 : CWLS LAS VERSION
 WRAP.                                   NO : WRAPING MODE
 SWARE .                 MController 2.5.0N : SOFTWARE VERSION
~Well Information
 WELL.                                  N/A : WELL
 COMP.                                  N/A : COMPANY
 FLD.                                   N/A : FIELD
 LOC.                                   N/A : LOCATION
 DATE.                                  N/A : DATE(S) LOGGED
 SRVC.                                  N/A : SERVICE COMPANY
 STAT.                                  N/A : STATE
 CNTY.                                  N/A : COUNTY
 CTRY.                                  N/A : COUNTRY
 API.                                   N/A : API NUMBER
 STRT.FT                             445.00 : START DEPTH
 STOP.FT                            1905.00 : STOP DEPTH
 STEP.FT                               1.00 : DEPTH INCREMENT
 NULL.                                -9999 : NULL VALUE
~Curve information
 DEPTH.FT                                   :
 ROP.MIN/FT                                 :
 GAS.UNITS                                  :
~ASCII Log data
# ...
      1245.0         0.20         20.4 
      1246.0         0.23         22.2 
      1247.0         0.23         21.3 
      1248.0         0.20         20.7 
      1249.0         0.20         20.0 
      1250.0         0.17         19.9 
      1251.0         0.17         19.9 
      1252.0         0.20         22.3 
      1253.0         0.17         20.4 
      1254.0         0.17         21.2 
      1255.0         0.15         21.2 
      1256.0         1.27         22.9 
      1257.0         0.47         19.7 
      1258.0         0.23         20.1 
      1259.0         0.20         20.6 
      1260.0         0.10         19.3 
      1261.0         0.20         19.6 
      1262.0         0.20         20.1 
      1263.0         0.20         20.3 
      1264.0         0.27         20.3 
      1265.0         0.25         20.8 
      1266.0         0.17         20.8 
      1267.0         0.23         21.5 
      1268.0         0.17         19.4 
      1269.0         0.23         20.1 
      1270.0         0.23         19.4 
      1271.0         0.17         19.3 
      1272.0         0.20         19.4 
      1273.0         0.20         19.1 
      1274.0         0.17         19.0 
      1275.0         0.20         20.4 
      1276.0         0.17         20.4 
      1277.0         0.23         21.3 
      1278.0         0.17         20.8 
      1279.0         0.23         19.4 
      1280.0         0.23         19.8 
      1281.0         0.22         18.5 
      1282.0         0.20         20.4 
      1283.0         0.17         20.4 
      1284.0         0.20         19.7 
      1285.0         0.17         19.6 
      1286.0         1.57         22.2 
      1287.0         0.53         21.1 
      1288.0         0.33         20.2 
      1289.0         0.32         21.0 
      1290.0         0.27         21.6 
      1291.0         0.23         21.5 
      1292.0         0.23         21.9 
      1293.0         0.20          0.0 
      1294.0         0.30          0.0 
      1295.0         0.27          0.0 
      1296.0         0.23          0.0 
      1297.0         0.20          0.0 
      1298.0         0.20          0.0 
      1299.0         0.20          0.0 
      1300.0         0.20          0.0 
      1301.0         0.20          0.0 
      1302.0         0.20          0.0 
      1303.0         0.23          0.0 
      1304.0         0.22          0.0 
      1305.0         0.20          0.0 
      1306.0         0.20          0.0 
      1307.0         0.20          0.0 
      1308.0         0.20          0.0 
      1309.0         0.23          0.0 
      1310.0         0.20          0.0 
      1311.0         0.23          0.0 
      1312.0         0.20          0.0 
      1313.0         0.20          0.0 
      1314.0         0.23          0.0 
      1315.0         0.27          0.0 
      1316.0         1.52          0.0 
      1317.0         0.33          0.0 
      1318.0         0.70          0.0 
      1319.0         0.43          0.0 
      1320.0         0.20          0.0 
      1321.0         0.20          0.0 
      1322.0         0.27          0.0 
      1323.0         0.30          0.0 
      1324.0         0.22          0.0 
      1325.0         0.23          0.0 
      1326.0         0.27          0.0 
      1327.0         0.20          0.0 
      1328.0         0.20          0.0 
      1329.0         0.17          0.0 
      1330.0         0.23          0.0 
      1331.0         0.20         31.2 
      1332.0         0.20         21.5 
      1333.0         0.17         23.1 
      1334.0         0.20         22.0 
      1335.0         0.17         21.6 
      1336.0         0.20         20.1 
      1337.0         0.27         20.6 
      1338.0         0.17         19.2 
      1339.0         0.17         20.3 
      1340.0         0.17         20.0 
      1341.0         0.22         21.7 
      1342.0         0.20         20.8 
      1343.0         0.10         20.5 
      1344.0         0.13         20.5 
      1345.0         0.20         19.4 
      1346.0         2.07         21.8 
      1347.0         0.47         20.9 
      1348.0         0.35         19.3 
      1349.0         0.27         19.8 
      1350.0         0.23         19.4 
      1351.0         0.20         20.8 
      1352.0         0.23         19.1 
      1353.0         0.30         18.9 
      1354.0         0.30         19.1 
      1355.0         0.30         19.5 
      1356.0         0.27         20.6 
      1357.0         0.20         20.2 
      1358.0         0.27         21.4 
      1359.0         0.23         18.3 
      1360.0         0.20         17.5 
      1361.0         0.22         19.0 
      1362.0         0.17         19.2 
      1363.0         0.20         18.8 
      1364.0         0.20         19.2 
      1365.0         0.30         18.6 
      1366.0         0.20         18.3 
      1367.0         0.20         18.9 
      1368.0         0.17         18.4 
      1369.0         0.17         18.4 
      1370.0         0.20         18.7 
      1371.0         0.17         19.7 
      1372.0         0.17         19.7 
      1373.0         0.20         20.1 
      1374.0         0.17         18.6 
      1375.0         0.20         18.6 
      1376.0         1.75         20.4 
      1377.0         0.60         20.0 
      1378.0         0.27         20.0 
      1379.0         0.53         19.4 
      1380.0         0.57         20.0 
      1381.0         0.58         20.4 
      1382.0         0.43         19.8 
      1383.0         0.27         20.2 
      1384.0         0.27         20.6 
      1385.0         0.23         21.1 
      1386.0         0.20         20.8 
      1387.0         0.20         19.5 
      1388.0         0.20         20.4 
      1389.0         0.23         21.6 
      1390.0         0.23         19.2 
      1391.0         0.23         19.7 
      1392.0         0.20         17.6 
      1393.0         0.22         18.4 
      1394.0         0.13         18.4 
      1395.0         0.20         19.2 
      1396.0         0.20         21.4 
      1397.0         0.23         21.4 
      1398.0         0.20         18.8 
      1399.0         0.17         19.3 
      1400.0         0.13         18.9 
      1401.0         0.13         18.9 
      1402.0         0.20         18.8 
      1403.0         0.17         19.6 
      1404.0         0.20         19.6 
      1405.0         0.27         20.1 
      1406.0         1.45         20.3 
      1407.0         0.40         20.0 
      1408.0         0.57         19.3 
      1409.0         0.40         20.0 
      1410.0         0.33         19.9 
      1411.0         0.37         17.2 
      1412.0         0.27         19.0 
      1413.0         0.30         20.3 
      1414.0         0.32         17.3 
      1415.0         0.30         17.8 
      1416.0         0.33         18.0 
      1417.0         0.30         18.0 
      1418.0         0.23         17.0 
      1419.0         0.27         19.2 
      1420.0         0.27         18.2 
      1421.0         0.27         17.4 
      1422.0         0.27         19.6 
      1423.0         0.23         19.2 
      1424.0         0.20         19.6 
      1425.0         0.23         19.2 
      1426.0         0.33         18.5 
      1427.0         0.58         19.3 
      1428.0         0.47         18.6 
      1429.0         0.47         20.7 
      1430.0         0.40         19.9 
      1431.0         0.40         19.3 
      1432.0         0.40         18.8 
      1433.0         0.37         20.2 
      1434.0         0.45         18.6 
      1435.0         0.50         18.2 
      1436.0         3.95         20.4 
      1437.0         0.97         20.4 
      1438.0         0.73         19.9 
      1439.0         0.62         18.1 
      1440.0         0.57         20.1 
      1441.0         0.47         20.7 
      1442.0         0.33         21.1 
      1443.0         0.23         20.6 
      1444.0         0.17         20.5 
