~Version Information
VERS.                      2.0: CWLS Log ASCII Standard - VERSION 2.0
WRAP.                       NO: One line per depth step
~Well Information Block
STRT.FT               840.0000: 
STOP.FT              2268.0000: 
STEP.FT                 0.2500: 
NULL.                -999.2500: 
COMP.          Pioneer Natural Resources: COMPANY
WELL.              Tonto 42-23: WELL
FLD.           Purgatoire River: FIELD
LOC.           2217' FNL & 423' FEL: LOCATION
PROV.                 Colorado: PROVINCE
CNTY.               Las Animas: COUNTRY
SRVC.                Patterson: SERVICE COMPANY
DATE.          Sun Apr 17 01:24:47 2005: LOG DATE
UWI.           05 071 08335 00: UNIQUE WELL ID
~Curve Information Block
DEPT.FT            0 000 00 00: Depth
SN.Ohm-m                      : IEL Short Normal
SP.mV                         : IEL Spontaneous Potential
DIR.Ohm-m                     : IEL Induction Resistivity
GR.GAPI                       : Gamma Ray
~Parameter Information Block
~A  Depth        SN          SP         DIR          GR     
# ...
  1409.5000      9.8405   -126.0545      7.0447    113.7633
  1409.7500      9.9767   -126.0796      7.0269    112.1153
  1410.0000     10.0542   -126.0914      7.0282    111.2942
  1410.2500     10.0422   -126.0794      7.0430    111.7173
  1410.5000      9.9668   -126.0472      7.0650    113.6111
  1410.7500      9.9015   -126.0213      7.0880    115.5277
  1411.0000      9.8865   -126.0388      7.1071    118.8658
  1411.2500      9.8681   -126.1234      7.1183    121.1522
  1411.5000      9.7996   -126.2684      7.1180    124.6740
  1411.7500      9.7214   -126.4394      7.1044    127.2030
  1412.0000      9.6777   -126.5908      7.0781    131.0390
  1412.2500      9.6559   -126.6830      7.0426    133.1858
  1412.5000      9.6632   -126.6950      7.0037    135.2392
  1412.7500      9.7259   -126.6369      6.9659    135.9511
  1413.0000      9.7494   -126.5547      6.9309    136.6651
  1413.2500      9.5841   -126.5091      6.8973    137.1280
  1413.5000      9.2633   -126.5311      6.8621    137.7531
  1413.7500      8.9944   -126.5982      6.8223    138.0992
  1414.0000      8.9115   -126.6623      6.7767    138.7249
  1414.2500      8.9452   -126.7018      6.7272    139.2535
  1414.5000      8.9650   -126.7377      6.6791    139.6447
  1414.7500      8.9860   -126.8044      6.6393    139.0980
  1415.0000      9.0912   -126.9130      6.6130    136.7253
  1415.2500      9.1973   -127.0368      6.6004    134.5381
  1415.5000      9.1670   -127.1241      6.5979    131.6567
  1415.7500      9.0781   -127.1265      6.6000    130.5040
  1416.0000      9.0990   -127.0310      6.6038    129.7153
  1416.2500      9.2315   -126.8761      6.6102    129.2609
  1416.5000      9.3766   -126.7364      6.6241    127.9483
  1416.7500      9.4917   -126.6794      6.6515    126.6511
  1417.0000      9.5778   -126.7294      6.6976    124.5619
  1417.2500      9.6370   -126.8623      6.7648    123.3983
  1417.5000      9.6843   -127.0188      6.8514    122.5084
  1417.7500      9.7468   -127.1243      6.9522    122.7205
  1418.0000      9.8292   -127.1188      7.0611    124.2485
  1418.2500      9.9541   -126.9909      7.1746    125.7239
  1418.5000     10.1950   -126.7852      7.2940    127.5772
  1418.7500     10.5166   -126.5739      7.4245    128.0624
  1419.0000     10.7372   -126.4173      7.5721    127.9317
  1419.2500     10.7683   -126.3431      7.7412    128.1756
  1419.5000     10.6872   -126.3466      7.9337    130.4559
  1419.7500     10.5975   -126.4054      8.1519    133.1184
  1420.0000     10.5993   -126.4981      8.4019    136.9847
  1420.2500     10.7502   -126.6170      8.6955    138.2934
  1420.5000     10.9886   -126.7687      9.0479    137.4777
  1420.7500     11.2659   -126.9607      9.4724    135.3718
  1421.0000     11.6344   -127.1858      9.9752    131.1546
  1421.2500     12.1123   -127.4158     10.5572    128.4568
  1421.5000     12.6548   -127.6099     11.2234    125.6086
  1421.7500     13.2552   -127.7293     11.9919    124.7504
  1422.0000     13.9434   -127.7546     12.8925    124.7990
  1422.2500     14.7887   -127.6968     13.9476    125.3356
  1422.5000     15.9829   -127.5930     15.1391    126.0175
  1422.7500     17.7579   -127.4833     16.3757    125.7424
  1423.0000     20.1478   -127.3840     17.5038    123.0899
  1423.2500     22.8482   -127.2794     18.3943    119.6009
  1423.5000     25.3499   -127.1366     19.0516    112.9027
  1423.7500     27.2773   -126.9280     19.6267    108.7230
  1424.0000     28.5683   -126.6435     20.3179    104.6088
  1424.2500     29.3560   -126.2943     21.2637    103.4665
  1424.5000     29.7519   -125.9080     22.4955    103.1541
  1424.7500     29.7821   -125.5176     23.9359    103.0795
  1425.0000     29.5202   -125.1512     25.4217    102.3706
  1425.2500     29.1410   -124.8315     26.7471    101.5552
  1425.5000     28.7406   -124.5727     27.7212    100.4619
  1425.7500     28.2573   -124.3681     28.2208    100.1139
  1426.0000     27.6408   -124.1851     28.2176    100.0043
  1426.2500     26.9415   -123.9854     27.7754     99.9519
  1426.5000     26.2127   -123.7503     27.0259    100.2632
  1426.7500     25.4799   -123.4894     26.1295    101.6184
  1427.0000     24.8160   -123.2302     25.2331    106.9497
  1427.2500     24.2864   -123.0026     24.4427    112.7942
  1427.5000     23.8525   -122.8209     23.8158    123.2928
  1427.7500     23.4512   -122.6628     23.3672    129.9367
  1428.0000     23.0600   -122.4546     23.0763    137.4834
  1428.2500     22.6654   -122.0943     22.8951    140.7099
  1428.5000     22.3625   -121.5207     22.7595    143.6551
  1428.7500     22.3900   -120.7806     22.6106    144.8445
  1429.0000     22.7791   -120.0184     22.4169    145.5536
  1429.2500     23.1163   -119.3863     22.1837    145.0700
  1429.5000     23.0350   -118.9610     21.9426    142.8132
  1429.7500     22.7088   -118.7321     21.7284    140.6081
  1430.0000     22.4800   -118.6482     21.5610    136.8878
  1430.2500     22.4354   -118.6596     21.4428    134.0797
  1430.5000     22.5718   -118.7304     21.3703    128.6932
  1430.7500     22.9325   -118.8343     21.3477    124.1859
  1431.0000     23.4907   -118.9532     21.3925    116.8633
  1431.2500     24.0761   -119.0765     21.5286    112.3655
  1431.5000     24.4577   -119.1919     21.7695    107.2429
  1431.7500     24.5531   -119.2764     22.1021    105.3295
  1432.0000     24.4957   -119.2995     22.4803    105.1490
  1432.2500     24.4165   -119.2385     22.8368    106.7693
  1432.5000     24.3167   -119.0962     23.1087    110.9746
  1432.7500     24.1615   -118.9073     23.2624    114.1582
  1433.0000     23.9337   -118.7263     23.3047    118.0849
  1433.2500     23.6370   -118.5993     23.2743    119.5047
  1433.5000     23.3304   -118.5398     23.2220    119.3330
  1433.7500     23.1073   -118.5234     23.1889    117.8019
  1434.0000     23.0278   -118.5023     23.1922    114.1661
  1434.2500     23.0633   -118.4278     23.2257    111.4178
  1434.5000     23.1366   -118.2697     23.2742    107.5368
  1434.7500     23.2278   -118.0254     23.3272    105.3351
  1435.0000     23.3019   -117.7211     23.3840    102.8894
  1435.2500     23.2570   -117.4050     23.4505    102.0170
  1435.5000     23.1001   -117.1291     23.5379    101.8861
  1435.7500     22.9748   -116.9272     23.6631    102.2142
  1436.0000     22.9899   -116.8029     23.8460    102.3284
  1436.2500     23.1610   -116.7310     24.0985    101.7750
  1436.5000     23.4263   -116.6699     24.4177     99.9206
  1436.7500     23.6859   -116.5812     24.7956     98.0647
  1437.0000     23.9296   -116.4491     25.2427     94.3963
  1437.2500     24.2494   -116.2866     25.7995     91.3569
  1437.5000     24.6558   -116.1247     26.5140     85.9940
  1437.7500     25.0218   -115.9945     27.3888     82.1982
  1438.0000     25.2538   -115.9159     28.3383     77.3310
  1438.2500     25.4220   -115.8965     29.2067     75.2967
  1438.5000     25.6870   -115.9395     29.8533     74.1675
  1438.7500     26.1139   -116.0526     30.2351     74.0560
  1439.0000     26.5808   -116.2481     30.3985     73.1955
  1439.2500     26.8850   -116.5341     30.4011     71.3187
  1439.5000     26.9329   -116.9059     30.2632     66.1016
  1439.7500     26.8000   -117.3434     29.9985     61.6337
  1440.0000     26.6276   -117.8138     29.6672     55.6063
  1440.2500     26.5220   -118.2769     29.3822     53.2325
  1440.5000     26.5489   -118.6936     29.2671     52.8982
  1440.7500     26.7149   -119.0372     29.4040     54.3786
  1441.0000     26.9036   -119.3028     29.7970     57.4587
  1441.2500     26.9658   -119.5091     30.3536     59.0796
  1441.5000     26.9202   -119.6905     30.8862     59.9981
  1441.7500     26.9106   -119.8829     31.1644     59.7199
  1442.0000     26.9887   -120.1080     31.0283     58.7057
  1442.2500     27.0535   -120.3609     30.4926     58.0416
  1442.5000     26.9712   -120.6104     29.7439     57.5882
  1442.7500     26.7010   -120.8147     29.0270     57.8597
