~Version Information
VERS.                      2.0: CWLS Log ASCII Standard - VERSION 2.0
WRAP.                       NO: One line per depth step
~Well Information Block
STRT.FT                -9.5000: 
STOP.FT              1862.5000: 
STEP.FT                 0.2500: 
NULL.                -999.2500: 
COMP.          Petrogulf Corporation: COMPANY
WELL.             State 16-34R: WELL
FLD.           Purgatoire River: FIELD
LOC.           1095' FSL & 1498' FEL--: LOCATION
CNTY.               Las Animas: COUNTY
SRVC.                         : SERVICE COMPANY
DATE.          Mon May 10 14:56:57 2004: LOG DATE
UWI.                          : UNIQUE WELL ID
STAT.                       CO: STATE
~Curve Information Block
DEPT.FT            0 000 00 00: Depth
GR.GAPI                       : Gamma Ray
CCL.                          : Casing Collar Locator
TT3.usec                      : CBL 3' Travel Time
AMP3.mV                       : CBL 3' Amplitude
~Parameter Information Block
~A  Depth        GR         CCL         TT3         AMP3    
# ...
  1096.0000    160.9306      0.0000    770.2347     19.5613
  1096.2500    158.9475      0.0000    784.2191     18.4627
  1096.5000    156.4679      0.0000    790.7725     17.1559
  1096.7500    153.7965      0.0000    792.9617     15.8477
  1097.0000    150.7715      0.0000    790.7825     14.8163
  1097.2500    147.8190      0.0000    785.1110     14.0962
  1097.5000    145.9613      0.0000    778.0976     13.6523
  1097.7500    145.8778      0.0000    771.0289     13.5222
  1098.0000    147.2024      0.0000    763.9529     13.5813
  1098.2500    148.6601      0.0000    758.1154     13.6855
  1098.5000    148.9605      0.0000    754.9740     13.9522
  1098.7500    147.9369      0.0000    754.0496     14.4296
  1099.0000    146.8008      0.0000    753.8970     14.8633
  1099.2500    146.9335      0.0000    753.5949     15.0876
  1099.5000    148.4563      0.0000    753.1105     15.2495
  1099.7500    150.3407      0.0000    752.7971     15.5271
  1100.0000    151.9423      0.0000    752.6007     15.9354
  1100.2500    153.9179      0.0000    752.1552     16.4421
  1100.5000    157.2881      0.0000    751.5241     17.0319
  1100.7500    161.8147      0.0000    751.2197     17.6093
  1101.0000    165.6457      0.0000    751.6288     17.9734
  1101.2500    166.6078      0.0000    753.1149     17.9165
  1101.5000    163.9234      0.0000    756.4274     17.3299
  1101.7500    158.8527      0.0000    761.1318     16.3044
  1102.0000    153.5853      0.0000    763.9235     15.1881
  1102.2500    149.2923      0.0000    762.3735     14.3764
  1102.5000    145.2612      0.0000    759.5161     13.9701
  1102.7500    140.0851      0.0000    760.8867     13.8260
  1103.0000    133.5033      0.0000    768.7274     13.9308
  1103.2500    126.8639      0.0000    780.0828     14.3646
  1103.5000    122.1646      0.0000    789.6889     14.8723
  1103.7500    121.0676      0.0000    794.6757     15.0296
  1104.0000    124.0960      0.0000    794.7841     14.8954
  1104.2500    129.7342      0.0000    789.2447     14.9182
  1104.5000    134.5391      0.0000    777.9855     15.2869
  1104.7500    135.2195      0.0000    767.2358     15.7748
  1105.0000    131.2422      0.0000    767.5031     16.1747
  1105.2500    125.3775      0.0000    779.3381     16.5926
  1105.5000    121.4428      0.0000    788.1130     17.2087
  1105.7500    121.3267      0.0000    778.9775     17.9950
  1106.0000    124.0934      0.0000    748.3599     18.7560
  1106.2500    127.6682      0.0000    705.1722     19.3552
  1106.5000    130.7803      0.0000    671.4705     19.7812
  1106.7500    133.2108      0.0000    663.8002     19.9831
  1107.0000    134.9969      0.0000    671.7086     19.8467
  1107.2500    136.0085      0.0000    677.1403     19.3815
  1107.5000    135.9643      0.0000    679.7535     18.8123
  1107.7500    134.6454      0.0000    690.2559     18.3730
  1108.0000    132.4389      0.0000    714.1042     17.9900
  1108.2500    130.5545      0.0000    743.9445     17.3526
  1108.5000    129.8749      0.0000    766.9941     16.3270
  1108.7500    129.5042      0.0000    780.4958     15.0706
  1109.0000    127.2896      0.0000    791.8208     13.8300
  1109.2500    122.1123      0.0000    806.4180     12.8301
  1109.5000    115.1715      0.0000    821.9651     12.1640
  1109.7500    108.9671      0.0000    829.9836     11.6807
  1110.0000    105.5101      0.0000    825.9261     11.1604
  1110.2500    105.4474      0.0000    817.5047     10.5665
  1110.5000    108.0923      0.0000    815.6181     10.0080
  1110.7500    111.7413      0.0000    821.9943      9.5146
  1111.0000    114.2311      0.0000    829.6832      8.9113
  1111.2500    113.8345      0.0000    834.8193      8.0803
  1111.5000    110.1138      0.0000    844.6198      7.2400
  1111.7500    103.9988      0.0000    864.4835      6.6533
  1112.0000     96.8813      0.0000    885.9662      6.3771
  1112.2500     89.7424      0.0000    899.4081      6.4418
  1112.5000     83.2120      0.0000    905.2421      6.8380
  1112.7500     77.8415      0.0000    907.8770      7.3076
  1113.0000     73.7655      0.0000    909.2006      7.5174
  1113.2500     70.5759      0.0000    909.3363      7.3549
  1113.5000     68.1884      0.0000    908.5756      6.9507
  1113.7500     67.4985      0.0000    906.7299      6.6411
  1114.0000     69.3873      0.0000    902.0515      6.6918
  1114.2500     73.0550      0.0000    893.1536      6.8476
  1114.5000     75.9200      0.0000    882.3647      6.4587
  1114.7500     75.5216      0.0000    874.9013      5.3812
  1115.0000     71.4711      0.0000    873.8687      4.3929
  1115.2500     65.5159      0.0000    876.5130      4.1736
  1115.5000     60.1009      0.0000    875.1714      4.4977
  1115.7500     57.1604      0.0000    867.0945      4.9311
  1116.0000     57.7639      0.0000    862.8420      5.4487
  1116.2500     61.9602      0.0000    871.8984      6.1011
  1116.5000     68.5603      0.0000    886.5129      6.7837
  1116.7500     75.5474      0.0000    894.8130      7.3629
  1117.0000     81.4388      0.0000    895.7204      7.6738
  1117.2500     86.5517      0.0000    891.1480      7.7086
  1117.5000     92.6197      0.0000    878.3949      7.8069
  1117.7500    100.8491      0.0000    857.0950      8.2021
  1118.0000    110.4162      0.0000    833.1616      8.7884
  1118.2500    118.9067      0.0000    811.7497      9.5268
  1118.5000    123.9648      0.0000    792.2756     10.5752
  1118.7500    124.5343      0.0000    771.9073     12.0706
  1119.0000    121.2284      0.0000    749.7385     14.0531
  1119.2500    116.2180      0.0000    719.3099     16.5097
  1119.5000    112.4428      0.0000    660.8394     19.4275
  1119.7500    111.9470      0.0000    562.0065     22.7702
  1120.0000    114.5535      0.0000    446.9853     26.2622
  1120.2500    118.4743      0.0000    359.0173     29.3752
  1120.5000    122.3684      0.0000    315.1467     31.7908
  1120.7500    126.4556      0.0000    300.9242     33.6616
  1121.0000    131.4410      0.0000    297.9641     35.3250
  1121.2500    136.8463      0.0000    297.6041     37.1125
  1121.5000    141.0052      0.0000    297.4944     39.2200
  1121.7500    142.7768      0.0000    297.1859     41.2358
  1122.0000    142.6690      0.0000    296.7537     42.2174
  1122.2500    141.9297      0.0000    296.4829     41.6385
  1122.5000    140.9865      0.0000    296.8728     39.7811
  1122.7500    139.2421      0.0000    300.2674     37.1686
  1123.0000    136.0866      0.0000    315.7859     34.1753
  1123.2500    131.6449      0.0000    362.5243     31.0521
  1123.5000    126.6820      0.0000    454.1281     27.8381
  1123.7500    122.1068      0.0000    570.4745     24.4943
  1124.0000    118.4275      0.0000    667.6030     21.3309
  1124.2500    115.4108      0.0000    726.5742     18.6135
  1124.5000    112.1689      0.0000    767.0843     15.8320
  1124.7500    107.4677      0.0000    817.4916     12.5032
  1125.0000    100.1192      0.0000    887.3321      9.2693
  1125.2500     89.7571      0.0000    952.1639      7.0345
  1125.5000     77.6269      0.0000    969.8962      5.8328
  1125.7500     66.1622      0.0000    931.6604      5.2386
  1126.0000     57.3302      0.0000    877.0070      4.9936
  1126.2500     51.4667      0.0000    849.1365      4.8968
  1126.5000     47.6640      0.0000    857.6065      4.7288
  1126.7500     44.8834      0.0000    889.5977      4.4571
  1127.0000     42.5778      0.0000    940.8378      4.2314
  1127.2500     40.6660      0.0000   1004.1902      4.1690
  1127.5000     39.3772      0.0000   1034.3357      4.2399
  1127.7500     39.1910      0.0000    992.6596      4.3659
  1128.0000     40.6831      0.0000    915.8396      4.5450
  1128.2500     44.2295      0.0000    875.2762      4.7987
  1128.5000     49.8028      0.0000    896.8221      5.0755
  1128.7500     56.9245      0.0000    946.8340      5.3047
  1129.0000     64.5676      0.0000    981.4156      5.5636
  1129.2500     71.0898      0.0000    999.6161      6.1487
