~Version Information               
VERS.     2.0     :     CWLS LAS VERSION
WRAP.                         NO     :     WRAPING MODE
~Well Information   
API.                      :            
WELL.               Egan 9-11V     :     WELL
COMP.                    N/A     :     COMPANY
FLD.                    N/A     :     FIELD
LOC.                    N/A     :     LOCATION
CNTY.                    N/A     :     COUNTY
STATE.              N/A     :     STATE
CTRY.                    N/A     :     COUNTRY
DATE.                N/A     :     DATE (LOGGED)
UWI.                    N/A     :     UNIQUE WELL ID
SRVC.                N/A     :     SERVICE COMPANY
STAT.                           :
STRT.FT              612.00     :     START DEPTH
STOP.FT             2500.00     :     STOP DEPTH
STEP.FT                1.00     :     DEPTH INCREMENT
NULL.             -9999           :     NULL VALUE
~Curve information               
 DEPTH.FT                                   :
 ROP.MIN/FT                                 :
 GAS.UNITS                                  :     
C1.PPM          :     
C2.PPM          :
~ASCII Log data               
# ...
1350.00        0.36     7         19.0          -49995
1351.00        0.26     7         16.1          -49995
1352.00        0.23     3         15.7          -49995
1353.00        0.23     3         15.5          -49995
1354.00        0.28     3         15.8          -49995
1355.00        0.16     7         14.4          -49995
1356.00        0.16     7         14.4          -49995
1357.00        0.13     3         13.9          -49995
1358.00        0.13     3         13.9          -49995
1359.00        0.16     7         14.6          -49995
1360.00        0.23     3         13.8          -49995
1361.00        0.16     7         13.9          -49995
1362.00        0.23     3         14.3          -49995
1363.00        0.20     0         14.8          -49995
1364.00        0.10     0         14.5          -49995
1365.00        0.13     3         14.5          -49995
1366.00        0.20     0         14.2          -49995
1367.00        0.23     3         14.7          -49995
1368.00        0.16     7         14.0          -49995
1369.00        0.20     0         14.0          -49995
1370.00        0.13     3         14.8          -49995
1371.00        0.23     3         13.9          -49995
1372.00        0.16     7         14.4          -49995
1373.00        0.28     3         14.4          -49995
1374.00        0.43     3         16.8          -49995
1375.00        0.33     3         20.0          -49995
1376.00        0.23     3         24.0          -49995
1377.00        0.20     0         29.0          -49995
1378.00        0.21     7         40.5          -49995
1379.00        0.20     0         40.5          -49995
1380.00        0.36     7         40.9          -49995
1381.00        0.26     7         35.4          -49995
1382.00        0.23     3         29.2          -49995
1383.00        0.23     3         19.7          -49995
1384.00        0.33     3         17.6          -49995
1385.00        0.26     7         17.7          -49995
1386.00        0.20     0         14.6          -49995
1387.00        0.23     3         14.7          -49995
1388.00        0.40     0         15.3          -49995
1389.00        0.33     3         19.5          -49995
1390.00        0.41     7         52.2          -49995
1391.00        0.20     0         64.1          -49995
1392.00        0.23     3         92.3          -49995
1393.00        0.23     3        120.2          -49995
1394.00        0.16     7        130.2          -49995
1395.00        0.13     3        129.9          -49995
1396.00        0.16     7        124.1          -49995
1397.00        0.16     7        124.1          -49995
1398.00        0.16     7        119.1          -49995
1399.00        0.23     3        115.4          -49995
1400.00        0.20     0        113.1          -49995
1401.00        0.23     3        109.5          -49995
1402.00        0.23     3         92.9          -49995
1403.00        0.26     7        113.5          -49995
1404.00        0.23     3        148.9          -49995
1405.00        0.20     0        194.7          -49995
1406.00        0.20     0        234.9          -49995
1407.00        0.26     7        241.5          -49995
1408.00        0.20     0        223.9          -49995
1409.00        0.21     7        217.7          -49995
1410.00        0.33     3        180.4          -49995
1411.00        0.36     7        148.0          -49995
1412.00        0.33     3        110.8          -49995
1413.00        0.33     3        100.8          -49995
1414.00        0.20     0         93.9          -49995
1415.00        0.20     0         84.4          -49995
1416.00        0.23     3         83.3          -49995
1417.00        0.23     3         75.6          -49995
1418.00        0.23     3         73.1          -49995
1419.00        0.16     7         67.4          -49995
1420.00        0.13     3         66.4          -49995
1421.00        0.10     0         63.9          -49995
1422.00        0.23     3         61.5          -49995
1423.00        0.18     3         60.5          -49995
1424.00        0.20     0         58.9          -49995
1425.00        0.20     0         55.2          -49995
1426.00        0.16     7         54.4          -49995
1427.00        0.23     3         55.7          -49995
1428.00        0.20     0         56.1          -49995
1429.00        0.26     7         56.0          -49995
1430.00        0.20     0         54.3          -49995
1431.00        0.20     0         52.0          -49995
1432.00        0.30     0         28.4          -49995
1433.00        0.43     3         40.5          -49995
1434.00        0.33     3         51.7          -49995
1435.00        0.33     3         65.8          -49995
1436.00        0.26     7         84.1          -49995
1437.00        0.26     7         90.2          -49995
1438.00        0.13     3         87.2          -49995
1439.00        0.13     3         81.1          -49995
1440.00        0.16     7         81.1          -49995
1441.00        0.20     0         74.7          -49995
1442.00        0.20     0         66.8          -49995
1443.00        0.38     3         64.6          -49995
1444.00        0.33     3         48.5          -49995
1445.00        0.30     0         48.0          -49995
1446.00        0.30     0         48.3          -49995
1447.00        0.36     7         44.2          -49995
1448.00        0.43     3         40.2          -49995
1449.00        0.30     0         35.5          -49995
1450.00        0.26     7         31.9          -49995
1451.00        0.23     3         30.3          -49995
1452.00        0.16     7         28.3          -49995
1453.00        0.16     7         27.9          -49995
1454.00        0.21     7         27.4          -49995
1455.00        0.13     3         27.4          -49995
1456.00        0.10     0         27.4          -49995
1457.00        0.20     0         27.5          -49995
1458.00        0.23     3         27.0          -49995
1459.00        0.20     0         26.2          -49995
1460.00        0.20     0         25.0          -49995
1461.00        0.20     0         34.3          -49995
1462.00        0.20     0         28.9          -49995
1463.00        0.33     3         33.3          -49995
1464.00        0.46     7         54.6          -49995
1465.00        0.26     7         65.8          -49995
1466.00        0.28     3         66.4          -49995
1467.00        0.40     0         69.5          -49995
1468.00        0.36     7         60.7          -49995
1469.00        0.33     3         47.4          -49995
1470.00        0.36     7         39.6          -49995
1471.00        0.30     0         36.1          -49995
1472.00        0.30     0         34.8          -49995
1473.00        0.26     7         33.8          -49995
1474.00        0.20     0         32.6          -49995
1475.00        0.26     7         32.1          -49995
1476.00        0.23     3         28.3          -49995
1477.00        0.25     0         24.4          -49995
1478.00        0.33     3         20.3          -49995
1479.00        0.33     3         17.1          -49995
1480.00        0.40     0         16.1          -49995
1481.00        0.33     3         14.8          -49995
1482.00        0.46     7         15.4          -49995
1483.00        0.33     3         13.9          -49995
1484.00        0.26     7         13.5          -49995
1485.00        0.20     0         14.6          -49995
1486.00        0.23     3         15.0          -49995
1487.00        0.23     3         16.2          -49995
1488.00        0.28     3         15.8          -49995
1489.00        0.23     3         15.9          -49995
1490.00        0.23     3         16.7          -49995
1491.00        0.23     3         30.9          -49995
1492.00        0.40     0         28.2          -49995
1493.00        0.26     7         37.5          -49995
1494.00        0.20     0         52.0          -49995
1495.00        0.13     3         52.0          -49995
