~Version Information
VERS.                      2.0: CWLS Log ASCII Standard - VERSION 2.0
WRAP.                       NO: One line per depth step
~Well Information Block
STRT.FT                -8.2500: 
STOP.FT              2239.2500: 
STEP.FT                 0.2500: 
NULL.                -999.2500: 
COMP.          Pioneer Natural Resources: COMPANY
WELL.            Moo Moo 31-36: WELL
FLD.           Purgatorie River: FIELD
LOC.           612' FNL & 2326' FEL--: LOCATION
PROV.                       CO: PROVINCE
CNTY.               Las Animas: COUNTRY
SRVC.          Patterson Wireline: SERVICE COMPANY
DATE.          Thu Jun 23 10:04:07 2005: LOG DATE
UWI.           05 071 08395 00: UNIQUE WELL ID
~Curve Information Block
DEPT.FT            0 000 00 00: Depth
CCL.                          : Casing Collar Locator
TT3.usec                      : CBL 3' Travel Time
AMP3.mV                       : CBL 3' Amplitude
GR.GAPI                       : Gamma Ray
~Parameter Information Block
~A  Depth       CCL         TT3         AMP3         GR     
# ...
  1030.2500      0.0000    807.5511      6.5060     75.7378
  1030.5000      0.0000    812.9857      6.5372     71.2141
  1030.7500      0.0000    820.9397      6.4980     68.3660
  1031.0000      0.0000    829.9891      6.4207     66.5137
  1031.2500      0.0000    838.0602      6.3239     65.2185
  1031.5000      0.0000    843.7838      6.2080     64.5849
  1031.7500      0.0000    847.1208      6.0958     64.7459
  1032.0000      0.0000    848.8574      6.0500     65.5478
  1032.2500      0.0000    849.7767      6.1199     66.7209
  1032.5000      0.0000    850.2286      6.2685     68.0598
  1032.7500      0.0000    850.0776      6.3810     69.4361
  1033.0000      0.0000    848.8727      6.3614     70.8570
  1033.2500      0.0000    846.2149      6.2117     72.4921
  1033.5000      0.0000    842.1208      6.0224     74.4320
  1033.7500      0.0000    837.0239      5.9040     76.3263
  1034.0000      0.0000    831.5117      5.9219     77.2878
  1034.2500      0.0000    826.2421      6.0583     76.3028
  1034.5000      0.0000    821.9626      6.2132     73.1364
  1034.7500      0.0000    819.2042      6.2627     69.0470
  1035.0000      0.0000    817.8823      6.1547     66.3961
  1035.2500      0.0000    817.4107      5.9574     67.3272
  1035.5000      0.0000    817.2452      5.8084     72.6436
  1035.7500      0.0000    817.2364      5.8074     81.4771
  1036.0000      0.0000    817.5510      5.9462     91.4984
  1036.2500      0.0000    818.4255      6.1297     99.6000
  1036.5000      0.0000    820.0541      6.2640    103.1559
  1036.7500      0.0000    822.6044      6.3354    101.3448
  1037.0000      0.0000    826.1719      6.4021     95.5785
  1037.2500      0.0000    830.5468      6.5050     88.6276
  1037.5000      0.0000    835.0044      6.6018     82.9921
  1037.7500      0.0000    838.4398      6.6080     79.6519
  1038.0000      0.0000    839.8927      6.4970     77.9966
  1038.2500      0.0000    839.1691      6.3412     76.8174
  1038.5000      0.0000    836.9915      6.2426     75.4179
  1038.7500      0.0000    834.2996      6.2330     73.9502
  1039.0000      0.0000    831.4287      6.2599     72.9078
  1039.2500      0.0000    828.2753      6.2665     72.4501
  1039.5000      0.0000    825.0605      6.2594     72.3027
  1039.7500      0.0000    822.4095      6.2792     72.2558
  1040.0000      0.0000    820.7205      6.3243     72.4470
  1040.2500      0.0000    819.8152      6.3359     72.9093
  1040.5000      0.0000    819.2364      6.2617     73.1064
  1040.7500      0.0000    818.7010      6.1213     72.3988
  1041.0000      0.0000    818.2662      6.0051     70.9502
  1041.2500      0.0000    818.1687      6.0050     69.7466
  1041.5000      0.0000    818.5616      6.1332     69.6528
  1041.7500      0.0000    819.3691      6.3042     70.8071
  1042.0000      0.0000    820.3512      6.4005     72.9979
  1042.2500      0.0000    821.3143      6.3624     76.2036
  1042.5000      0.0000    822.3419      6.2217     80.4626
  1042.7500      0.0000    823.9145      6.0643     85.5483
  1043.0000      0.0000    826.7953      5.9617     91.2417
  1043.2500      0.0000    831.5873      5.9276     97.7664
  1043.5000      0.0000    838.1185      5.9246    105.2422
  1043.7500      0.0000    845.2083      5.9083    112.4221
  1044.0000      0.0000    851.2584      5.8622    116.9338
  1044.2500      0.0000    855.1742      5.8011    117.7580
  1044.5000      0.0000    856.5521      5.7525    116.9046
  1044.7500      0.0000    854.8893      5.7420    117.5747
  1045.0000      0.0000    848.8293      5.7753    120.9031
  1045.2500      0.0000    836.9343      5.8091    125.2354
  1045.5000      0.0000    819.9867      5.7521    128.2993
  1045.7500      0.0000    802.4679      5.5342    129.3488
  1046.0000      0.0000    790.6819      5.1907    129.1890
  1046.2500      0.0000    788.5863      4.8606    128.6011
  1046.5000      0.0000    795.1069      4.6875    127.1569
  1046.7500      0.0000    804.9485      4.7219    123.9601
  1047.0000      0.0000    812.1597      4.9076    119.5337
  1047.2500      0.0000    814.3544      5.1363    116.2595
  1047.5000     -2.0000    814.2446      5.3099    116.5382
  1047.7500      0.0000    816.3685      5.3822    120.8994
  1048.0000      0.0000    822.1854      5.3797    128.0880
  1048.2500      0.0000    829.2322      5.3870    136.1793
  1048.5000      0.0000    834.5919      5.4857    143.0273
  1048.7500      0.0000    837.3886      5.6892    146.2985
  1049.0000      0.0000    837.9595      5.9425    144.1904
  1049.2500      0.0000    836.7862      6.1918    136.5721
  1049.5000      0.0000    835.0689      6.4321    125.3249
  1049.7500      0.0000    834.9572      6.6764    113.5821
  1050.0000      0.0000    837.9838      6.9044    104.5763
  1050.2500      0.0000    843.5662      7.0652    100.5560
  1050.5000      0.0000    849.5644      7.1230    101.7798
  1050.7500      0.0000    854.1266      7.0845    106.2421
  1051.0000      0.0000    856.7509      6.9787    110.8817
  1051.2500      0.0000    857.9096      6.8285    113.5027
  1051.5000      0.0000    858.2217      6.6580    113.5354
  1051.7500      0.0000    858.0881      6.5158    111.0957
  1052.0000      0.0000    857.7609      6.4705    106.0303
  1052.2500      0.0000    857.4283      6.5705     98.4331
  1052.5000      0.0000    857.1646      6.8073     89.7092
  1052.7500      0.0000    856.9004      7.1123     82.3060
  1053.0000      0.0000    856.5027      7.3904     78.2166
  1053.2500      0.0000    855.8862      7.5672     77.8978
  1053.5000      0.0000    855.0627      7.6091     80.3692
  1053.7500      0.0000    854.1331      7.5120     83.9597
  1054.0000      0.0000    853.1391      7.2928     87.2418
  1054.2500      0.0000    851.7767      7.0001     89.9448
  1054.5000      0.0000    849.0640      6.7084     93.1442
  1054.7500      0.0000    843.4681      6.4732     98.1782
  1055.0000      0.0000    833.9371      6.2956    105.1194
  1055.2500      0.0000    821.3719      6.1475    112.3355
  1055.5000      0.0000    808.9406      6.0280    117.5778
  1055.7500      0.0000    800.4574      5.9813    119.5928
  1056.0000      0.0000    798.0939      6.0566    118.9550
  1056.2500      0.0000    801.0045      6.2579    117.5340
  1056.5000      0.0000    805.6415      6.5265    117.1623
  1056.7500      0.0000    808.1139      6.7719    118.6472
  1057.0000      0.0000    807.2464      6.9242    121.5780
  1057.2500      0.0000    805.2484      6.9593    124.5756
  1057.5000      0.0000    805.0081      6.8828    125.8769
  1057.7500      0.0000    806.9926      6.7121    124.2936
  1058.0000      0.0000    808.9465      6.4786    119.8511
  1058.2500      0.0000    808.4523      6.2273    113.4508
  1058.5000      0.0000    805.7491      6.0002    105.9671
  1058.7500      0.0000    803.7297      5.8264     97.6652
  1059.0000      0.0000    804.5174      5.7273     88.4418
  1059.2500      0.0000    806.5411      5.7123     78.5891
  1059.5000      0.0000    806.1203      5.7679     69.2671
  1059.7500      0.0000    801.6894      5.8733     62.1230
  1060.0000      0.0000    795.3422      6.0289     58.3604
  1060.2500      0.0000    790.3568      6.2440     58.0836
  1060.5000      0.0000    788.0460      6.4979     60.5937
  1060.7500      0.0000    786.9973      6.7440     65.3217
  1061.0000      0.0000    784.9229      6.9530     72.2583
  1061.2500      0.0000    781.0248      7.1282     81.3648
  1061.5000      0.0000    776.4390      7.2741     91.7568
  1061.7500      0.0000    772.6952      7.3773    101.6113
  1062.0000      0.0000    770.3132      7.4322    109.0489
  1062.2500      0.0000    768.8120      7.4716    113.4819
  1062.5000      0.0000    767.3711      7.5459    116.0459
  1062.7500      0.0000    765.2106      7.6630    118.1698
  1063.0000      0.0000    761.7795      7.7541    119.6240
  1063.2500      0.0000    757.0093      7.7185    118.6598
  1063.5000      0.0000    751.4364      7.5149    114.3345
