~Version Information
VERS.                      2.0: CWLS Log ASCII Standard - VERSION 2.0
WRAP.                       NO: One line per depth step
~Well Information Block
STRT.FT               454.0000: 
STOP.FT              1389.0000: 
STEP.FT                 0.1000: 
NULL.                -999.2500: 
COMP.          Pioneer Natural Resources: COMPANY
WELL.          Lorencito 6-3-34-66: WELL
FLD.           Purgatoire River: FIELD
LOC.           2545' FNL & 1914' FWL: LOCATION
STAT.                 Colorado: State
CNTY.               Las Animas: COUNTY
CTRY. USA : Country
SECT. 3 : Section
TOWN. 34S : Township
RANG. 66W : Range
SRVC.                Patterson: SERVICE COMPANY
DATE.          Mon Sep 12 07:20:37 2005: LOG DATE
API.        05 071 08369 00: UNIQUE WELL ID
~Curve Information Block
DEPT.FT            0 000 00 00: Depth
DCAL.in                       : CDL Caliper
RHOB.g/cc                     : CDL Bulk Density
RHOC.g/cc                     : CDL Density Correction
DPOR.pu                       : CDL Density Porosity
GR.GAPI                       : Gamma Ray
NPOR.pu                       : Neutron Porosity
~Parameter Information Block
~A  Depth       DCAL        RHOB        RHOC        DPOR         GR         NPOR    
# ...
   943.6000      8.0416      2.5751      0.0720      4.5372    133.1166     22.8037
   943.7000      8.0416      2.5798      0.1527      4.2526    136.0822     21.9955
   943.8000      8.0732      2.5621      0.1408      5.3283    131.5553     21.9681
   943.9000      8.0732      2.5194      0.0803      7.9164    120.2145     22.2989
   944.0000      8.1044      2.4669      0.0832     11.0953    106.8835     21.9935
   944.1000      8.1044      2.4250      0.0211     13.6362     96.7021     20.8052
   944.2000      8.1044      2.4083     -0.0067     14.6494     94.5907     19.9214
   944.3000      7.9681      2.4146      0.0236     14.2666    104.5588     20.3739
   944.4000      7.9681      2.4305      0.0650     13.3004    121.9923     21.8860
   944.5000      7.9814      2.4510      0.0506     12.0600    134.8471     23.7336
   944.6000      7.9814      2.4771      0.1623     10.4794    138.2694     25.2713
   944.7000      7.9814      2.4987      0.2188      9.1669    137.3469     25.7825
   944.8000      7.9729      2.5104      0.2081      8.4618    135.5871     26.0155
   944.9000      7.9729      2.5196      0.2185      7.9001    131.7872     27.4143
   945.0000      7.8728      2.5205      0.2185      7.8515    125.9213     29.1032
   945.1000      7.8728      2.5000      0.1628      9.0879    122.0016     29.6000
   945.2000      7.8728      2.4812      0.0590     10.2311    125.1522     29.1995
   945.3000      7.9778      2.4934      0.1522      9.4935    131.8639     28.6631
   945.4000      7.9778      2.5184      0.1768      7.9761    135.2471     28.3718
   945.5000      8.0617      2.5291      0.1503      7.3243    136.3715     28.3121
   945.6000      8.0617      2.5233      0.2135      7.6809    136.9550     28.5957
   945.7000      8.0617      2.5039      0.2055      8.8516    135.8713     28.8622
   945.8000      8.1904      2.4793      0.1282     10.3453    135.0712     28.3471
   945.9000      8.1904      2.4628      0.1249     11.3484    134.2300     27.1434
   946.0000      8.2327      2.4597      0.0841     11.5353    132.3860     26.0755
   946.1000      8.2327      2.4689      0.0987     10.9776    132.9544     26.1822
   946.2000      8.2327      2.4838      0.1250     10.0701    135.2114     27.5440
   946.3000      8.2476      2.4921      0.1131      9.5700    133.7469     28.8922
   946.4000      8.2476      2.4844      0.0959     10.0353    129.3846     29.1803
   946.5000      8.2258      2.4658      0.0814     11.1665    128.1210     28.5458
   946.6000      8.2258      2.4518      0.0371     12.0121    129.5759     27.4525
   946.7000      8.2258      2.4490      0.0474     12.1818    128.9024     26.5267
   946.8000      8.1748      2.4494      0.0746     12.1581    125.6193     26.4632
   946.9000      8.1748      2.4507      0.0451     12.0815    120.5949     26.5699
   947.0000      8.0834      2.4652      0.0392     11.1975    116.8935     25.9036
   947.1000      8.0834      2.4978      0.0602      9.2222    116.4530     24.9233
   947.2000      8.0834      2.5272      0.1225      7.4448    114.1628     24.2752
   947.3000      8.1055      2.5322      0.1088      7.1423    109.4976     23.8843
   947.4000      8.1055      2.5212      0.1008      7.8067    109.6169     23.6423
   947.5000      8.1048      2.5156      0.0698      8.1476    116.8429     23.7729
   947.6000      8.1048      2.5208      0.1159      7.8288    124.8193     24.4793
   947.7000      8.1048      2.5260      0.0882      7.5146    127.6703     25.4184
   947.8000      8.0022      2.5263      0.0774      7.4952    126.2963     25.6502
   947.9000      8.0022      2.5250      0.1021      7.5751    127.5624     25.0019
   948.0000      7.9729      2.5257      0.0938      7.5345    131.3050     24.2536
   948.1000      7.9729      2.5342      0.1256      7.0201    131.2313     23.6797
   948.2000      7.9729      2.5497      0.1210      6.0763    127.6238     22.8658
   948.3000      8.0148      2.5701      0.0643      4.8438    123.4941     22.1112
   948.4000      8.0148      2.5905      0.1239      3.6040    121.5624     22.4912
   948.5000      8.0302      2.5981      0.1164      3.1426    125.0928     24.0729
   948.6000      8.0302      2.5903      0.0985      3.6153    133.1144     25.5377
   948.7000      8.0302      2.5732      0.1198      4.6559    138.4575     25.4320
   948.8000      8.0620      2.5556      0.0791      5.7198    134.1265     24.1506
   948.9000      8.0620      2.5497      0.0733      6.0801    121.7258     23.3587
   949.0000      8.0863      2.5549      0.1015      5.7614    110.2157     23.2301
   949.1000      8.0863      2.5581      0.1043      5.5721    104.0557     23.1368
   949.2000      8.0863      2.5485      0.0800      6.1513    100.8205     23.4209
   949.3000      8.0534      2.5307      0.0264      7.2302    100.6415     23.8848
   949.4000      8.0534      2.5252      0.0298      7.5663    102.9447     23.8382
   949.5000      8.0277      2.5389      0.0228      6.7322    101.0309     23.3663
   949.6000      8.0277      2.5514      0.0607      5.9785     92.2926     23.2806
   949.7000      8.0277      2.5388      0.0748      6.7419     83.1705     23.7403
   949.8000      8.1249      2.5014      0.0207      9.0078     78.1045     23.8815
   949.9000      8.1249      2.4646      0.0089     11.2370     77.6899     23.3345
   950.0000      8.0646      2.4477     -0.0187     12.2628     82.2799     22.6597
   950.1000      8.0646      2.4468     -0.0011     12.3132     86.6153     22.4303
   950.2000      8.0646      2.4491      0.0317     12.1777     85.9570     22.5900
   950.3000      8.0447      2.4489      0.0051     12.1889     86.1912     22.7851
   950.4000      8.0447      2.4498      0.0389     12.1310     93.2533     23.0288
   950.5000      8.0906      2.4549      0.0345     11.8258    102.0658     23.4498
   950.6000      8.0906      2.4661      0.0117     11.1429    103.8608     23.5772
   950.7000      8.0906      2.4820      0.0389     10.1835     96.4482     23.4600
   950.8000      8.0463      2.4932      0.0743      9.5008     83.9193     23.8787
   950.9000      8.0463      2.4984      0.0665      9.1850     72.5954     24.4195
   951.0000      8.0211      2.5039      0.0726      8.8544     67.5296     24.4594
   951.1000      8.0211      2.5060      0.0943      8.7301     69.5237     24.7275
   951.2000      8.0211      2.4980      0.1051      9.2102     77.0104     25.5780
   951.3000      7.9936      2.4892      0.0607      9.7440     85.2576     26.1722
   951.4000      7.9936      2.4988      0.0553      9.1660     86.2736     25.4398
   951.5000      7.8337      2.5241      0.1611      7.6332     82.3138     23.7950
   951.6000      7.8337      2.5411      0.1381      6.6026     82.5902     22.8798
   951.7000      7.8337      2.5421      0.0934      6.5400     85.3749     23.1172
   951.8000      7.9245      2.5366      0.0818      6.8749     84.1276     23.6473
   951.9000      7.9245      2.5276      0.1082      7.4163     78.7389     24.0785
   952.0000      7.9792      2.5085      0.0883      8.5786     74.6422     24.4884
   952.1000      7.9792      2.4774      0.0206     10.4578     75.5598     24.6988
   952.2000      7.9792      2.4456      0.0224     12.3850     80.3909     24.4534
   952.3000      8.0044      2.4276      0.0159     13.4812     88.8949     24.1752
   952.4000      8.0044      2.4338      0.0092     13.1059     98.4004     23.8936
   952.5000      8.0353      2.4701      0.0502     10.9039    102.6306     23.0984
   952.6000      8.0353      2.5217      0.1759      7.7758     99.5678     22.4974
   952.7000      8.0353      2.5575      0.1071      5.6059     91.5860     22.8457
   952.8000      7.9538      2.5738      0.0968      4.6160     83.5522     23.5371
   952.9000      7.9538      2.5906      0.1761      3.6003     77.9372     23.6546
   953.0000      7.9298      2.6096      0.1632      2.4498     74.5816     23.1538
   953.1000      7.9298      2.6207      0.1476      1.7782     74.5762     22.5299
