~Version Information
VERS.                      2.0: CWLS Log ASCII Standard - VERSION 2.0
WRAP.                       NO: One line per depth step
~Well Information Block
STRT.FT               245.0000: 
STOP.FT              2464.2000: 
STEP.FT                 0.1000: 
NULL.                -999.2500: 
COMP.          Pioneer Natural Resources: COMPANY
WELL.          Oink Oink 14-36: WELL
FLD.           Purgatoire River: FIELD
LOC.           216' FSL & 263' FWL--: LOCATION
PROV.                 Colorado: PROVINCE
CNTY.               Las Animas: COUNTRY
SRVC.                Patterson: SERVICE COMPANY
DATE.          Wed Jun 08 16:53:09 2005: LOG DATE
UWI.           05 071 08394 00: UNIQUE WELL ID
~Curve Information Block
DEPT.FT            0 000 00 00: Depth
DCAL.in                       : CDL Caliper
RHOB.g/cc                     : CDL Bulk Density
RHOC.g/cc                     : CDL Density Correction
DPOR.pu                       : CDL Density Porosity
NPOR.pu                       : Neutron Porosity
GR.GAPI                       : Gamma Ray
~Parameter Information Block
~A  Depth       DCAL        RHOB        RHOC        DPOR        NPOR         GR     
# ...
   533.0000      8.1885      2.6587      0.0335     -0.5282     27.2832     99.7701
   533.1000      8.1885      2.6580      0.0688     -0.4826     27.9205     95.1576
   533.2000      8.1885      2.6397     -0.0153      0.6261     28.7698     90.1359
   533.3000      8.1955      2.6269     -0.0221      1.3979     29.3460     89.0693
   533.4000      8.1955      2.6273      0.0066      1.3768     29.3764     93.0071
   533.5000      8.2056      2.6198     -0.0184      1.8315     29.2632     98.6140
   533.6000      8.2056      2.6035     -0.0387      2.8162     29.3347    102.6292
   533.7000      8.2056      2.5973      0.0062      3.1923     29.6962    104.2793
   533.8000      8.2113      2.6094      0.0020      2.4597     30.3344    105.3837
   533.9000      8.2113      2.6222      0.0695      1.6865     30.7901    111.1178
   534.0000      8.2124      2.6083      0.0190      2.5298     30.6925    121.9725
   534.1000      8.2124      2.5725     -0.0344      4.6973     30.1166    130.5676
   534.2000      8.2124      2.5473     -0.0382      6.2242     29.2916    132.9822
   534.3000      8.2114      2.5526     -0.0298      5.9037     28.6033    133.0113
   534.4000      8.2114      2.5758      0.0152      4.4961     28.2893    132.9129
   534.5000      8.2108      2.5894      0.0199      3.6712     28.1763    130.2563
   534.6000      8.2108      2.5922     -0.0383      3.5055     27.9873    123.8371
   534.7000      8.2108      2.5996      0.0330      3.0568     27.9117    118.2954
   534.8000      8.2099      2.6048      0.0584      2.7364     28.1678    117.7334
   534.9000      8.2099      2.5974      0.0517      3.1851     28.3524    120.5710
   535.0000      8.2101      2.5858      0.0479      3.8892     28.1873    125.0092
   535.1000      8.2101      2.5783      0.0515      4.3464     28.1225    131.9296
   535.2000      8.2101      2.5717      0.0375      4.7437     28.3925    138.5443
   535.3000      8.2085      2.5658      0.0161      5.1046     28.5845    139.9911
   535.4000      8.2085      2.5639      0.0280      5.2170     28.7010    136.9968
   535.5000      8.2002      2.5568      0.0185      5.6503     29.0211    133.9779
   535.6000      8.2002      2.5274      0.0212      7.4283     29.3089    132.9471
   535.7000      8.2002      2.4841     -0.0759     10.0558     29.4679    131.6005
   535.8000      8.1963      2.4662     -0.1056     11.1398     29.5093    128.8136
   535.9000      8.1963      2.4954     -0.0245      9.3675     29.1983    128.2091
   536.0000      8.2027      2.5506      0.0075      6.0249     28.6810    130.1287
   536.1000      8.2027      2.5982      0.0431      3.1396     28.5313    131.1112
   536.2000      8.2027      2.6148      0.1078      2.1360     28.9794    130.6717
   536.3000      8.2092      2.5973      0.0538      3.1925     29.7362    131.5810
   536.4000      8.2092      2.5736      0.0140      4.6302     30.3695    133.1607
   536.5000      8.2156      2.5717      0.0464      4.7481     30.6456    134.7627
   536.6000      8.2156      2.5853      0.0351      3.9188     30.7019    138.6530
   536.7000      8.2156      2.5894      0.0525      3.6730     30.6997    143.3336
   536.8000      8.2249      2.5744      0.0313      4.5801     30.7006    145.4736
   536.9000      8.2249      2.5535      0.0517      5.8467     30.7099    144.2785
   537.0000      8.2349      2.5361     -0.0073      6.9051     30.5488    141.8350
   537.1000      8.2349      2.5174      0.0138      8.0357     30.2620    142.2562
   537.2000      8.2349      2.4888      0.0115      9.7725     30.0477    145.2298
   537.3000      8.2463      2.4446      0.0220     12.4455     29.6570    147.1459
   537.4000      8.2463      2.3963     -0.0587     15.3750     28.9492    148.8878
   537.5000      8.2727      2.3747     -0.0376     16.6859     28.4034    152.3035
   537.6000      8.2727      2.3923      0.0067     15.6168     28.0042    152.5446
   537.7000      8.2727      2.4191      0.0607     13.9958     27.1868    146.9633
   537.8000      8.3271      2.4163      0.1126     14.1617     26.2620    141.0630
   537.9000      8.3271      2.3770      0.0543     16.5471     25.6840    138.3783
   538.0000      8.4108      2.3256      0.0552     19.6618     25.0663    137.5489
   538.1000      8.4108      2.2860      0.0394     22.0623     24.2300    137.8752
   538.2000      8.4108      2.2591      0.1076     23.6902     23.6020    139.1896
   538.3000      8.5129      2.2320      0.0858     25.3352     23.2885    139.9087
   538.4000      8.5129      2.1980      0.0609     27.3917     23.0493    137.7268
   538.5000      8.6018      2.1606      0.1068     29.6582     22.9429    134.1217
   538.6000      8.6018      2.1395      0.0595     30.9413     23.0793    133.8402
   538.7000      8.6018      2.1641      0.1042     29.4483     23.3221    136.8744
   538.8000      8.6764      2.2426      0.1887     24.6917     23.6011    138.7380
   538.9000      8.6764      2.3624      0.2486     17.4287     23.8825    139.0079
   539.0000      8.7509      2.4987      0.4061      9.1668     24.2481    139.6511
   539.1000      8.7509      2.6091      0.4767      2.4772     24.9275    139.1687
   539.2000      8.7509      2.6500      0.4938      0.0021     25.6223    138.3457
   539.3000      8.7689      2.6070      0.3819      2.6055     25.7873    138.7986
   539.4000      8.7689      2.5116      0.2662      8.3878     25.6136    139.1162
   539.5000      8.6796      2.4113      0.2044     14.4678     25.6135    139.1389
   539.6000      8.6796      2.3303      0.1760     19.3733     25.5414    138.4275
   539.7000      8.6796      2.2724      0.0868     22.8856     24.9572    134.3458
   539.8000      8.5440      2.2312      0.0641     25.3839     24.1236    127.1342
   539.9000      8.5440      2.1973      0.0339     27.4379     23.2689    120.6963
   540.0000      8.4592      2.1808      0.0115     28.4368     22.3271    118.4704
   540.1000      8.4592      2.1953      0.0749     27.5600     21.5854    121.0796
   540.2000      8.4592      2.2284      0.0770     25.5536     21.1184    126.8019
   540.3000      8.4248      2.2707      0.0824     22.9854     20.4748    132.8644
   540.4000      8.4248      2.3305      0.1377     19.3655     19.8570    138.1365
   540.5000      8.4081      2.3967      0.2194     15.3503     19.6077    140.9870
   540.6000      8.4081      2.4414      0.1728     12.6401     19.3005    138.2330
   540.7000      8.4081      2.4638      0.1085     11.2852     18.8979    133.2069
   540.8000      8.3979      2.4871      0.1005      9.8728     18.9281    129.1613
   540.9000      8.3979      2.5197      0.1236      7.8958     19.4024    123.6206
   541.0000      8.3836      2.5469      0.1608      6.2490     20.0073    117.6552
   541.1000      8.3836      2.5531      0.1235      5.8747     20.7833    111.9504
   541.2000      8.3836      2.5420      0.0793      6.5453     21.8021    105.6489
   541.3000      8.3544      2.5356      0.0607      6.9304     23.0336    101.6475
   541.4000      8.3544      2.5491      0.0709      6.1158     24.6392    103.4011
   541.5000      8.3168      2.5670      0.0759      5.0309     26.3956    109.3142
   541.6000      8.3168      2.5663      0.0282      5.0752     27.8279    114.1990
   541.7000      8.3168      2.5496     -0.0088      6.0865     28.8880    114.6310
   541.8000      8.2875      2.5349      0.0088      6.9742     29.5071    112.4230
   541.9000      8.2875      2.5280      0.0056      7.3962     29.6877    111.3790
   542.0000      8.2659      2.5251      0.0260      7.5700     29.6490    113.0874
   542.1000      8.2659      2.5260      0.0411      7.5147     29.3658    118.6544
   542.2000      8.2659      2.5281      0.0433      7.3895     28.8228    126.1490
   542.3000      8.2493      2.5292      0.0132      7.3204     28.2901    129.8343
   542.4000      8.2493      2.5320      0.0139      7.1507     27.8099    128.4221
   542.5000      8.2419      2.5391      0.0222      6.7199     27.2435    124.8413
