~Version Information
VERS.                      2.0: CWLS Log ASCII Standard - VERSION 2.0
WRAP.                       NO: One line per depth step
~Well Information Block
STRT.FT               240.0000: 
STOP.FT              1709.2000: 
STEP.FT                 0.1000: 
NULL.                -999.2500: 
COMP.          Pioneer Natural Resources: COMPANY
WELL.              Patten 22-2: WELL
FLD.           Purgatoire River: FIELD
LOC.           2157' FNL & 1528' FWL: LOCATION
PROV.                 Colorado: PROVINCE
CNTY.               Las Animas: COUNTRY
SRVC.                Patterson: SERVICE COMPANY
DATE.          Fri Dec 10 09:15:13 2004: LOG DATE
UWI.           05 071 08168 00: UNIQUE WELL ID
~Curve Information Block
DEPT.FT            0 000 00 00: Depth
DCAL.in                       : CDL Caliper
RHOB.g/cc                     : CDL Bulk Density
RHOC.g/cc                     : CDL Density Correction
DPOR.pu                       : CDL Density Porosity
NPOR.pu                       : Neutron Porosity
GR.GAPI                       : Gamma Ray
~Parameter Information Block
~A  Depth       DCAL        RHOB        RHOC        DPOR        NPOR         GR     
# ...
   624.0000      7.9743      2.6087      0.1114      2.5002     26.4455     75.0991
   624.1000      7.9743      2.6012      0.1019      2.9580     26.4962     80.2962
   624.2000      7.9743      2.5780      0.0645      4.3640     26.4900     81.7646
   624.3000      7.9736      2.5617      0.0386      5.3487     26.4069     76.4630
   624.4000      7.9736      2.5639      0.0787      5.2190     26.1810     71.6519
   624.5000      7.9797      2.5702      0.0859      4.8340     25.6990     73.5755
   624.6000      7.9797      2.5660      0.0280      5.0924     25.1471     78.3357
   624.7000      7.9797      2.5485      0.0747      6.1510     24.4359     81.4745
   624.8000      7.9903      2.5148      0.0825      8.1950     23.4851     83.1878
   624.9000      7.9903      2.4750      0.0215     10.6051     22.8852     81.7400
   625.0000      7.9906      2.4556      0.0087     11.7813     22.9015     77.3660
   625.1000      7.9906      2.4636      0.0645     11.2992     23.1861     75.6583
   625.2000      7.9906      2.4872      0.0217      9.8662     23.3987     80.0160
   625.3000      7.9786      2.5207      0.0970      7.8346     23.3342     85.4693
   625.4000      7.9786      2.5554      0.1483      5.7310     23.0133     86.6224
   625.5000      7.9703      2.5780      0.1453      4.3619     22.6514     85.3551
   625.6000      7.9703      2.5859      0.1111      3.8837     22.5946     85.1642
   625.7000      7.9703      2.5899      0.1370      3.6399     22.8509     86.1009
   625.8000      7.9723      2.6040      0.1145      2.7849     22.9759     86.2014
   625.9000      7.9723      2.6287      0.1171      1.2890     22.9739     86.5459
   626.0000      7.9872      2.6404      0.1392      0.5810     23.1181     89.1744
   626.1000      7.9872      2.6236      0.0626      1.5991     23.3664     91.3748
   626.2000      7.9872      2.5980      0.0294      3.1520     23.6664     89.9213
   626.3000      8.0097      2.5838      0.0473      4.0097     23.8376     87.4656
   626.4000      8.0097      2.5814      0.0207      4.1549     23.6567     86.7431
   626.5000      8.0239      2.5882      0.0345      3.7447     23.2015     86.8510
   626.6000      8.0239      2.5993      0.0745      3.0705     22.8831     89.2614
   626.7000      8.0239      2.6064      0.0671      2.6449     23.1608     93.8158
   626.8000      8.0281      2.6014      0.0782      2.9464     23.9998     95.3631
   626.9000      8.0281      2.5835     -0.0025      4.0289     24.8898     92.5889
   627.0000      8.0283      2.5664      0.0333      5.0692     25.3493     90.4115
   627.1000      8.0283      2.5615      0.0366      5.3610     25.2199     91.0328
   627.2000      8.0283      2.5673      0.0596      5.0141     25.0217     92.3066
   627.3000      8.0279      2.5747      0.0507      4.5606     25.5354     92.4483
   627.4000      8.0279      2.5767      0.0793      4.4400     26.5738     91.7017
   627.5000      8.0293      2.5739      0.0412      4.6106     27.1648     89.4646
   627.6000      8.0293      2.5790      0.0250      4.3042     26.9086     85.2343
   627.7000      8.0293      2.5937      0.0531      3.4137     26.2813     82.2443
   627.8000      8.0355      2.5973      0.0807      3.1966     25.9690     82.4759
   627.9000      8.0355      2.5786      0.0134      4.3276     26.1784     86.3829
   628.0000      8.0406      2.5570     -0.0081      5.6353     26.4400     95.3702
   628.1000      8.0406      2.5546     -0.0127      5.7824     26.2614    106.7856
   628.2000      8.0406      2.5574      0.0735      5.6118     25.4327    115.0391
   628.3000      8.0357      2.5404      0.0181      6.6442     24.2679    118.3339
   628.4000      8.0357      2.5145      0.0260      8.2110     23.3687    117.0289
   628.5000      8.0297      2.4993      0.0437      9.1350     22.8976    111.6618
   628.6000      8.0297      2.4949      0.0286      9.4026     22.6581    103.1691
   628.7000      8.0297      2.4931      0.0541      9.5099     22.3282     93.9005
   628.8000      8.0311      2.4897      0.0375      9.7159     21.7598     86.6911
   628.9000      8.0311      2.4902      0.0430      9.6831     21.1655     82.4357
   629.0000      8.0340      2.4905      0.0706      9.6637     20.6054     79.6087
   629.1000      8.0340      2.4784      0.0680     10.4005     19.9565     75.6413
   629.2000      8.0340      2.4594      0.0484     11.5535     19.3177     69.4124
   629.3000      8.0316      2.4500      0.0888     12.1203     18.8052     63.4385
   629.4000      8.0316      2.4492      0.1027     12.1723     18.3575     60.9148
   629.5000      8.0283      2.4436      0.0835     12.5118     18.0986     61.7963
   629.6000      8.0283      2.4301      0.0809     13.3252     18.2584     62.6385
   629.7000      8.0283      2.4186      0.0466     14.0271     18.5864     62.0475
   629.8000      8.0262      2.4220      0.0344     13.8170     18.5905     62.3387
   629.9000      8.0262      2.4385      0.0868     12.8188     18.3517     63.1016
   630.0000      8.0254      2.4513      0.0910     12.0445     18.2900     62.7368
   630.1000      8.0254      2.4523      0.0700     11.9815     18.5738     63.4067
   630.2000      8.0254      2.4458      0.0824     12.3777     19.1853     67.3369
   630.3000      8.0287      2.4408      0.0593     12.6817     19.7757     72.5421
   630.4000      8.0287      2.4424      0.0757     12.5823     19.8131     76.2530
   630.5000      8.0350      2.4423      0.0749     12.5889     19.2782     77.2398
   630.6000      8.0350      2.4348      0.0401     13.0408     18.5888     75.0507
   630.7000      8.0350      2.4355      0.0203     12.9986     18.0312     70.5875
   630.8000      8.0370      2.4599      0.0683     11.5184     17.7469     68.2219
   630.9000      8.0370      2.4981      0.1043      9.2074     17.7218     69.5100
   631.0000      8.0309      2.5346      0.1150      6.9967     17.9421     69.8179
   631.1000      8.0309      2.5646      0.0994      5.1765     18.2859     68.8704
   631.2000      8.0309      2.5771      0.1388      4.4173     18.5256     69.6387
   631.3000      8.0264      2.5722      0.0393      4.7138     18.6856     69.1337
   631.4000      8.0264      2.5783      0.0217      4.3468     18.8360     66.0564
   631.5000      8.0283      2.6040      0.0710      2.7849     19.1433     64.9474
   631.6000      8.0283      2.6235      0.1077      1.6087     19.8306     65.0432
   631.7000      8.0283      2.6237      0.0625      1.5924     20.7423     62.5670
   631.8000      8.0302      2.6201      0.0215      1.8102     21.5071     60.2526
   631.9000      8.0302      2.6273      0.0396      1.3759     21.8800     61.3549
   632.0000      8.0286      2.6439      0.0654      0.3691     21.8332     63.5250
   632.1000      8.0286      2.6593      0.0615     -0.5636     21.7186     62.9233
   632.2000      8.0286      2.6666      0.0491     -1.0082     21.8966     58.9061
   632.3000      8.0264      2.6640      0.0702     -0.8510     22.2483     55.6744
   632.4000      8.0264      2.6474      0.0308      0.1550     22.6762     56.4881
   632.5000      8.0271      2.6174      0.0280      1.9785     23.2699     59.1858
   632.6000      8.0271      2.5859     -0.0266      3.8861     23.7987     62.1187
   632.7000      8.0271      2.5677     -0.0132      4.9859     23.8732     64.5122
   632.8000      8.0293      2.5642      0.0174      5.2026     23.6858     64.2617
   632.9000      8.0293      2.5613     -0.0073      5.3776     23.6451     61.6324
   633.0000      8.0313      2.5485     -0.0005      6.1520     23.7471     58.9533
   633.1000      8.0313      2.5344      0.0089      7.0079     23.9173     60.0779
   633.2000      8.0313      2.5364     -0.0157      6.8861     23.9341     66.1711
   633.3000      8.0318      2.5456      0.0772      6.3280     23.4833     72.1326
   633.4000      8.0318      2.5389      0.0299      6.7304     22.9007     75.4888
   633.5000      8.0316      2.5241      0.0302      7.6318     22.6408     79.5305
