~Version Information
VERS.                      2.0: CWLS Log ASCII Standard - VERSION 2.0
WRAP.                       NO: One line per depth step
~Well Information Block
STRT.FT                -7.7500: 
STOP.FT              1532.2500: 
STEP.FT                 0.2500: 
NULL.                -999.2500: 
COMP.          Pioneer Natural Resources: COMPANY
WELL.          Big Cat Federal 44-1: WELL
FLD.           Purgatorie River: FIELD
LOC.           197' FSL & 973' FEL--: LOCATION
CNTY.               Las Animas: COUNTY
SRVC.          Patterson Wireline: SERVICE COMPANY
DATE.          Fri Apr 28 12:21:06 2006: LOG DATE
UWI.           05 071 08042 00: UNIQUE WELL ID
STAT.                       CO: STATE
~Curve Information Block
DEPT.FT            0 000 00 00: Depth
CCL.                          : Casing Collar Locator
TT3.usec                      : CBL 3' Travel Time
AMP3.mV                       : CBL 3' Amplitude
GR.GAPI                       : Gamma Ray
~Parameter Information Block
~A  Depth       CCL         TT3         AMP3         GR     
# ...
   293.7500      0.0000    309.2408     21.8418    110.6536
   294.0000      0.0000    308.8954     22.1051    110.1561
   294.2500      0.0000    308.7172     22.3186    110.0387
   294.5000      0.0000    308.5249     22.5328    110.5635
   294.7500      0.0000    308.3249     22.7589    111.7922
   295.0000      0.0000    308.2134     22.9456    114.0245
   295.2500      0.0000    308.3157     23.0161    117.9373
   295.5000      0.0000    308.8142     22.9232    123.8756
   295.7500      0.0000    310.0859     22.6621    130.9995
   296.0000      0.0000    312.7998     22.2505    137.5585
   296.2500      0.0000    317.6505     21.7163    142.1765
   296.5000      0.0000    325.0068     21.0977    144.6547
   296.7500      0.0000    335.1663     20.4348    145.5013
   297.0000      0.0000    349.7753     19.7538    145.1701
   297.2500      0.0000    372.7497     19.0630    144.0331
   297.5000      0.0000    408.2798     18.3681    142.6183
   297.7500      0.0000    456.9286     17.6892    141.3239
   298.0000      0.0000    514.4700     17.0618    139.9963
   298.2500      0.0000    574.2911     16.5206    137.9943
   298.5000      0.0000    628.8545     16.0851    134.3846
   298.7500      0.0000    669.3372     15.7583    128.1251
   299.0000      0.0000    688.4005     15.5299    118.8959
   299.2500      0.0000    686.4765     15.3804    108.1974
   299.5000      0.0000    674.6028     15.2859     99.1805
   299.7500      0.0000    667.9461     15.2270     95.0127
   300.0000      0.0000    673.3959     15.1995     97.2135
   300.2500      0.0000    682.9028     15.2199    104.7819
   300.5000      0.0000    679.9211     15.3184    114.3569
   300.7500      0.0000    653.2437     15.5119    121.8257
   301.0000      0.0000    606.5236     15.7783    124.7298
   301.2500      0.0000    555.4284     16.0608    123.5526
   301.5000      0.0000    514.3542     16.3063    120.9063
   301.7500      0.0000    486.4687     16.4962    119.5620
   302.0000      0.0000    469.0993     16.6333    120.7763
   302.2500      0.0000    465.5380     16.7086    123.9936
   302.5000      0.0000    485.0730     16.6953    127.8932
   302.7500      0.0000    530.7919     16.5716    131.4010
   303.0000      0.0000    591.6625     16.3421    133.7148
   303.2500      0.0000    648.6826     16.0359    134.2241
   303.5000      0.0000    687.9076     15.6958    133.1180
   303.7500      0.0000    707.1015     15.3686    131.6783
   304.0000      0.0000    712.2609     15.0950    131.2955
   304.2500      0.0000    710.8286     14.8987    132.3620
   304.5000      0.0000    708.0423     14.7853    134.3841
   304.7500      0.0000    706.5808     14.7488    136.4384
   305.0000      0.0000    707.0238     14.7755    137.0017
   305.2500      0.0000    708.3770     14.8395    134.4196
   305.5000      0.0000    709.0970     14.9021    128.7504
   305.7500      0.0000    708.4747     14.9237    122.7375
   306.0000      0.0000    707.3810     14.8814    119.8720
   306.2500      0.0000    707.6516     14.7810    121.5392
   306.5000      0.0000    710.7282     14.6545    126.3758
   306.7500      0.0000    716.6381     14.5428    131.7944
   307.0000      0.0000    723.9346     14.4755    135.5842
   307.2500      0.0000    730.6100     14.4626    136.6034
   307.5000      0.0000    735.2833     14.5032    134.6982
   307.7500      0.0000    737.6348     14.5968    130.2154
   308.0000      0.0000    737.6116     14.7432    123.7013
   308.2500      0.0000    733.8151     14.9346    116.2128
   308.5000      0.0000    721.8486     15.1541    109.5576
   308.7500      0.0000    694.3290     15.3816    105.5052
   309.0000      0.0000    644.8814     15.6004    104.3850
   309.2500      0.0000    575.2023     15.7999    104.6208
   309.5000      0.0000    498.2939     15.9746    104.0417
   309.7500      0.0000    432.0250     16.1214    101.9514
   310.0000      0.0000    388.0169     16.2370     99.7926
   310.2500      0.0000    367.0528     16.3214     99.6794
   310.5000      0.0000    363.5456     16.3822    102.6181
   310.7500      0.0000    371.4285     16.4341    108.1290
   311.0000      0.0000    385.7378     16.4919    114.8256
   311.2500      0.0000    401.5097     16.5673    120.9025
   311.5000      0.0000    413.3351     16.6734    124.5408
   311.7500      0.0000    416.3717     16.8308    124.6204
   312.0000      0.0000    408.5097     17.0608    121.5026
   312.2500      0.0000    392.3762     17.3623    117.2010
   312.5000      0.0000    374.2356     17.6953    114.4229
   312.7500      0.0000    359.6505     17.9916    114.8253
   313.0000      0.0000    350.2882     18.1864    117.7350
   313.2500      0.0000    344.8397     18.2423    120.6048
   313.5000      0.0000    341.8440     18.1552    121.0089
   313.7500      0.0000    340.9389     17.9516    118.5564
   314.0000      0.0000    342.0169     17.6901    115.0704
   314.2500      0.0000    344.3216     17.4513    112.8507
   314.5000      0.0000    346.9021     17.2968    112.7324
   314.7500      0.0000    350.0290     17.2212    113.8879
   315.0000      0.0000    356.5723     17.1495    115.2639
   315.2500      0.0000    372.7413     16.9844    116.6316
   315.5000      0.0000    406.8937     16.6625    118.1257
   315.7500      0.0000    464.7331     16.1906    119.2940
   316.0000      0.0000    542.8104     15.6484    119.0537
   316.2500      0.0000    626.9677     15.1436    116.4560
   316.5000      0.0000    699.6281     14.7404    111.3549
   316.7500      0.0000    750.1297     14.4231    104.5784
   317.0000      0.0000    778.7721     14.1309     97.5677
   317.2500      0.0000    792.7107     13.8134     91.9771
   317.5000      0.0000    799.3427     13.4572     89.6226
   317.7500      0.0000    802.5195     13.0852     92.1185
   318.0000      0.0000    802.7142     12.7514     99.4887
   318.2500      0.0000    799.2367     12.5192    109.0451
   318.5000      0.0000    792.2637     12.4218    116.5139
   318.7500      0.0000    783.8434     12.4406    118.8186
   319.0000      0.0000    777.4804     12.5217    115.7926
   319.2500      0.0000    775.9449     12.5976    109.5220
   319.5000      0.0000    778.9108     12.5963    102.7157
   319.7500      0.0000    783.3559     12.4612     97.7392
   320.0000      0.0000    786.7220     12.1933     96.0805
   320.2500      0.0000    789.2233     11.8764     97.2865
   320.5000      0.0000    792.8858     11.6458     98.3991
   320.7500      0.0000    798.9182     11.6180     95.8034
   321.0000      0.0000    806.4012     11.8293     88.4839
   321.2500      0.0000    813.2388     12.2159     79.3858
   321.5000      0.0000    817.9394     12.6463     73.3992
   321.7500      0.0000    820.3580     12.9922     73.8943
   322.0000      0.0000    821.0537     13.1926     80.8572
   322.2500      0.0000    820.2961     13.2641     91.8746
   322.5000      0.0000    817.8649     13.2539    104.4309
   322.7500      0.0000    813.6727     13.1854    117.1476
   323.0000      0.0000    807.9658     13.0388    129.3282
   323.2500      0.0000    799.7148     12.7962    140.0636
   323.5000      0.0000    785.3995     12.5209    148.1987
   323.7500      0.0000    763.4514     12.3574    153.1322
   324.0000      0.0000    742.4089     12.3891    155.4129
   324.2500      0.0000    739.2903     12.5191    156.2076
   324.5000      0.0000    763.1498     12.5730    155.8944
   324.7500      0.0000    803.1929     12.4950    153.3978
   325.0000      0.0000    839.4998     12.3723    147.6222
   325.2500      2.0000    862.1820     12.3064    139.6824
   325.5000      0.0000    873.6049     12.3421    132.8907
   325.7500      0.0000    876.1609     12.4942    129.9371
   326.0000      0.0000    865.7713     12.7941    130.3959
   326.2500      0.0000    837.4658     13.2974    131.3607
   326.5000      0.0000    794.0624     14.0244    130.4099
   326.7500      0.0000    749.2426     14.8603    127.8908
   327.0000      0.0000    721.2749     15.5693    126.4113
