~Version Information
VERS.                      2.0: CWLS Log ASCII Standard - VERSION 2.0
WRAP.                       NO: One line per depth step
~Well Information Block
STRT.FT               -10.0000: 
STOP.FT              2297.5000: 
STEP.FT                 0.2500: 
NULL.                -999.2500: 
COMP.          Pioneer Natural Resources: COMPANY
WELL.              Bobsy 34-11: WELL
FLD.           Purgatorie River: FIELD
LOC.           1937' FEL & 451' FSL----------: LOCATION
PROV.                       CO: PROVINCE
CNTY.               Las Animas: COUNTRY
SRVC.          Patterson Wireline: SERVICE COMPANY
DATE.          Mon Apr 18 09:37:11 2005: LOG DATE
UWI.           05 071 08330 00: UNIQUE WELL ID
~Curve Information Block
DEPT.FT            0 000 00 00: Depth
CCL.                          : Casing Collar Locator
TT3.usec                      : CBL 3' Travel Time
AMP3.mV                       : CBL 3' Amplitude
GR.GAPI                       : Gamma Ray
~Parameter Information Block
~A  Depth       CCL         TT3         AMP3         GR     
# ...
  1966.5000      0.0000    604.5123      4.1004     47.8408
  1966.7500      0.0000    610.2918      4.3712     54.2263
  1967.0000      0.0000    612.2632      4.5610     60.1548
  1967.2500      0.0000    609.3242      4.6581     64.1844
  1967.5000      0.0000    605.0168      4.6450     65.8159
  1967.7500      0.0000    603.7908      4.5164     65.4334
  1968.0000      0.0000    606.7745      4.3086     63.8018
  1968.2500      0.0000    611.7365      4.0941     61.6070
  1968.5000      0.0000    616.0743      3.9325     59.1741
  1968.7500      0.0000    618.9187      3.8378     56.5440
  1969.0000      0.0000    620.9950      3.7982     53.8675
  1969.2500      0.0000    623.4659      3.8078     51.4965
  1969.5000      0.0000    626.9562      3.8585     49.5262
  1969.7500      0.0000    631.0638      3.9128     47.6455
  1970.0000      0.0000    634.5168      3.9160     45.7445
  1970.2500      0.0000    635.9561      3.8396     44.3151
  1970.5000      0.0000    634.8452      3.6980     43.9197
  1970.7500      0.0000    631.8104      3.5227     44.4975
  1971.0000      0.0000    628.1790      3.3465     45.4340
  1971.2500      0.0000    625.1054      3.2200     46.1858
  1971.5000      0.0000    623.0165      3.2098     46.7649
  1971.7500      0.0000    621.7387      3.3447     47.7018
  1972.0000      0.0000    620.9439      3.5718     49.4956
  1972.2500      0.0000    620.4111      3.7918     51.9379
  1972.5000      0.0000    620.0277      3.9467     53.9993
  1972.7500      0.0000    619.7160      4.0598     54.5078
  1973.0000      0.0000    619.4185      4.1891     53.0562
  1973.2500      0.0000    619.1786      4.3592     50.3884
  1973.5000      0.0000    619.2510      4.5417     47.9104
  1973.7500      0.0000    620.0872      4.6771     46.6792
  1974.0000      0.0000    621.8880      4.7055     46.7330
  1974.2500      0.0000    623.5601      4.5948     47.3244
  1974.5000      0.0000    622.0302      4.3565     47.7319
  1974.7500      0.0000    613.5630      4.0430     47.8969
  1975.0000      0.0000    596.9011      3.7347     48.4177
  1975.2500      0.0000    575.2369      3.5221     50.0908
  1975.5000      0.0000    554.5428      3.4744     53.5357
  1975.7500      0.0000    539.4650      3.6026     59.1613
  1976.0000      0.0000    531.1802      3.8513     67.0740
  1976.2500      0.0000    530.2670      4.1316     76.4784
  1976.5000      0.0000    540.2775      4.3682     85.1317
  1976.7500      0.0000    564.0433      4.5267     90.1397
  1977.0000      0.0000    594.9362      4.6102     89.9977
  1977.2500      0.0000    615.8326      4.6272     85.8219
  1977.5000      0.0000    610.3376      4.5647     80.3701
  1977.7500      0.0000    575.5002      4.3992     75.9317
  1978.0000      0.0000    523.8769      4.1396     73.0347
  1978.2500      0.0000    473.9967      3.8561     70.7403
  1978.5000      0.0000    438.4286      3.6612     67.8446
  1978.7500      0.0000    419.3503      3.6479     63.8146
  1979.0000      0.0000    412.9625      3.8215     58.9661
  1979.2500      0.0000    416.2969      4.0805     54.2214
  1979.5000      0.0000    430.0880      4.2728     50.8239
  1979.7500      0.0000    455.8943      4.2869     49.9983
  1980.0000      0.0000    490.1672      4.1106     52.5074
  1980.2500      0.0000    521.8664      3.8306     58.2879
  1980.5000      0.0000    539.0426      3.5860     66.4119
  1980.7500      0.0000    539.8274      3.5037     75.5519
  1981.0000      0.0000    535.3461      3.6337     84.6747
  1981.2500      0.0000    539.6459      3.9195     93.4126
  1981.5000      0.0000    557.3989      4.2359    101.8701
  1981.7500      0.0000    582.5945      4.4726    110.1689
  1982.0000      0.0000    606.7405      4.5891    118.1556
  1982.2500      0.0000    624.5300      4.5953    125.4700
  1982.5000      0.0000    632.3644      4.5024    131.8077
  1982.7500      0.0000    626.5276      4.3170    136.9879
  1983.0000      0.0000    606.5092      4.0820    140.6983
  1983.2500      0.0000    579.8298      3.8907    142.4920
  1983.5000      0.0000    560.8007      3.8341    142.3356
  1983.7500      0.0000    561.4070      3.9269    140.7402
  1984.0000      0.0000    581.7609      4.0964    137.7475
  1984.2500      0.0000    609.7252      4.2443    132.0553
  1984.5000      0.0000    630.2660      4.3134    121.9380
  1984.7500      0.0000    635.1048      4.3007    107.2212
  1985.0000      0.0000    625.0132      4.2353     90.0086
  1985.2500      0.0000    606.1925      4.1598     73.3295
  1985.5000      0.0000    586.0845      4.1158     59.2832
  1985.7500      0.0000    570.1495      4.1214     48.5377
  1986.0000      0.0000    559.3283      4.1535     41.0284
  1986.2500      0.0000    550.8598      4.1650     36.5018
  1986.5000      0.0000    543.3792      4.1331     34.5594
  1986.7500      0.0000    540.1932      4.0872     34.7932
  1987.0000      0.0000    545.4852      4.0766     37.1204
  1987.2500      0.0000    558.3317      4.1120     41.7460
  1987.5000      0.0000    572.9074      4.1573     48.4622
  1987.7500      0.0000    584.1022      4.1788     55.8559
  1988.0000      0.0000    590.7759      4.1794     61.3766
  1988.2500      0.0000    594.1208      4.1754     62.6956
  1988.5000      0.0000    595.5960      4.1691     59.4126
  1988.7500      0.0000    596.8640      4.1517     53.3894
  1989.0000      0.0000    599.6788      4.1195     47.3010
  1989.2500      0.0000    604.7018      4.0792     42.8294
  1989.5000      0.0000    611.2894      4.0473     40.0410
  1989.7500      0.0000    618.9710      4.0321     38.0723
  1990.0000      0.0000    628.5659      4.0057     36.0971
  1990.2500      0.0000    641.3455      3.9182     33.7377
  1990.5000      0.0000    657.1058      3.7558     31.1065
  1990.7500      0.0000    673.2244      3.5614     28.9566
  1991.0000      0.0000    686.0681      3.3903     28.5563
  1991.2500      0.0000    693.8561      3.2759     30.7448
  1991.5000      0.0000    697.9713      3.2412     34.9704
  1991.7500      0.0000    701.0284      3.2992     39.6650
  1992.0000      0.0000    704.4081      3.4273     43.6597
  1992.2500      0.0000    708.5131      3.5697     46.8650
  1992.5000      2.0000    714.0055      3.6726     49.5346
  1992.7500      2.0000    720.4810      3.7061     51.3500
  1993.0000      0.0000    724.3743      3.6736     51.4459
  1993.2500      0.0000    721.0151      3.6122     49.1339
  1993.5000      0.0000    709.8530      3.5571     44.6895
  1993.7500      0.0000    696.0612      3.4943     39.7478
  1994.0000      0.0000    686.0887      3.3748     36.8094
  1994.2500      0.0000    682.4064      3.1880     37.8503
  1994.5000      0.0000    682.5238      2.9997     43.1710
  1994.7500      0.0000    681.9243      2.9030     51.4931
  1995.0000      0.0000    677.8380      2.9330     60.8596
  1995.2500      0.0000    671.1790      3.0300     69.4506
  1995.5000      0.0000    665.2917      3.0942     76.2306
  1995.7500      0.0000    662.6939      3.0846     81.4285
  1996.0000      0.0000    663.1655      3.0635     86.1757
  1996.2500      0.0000    664.7725      3.1328     91.1954
  1996.5000      0.0000    665.8940      3.3276     95.9002
  1996.7500      0.0000    665.9171      3.5816     98.9882
  1997.0000      0.0000    664.5706      3.7904     99.7458
  1997.2500      0.0000    661.2285      3.8851     98.5009
  1997.5000      0.0000    654.8963      3.8489     96.0866
  1997.7500      0.0000    644.6856      3.6990     93.3374
  1998.0000      0.0000    630.1673      3.4784     90.9196
  1998.2500      0.0000    611.7009      3.2565     89.2218
  1998.5000      0.0000    591.5893      3.1096     88.4500
  1998.7500      0.0000    575.3728      3.0817     88.8470
  1999.0000      0.0000    570.2340      3.1559     90.6170
  1999.2500      0.0000    580.0475      3.2678     93.7213
  1999.5000      0.0000    602.1252      3.3580     97.9107
  1999.7500      0.0000    629.4520      3.4073    102.8207
