~Version Information
 VERS.                                  2.0 : CWLS LAS VERSION
 WRAP.                                   NO : WRAPING MODE
 SWARE .                 MController 2.5.0J : SOFTWARE VERSION
~Well Information
 WELL.                         Culver 14-12 : WELL
 COMP.    Pioneer Natural Resources USA Inc : COMPANY
 FLD.                      Purgatoire River : FIELD
 LOC.                SW/SW Sec 12 T32S R66W : LOCATION
 DATE.                              6/06/05 : DATE(S) LOGGED
 SRVC.       Blanco Geological Services LLC : SERVICE COMPANY
 STAT.                                   CO : STATE
 CNTY.                           Las Animas : COUNTY
 CTRY.                                  USA : COUNTRY
 API.                       05 071 08386 00 : API NUMBER
 STRT.FT                             442.00 : START DEPTH
 STOP.FT                            2305.00 : STOP DEPTH
 STEP.FT                               1.00 : DEPTH INCREMENT
 NULL.                                -9999 : NULL VALUE
~Curve information
 DEPTH.FT                                   :
 ROP.MIN/FT                                 :
 GAS.UNITS                                  :
~ASCII Log data
# ...
      1842.0         0.20         81.3 
      1843.0         0.17         76.2 
      1844.0         0.23         71.7 
      1845.0         0.17         65.8 
      1846.0         0.17         63.1 
      1847.0         0.23         69.2 
      1848.0         0.20         74.5 
      1849.0         0.20         75.4 
      1850.0         0.23         73.2 
      1851.0         0.20         63.3 
      1852.0         0.23         52.7 
      1853.0         0.20         42.2 
      1854.0         0.23         35.1 
      1855.0         0.27         30.9 
      1856.0         1.28        132.6 
      1857.0         0.57        200.5 
      1858.0         0.30        219.4 
      1859.0         0.33        220.1 
      1860.0         0.30        207.8 
      1861.0         0.23        175.7 
      1862.0         0.23        147.5 
      1863.0         0.22        125.8 
      1864.0         0.20        110.2 
      1865.0         0.20         97.8 
      1866.0         0.17         88.2 
      1867.0         0.20         83.0 
      1868.0         0.23         80.6 
      1869.0         0.20         82.7 
      1870.0         0.27         87.6 
      1871.0         0.20         90.7 
      1872.0         0.27         91.7 
      1873.0         0.30         91.3 
      1874.0         0.27         88.1 
      1875.0         0.27         84.4 
      1876.0         0.27         78.7 
      1877.0         0.25         72.1 
      1878.0         0.23         65.5 
      1879.0         0.23         67.0 
      1880.0         0.23         68.2 
      1881.0         0.23         67.8 
      1882.0         0.27         66.1 
      1883.0         0.33         64.2 
      1884.0         0.33         57.4 
      1885.0         0.57         48.4 
      1886.0         1.42        199.3 
      1887.0         0.47        258.1 
      1888.0         0.37        263.6 
      1889.0         0.40        256.2 
      1890.0         0.50        223.7 
      1891.0         0.37        174.4 
      1892.0         0.37        144.7 
      1893.0         0.58        129.5 
      1894.0         0.47        129.2 
      1895.0         0.40        121.0 
      1896.0         0.57        111.8 
      1897.0         0.60        105.2 
      1898.0         0.43         96.1 
      1899.0         0.43         88.5 
      1900.0         0.32         83.5 
      1901.0         0.23         80.8 
      1902.0         0.27         78.3 
      1903.0         0.27         75.1 
      1904.0         0.27         72.9 
      1905.0         0.23         71.8 
      1906.0         0.47         70.4 
      1907.0         0.30         66.1 
      1908.0         0.30         63.3 
      1909.0         0.40         63.3 
      1910.0         0.37         63.6 
      1911.0         0.45         76.6 
      1912.0         0.43         79.9 
      1913.0         0.37         78.9 
      1914.0         0.50         69.0 
      1915.0         0.33         44.2 
      1916.0         1.82        194.8 
      1917.0         0.53        255.0 
      1918.0         0.43        260.9 
      1919.0         0.33        247.3 
      1920.0         0.30        213.5 
      1921.0         0.30        186.0 
      1922.0         0.27        161.2 
      1923.0         0.43        142.5 
      1924.0         0.52        121.8 
      1925.0         0.47        123.3 
      1926.0         0.47        122.7 
      1927.0         0.50        114.6 
      1928.0         0.47         98.3 
      1929.0         0.47         83.7 
      1930.0         0.60         75.0 
      1931.0         0.58         65.4 
      1932.0         0.40         62.8 
      1933.0         0.50         62.3 
      1934.0         0.43         60.5 
      1935.0         0.40         58.7 
      1936.0         0.47         57.9 
      1937.0         0.37         55.9 
      1938.0         0.42         52.8 
      1939.0         0.50         50.0 
      1940.0         0.47         48.5 
      1941.0         0.50         46.8 
      1942.0         0.47         55.5 
      1943.0         0.43         56.8 
      1944.0         0.53         53.3 
      1945.0         0.85         33.8 
      1946.0         4.22        146.5 
      1947.0         0.33        126.3 
      1948.0         0.43        162.8 
      1949.0         0.43        183.4 
      1950.0         0.37        184.7 
      1951.0         0.35        179.6 
      1952.0         0.33        166.1 
      1953.0         0.37        153.8 
      1954.0         0.37        140.1 
      1955.0         0.50        129.6 
      1956.0         0.43        135.4 
      1957.0         0.20        135.7 
      1958.0         0.33        134.2 
      1959.0         0.33        135.5 
      1960.0         0.48        134.7 
      1961.0         0.37        127.3 
      1962.0         0.33        117.1 
      1963.0         0.27        109.3 
      1964.0         0.23        104.6 
      1965.0         0.33        101.2 
      1966.0         0.37         97.9 
      1967.0         0.30         92.8 
      1968.0         0.17         89.8 
      1969.0         0.37         87.7 
      1970.0         0.47         83.8 
      1971.0         0.45         80.8 
      1972.0         0.40         77.5 
      1973.0         0.47         97.2 
      1974.0         0.37        102.0 
      1975.0         0.40         99.2 
      1976.0         9.38        167.1 
      1977.0         0.43        172.1 
      1978.0         0.43        172.6 
      1979.0         0.43        166.1 
      1980.0         0.40        148.8 
      1981.0         0.38        135.9 
      1982.0         0.33        132.9 
      1983.0         1.23        150.6 
      1984.0         0.43        146.6 
      1985.0         0.53        122.3 
      1986.0         0.47        101.6 
      1987.0         0.55        104.2 
      1988.0         1.47        102.5 
      1989.0         0.13         40.5 
      1990.0         0.43         44.2 
      1991.0         0.43         51.7 
      1992.0         0.40         57.4 
      1993.0         0.38         59.9 
      1994.0         0.30         64.0 
      1995.0         0.27         68.8 
      1996.0         0.27         78.0 
      1997.0         0.33         82.9 
      1998.0         1.23         83.0 
      1999.0         0.50        106.4 
      2000.0         0.38        117.6 
      2001.0         0.30        119.3 
      2002.0         0.27        116.6 
      2003.0         0.33        109.4 
      2004.0         0.20        103.7 
      2005.0         0.23         97.9 
      2006.0        12.90        325.8 
      2007.0         0.47        374.1 
      2008.0         0.80        373.8 
      2009.0         0.43        291.1 
      2010.0         0.37        255.1 
      2011.0         0.23        236.2 
      2012.0         0.28        240.4 
      2013.0         0.20        261.8 
      2014.0         0.23        277.5 
      2015.0         0.27        280.1 
      2016.0         0.30        276.4 
      2017.0         0.30        253.8 
      2018.0         0.27        277.8 
      2019.0         0.13        298.3 
      2020.0         0.13        319.1 
      2021.0         0.17        348.0 
      2022.0         0.13        370.6 
      2023.0         0.17        391.2 
      2024.0         0.13        399.1 
      2025.0         0.37        400.0 
      2026.0         0.33        386.1 
      2027.0         0.48        368.8 
      2028.0         0.57        327.1 
      2029.0         0.50        303.0 
      2030.0         0.50        281.9 
      2031.0         0.47        266.7 
      2032.0         0.37        258.1 
      2033.0         0.37        247.2 
      2034.0         0.42        313.3 
      2035.0         0.30        355.0 
      2036.0         6.33        434.9 
      2037.0         0.33        462.0 
      2038.0         0.60       1125.5 
      2039.0         0.57       1119.7 
      2040.0         0.40       1031.8 
      2041.0         0.40        977.2 
