~Version Information
 VERS.                                  2.0 : CWLS LAS VERSION
 WRAP.                                   NO : WRAPING MODE
 SWARE .                 MController 2.5.0J : SOFTWARE VERSION
~Well Information
 WELL.                          GETEM 21-21 : WELL
 COMP.    PIONEER NATURAL RESOURCES USA INC : COMPANY
 FLD.                      PURGATOIRE RIVER : FIELD
 LOC.                NE/NW SEC 23 T32S R67W : LOCATION
 DATE.                             06/18/05 : DATE(S) LOGGED
 SRVC.       BLANCO GEOLOGICAL SERVICES LLC : SERVICE COMPANY
 STAT.                             COLORADO : STATE
 CNTY.                           LAS ANIMAS : COUNTY
 CTRY.                                  USA : COUNTRY
 API.                       05-071-08411-00 : API NUMBER
 STRT.FT                             321.00 : START DEPTH
 STOP.FT                            2815.00 : STOP DEPTH
 STEP.FT                               1.00 : DEPTH INCREMENT
 NULL.                                -9999 : NULL VALUE
~Curve information
 DEPTH.FT                                   :
 ROP.MIN/FT                                 :
 GAS.UNITS                                  :
~ASCII Log data
# ...
      2121.0         0.40        588.0 
      2122.0         0.37        604.4 
      2123.0         0.27        605.4 
      2124.0         0.13        604.7 
      2125.0         0.20        604.1 
      2126.0         1.55        552.7 
      2127.0         0.57        550.7 
      2128.0         0.40        594.9 
      2129.0         0.27        641.0 
      2130.0         0.30        704.2 
      2131.0         0.27        790.5 
      2132.0         0.30        890.0 
      2133.0         0.27        911.3 
      2134.0         0.35        854.0 
      2135.0         0.23        806.6 
      2136.0         0.27        748.7 
      2137.0         0.23        705.5 
      2138.0         0.30        666.9 
      2139.0         0.27        644.6 
      2140.0         0.30        615.5 
      2141.0         0.33        593.9 
      2142.0         0.23        594.3 
      2143.0         0.27        600.1 
      2144.0         0.27        616.8 
      2145.0         0.23        541.9 
      2146.0         0.33        623.4 
      2147.0         0.35        613.9 
      2148.0         0.30        604.4 
      2149.0         0.33        600.8 
      2150.0         0.33        595.9 
      2151.0         0.27        600.1 
      2152.0         0.23        581.2 
      2153.0         0.27        592.0 
      2154.0         0.27        590.7 
      2155.0         0.40        585.4 
      2156.0         1.78        536.0 
      2157.0         0.50        554.3 
      2158.0         0.67        650.5 
      2159.0         0.30        718.6 
      2160.0         0.37        800.0 
      2161.0         0.30        774.5 
      2162.0         0.28        868.4 
      2163.0         0.27        849.4 
      2164.0         0.23        796.8 
      2165.0         0.23        760.8 
      2166.0         0.27        716.9 
      2167.0         0.27        683.9 
      2168.0         0.30        649.9 
      2169.0         0.30        638.4 
      2170.0         0.30        620.1 
      2171.0         0.30        612.6 
      2172.0         0.30        605.7 
      2173.0         0.38        624.0 
      2174.0         0.33        633.2 
      2175.0         0.37        621.4 
      2176.0         0.33        611.3 
      2177.0         0.37        602.8 
      2178.0         0.40        612.6 
      2179.0         0.47        594.3 
      2180.0         0.43        574.6 
      2181.0         0.33        563.2 
      2182.0         0.35        561.9 
      2183.0         0.30        571.4 
      2184.0         0.37        561.2 
      2185.0         0.37        561.5 
      2186.0         5.48        784.3 
      2187.0         0.52        915.5 
      2188.0         0.27       1012.0 
      2189.0         0.23       1029.0 
      2190.0         0.23        948.6 
      2191.0         0.27        865.8 
      2192.0         0.37        826.5 
      2193.0         0.33        812.5 
      2194.0         0.30        777.5 
      2195.0         0.30        759.8 
      2196.0         0.27        736.2 
      2197.0         0.23        704.2 
      2198.0         0.18        701.2 
      2199.0         0.23        677.0 
      2200.0         0.17        671.1 
      2201.0         0.20        659.4 
      2202.0         0.23        643.7 
      2203.0         0.13        640.7 
      2204.0         0.30        651.5 
      2205.0         0.30        638.4 
      2206.0         0.30        642.3 
      2207.0         0.30        626.0 
      2208.0         0.23        630.6 
      2209.0         0.27        627.0 
      2210.0         0.23        588.0 
      2211.0         0.27        537.0 
      2212.0         0.35        598.8 
      2213.0         0.30        596.5 
      2214.0         0.20        594.6 
      2215.0         0.27        593.6 
      2216.0         4.25        762.4 
      2217.0         0.53        879.2 
      2218.0         0.37        979.6 
      2219.0         0.43        873.0 
      2220.0         0.45        802.3 
      2221.0         0.40        785.6 
      2222.0         0.37        752.3 
      2223.0         0.37        730.4 
      2224.0         0.33        699.6 
      2225.0         0.37        656.4 
      2226.0         0.43        636.8 
      2227.0         0.43        623.7 
      2228.0         0.32        625.7 
      2229.0         0.33        622.4 
      2230.0         0.23        607.7 
      2231.0         0.27        574.3 
      2232.0         0.27        604.7 
      2233.0         0.27        601.1 
      2234.0         0.27        601.8 
      2235.0         0.20        594.3 
      2236.0         0.30        597.5 
      2237.0         0.33        594.9 
      2238.0         0.37        585.1 
      2239.0         0.30        591.0 
      2240.0         0.32        583.1 
      2241.0         0.33        586.4 
      2242.0         0.33        585.4 
      2243.0         0.27        583.1 
      2244.0         0.30        581.5 
      2245.0         0.40        577.9 
      2246.0         6.50       1199.8 
      2247.0         0.43       1434.4 
      2248.0         0.50       1559.0 
      2249.0         0.57        906.4 
      2250.0         0.45        829.2 
      2251.0         0.43        803.6 
      2252.0         0.40        759.5 
      2253.0         0.43        712.7 
      2254.0         0.43        658.4 
      2255.0         0.40        630.6 
      2256.0         0.37        619.1 
      2257.0         0.40        619.8 
      2258.0         0.38        612.3 
      2259.0         0.40        597.5 
      2260.0         0.43        593.0 
      2261.0         0.43        577.6 
      2262.0         0.50        578.2 
      2263.0         0.47        558.3 
      2264.0         0.43        567.8 
      2265.0         0.52        572.7 
      2266.0         0.53        575.3 
      2267.0         0.73        582.5 
      2268.0         0.83        564.5 
      2269.0         0.97        561.2 
      2270.0         1.02        551.4 
      2271.0         0.80        556.6 
      2272.0         0.67        568.1 
      2273.0         0.63        554.7 
      2274.0         0.78        551.7 
      2275.0         0.70        555.7 
      2276.0         4.58        847.8 
      2277.0         0.40        951.8 
      2278.0         0.37        974.1 
      2279.0         0.38        911.6 
      2280.0         0.33        835.4 
      2281.0         0.37        803.0 
      2282.0         0.37        796.1 
      2283.0         0.43        752.9 
      2284.0         0.33        704.2 
      2285.0         0.37        668.5 
      2286.0         0.40        639.7 
      2287.0         0.40        626.0 
      2288.0         0.42        645.6 
      2289.0         0.37        644.3 
      2290.0         0.40        636.5 
      2291.0         0.33        627.6 
      2292.0         0.30        630.2 
      2293.0         0.33        623.0 
      2294.0         0.30        608.3 
      2295.0         0.30        610.9 
      2296.0         1.75        630.2 
      2297.0         0.53        629.6 
      2298.0         0.50        674.1 
      2299.0         0.40        719.9 
      2300.0         0.43        668.2 
      2301.0         0.43        611.9 
      2302.0         0.45        591.0 
      2303.0         0.43        574.6 
      2304.0         0.37        576.3 
      2305.0         0.47        573.0 
      2306.0         4.38        917.2 
      2307.0         0.47       1060.1 
      2308.0         0.45       1067.0 
      2309.0         1.10        837.7 
      2310.0         2.12        668.5 
      2311.0         5.05        584.1 
      2312.0         1.23        581.8 
      2313.0         0.55        587.7 
      2314.0         0.37        584.4 
      2315.0         0.27        589.7 
      2316.0         0.27        610.0 
      2317.0         0.30        641.7 
      2318.0         0.33        640.7 
      2319.0         0.30        626.6 
      2320.0         0.30        641.7 
