~Version Information
VERS.                      2.0: CWLS Log ASCII Standard - VERSION 2.0
WRAP.                       NO: One line per depth step
~Well Information Block
STRT.FT              2983.0000: 
STOP.FT              3214.7500: 
STEP.FT                 0.0500: 
NULL.                -999.2500: 
COMP.          Pioner Natural Resources: COMPANY
WELL.              Vespar 43-7: WELL
FLD.           Purgatoire River: FIELD
LOC.           2338' FSL & 1141' FEL------: LOCATION
PROV.                 Colorado: PROVINCE
CNTY.               Las Animas: COUNTRY
SRVC.                         : SERVICE COMPANY
DATE.          Fri Apr 15 15:31:19 2005: LOG DATE
UWI.                          : UNIQUE WELL ID
~Curve Information Block
DEPT.FT            0 000 00 00: Depth
GR.GAPI                       : Gamma Ray
CCL.                          : Casing Collar Locator
TT3.usec                      : CBL 3' Travel Time
AMP3.mV                       : CBL 3' Amplitude
AMP5.mV                       : CBL 5' Amplitude
~Parameter Information Block
~A  Depth        GR         CCL         TT3         AMP3        AMP5    
# ...
  3173.4000     91.4730      0.0000    260.0699     77.9309    142.3160
  3173.4500     91.4730      0.0000    260.0699     77.9309    142.3160
  3173.5000     86.2894      0.0000    260.0622     77.7905    142.3130
  3173.5500     86.2894      0.0000    260.0622     77.7905    142.3130
  3173.6000     86.2894      0.0000    260.0622     77.7905    142.3130
  3173.6500     86.2894      0.0000    260.0622     77.7905    142.3130
  3173.7000     86.2894      0.0000    260.0622     77.7905    142.3130
  3173.7500     81.1731      0.0000    260.0562     77.7018    142.3292
  3173.8000     81.1731      0.0000    260.0562     77.7018    142.3292
  3173.8500     81.1731      0.0000    260.0562     77.7018    142.3292
  3173.9000     81.1731      0.0000    260.0562     77.7018    142.3292
  3173.9500     81.1731      0.0000    260.0562     77.7018    142.3292
  3174.0000     77.2983      0.0000    260.0534     77.6680    142.3754
  3174.0500     77.2983      0.0000    260.0534     77.6680    142.3754
  3174.1000     77.2983      0.0000    260.0534     77.6680    142.3754
  3174.1500     77.2983      0.0000    260.0534     77.6680    142.3754
  3174.2000     77.2983      0.0000    260.0534     77.6680    142.3754
  3174.2500     75.9202      0.0000    260.0548     77.6847    142.4499
  3174.3000     75.9202      0.0000    260.0548     77.6847    142.4499
  3174.3500     75.9202      0.0000    260.0548     77.6847    142.4499
  3174.4000     75.9202      0.0000    260.0548     77.6847    142.4499
  3174.4500     75.9202      0.0000    260.0548     77.6847    142.4499
  3174.5000     77.4347      0.0000    260.0614     77.7370    142.5405
  3174.5500     77.4347      0.0000    260.0614     77.7370    142.5405
  3174.6000     77.4347      0.0000    260.0614     77.7370    142.5405
  3174.6500     77.4347      0.0000    260.0614     77.7370    142.5405
  3174.7000     77.4347      0.0000    260.0614     77.7370    142.5405
  3174.7500     80.7138      0.0000    260.0736     77.7953    142.6431
  3174.8000     80.7138      0.0000    260.0736     77.7953    142.6431
  3174.8500     80.7138      0.0000    260.0736     77.7953    142.6431
  3174.9000     80.7138      0.0000    260.0736     77.7953    142.6431
  3174.9500     80.7138      0.0000    260.0736     77.7953    142.6431
  3175.0000     83.6578      0.0000    260.0897     77.8279    142.7678
  3175.0500     83.6578      0.0000    260.0897     77.8279    142.7678
  3175.1000     83.6578      0.0000    260.0897     77.8279    142.7678
  3175.1500     83.6578      0.0000    260.0897     77.8279    142.7678
  3175.2000     83.6578      0.0000    260.0897     77.8279    142.7678
  3175.2500     84.7670      0.0000    260.1057     77.8173    142.9152
  3175.3000     84.7670      0.0000    260.1057     77.8173    142.9152
  3175.3500     84.7670      0.0000    260.1057     77.8173    142.9152
  3175.4000     84.7670      0.0000    260.1057     77.8173    142.9152
  3175.4500     84.7670      0.0000    260.1057     77.8173    142.9152
  3175.5000     84.1110      0.0000    260.1185     77.7672    143.0537
  3175.5500     84.1110      0.0000    260.1185     77.7672    143.0537
  3175.6000     84.1110      0.0000    260.1185     77.7672    143.0537
  3175.6500     84.1110      0.0000    260.1185     77.7672    143.0537
  3175.7000     84.1110      0.0000    260.1185     77.7672    143.0537
  3175.7500     82.7069      0.0000    260.1275     77.6961    143.1324
  3175.8000     82.7069      0.0000    260.1275     77.6961    143.1324
  3175.8500     82.7069      0.0000    260.1275     77.6961    143.1324
  3175.9000     82.7069      0.0000    260.1275     77.6961    143.1324
  3175.9500     82.7069      0.0000    260.1275     77.6961    143.1324
  3176.0000     81.3773      0.0000    260.1339     77.6216    143.1192
  3176.0500     81.3773      0.0000    260.1339     77.6216    143.1192
  3176.1000     81.3773      0.0000    260.1339     77.6216    143.1192
  3176.1500     81.3773      0.0000    260.1339     77.6216    143.1192
  3176.2000     81.3773      0.0000    260.1339     77.6216    143.1192
  3176.2500     80.4153      0.0000    260.1393     77.5459    143.0276
  3176.3000     80.4153      0.0000    260.1393     77.5459    143.0276
  3176.3500     80.4153      0.0000    260.1393     77.5459    143.0276
  3176.4000     80.4153      0.0000    260.1393     77.5459    143.0276
  3176.4500     80.4153      0.0000    260.1393     77.5459    143.0276
  3176.5000     79.7550      0.0000    260.1437     77.4527    142.9070
  3176.5500     79.7550      0.0000    260.1437     77.4527    142.9070
  3176.6000     79.7550      0.0000    260.1437     77.4527    142.9070
  3176.6500     79.7550      0.0000    260.1437     77.4527    142.9070
  3176.7000     79.7550      0.0000    260.1437     77.4527    142.9070
  3176.7500     79.0094      0.0000    260.1451     77.3210    142.8087
  3176.8000     79.0094      0.0000    260.1451     77.3210    142.8087
  3176.8500     79.0094      0.0000    260.1451     77.3210    142.8087
  3176.9000     79.0094      0.0000    260.1451     77.3210    142.8087
  3176.9500     79.0094      0.0000    260.1451     77.3210    142.8087
  3177.0000     77.7130      0.0000    260.1411     77.1439    142.7558
  3177.0500     77.7130      0.0000    260.1411     77.1439    142.7558
  3177.1000     77.7130      0.0000    260.1411     77.1439    142.7558
  3177.1500     77.7130      0.0000    260.1411     77.1439    142.7558
  3177.2000     77.7130      0.0000    260.1411     77.1439    142.7558
  3177.2500     75.9856      0.0000    260.1326     76.9397    142.7406
  3177.3000     75.9856      0.0000    260.1326     76.9397    142.7406
  3177.3500     75.9856      0.0000    260.1326     76.9397    142.7406
  3177.4000     75.9856      0.0000    260.1326     76.9397    142.7406
  3177.4500     75.9856      0.0000    260.1326     76.9397    142.7406
  3177.5000     74.8348      0.0000    260.1246     76.7425    142.7381
  3177.5500     74.8348      0.0000    260.1246     76.7425    142.7381
  3177.6000     74.8348      0.0000    260.1246     76.7425    142.7381
  3177.6500     74.8348      0.0000    260.1246     76.7425    142.7381
  3177.7000     74.8348      0.0000    260.1246     76.7425    142.7381
  3177.7500     75.4689      0.0000    260.1223     76.5800    142.7057
  3177.8000     75.4689      0.0000    260.1223     76.5800    142.7057
  3177.8500     75.4689      0.0000    260.1223     76.5800    142.7057
  3177.9000     75.4689      0.0000    260.1223     76.5800    142.7057
  3177.9500     75.4689      0.0000    260.1223     76.5800    142.7057
  3178.0000     78.0090      0.0000    260.1275     76.4608    142.5544
  3178.0500     78.0090      0.0000    260.1275     76.4608    142.5544
  3178.1000     78.0090      0.0000    260.1275     76.4608    142.5544
  3178.1500     78.0090      0.0000    260.1275     76.4608    142.5544
  3178.2000     78.0090      0.0000    260.1275     76.4608    142.5544
  3178.2500     80.7406      0.0000    260.1393     76.3811    142.1107
  3178.3000     80.7406      0.0000    260.1393     76.3811    142.1107
  3178.3500     80.7406      0.0000    260.1393     76.3811    142.1107
  3178.4000     80.7406      0.0000    260.1393     76.3811    142.1107
  3178.4500     80.7406      0.0000    260.1393     76.3811    142.1107
  3178.5000     81.0168      0.0000    260.1551     76.3358    141.1341
  3178.5500     81.0168      0.0000    260.1551     76.3358    141.1341
  3178.6000     81.0168      0.0000    260.1551     76.3358    141.1341
  3178.6500     81.0168      0.0000    260.1551     76.3358    141.1341
  3178.7000     81.0168      0.0000    260.1551     76.3358    141.1341
  3178.7500     77.4961      0.0000    260.1720     76.3191    139.4485
  3178.8000     77.4961      0.0000    260.1720     76.3191    139.4485
  3178.8500     77.4961      0.0000    260.1720     76.3191    139.4485
  3178.9000     77.4961      0.0000    260.1720     76.3191    139.4485
  3178.9500     77.4961      0.0000    260.1720     76.3191    139.4485
