~Version Information
VERS.                      2.0: CWLS Log ASCII Standard - VERSION 2.0
WRAP.                       NO: One line per depth step
~Well Information Block
STRT.FT               545.0000: 
STOP.FT              1922.0000: 
STEP.FT                 0.2500: 
NULL.                -999.2500: 
COMP.          Pioneer Natural Resources: COMPANY
WELL.            Summers 21-19: WELL
FLD.           Purgatoire River: FIELD
LOC.           900' FNL & 1950' FWL: LOCATION
PROV.                 Colorado: PROVINCE
CNTY.               Las Animas: COUNTRY
SRVC.                Patterson: SERVICE COMPANY
DATE.          Sat Oct 15 03:34:13 2005: LOG DATE
UWI.           05 071 08315 00: UNIQUE WELL ID
~Curve Information Block
DEPT.FT            0 000 00 00: Depth
SN.Ohm-m                      : IEL Short Normal
SP.mV                         : IEL Spontaneous Potential
DIR.Ohm-m                     : IEL Induction Resistivity
GR.GAPI                       : Gamma Ray
~Parameter Information Block
~A  Depth        SN          SP         DIR          GR     
# ...
  1248.5000     35.5950   -109.7382     29.5908     73.2829
  1248.7500     36.0390   -109.6955     29.2949     72.9797
  1249.0000     36.3097   -109.6669     29.1699     71.9577
  1249.2500     36.4103   -109.6585     29.2273     71.0962
  1249.5000     36.4251   -109.6745     29.3930     70.3047
  1249.7500     36.3457   -109.7101     29.5495     70.2925
  1250.0000     36.1489   -109.7411     29.6068     70.5022
  1250.2500     35.8783   -109.7259     29.5508     70.2778
  1250.5000     35.5716   -109.6282     29.4260     69.1181
  1250.7500     35.2396   -109.4477     29.2777     68.1636
  1251.0000     34.8920   -109.2250     29.1151     67.3149
  1251.2500     34.5471   -109.0104     28.9248     67.2475
  1251.5000     34.2524   -108.8268     28.7081     67.1870
  1251.7500     34.0642   -108.6663     28.4969     66.6847
  1252.0000     34.0112   -108.5140     28.3344     65.3473
  1252.2500     34.0646   -108.3694     28.2428     64.7234
  1252.5000     34.1183   -108.2492     28.2075     65.2241
  1252.7500     34.0532   -108.1787     28.1901     66.5675
  1253.0000     33.8654   -108.1805     28.1599     69.5587
  1253.2500     33.6536   -108.2635     28.1189     71.9713
  1253.5000     33.4896   -108.4151     28.0991     75.9877
  1253.7500     33.4168   -108.6028     28.1354     78.5499
  1254.0000     33.4514   -108.7850     28.2388     81.0104
  1254.2500     33.4993   -108.9244     28.3875     81.0678
  1254.5000     33.4688   -108.9969     28.5414     78.5254
  1254.7500     33.4290   -108.9971     28.6661     75.6256
  1255.0000     33.5012   -108.9383     28.7537     71.2001
  1255.2500     33.7251   -108.8484     28.8259     69.0891
  1255.5000     34.0767   -108.7589     28.9162     67.5738
  1255.7500     34.4875   -108.6928     29.0464     67.2909
  1256.0000     34.8757   -108.6588     29.2150     67.1042
  1256.2500     35.2156   -108.6521     29.4069     66.8470
  1256.5000     35.5328   -108.6587     29.6101     66.1549
  1256.7500     35.8195   -108.6632     29.8225     65.5543
  1257.0000     36.0148   -108.6574     30.0454     64.6738
  1257.2500     36.1043   -108.6461     30.2688     64.2343
  1257.5000     36.1662   -108.6418     30.4639     63.8659
  1257.7500     36.2807   -108.6539     30.5932     63.7477
  1258.0000     36.4752   -108.6806     30.6368     63.5456
  1258.2500     36.7683   -108.7110     30.6129     63.1887
  1258.5000     37.1962   -108.7282     30.5675     61.8589
  1258.7500     37.7836   -108.7113     30.5348     60.2934
  1259.0000     38.5298   -108.6402     30.5017     57.2054
  1259.2500     39.3645   -108.5092     30.4080     55.0864
  1259.5000     40.1055   -108.3386     30.1767     52.7364
  1259.7500     40.6069   -108.1686     29.7526     52.2126
  1260.0000     40.9398   -108.0360     29.1197     53.3976
  1260.2500     41.3086   -107.9513     28.2911     55.2874
  1260.5000     41.8202   -107.8914     27.2831     58.7176
  1260.7500     42.3679   -107.8081     26.1002     60.7310
  1261.0000     42.6812   -107.6410     24.7445     62.7350
  1261.2500     42.4588   -107.3364     23.2448     63.4423
  1261.5000     41.4785   -106.8714     21.6709     64.3698
  1261.7500     39.6044   -106.2770     20.1166     65.9179
  1262.0000     36.7848   -105.6381     18.6643     72.1357
  1262.2500     33.1673   -105.0585     17.3595     80.1111
  1262.5000     29.1776   -104.6073     16.2095     97.9158
  1262.7500     25.3684   -104.2902     15.1978    112.2665
  1263.0000     22.1381   -104.0685     14.3014    133.6213
  1263.2500     19.5767   -103.9007     13.5013    145.5722
  1263.5000     17.5172   -103.7710     12.7848    157.8158
  1263.7500     15.7253   -103.6846     12.1434    162.0027
  1264.0000     14.1234   -103.6468     11.5696    163.8123
  1264.2500     12.8350   -103.6487     11.0564    163.4960
  1264.5000     11.9817   -103.6738     10.5989    162.8318
  1264.7500     11.5162   -103.7143     10.1957    162.7442
  1265.0000     11.3115   -103.7805      9.8493    162.9600
  1265.2500     11.2672   -103.8936      9.5645    163.1254
  1265.5000     11.2718   -104.0685      9.3465    163.4607
  1265.7500     11.2251   -104.3019      9.2011    164.0703
  1266.0000     11.1291   -104.5748      9.1333    166.2981
  1266.2500     11.0700   -104.8650      9.1460    168.7522
  1266.5000     11.0994   -105.1609      9.2370    172.6953
  1266.7500     11.1889   -105.4690      9.3995    174.1135
  1267.0000     11.3267   -105.8111      9.6259    172.2974
  1267.2500     11.5807   -106.2099      9.9129    168.2584
  1267.5000     12.0101   -106.6637     10.2639    159.7196
  1267.7500     12.5805   -107.1277     10.6850    153.8784
  1268.0000     13.2064   -107.5242     11.1784    146.2053
  1268.2500     13.8360   -107.7841     11.7365    141.3024
  1268.5000     14.4902   -107.8883     12.3424    132.3807
  1268.7500     15.2177   -107.8728     12.9777    124.9907
  1269.0000     16.0566   -107.7951     13.6327    113.3671
  1269.2500     17.0979   -107.6990     14.3140    106.7829
  1269.5000     18.4987   -107.6030     15.0433     99.9154
  1269.7500     20.3377   -107.5068     15.8451     96.8767
  1270.0000     22.4581   -107.3971     16.7301     93.1080
  1270.2500     24.4688   -107.2558     17.6847     90.7391
  1270.5000     25.9834   -107.0783     18.6759     87.9826
  1270.7500     26.8541   -106.8920     19.6667     87.3158
  1271.0000     27.1347   -106.7550     20.6271     88.9570
  1271.2500     26.9320   -106.7266     21.5301     92.1222
  1271.5000     26.3603   -106.8303     22.3415    100.1333
  1271.7500     25.5974   -107.0406     23.0168    107.2849
  1272.0000     24.9054   -107.3026     23.5117    118.8472
  1272.2500     24.4858   -107.5662     23.8004    125.4086
  1272.5000     24.3375   -107.8039     23.8925    130.5896
  1272.7500     24.3551   -108.0048     23.8393    129.8936
  1273.0000     24.5332   -108.1649     23.7266    122.9171
  1273.2500     24.9860   -108.2872     23.6531    115.6974
  1273.5000     25.8090   -108.3851     23.7025    104.1523
  1273.7500     26.9926   -108.4789     23.9169     97.3096
  1274.0000     28.4351   -108.5835     24.2812     89.1771
  1274.2500     29.9867   -108.6944     24.7243     85.2188
  1274.5000     31.4918   -108.7824     25.1360     81.3855
  1274.7500     32.8245   -108.8078     25.3991     80.0107
  1275.0000     33.8910   -108.7475     25.4245     78.9473
  1275.2500     34.6062   -108.6120     25.1727     78.5462
  1275.5000     34.9151   -108.4375     24.6535     78.5839
  1275.7500     34.8334   -108.2586     23.9056     79.4516
  1276.0000     34.4107   -108.0913     22.9764     82.3841
  1276.2500     33.6378   -107.9401     21.9122     85.2835
  1276.5000     32.4412   -107.8222     20.7602     90.7909
  1276.7500     30.7763   -107.7785     19.5707     95.3287
  1277.0000     28.6488   -107.8573     18.3954    103.7844
  1277.2500     26.1162   -108.0836     17.2857    110.5658
  1277.5000     23.3658   -108.4421     16.2888    122.0045
  1277.7500     20.7005   -108.8888     15.4432    129.9408
  1278.0000     18.3919   -109.3814     14.7732    141.2701
  1278.2500     16.5967   -109.9029     14.2834    147.9557
  1278.5000     15.3717   -110.4637     13.9581    156.1131
  1278.7500     14.7132   -111.0781     13.7648    160.0129
  1279.0000     14.5835   -111.7340     13.6637    162.9574
  1279.2500     14.8837   -112.3829     13.6193    162.6039
  1279.5000     15.3810   -112.9652     13.6111    158.2827
  1279.7500     15.7327   -113.4501     13.6355    153.1715
  1280.0000     15.7189   -113.8514     13.7012    143.4674
  1280.2500     15.4478   -114.2075     13.8202    136.4707
  1280.5000     15.2689   -114.5479     14.0018    126.1202
  1280.7500     15.5538   -114.8737     14.2503    119.7070
  1281.0000     16.5469   -115.1602     14.5651    111.6553
  1281.2500     18.2536   -115.3689     14.9429    107.7669
  1281.5000     20.3272   -115.4615     15.3777    104.1273
  1281.7500     22.1706   -115.4115     15.8566    102.7167
