~Version Information
VERS.                      2.0: CWLS Log ASCII Standard - VERSION 2.0
WRAP.                       NO: One line per depth step
~Well Information Block
STRT.FT               430.0000: 
STOP.FT              1910.2000: 
STEP.FT                 0.1000: 
NULL.                -999.2500: 
COMP.          Pioneer Natural Resources: COMPANY
WELL.          Formula 23-11 Tr: WELL
FLD.           Purgatoire River: FIELD
LOC.           1976' FSL & 1935' FWL--: LOCATION
PROV.                 Colorado: PROVINCE
CNTY.               Las Animas: COUNTRY
SRVC.                Patterson: SERVICE COMPANY
DATE.          Mon Jun 13 07:32:15 2005: LOG DATE
UWI.           05 071 08399 00: UNIQUE WELL ID
~Curve Information Block
DEPT.FT            0 000 00 00: Depth
DCAL.in                       : CDL Caliper
RHOB.g/cc                     : CDL Bulk Density
RHOC.g/cc                     : CDL Density Correction
DPOR.pu                       : CDL Density Porosity
NPOR.pu                       : Neutron Porosity
GR.GAPI                       : Gamma Ray
~Parameter Information Block
~A  Depth       DCAL        RHOB        RHOC        DPOR        NPOR         GR     
# ...
   910.0000      8.3610      2.1191      0.0104     32.1768     35.7042    132.4080
   910.1000      8.3610      1.9829     -0.0155     40.4300     35.9410    125.9279
   910.2000      8.3610      1.8444     -0.0818     48.8250     35.9010    117.7922
   910.3000      8.4044      1.7271     -0.0997     55.9359     35.9871    107.0826
   910.4000      8.4044      1.6521     -0.0979     60.4781     36.2998     98.3081
   910.5000      8.4078      1.6250     -0.0626     62.1201     36.2029     94.2720
   910.6000      8.4078      1.6457     -0.0556     60.8668     35.5271     92.0997
   910.7000      8.4078      1.7155      0.0332     56.6362     35.1047     90.6261
   910.8000      8.3793      1.8220      0.1582     50.1804     35.2796     91.3162
   910.9000      8.3793      1.9416      0.1945     42.9351     35.3523     94.6832
   911.0000      8.3415      2.0568      0.2389     35.9500     34.9156    100.3334
   911.1000      8.3415      2.1559      0.2695     29.9476     34.3060    105.7197
   911.2000      8.3415      2.2343      0.2345     25.1953     34.0373    109.2536
   911.3000      8.3231      2.2981      0.2060     21.3243     34.3264    113.0071
   911.4000      8.3231      2.3461      0.1999     18.4211     34.7429    115.5630
   911.5000      8.3195      2.3691      0.1337     17.0249     34.9507    113.9353
   911.6000      8.3195      2.3731      0.0848     16.7793     35.3432    113.7988
   911.7000      8.3195      2.3661      0.0851     17.2033     35.8602    119.3458
   911.8000      8.3169      2.3391      0.0742     18.8402     35.8659    125.1265
   911.9000      8.3169      2.2867      0.0435     22.0175     35.3728    127.9087
   912.0000      8.3101      2.2316     -0.0056     25.3564     34.7966    130.0221
   912.1000      8.3101      2.2041      0.0001     27.0254     34.2085    131.7887
   912.2000      8.3101      2.2065      0.0162     26.8794     33.7875    129.3286
   912.3000      8.2987      2.2216      0.0297     25.9608     33.7951    122.2845
   912.4000      8.2987      2.2389      0.0222     24.9121     34.1952    114.6717
   912.5000      8.2906      2.2538      0.0516     24.0097     34.8251    107.4315
   912.6000      8.2906      2.2495      0.1316     24.2736     35.2593    100.7644
   912.7000      8.2906      2.2060      0.1303     26.9072     34.9180     95.9363
   912.8000      8.2882      2.1335      0.0855     31.3003     34.0169     94.1373
   912.9000      8.2882      2.0723      0.0814     35.0147     33.5402     97.1703
   913.0000      8.2804      2.0503      0.1061     36.3469     33.5284    105.4059
   913.1000      8.2804      2.0579      0.1066     35.8824     33.3513    113.8753
   913.2000      8.2804      2.0762      0.0532     34.7756     33.1598    116.5622
   913.3000      8.2470      2.1001      0.0999     33.3294     33.0992    114.8770
   913.4000      8.2470      2.1277      0.0910     31.6557     32.5569    112.9151
   913.5000      8.1896      2.1585      0.1443     29.7902     31.1954    109.5106
   913.6000      8.1896      2.2014      0.1410     27.1854     29.7786    105.9694
   913.7000      8.1896      2.2685      0.1813     23.1209     29.0406    105.5349
   913.8000      8.1439      2.3529      0.2304     18.0048     28.7318    107.4804
   913.9000      8.1439      2.4321      0.2291     13.2057     28.0518    109.4238
   914.0000      8.1175      2.4905      0.1521      9.6650     26.9596    109.8624
   914.1000      8.1175      2.5257      0.1095      7.5358     26.0562    110.3668
   914.2000      8.1175      2.5409      0.0960      6.6097     25.3529    113.3036
   914.3000      8.0999      2.5449      0.0670      6.3700     24.7066    118.0123
   914.4000      8.0999      2.5524      0.0551      5.9171     24.5046    121.6907
   914.5000      8.0884      2.5674      0.0726      5.0067     24.9403    122.2634
   914.6000      8.0884      2.5770      0.0798      4.4243     25.3498    120.2380
   914.7000      8.0884      2.5778      0.0478      4.3732     25.3405    117.7509
   914.8000      8.0829      2.5802      0.0781      4.2285     25.1800    117.1347
   914.9000      8.0829      2.5861      0.0451      3.8750     24.9417    119.4678
   915.0000      8.0814      2.5860      0.0876      3.8804     24.6659    122.2395
   915.1000      8.0814      2.5725      0.0545      4.6982     24.6105    121.3540
   915.2000      8.0814      2.5544      0.0721      5.7919     24.5847    120.4185
   915.3000      8.0807      2.5438      0.0797      6.4336     24.3595    124.2654
   915.4000      8.0807      2.5471      0.0240      6.2356     24.4223    131.7068
   915.5000      8.0806      2.5687      0.0508      4.9302     24.8216    138.9428
   915.6000      8.0806      2.5992      0.0694      3.0762     25.0674    140.5276
   915.7000      8.0806      2.6201      0.0701      1.8134     25.2711    136.2841
   915.8000      8.0808      2.6109      0.1111      2.3693     25.5430    130.8370
   915.9000      8.0808      2.5709      0.0559      4.7944     25.3801    127.1232
   916.0000      8.0799      2.5294      0.0267      7.3099     24.8293    128.5098
   916.1000      8.0799      2.5085      0.0076      8.5757     24.8379    134.1907
   916.2000      8.0799      2.5099     -0.0179      8.4918     25.7942    135.4487
   916.3000      8.0795      2.5235      0.0473      7.6655     26.9830    128.8469
   916.4000      8.0795      2.5303      0.0468      7.2560     27.7827    122.5563
   916.5000      8.0805      2.5198      0.0645      7.8916     28.4642    122.7182
   916.6000      8.0805      2.4989      0.0219      9.1560     29.1583    125.7402
   916.7000      8.0805      2.4839     -0.0189     10.0659     29.5486    126.8291
   916.8000      8.0806      2.4814      0.0285     10.2209     29.8434    125.8867
   916.9000      8.0806      2.4823      0.0429     10.1619     30.1158    127.1353
   917.0000      8.0801      2.4805      0.0486     10.2757     29.9885    131.9547
   917.1000      8.0801      2.4769      0.0414     10.4905     29.5554    136.7967
   917.2000      8.0801      2.4769      0.0525     10.4935     29.0067    142.3741
   917.3000      8.0794      2.4861      0.0297      9.9315     28.5896    147.4220
   917.4000      8.0794      2.5015      0.0619      9.0018     28.5694    147.1121
   917.5000      8.0792      2.5127      0.0582      8.3219     28.5400    143.8297
   917.6000      8.0792      2.5210      0.0716      7.8157     28.5950    143.6381
   917.7000      8.0792      2.5349      0.0930      6.9767     29.1678    147.0387
   917.8000      8.0803      2.5546      0.0941      5.7810     29.8173    149.1869
   917.9000      8.0803      2.5785      0.0575      4.3350     30.0631    149.3403
   918.0000      8.0810      2.5986      0.1264      3.1171     30.0288    149.3083
   918.1000      8.0810      2.6025      0.1068      2.8789     30.2478    149.6801
   918.2000      8.0810      2.5970      0.0563      3.2146     30.7255    151.4310
   918.3000      8.0761      2.5939      0.0800      3.4021     30.6661    155.6178
   918.4000      8.0761      2.5896      0.0668      3.6628     30.1833    157.3524
   918.5000      8.0661      2.5810      0.0681      4.1799     30.1568    152.2502
   918.6000      8.0661      2.5728      0.0577      4.6796     30.3310    146.4265
   918.7000      8.0661      2.5724      0.0217      4.7035     29.6992    144.8173
   918.8000      8.0600      2.5821      0.0524      4.1132     28.5436    142.7126
   918.9000      8.0600      2.5955      0.0540      3.3012     28.1530    137.0391
   919.0000      8.0576      2.6119      0.0788      2.3088     28.5661    129.7178
   919.1000      8.0576      2.6225      0.1396      1.6638     28.4739    120.3381
   919.2000      8.0576      2.6083      0.0845      2.5264     27.4477    111.1399
   919.3000      8.0521      2.5772      0.0559      4.4096     26.2198    107.2775
   919.4000      8.0521      2.5607      0.0262      5.4098     25.2611    108.6125
   919.5000      8.0419      2.5703      0.0664      4.8327     24.4655    113.0376
