~Version Information
VERS.                      2.0: CWLS Log ASCII Standard - VERSION 2.0
WRAP.                       NO: One line per depth step
~Well Information Block
STRT.FT               400.0000: 
STOP.FT              2201.0000: 
STEP.FT                 0.1000: 
NULL.                -999.2500: 
COMP.          Evergreen Operating Corporation: COMPANY
WELL.            Triumph 13-10: WELL
FLD.           Purgatorie River: FIELD
LOC.           1551' FSL & 522' FWL: LOCATION
PROV.                 Colorado: PROVINCE
CNTY.               Las Animas: COUNTRY
SRVC.                Patterson: SERVICE COMPANY
DATE.          Mon Jul 26 07:55:18 2004: LOG DATE
UWI.           05 071 08108 00: UNIQUE WELL ID
~Curve Information Block
DEPT.FT            0 000 00 00: Depth
DCAL.in                       : CDL Caliper
RHOB.g/cc                     : CDL Bulk Density
RHOC.g/cc                     : CDL Density Correction
DPOR.pu                       : CDL Density Porosity
NPOR.pu                       : Neutron Porosity
GR.GAPI                       : Gamma Ray
~Parameter Information Block
~A  Depth       DCAL        RHOB        RHOC        DPOR        NPOR         GR     
# ...
   870.4000      8.3416      2.4091      0.0910     14.5973     28.5490    156.6113
   870.5000      8.3454      2.4107      0.0659     14.5013     31.5812    152.0633
   870.6000      8.3454      2.3936      0.1141     15.5368     29.8120    143.7892
   870.7000      8.3454      2.3514      0.1068     18.0978     25.8534    136.3636
   870.8000      8.3496      2.3014      0.0134     21.1282     24.0239    134.6740
   870.9000      8.3496      2.2708      0.0090     22.9792     23.9344    135.6397
   871.0000      8.3426      2.2632      0.0212     23.4442     23.6476    137.6587
   871.1000      8.3426      2.2619      0.0516     23.5237     23.5322    143.2141
   871.2000      8.3426      2.2582      0.0304     23.7468     25.0714    147.5309
   871.3000      8.2944      2.2605      0.0385     23.6075     25.7485    145.5415
   871.4000      8.2944      2.2799      0.0263     22.4319     22.7287    142.6424
   871.5000      8.2867      2.3185      0.0724     20.0926     20.6292    141.9631
   871.6000      8.2867      2.3700      0.0900     16.9686     21.8232    139.1880
   871.7000      8.2867      2.4330      0.1612     13.1511     24.0525    135.5368
   871.8000      8.2641      2.5056      0.2436      8.7511     24.0408    132.4932
   871.9000      8.2641      2.5676      0.3647      4.9919     23.5650    128.3394
   872.0000      8.2606      2.5939      0.3629      3.3992     23.5149    127.6769
   872.1000      8.2606      2.5857      0.3365      3.8997     22.5578    132.9241
   872.2000      8.2606      2.5653      0.2590      5.1329     22.1180    136.0204
   872.3000      8.2638      2.5506      0.2066      6.0264     23.3264    129.8831
   872.4000      8.2638      2.5494      0.1649      6.0955     23.3970    118.1580
   872.5000      8.2621      2.5602      0.0907      5.4418     20.0824    109.2165
   872.6000      8.2621      2.5673      0.0831      5.0143     17.4572    103.1178
   872.7000      8.2621      2.5594      0.0463      5.4924     17.6784     94.9226
   872.8000      8.2664      2.5430      0.0645      6.4828     20.6961     90.3088
   872.9000      8.2664      2.5298      0.0220      7.2865     23.1871     99.1652
   873.0000      8.2661      2.5232      0.0342      7.6832     21.0911    118.1125
   873.1000      8.2661      2.5119      0.0582      8.3695     19.0442    133.2962
   873.2000      8.2661      2.4870      0.0030      9.8801     19.8757    138.7829
   873.3000      8.2655      2.4535      0.0266     11.9085     23.7060    139.1170
   873.4000      8.2655      2.4168      0.0059     14.1356     27.4094    138.6741
   873.5000      8.2636      2.3844     -0.0579     16.0954     26.8665    137.8669
   873.6000      8.2636      2.3628     -0.0265     17.4052     25.0863    138.4294
   873.7000      8.2636      2.3460      0.0207     18.4231     25.1595    143.3688
   873.8000      8.2701      2.3298     -0.0121     19.4049     25.6281    146.2590
   873.9000      8.2701      2.3102      0.0471     20.5959     25.2144    142.6073
   874.0000      8.2742      2.2712      0.0071     22.9580     24.9901    139.7568
   874.1000      8.2742      2.2086     -0.0224     26.7494     25.6216    142.4277
   874.2000      8.2742      2.1447     -0.0830     30.6249     27.8119    145.8718
   874.3000      8.2842      2.1009     -0.0136     33.2789     30.7161    145.4007
   874.4000      8.2842      2.0678      0.0352     35.2866     31.3254    141.1907
   874.5000      8.2876      2.0205      0.0113     38.1519     30.1349    139.0085
   874.6000      8.2876      1.9516     -0.0001     42.3267     29.4073    138.7878
   874.7000      8.2876      1.8713     -0.0118     47.1918     28.8857    135.6665
   874.8000      8.2907      1.7948     -0.0461     51.8312     29.2256    134.3149
   874.9000      8.2907      1.7303     -0.0621     55.7406     31.2939    137.0780
   875.0000      8.3049      1.6666     -0.0121     59.5974     32.0104    136.8617
   875.1000      8.3049      1.5947     -0.0382     63.9549     29.0895    130.6782
   875.2000      8.3049      1.5381     -0.0579     67.3854     26.4649    120.0951
   875.3000      8.3598      1.5276     -0.0498     68.0234     27.0917    110.0196
   875.4000      8.3598      1.5665      0.0113     65.6648     28.1361    106.2381
   875.5000      8.3700      1.6359      0.0584     61.4616     25.5855    108.7502
   875.6000      8.3700      1.7233      0.0874     56.1622     22.3431    113.6058
   875.7000      8.3700      1.8313      0.1413     49.6162     20.6109    118.3962
   875.8000      8.3813      1.9542      0.2303     42.1668     19.5189    123.1983
   875.9000      8.3813      2.0785      0.2531     34.6344     19.6111    126.9389
   876.0000      8.3034      2.2023      0.2273     27.1330     21.2758    129.0863
   876.1000      8.3034      2.3232      0.2622     19.8056     22.9531    131.9765
   876.2000      8.3034      2.4271      0.2295     13.5108     22.9109    134.3392
   876.3000      8.2720      2.5042      0.1382      8.8340     21.1678    136.6126
   876.4000      8.2720      2.5529      0.1204      5.8876     19.1627    143.6794
   876.5000      8.2792      2.5811      0.0592      4.1736     18.2347    151.3310
   876.6000      8.2792      2.6009      0.0568      2.9776     18.8283    149.5549
   876.7000      8.2792      2.6026      0.0439      2.8746     21.0982    138.1939
   876.8000      8.2046      2.5842     -0.0676      3.9903     23.7107    125.3654
   876.9000      8.2046      2.5746     -0.0371      4.5670     24.3210    114.7526
   877.0000      8.1883      2.5880     -0.0322      3.7583     22.6356    107.7662
   877.1000      8.1883      2.6080      0.0112      2.5451     19.9420    106.4860
   877.2000      8.1883      2.6223      0.0282      1.6796     18.3365    108.6134
   877.3000      8.1764      2.6348      0.0108      0.9209     18.1323    110.9429
   877.4000      8.1764      2.6462      0.0606      0.2273     18.4321    111.0408
   877.5000      8.1555      2.6516      0.0132     -0.0958     18.9093    107.7560
   877.6000      8.1555      2.6502      0.0537     -0.0150     19.6588    103.8609
   877.7000      8.1555      2.6362     -0.0033      0.8386     20.6659    105.1588
   877.8000      8.1535      2.6117     -0.0011      2.3218     22.0447    111.7309
   877.9000      8.1535      2.5917     -0.0267      3.5354     22.5254    121.2368
   878.0000      8.1516      2.5766      0.0285      4.4459     20.6255    131.0560
   878.1000      8.1516      2.5619     -0.0483      5.3406     18.4395    131.8692
   878.2000      8.1516      2.5590      0.0304      5.5160     18.0003    123.2336
   878.3000      8.1510      2.5687      0.0185      4.9275     19.1456    117.8188
   878.4000      8.1510      2.5773      0.0221      4.4035     20.8849    121.5596
   878.5000      8.1535      2.5818      0.0518      4.1340     22.6594    128.6317
   878.6000      8.1535      2.5991     -0.0074      3.0834     23.5731    132.0809
   878.7000      8.1535      2.6446      0.0529      0.3282     22.5861    131.3587
   878.8000      8.1403      2.7060      0.0976     -3.3937     21.4733    130.4929
   878.9000      8.1403      2.7587      0.1581     -6.5906     21.9499    129.7249
   879.0000      8.1533      2.7804      0.1686     -7.9059     22.7500    122.7028
   879.1000      8.1533      2.7708      0.0821     -7.3233     22.1614    112.8380
   879.2000      8.1533      2.7571      0.1071     -6.4880     22.0346    112.0395
   879.3000      8.1441      2.7528      0.0630     -6.2299     23.4259    119.3347
   879.4000      8.1441      2.7477      0.0540     -5.9207     23.2042    125.7399
   879.5000      8.1608      2.7346      0.0469     -5.1291     20.2783    130.7329
   879.6000      8.1608      2.7153      0.0629     -3.9553     18.8597    134.7377
   879.7000      8.1608      2.6887      0.0190     -2.3465     19.8195    133.4711
   879.8000      8.1576      2.6609      0.0191     -0.6635     20.5262    132.2214
   879.9000      8.1576      2.6331      0.0431      1.0264     19.7102    138.0141
