~Version Information
VERS.                      2.0: CWLS Log ASCII Standard - VERSION 2.0
WRAP.                       NO: One line per depth step
~Well Information Block
STRT.FT              2983.0000: 
STOP.FT              3214.7500: 
STEP.FT                 0.0500: 
NULL.                -999.2500: 
COMP.          Pioner Natural Resources: COMPANY
WELL.              Vespar 43-7: WELL
FLD.           Purgatoire River: FIELD
LOC.           2338' FSL & 1141' FEL------: LOCATION
PROV.                 Colorado: PROVINCE
CNTY.               Las Animas: COUNTRY
SRVC.                         : SERVICE COMPANY
DATE.          Fri Apr 15 15:31:19 2005: LOG DATE
UWI.                          : UNIQUE WELL ID
~Curve Information Block
DEPT.FT            0 000 00 00: Depth
GR.GAPI                       : Gamma Ray
CCL.                          : Casing Collar Locator
TT3.usec                      : CBL 3' Travel Time
AMP3.mV                       : CBL 3' Amplitude
AMP5.mV                       : CBL 5' Amplitude
~Parameter Information Block
~A  Depth        GR         CCL         TT3         AMP3        AMP5    
# ...
  3039.0000     82.7878      0.0000    714.5193      6.0436      1.0802
  3039.0500     82.7878      0.0000    714.5193      6.0436      1.0802
  3039.1000     82.7878      0.0000    714.5193      6.0436      1.0802
  3039.1500     82.7878      0.0000    714.5193      6.0436      1.0802
  3039.2000     82.7878      0.0000    714.5193      6.0436      1.0802
  3039.2500     83.0985      0.0000    717.7095      6.1317      1.0407
  3039.3000     83.0985      0.0000    717.7095      6.1317      1.0407
  3039.3500     83.0985      0.0000    717.7095      6.1317      1.0407
  3039.4000     83.0985      0.0000    717.7095      6.1317      1.0407
  3039.4500     83.0985      0.0000    717.7095      6.1317      1.0407
  3039.5000     83.1696      0.0000    716.2267      6.3669      0.9840
  3039.5500     83.1696      0.0000    716.2267      6.3669      0.9840
  3039.6000     83.1696      0.0000    716.2267      6.3669      0.9840
  3039.6500     83.1696      0.0000    716.2267      6.3669      0.9840
  3039.7000     83.1696      0.0000    716.2267      6.3669      0.9840
  3039.7500     82.2216      0.0000    716.2686      6.7159      0.9395
  3039.8000     82.2216      0.0000    716.2686      6.7159      0.9395
  3039.8500     82.2216      0.0000    716.2686      6.7159      0.9395
  3039.9000     82.2216      0.0000    716.2686      6.7159      0.9395
  3039.9500     82.2216      0.0000    716.2686      6.7159      0.9395
  3040.0000     79.8628      0.0000    715.9643      7.0945      0.9185
  3040.0500     79.8628      1.7090    715.9643      7.0945      0.9185
  3040.1000     79.8628      2.0000    715.9643      7.0945      0.9185
  3040.1500     79.8628      1.0596    715.9643      7.0945      0.9185
  3040.2000     79.8628     -1.3355    715.9643      7.0945      0.9185
  3040.2500     76.7837     -2.0000    710.0753      7.4073      0.9054
  3040.3000     76.7837      0.0000    710.0753      7.4073      0.9054
  3040.3500     76.7837      0.0000    710.0753      7.4073      0.9054
  3040.4000     76.7837      0.0000    710.0753      7.4073      0.9054
  3040.4500     76.7837      0.0000    710.0753      7.4073      0.9054
  3040.5000     74.5294      0.0000    697.2260      7.6199      0.8760
  3040.5500     74.5294      0.0000    697.2260      7.6199      0.8760
  3040.6000     74.5294      0.0000    697.2260      7.6199      0.8760
  3040.6500     74.5294      0.0000    697.2260      7.6199      0.8760
  3040.7000     74.5294      0.0000    697.2260      7.6199      0.8760
  3040.7500     74.2439      0.0000    682.3780      7.7926      0.8252
  3040.8000     74.2439      0.0000    682.3780      7.7926      0.8252
  3040.8500     74.2439      0.0000    682.3780      7.7926      0.8252
  3040.9000     74.2439      0.0000    682.3780      7.7926      0.8252
  3040.9500     74.2439      0.0000    682.3780      7.7926      0.8252
  3041.0000     75.5337      0.0000    672.6804      8.0227      0.7755
  3041.0500     75.5337      0.0000    672.6804      8.0227      0.7755
  3041.1000     75.5337      0.0000    672.6804      8.0227      0.7755
  3041.1500     75.5337      0.0000    672.6804      8.0227      0.7755
  3041.2000     75.5337      0.0000    672.6804      8.0227      0.7755
  3041.2500     76.8040      0.0000    671.3978      8.3350      0.7583
  3041.3000     76.8040      0.0000    671.3978      8.3350      0.7583
  3041.3500     76.8040      0.0000    671.3978      8.3350      0.7583
  3041.4000     76.8040      0.0000    671.3978      8.3350      0.7583
  3041.4500     76.8040      0.0000    671.3978      8.3350      0.7583
  3041.5000     76.9246      0.0000    676.2467      8.6454      0.7887
  3041.5500     76.9246      0.0000    676.2467      8.6454      0.7887
  3041.6000     76.9246      0.0000    676.2467      8.6454      0.7887
  3041.6500     76.9246      0.0000    676.2467      8.6454      0.7887
  3041.7000     76.9246      0.0000    676.2467      8.6454      0.7887
  3041.7500     76.3107      0.0000    682.8499      8.8454      0.8617
  3041.8000     76.3107      0.0000    682.8499      8.8454      0.8617
  3041.8500     76.3107      0.0000    682.8499      8.8454      0.8617
  3041.9000     76.3107      0.0000    682.8499      8.8454      0.8617
  3041.9500     76.3107      0.0000    682.8499      8.8454      0.8617
  3042.0000     76.1656      0.0000    688.2968      8.8906      0.9641
  3042.0500     76.1656      0.0000    688.2968      8.8906      0.9641
  3042.1000     76.1656      0.0000    688.2968      8.8906      0.9641
  3042.1500     76.1656      0.0000    688.2968      8.8906      0.9641
  3042.2000     76.1656      0.0000    688.2968      8.8906      0.9641
  3042.2500     76.9732      0.0000    691.2537      8.7954      1.0800
  3042.3000     76.9732      0.0000    691.2537      8.7954      1.0800
  3042.3500     76.9732      0.0000    691.2537      8.7954      1.0800
  3042.4000     76.9732      0.0000    691.2537      8.7954      1.0800
  3042.4500     76.9732      0.0000    691.2537      8.7954      1.0800
  3042.5000     77.9992      0.0000    690.3855      8.5990      1.1897
  3042.5500     77.9992      0.0000    690.3855      8.5990      1.1897
  3042.6000     77.9992      0.0000    690.3855      8.5990      1.1897
  3042.6500     77.9992      0.0000    690.3855      8.5990      1.1897
  3042.7000     77.9992      0.0000    690.3855      8.5990      1.1897
  3042.7500     78.1355      0.0000    684.4773      8.3677      1.2738
  3042.8000     78.1355      0.0000    684.4773      8.3677      1.2738
  3042.8500     78.1355      0.0000    684.4773      8.3677      1.2738
  3042.9000     78.1355      0.0000    684.4773      8.3677      1.2738
  3042.9500     78.1355      0.0000    684.4773      8.3677      1.2738
  3043.0000     77.0589      0.0000    674.5379      8.1850      1.3224
  3043.0500     77.0589      0.0000    674.5379      8.1850      1.3224
  3043.1000     77.0589      0.0000    674.5379      8.1850      1.3224
  3043.1500     77.0589      0.0000    674.5379      8.1850      1.3224
  3043.2000     77.0589      0.0000    674.5379      8.1850      1.3224
  3043.2500     75.5191      0.0000    664.9406      8.1041      1.3375
  3043.3000     75.5191      0.0000    664.9406      8.1041      1.3375
  3043.3500     75.5191      0.0000    664.9406      8.1041      1.3375
  3043.4000     75.5191      0.0000    664.9406      8.1041      1.3375
  3043.4500     75.5191      0.0000    664.9406      8.1041      1.3375
  3043.5000     74.5944      0.0000    660.9036      8.1245      1.3274
  3043.5500     74.5944      0.0000    660.9036      8.1245      1.3274
  3043.6000     74.5944      0.0000    660.9036      8.1245      1.3274
  3043.6500     74.5944      0.0000    660.9036      8.1245      1.3274
  3043.7000     74.5944      0.0000    660.9036      8.1245      1.3274
  3043.7500     74.7654      0.0000    663.6467      8.2229      1.3011
  3043.8000     74.7654      0.0000    663.6467      8.2229      1.3011
  3043.8500     74.7654      0.0000    663.6467      8.2229      1.3011
  3043.9000     74.7654      0.0000    663.6467      8.2229      1.3011
  3043.9500     74.7654      0.0000    663.6467      8.2229      1.3011
  3044.0000     75.7096      0.0000    668.5327      8.3918      1.2646
  3044.0500     75.7096      0.0000    668.5327      8.3918      1.2646
  3044.1000     75.7096      0.0000    668.5327      8.3918      1.2646
  3044.1500     75.7096      0.0000    668.5327      8.3918      1.2646
  3044.2000     75.7096      0.0000    668.5327      8.3918      1.2646
  3044.2500     76.8785      0.0000    669.1473      8.6387      1.2188
  3044.3000     76.8785      0.0000    669.1473      8.6387      1.2188
  3044.3500     76.8785      0.0000    669.1473      8.6387      1.2188
  3044.4000     76.8785      0.0000    669.1473      8.6387      1.2188
  3044.4500     76.8785      0.0000    669.1473      8.6387      1.2188
  3044.5000     78.1234      0.0000    663.1299      8.9575      1.1616
  3044.5500     78.1234      0.0000    663.1299      8.9575      1.1616
