~Version Information
VERS.                      2.0: CWLS Log ASCII Standard - VERSION 2.0
WRAP.                       NO: One line per depth step
~Well Information Block
STRT.FT                -9.2500: 
STOP.FT              2685.7500: 
STEP.FT                 0.2500: 
NULL.                -999.2500: 
COMP.          Pioneer Natural Resources: COMPANY
WELL.          Beacon 11-18 Tr: WELL
FLD.           Purgatorie River: FIELD
LOC.           409' FNL & 203' FWL--: LOCATION
PROV.                       CO: PROVINCE
CNTY.               Las Animas: COUNTRY
SRVC.                         : SERVICE COMPANY
DATE.          Fri Jan 21 09:45:44 2005: LOG DATE
UWI.        005 071 08251  : UNIQUE WELL ID
~Curve Information Block
DEPT.FT            0 000 00 00: Depth
CCL.                          : Casing Collar Locator
TT3.usec                      : CBL 3' Travel Time
AMP3.mV                       : CBL 3' Amplitude
GR.GAPI                       : Gamma Ray
~Parameter Information Block
~A  Depth       CCL         TT3         AMP3         GR     
# ...
  1933.7500      0.0000    606.3086      5.9495     93.9146
  1934.0000      0.0000    649.8475      5.8775    103.4585
  1934.2500      0.0000    677.2396      5.8226    111.9768
  1934.5000      0.0000    690.6917      5.7697    118.6557
  1934.7500      0.0000    695.0868      5.7254    123.2641
  1935.0000      0.0000    696.1971      5.7030    126.1501
  1935.2500      0.0000    698.4695      5.7060    127.8863
  1935.5000      0.0000    703.4514      5.7266    128.7825
  1935.7500      0.0000    709.9877      5.7602    129.1244
  1936.0000      0.0000    715.7903      5.8169    129.6149
  1936.2500      0.0000    718.9833      5.9041    130.8140
  1936.5000      0.0000    718.7181      5.9949    132.3772
  1936.7500      0.0000    715.0115      6.0330    133.7480
  1937.0000      0.0000    708.6899      5.9839    135.3544
  1937.2500      0.0000    701.4166      5.8735    138.0279
  1937.5000      0.0000    695.1158      5.7692    141.2091
  1937.7500      0.0000    691.0095      5.7218    142.8942
  1938.0000      0.0000    689.3486      5.7270    141.8500
  1938.2500      0.0000    690.0165      5.7354    139.0030
  1938.5000      0.0000    692.8793      5.6908    136.0973
  1938.7500      0.0000    697.2668      5.5665    133.5990
  1939.0000      0.0000    701.5001      5.3790    130.3663
  1939.2500      0.0000    703.5804      5.1788    124.9531
  1939.5000      0.0000    702.5344      5.0229    117.1049
  1939.7500      0.0000    699.0366      4.9442    108.5335
  1940.0000      0.0000    694.9903      4.9424    102.3017
  1940.2500      0.0000    692.5922      4.9927    100.9035
  1940.5000      0.0000    693.1002      5.0610    104.6687
  1940.7500      0.0000    695.6423      5.1217    111.9392
  1941.0000      0.0000    697.0964      5.1657    120.4765
  1941.2500      0.0000    693.5068      5.1899    128.4536
  1941.5000      0.0000    682.0052      5.1792    134.5975
  1941.7500      0.0000    662.2057      5.1135    138.2651
  1942.0000      0.0000    637.1469      5.0003    139.6432
  1942.2500      0.0000    613.2426      4.8848    139.4703
  1942.5000      0.0000    597.6649      4.8082    138.3401
  1942.7500      0.0000    594.0062      4.7604    136.5903
  1943.0000      0.0000    600.0523      4.6983    135.0106
  1943.2500      0.0000    610.2050      4.6079    135.1269
  1943.5000      0.0000    620.8091      4.5190    138.1610
  1943.7500      0.0000    632.7695      4.4586    143.4793
  1944.0000      0.0000    647.7552      4.4211    148.3025
  1944.2500      0.0000    662.9565      4.3834    149.5956
  1944.5000      0.0000    672.8704      4.3241    146.6830
  1944.7500      0.0000    675.8997      4.2301    141.8391
  1945.0000      0.0000    675.5214      4.1099    138.1364
  1945.2500      0.0000    674.3960      4.0073    137.0873
  1945.5000      0.0000    670.0521      3.9816    138.5235
  1945.7500      0.0000    657.5471      4.0609    141.7936
  1946.0000      0.0000    635.6060      4.2162    146.1334
  1946.2500      0.0000    609.4927      4.3788    150.3640
  1946.5000      0.0000    587.5311      4.4815    153.2779
  1946.7500      0.0000    574.9337      4.4952    154.2280
  1947.0000      0.0000    571.3671      4.4380    152.9620
  1947.2500      0.0000    573.9753      4.3550    149.7348
  1947.5000      0.0000    581.2826      4.2873    146.0069
  1947.7500      0.0000    593.5920      4.2504    143.9307
  1948.0000      0.0000    610.8986      4.2370    144.3985
  1948.2500      0.0000    631.7187      4.2399    146.1629
  1948.5000      0.0000    653.8273      4.2743    147.3116
  1948.7500      0.0000    675.2148      4.3728    147.2899
  1949.0000      0.0000    694.1783      4.5523    147.1304
  1949.2500      0.0000    709.0190      4.7826    147.8288
  1949.5000      0.0000    718.2712      4.9976    148.9329
  1949.7500      0.0000    721.5040      5.1414    149.1835
  1950.0000      0.0000    719.8372      5.1987    148.3114
  1950.2500      0.0000    715.4856      5.1892    147.3987
  1950.5000      0.0000    710.6284      5.1496    147.4834
  1950.7500      0.0000    706.4879      5.1181    148.6516
  1951.0000      0.0000    702.8732      5.1161    150.5383
  1951.2500      0.0000    698.0294      5.1321    152.8862
  1951.5000      0.0000    688.8375      5.1290    155.1949
  1951.7500      0.0000    671.6784      5.0758    156.3049
  1952.0000      0.0000    644.8467      4.9764    154.9449
  1952.2500      0.0000    612.1592      4.8777    150.9160
  1952.5000      0.0000    583.4249      4.8448    145.6345
  1952.7500      0.0000    568.4485      4.9215    141.2787
  1953.0000      0.0000    570.1843      5.1117    138.9973
  1953.2500      0.0000    585.0422      5.3795    137.6292
  1953.5000      0.0000    607.7896      5.6568    134.5249
  1953.7500      0.0000    633.4023      5.8658    128.2096
  1954.0000      0.0000    656.4285      5.9507    120.1130
  1954.2500      0.0000    672.3708      5.8986    113.5505
  1954.5000      0.0000    679.8201      5.7383    111.3828
  1954.7500      0.0000    680.2330      5.5264    114.4530
  1955.0000      0.0000    675.9406      5.3261    121.1990
  1955.2500      0.0000    668.3809      5.1765    128.6151
  1955.5000      0.0000    657.6486      5.0703    134.5062
  1955.7500      0.0000    644.3455      4.9726    139.0322
  1956.0000      0.0000    632.5367      4.8676    143.6077
  1956.2500      0.0000    629.2539      4.7822    148.7164
  1956.5000      0.0000    639.0422      4.7605    153.5832
  1956.7500      0.0000    659.4490      4.8147    157.5612
  1957.0000      0.0000    683.2090      4.9009    160.7626
  1957.2500      0.0000    704.1492      4.9572    163.3305
  1957.5000      0.0000    719.8018      4.9649    165.1843
  1957.7500      0.0000    729.7043      4.9566    166.6672
  1958.0000      0.0000    733.7251      4.9661    168.3843
  1958.2500      0.0000    732.1187      4.9916    170.2643
  1958.5000      0.0000    725.7758      5.0044    171.6895
  1958.7500      0.0000    716.3277      4.9758    172.5378
  1959.0000      0.0000    706.1857      4.8949    173.1592
  1959.2500      0.0000    697.7419      4.7725    173.3169
  1959.5000      0.0000    692.1398      4.6273    171.8551
  1959.7500      0.0000    689.1279      4.4669    167.4937
  1960.0000      0.0000    688.0092      4.2898    159.6389
  1960.2500      0.0000    688.5251      4.1102    148.5444
  1960.5000      0.0000    691.0613      3.9670    135.1668
  1960.7500      0.0000    696.1600      3.8947    121.0549
  1961.0000      0.0000    703.5096      3.8850    108.0639
  1961.2500      0.0000    711.1650      3.8923     97.7396
  1961.5000      0.0000    716.0466      3.8780     90.7676
  1961.7500      0.0000    715.6064      3.8334     86.8559
  1962.0000      0.0000    709.4755      3.7622     85.1137
  1962.2500      0.0000    699.9207      3.6582     84.6880
  1962.5000      0.0000    690.7633      3.5162     85.0153
  1962.7500      0.0000    685.1384      3.3657     85.3294
  1963.0000      0.0000    683.6097      3.2733     84.3746
  1963.2500      0.0000    684.4957      3.2937     81.2533
  1963.5000      0.0000    686.2491      3.4171     76.3399
  1963.7500      0.0000    688.9774      3.5734     70.9026
  1964.0000      0.0000    693.2155      3.6842     66.0549
  1964.2500      0.0000    698.2338      3.7114     62.3258
  1964.5000      0.0000    702.6871      3.6722     59.9841
  1964.7500      0.0000    706.2108      3.6190     59.5335
  1965.0000      2.0000    709.1334      3.5978     61.8625
  1965.2500      0.0000    710.8574      3.6236     67.8820
  1965.5000      0.0000    709.6320      3.6957     77.9378
  1965.7500      0.0000    704.1227      3.8174     91.1875
  1966.0000      0.0000    694.8154      3.9825    105.2417
  1966.2500      0.0000    684.0301      4.1580    116.7795
  1966.5000      0.0000    674.9332      4.3097    123.4621
  1966.7500      0.0000    670.1570      4.4397    125.6293
  1967.0000      0.0000    670.5591      4.5718    125.8196
