~Version Information
 VERS.                                  2.0 : CWLS LAS VERSION
 WRAP.                                   NO : WRAPING MODE
 SWARE .                 MController 2.5.0J : SOFTWARE VERSION
~Well Information
 WELL.                         State 16-43R : WELL
 COMP.                Petrogulf Corporation : COMPANY
 FLD.                      Purgatoire River : FIELD
 LOC.                NE/SE Sec 16 T33S R67W : LOCATION
 DATE.                             08/09/05 : DATE(S) LOGGED
 SRVC.       BLANCO Geological Services LLC : SERVICE COMPANY
 STAT.                                   CO : STATE
 CNTY.                           Las Animas : COUNTY
 CTRY.                                  USA : COUNTRY
 API.                       05-071-08338-00 : API NUMBER
 STRT.FT                               0.00 : START DEPTH
 STOP.FT                            1565.00 : STOP DEPTH
 STEP.FT                               1.00 : DEPTH INCREMENT
 NULL.                                -9999 : NULL VALUE
~Curve information
 DEPTH.FT                                   :
 ROP.MIN/FT                                 :
 GAS.UNITS                                  :
~ASCII Log data
         0.0     -9999.00          8.5 
         1.0        24.92          9.2 
         2.0         6.78          8.6 
         3.0         0.37          8.3 
         4.0         4.58          8.5 
         5.0         0.13          8.1 
         6.0         0.13          7.9 
         7.0         0.43          8.1 
         8.0         0.47          7.6 
         9.0         0.35          7.9 
        10.0         0.23          8.0 
        11.0         1.63          8.1 
        12.0         0.70          7.8 
        13.0         0.45          7.7 
        14.0         2.10          8.2 
        15.0         0.23          8.1 
        16.0         0.17          8.0 
        17.0         0.23          8.1 
        18.0         0.22          8.1 
        19.0         0.20          7.6 
        20.0         0.20          8.0 
        21.0         0.20          7.4 
        22.0         0.33          8.1 
        23.0         0.23          8.2 
        24.0         0.27          7.9 
        25.0         0.30          8.1 
        26.0         0.17          7.4 
        27.0         0.23          7.8 
        28.0         0.23          7.3 
        29.0         0.17          7.5 
        30.0         0.23          7.7 
        31.0         0.13          7.7 
        32.0         0.10          7.5 
        33.0         0.13          8.2 
        34.0         0.12          7.6 
        35.0         0.17          7.7 
        36.0         0.33          7.9 
        37.0         0.20          7.4 
        38.0         0.23          7.8 
        39.0         0.17          8.0 
        40.0         0.20          7.5 
        41.0         0.20          7.9 
        42.0         0.27          7.4 
        43.0         0.23          7.7 
        44.0         0.20          7.7 
        45.0         0.20          7.9 
        46.0         0.20          7.3 
        47.0         0.23          5.9 
        48.0         0.17          4.0 
        49.0         0.25          4.7 
        50.0         0.27          4.2 
        51.0         0.23          4.3 
        52.0         0.23          4.9 
        53.0         0.23          7.5 
        54.0         0.17          9.9 
        55.0         0.17         11.4 
        56.0         1.87        203.9 
        57.0         0.25         86.1 
        58.0         0.27         59.7 
        59.0         0.27         42.6 
        60.0         0.33         31.9 
        61.0         0.37         20.8 
        62.0         0.20         15.2 
        63.0         0.33         14.0 
        64.0         0.20         12.4 
        65.0         0.43         11.8 
        66.0         0.23         11.5 
        67.0         0.35         11.7 
        68.0         0.20         11.5 
        69.0         0.27         11.6 
        70.0         0.27         11.6 
        71.0         0.20         11.8 
        72.0         0.20         11.8 
        73.0         0.23         12.2 
        74.0         0.27         12.1 
        75.0         0.27         12.0 
        76.0         0.27         12.2 
        77.0         0.27         12.1 
        78.0         0.27         11.9 
        79.0         0.23         12.5 
        80.0         0.30         12.0 
        81.0         0.38         12.6 
        82.0         0.40         12.6 
        83.0         0.37         12.9 
        84.0         0.27         12.9 
        85.0         0.33         12.9 
        86.0         1.07         12.7 
        87.0         0.27         12.9 
        88.0         0.35         13.0 
        89.0         0.23         12.9 
        90.0         0.33         12.9 
        91.0         0.30         12.9 
        92.0         0.37         13.0 
        93.0         0.27         13.3 
        94.0         0.23         13.2 
        95.0         0.30         12.8 
        96.0         0.27         13.5 
        97.0         0.30         13.4 
        98.0         0.27         13.2 
        99.0         0.20         13.5 
       100.0         0.28         13.3 
       101.0         0.27         13.3 
       102.0         0.43         13.4 
       103.0         0.23         13.4 
       104.0         0.27         13.6 
       105.0         0.27         13.7 
       106.0         0.30         13.4 
       107.0         0.27         12.9 
       108.0         0.27         12.8 
       109.0         0.27         12.8 
       110.0         0.27         12.5 
       111.0         0.28         12.3 
       112.0         0.23         11.9 
       113.0         0.20         11.6 
       114.0         0.13         11.3 
       115.0         0.20         11.3 
       116.0         0.93         11.5 
       117.0         0.17         10.5 
       118.0         0.17         11.1 
       119.0         0.17         10.7 
       120.0         0.13         11.0 
       121.0         0.13         10.6 
       122.0         0.10         10.7 
       123.0         0.27         10.5 
       124.0         0.13         10.7 
       125.0         0.20         10.1 
       126.0         0.25         10.7 
       127.0         0.20         10.6 
       128.0         0.23         10.4 
       129.0         0.27         10.5 
       130.0         0.23         10.3 
       131.0         0.27         10.6 
       132.0         0.27         10.7 
       133.0         0.27          9.8 
       134.0         0.23         10.4 
       135.0         0.23         10.4 
       136.0         0.20         10.4 
       137.0         0.27         10.0 
       138.0         0.23         10.3 
       139.0         0.20         10.2 
       140.0         0.32         10.6 
       141.0         0.27         10.5 
       142.0         0.30         10.7 
       143.0         0.27         10.5 
       144.0         0.23         10.2 
       145.0         0.23         10.5 
       146.0         0.93         10.6 
       147.0         0.27         10.1 
       148.0         0.27         10.7 
       149.0         0.28         10.7 
       150.0         0.27         10.2 
       151.0         0.30         10.1 
       152.0         0.20         10.6 
       153.0         0.17         10.0 
       154.0         0.40         10.7 
       155.0         0.27         10.7 
       156.0         0.27         10.6 
       157.0         0.27         10.6 
       158.0         0.27         10.6 
       159.0         0.23         10.0 
       160.0         0.27         10.5 
       161.0         0.27         10.6 
       162.0         0.32         10.5 
       163.0         0.27         10.4 
       164.0         0.30         10.3 
       165.0         0.30         10.0 
       166.0         0.27          9.9 
       167.0         0.27         10.2 
       168.0         0.27          9.8 
       169.0         0.27          9.9 
       170.0         0.30         10.0 
       171.0         0.23          9.8 
       172.0         0.30         10.2 
       173.0         0.28         10.2 
       174.0         0.30         10.2 
       175.0         0.27         10.1 
       176.0         0.87         10.0 
       177.0         0.20          9.7 
       178.0         0.27         10.0 
       179.0         0.30         10.1 
       180.0         0.27         10.0 
       181.0         0.27         10.6 
       182.0         0.28         10.6 
       183.0         0.30         10.7 
       184.0         0.33         10.4 
       185.0         0.37          9.9 
       186.0         0.27         10.5 
       187.0         0.27         10.6 
       188.0         0.23         10.1 
       189.0         0.23         10.6 
       190.0         0.23         10.7 
       191.0         0.23         10.5 
       192.0         0.30         10.6 
       193.0         0.27         10.8 
       194.0         0.25         11.0 
       195.0         0.23         10.7 
       196.0         0.23         10.4 
       197.0         0.23         10.9 
       198.0         0.17         10.9 
       199.0         0.13         10.6 
