~Version Information
VERS.                      2.0: CWLS Log ASCII Standard - VERSION 2.0
WRAP.                       NO: One line per depth step
~Well Information Block
STRT.FT               580.0000: 
STOP.FT              2729.7500: 
STEP.FT                 0.2500: 
NULL.                -999.2500: 
COMP.          Pioneer Natural Resources: COMPANY
WELL.          Sand Pebbles 13-33: WELL
FLD.           Purgatoire River: FIELD
LOC.           1883' FSL & 63' FWL----: LOCATION
PROV.                 Colorado: PROVINCE
CNTY.               Las Animas: COUNTRY
SRVC.                Patterson: SERVICE COMPANY
DATE.          Fri Mar 11 13:47:45 2005: LOG DATE
UWI.           05 071 08224 00: UNIQUE WELL ID
~Curve Information Block
DEPT.FT            0 000 00 00: Depth
SN.Ohm-m                      : IEL Short Normal
SP.mV                         : IEL Spontaneous Potential
DIR.Ohm-m                     : IEL Induction Resistivity
GR.GAPI                       : Gamma Ray
~Parameter Information Block
~A  Depth        SN          SP         DIR          GR     
# ...
  2690.5000     13.5704      9.2559     12.0024    120.2644
  2690.7500     13.7347      9.4838     12.0671    122.0616
  2691.0000     13.8211      9.7171     12.1496    126.5046
  2691.2500     13.7884      9.9538     12.2100    130.0797
  2691.5000     13.6352     10.1926     12.2092    135.3703
  2691.7500     13.3763     10.4413     12.1213    138.2023
  2692.0000     13.0237     10.7201     11.9394    140.1829
  2692.2500     12.5919     11.0588     11.6752    139.6748
  2692.5000     12.1110     11.4866     11.3540    137.2733
  2692.7500     11.6275     12.0209     11.0097    135.9730
  2693.0000     11.1965     12.6591     10.6783    136.4538
  2693.2500     10.8742     13.3758     10.3912    138.5201
  2693.5000     10.7100     14.1276     10.1703    142.7368
  2693.7500     10.7306     14.8621     10.0266    145.1598
  2694.0000     10.9198     15.5292      9.9618    147.0729
  2694.2500     11.2150     16.0898      9.9722    146.9802
  2694.5000     11.5311     16.5213     10.0532    144.5132
  2694.7500     11.8010     16.8175     10.2030    141.2678
  2695.0000     12.0080     16.9851     10.4226    134.8383
  2695.2500     12.1939     17.0395     10.7126    130.5269
  2695.5000     12.4411     17.0021     11.0707    125.6543
  2695.7500     12.8324     16.8978     11.4902    123.9150
  2696.0000     13.4008     16.7534     11.9588    123.5768
  2696.2500     14.0950     16.5940     12.4539    124.5476
  2696.5000     14.7867     16.4393     12.9348    126.1154
  2696.7500     15.3190     16.3017     13.3389    125.1139
  2697.0000     15.5743     16.1880     13.5956    115.5940
  2697.2500     15.5295     16.1037     13.6570    101.9420
  2697.5000     15.2677     16.0566     13.5287     72.3598
  2697.7500     14.9309     16.0571     13.2700     50.8328
  2698.0000     14.6391     16.1124     12.9622     24.1136
  2698.2500     14.4334     16.2205     12.6706     12.5370
  2698.5000     14.2769     16.3650     12.4256      3.6536
  2698.7500     14.0981     16.5178     12.2277      1.3474
  2699.0000     13.8422     16.6449     12.0642      0.2281
  2699.2500     13.5025     16.7159     11.9282      0.0563
  2699.5000     13.1282     16.7091     11.8285      0.0031
  2699.7500     12.8093     16.6124     11.7899   -999.2500
  2700.0000     12.6456     16.4190     11.8444   -999.2500
  2700.2500     12.7112     16.1213     12.0201   -999.2500
  2700.5000     13.0301     15.7072     12.3305   -999.2500
  2700.7500     13.5732     15.1598     12.7681   -999.2500
  2701.0000     14.2726     14.4622     13.3050   -999.2500
  2701.2500     15.0520     13.6034     13.9009   -999.2500
  2701.5000     15.8676     12.5862     14.5175   -999.2500
  2701.7500     16.7335     11.4315     15.1336   -999.2500
  2702.0000     17.7001     10.1801     15.7527   -999.2500
  2702.2500     18.7924      8.8889     16.3956   -999.2500
  2702.5000     19.9566      7.6226     17.0828   -999.2500
  2702.7500     21.0655      6.4436     17.8134   -999.2500
  2703.0000     21.9723      5.4025     18.5504   -999.2500
  2703.2500     22.5680      4.5344     19.2202   -999.2500
  2703.5000     22.8023      3.8604     19.7276   -999.2500
  2703.7500     22.6739      3.3935     19.9863   -999.2500
  2704.0000     22.2168      3.1428     19.9509   -999.2500
  2704.2500     21.4993      3.1124     19.6353   -999.2500
  2704.5000     20.6250      3.2978     19.1045   -999.2500
  2704.7500     19.7160      3.6804     18.4486   -999.2500
  2705.0000     18.8768      4.2261     17.7544   -999.2500
  2705.2500     18.1605      4.8852     17.0888   -999.2500
  2705.5000     17.5600      5.5964     16.4943   -999.2500
  2705.7500     17.0312      6.2894     15.9914   -999.2500
  2706.0000     16.5319      6.8914     15.5837   -999.2500
  2706.2500     16.0526      7.3356     15.2650   -999.2500
  2706.5000     15.6216      7.5726     15.0266   -999.2500
  2706.7500     15.2874      7.5813     14.8632   -999.2500
  2707.0000     15.0907      7.3737     14.7739   -999.2500
  2707.2500     15.0417      6.9925     14.7581   -999.2500
  2707.5000     15.1128      6.5013     14.8095   -999.2500
  2707.7500     15.2559      5.9713     14.9110   -999.2500
  2708.0000     15.4315      5.4689     15.0335   -999.2500
  2708.2500     15.6267      5.0458     15.1403   -999.2500
  2708.5000     15.8433      4.7334     15.1956   -999.2500
  2708.7500     16.0639      4.5421     15.1746   -999.2500
  2709.0000     16.2334      4.4652     15.0685   -999.2500
  2709.2500     16.2807      4.4846     14.8827   -999.2500
  2709.5000     16.1655      4.5774     14.6346   -999.2500
  2709.7500     15.9079      4.7178     14.3517   -999.2500
  2710.0000     15.5762      4.8777     14.0688   -999.2500
  2710.2500     15.2499      5.0241     13.8219   -999.2500
  2710.5000     14.9858      5.1212     13.6403   -999.2500
  2710.7500     14.8052      5.1362     13.5409   -999.2500
  2711.0000     14.7014      5.0497     13.5269   -999.2500
  2711.2500     14.6613      4.8644     13.5912   -999.2500
  2711.5000     14.6819      4.6087     13.7205   -999.2500
  2711.7500     14.7701      4.3321     13.8986   -999.2500
  2712.0000     14.9288      4.0953     14.1079   -999.2500
  2712.2500     15.1428      3.9575     14.3288   -999.2500
  2712.5000     15.3770      3.9656     14.5369   -999.2500
  2712.7500     15.5832      4.1454     14.7009   -999.2500
  2713.0000     15.7096      4.4956     14.7827   -999.2500
  2713.2500     15.7098      4.9857     14.7446   -999.2500
  2713.5000     15.5582      5.5599     14.5655   -999.2500
  2713.7500     15.2655      6.1470     14.2554   -999.2500
  2714.0000     14.8823      6.6757     13.8592   -999.2500
  2714.2500     14.4807      7.0894     13.4412   -999.2500
  2714.5000     14.1239      7.3571     13.0609   -999.2500
  2714.7500     13.8435      7.4759     12.7539   -999.2500
  2715.0000     13.6356      7.4675     12.5265   -999.2500
  2715.2500     13.4743      7.3685     12.3635   -999.2500
  2715.5000     13.3336      7.2213     12.2417   -999.2500
  2715.7500     13.2058      7.0665     12.1443   -999.2500
  2716.0000     13.1101      6.9370     12.0702   -999.2500
  2716.2500     13.0862      6.8534     12.0361   -999.2500
  2716.5000     13.1734      6.8187     12.0707   -999.2500
  2716.7500     13.3862      6.8145     12.2821   -999.2500
  2717.0000     13.6998      6.8016     12.5384   -999.2500
  2717.2500     14.0548      6.7286     12.9162   -999.2500
  2717.5000     14.3828      6.5477     13.3906   -999.2500
  2717.7500     14.6429      6.2342     13.9143   -999.2500
  2718.0000     14.8460      5.8008     14.4297   -999.2500
  2718.2500     15.0461      5.3009     14.8885   -999.2500
  2718.5000     15.2955      4.8178     15.2638   -999.2500
  2718.7500     15.5933      4.4444     15.5544   -999.2500
  2719.0000     15.8704      4.2598     15.7848   -999.2500
  2719.2500     16.0295      4.3131     16.0223   -999.2500
  2719.5000     16.0099      4.6159     16.4149   -999.2500
  2719.7500     15.8247      5.1457     17.2413   -999.2500
  2720.0000     15.5445      5.8521     18.9846   -999.2500
  2720.2500     15.2502      6.6639     22.2281   -999.2500
  2720.5000     14.9938      7.4950     29.2676   -999.2500
  2720.7500     14.7886      8.2516     44.8406   -999.2500
  2721.0000     14.6226      8.8441     88.3101   -999.2500
  2721.2500     14.4844      9.2030    367.3996   -999.2500
  2721.5000     14.3871      9.2936 100000.0000   -999.2500
  2721.7500     14.3757      9.1243 100000.0000   -999.2500
  2722.0000     14.5098      8.7431 100000.0000   -999.2500
  2722.2500     14.8305      8.2244 100000.0000   -999.2500
  2722.5000     15.3288      7.6497 100000.0000   -999.2500
  2722.7500     15.9329      7.0886 100000.0000   -999.2500
  2723.0000     16.5259      6.5852 100000.0000   -999.2500
  2723.2500     16.9897      6.1516 100000.0000   -999.2500
  2723.5000     17.2545      5.7687 100000.0000   -999.2500
  2723.7500     17.3192      5.3941 100000.0000   -999.2500
