~Version Information
VERS.                      2.0: CWLS Log ASCII Standard - VERSION 2.0
WRAP.                       NO: One line per depth step
~Well Information Block
STRT.FT               241.5000: 
STOP.FT              2340.7500: 
STEP.FT                 0.2500: 
NULL.                -999.2500: 
COMP.          Petrogulf Corporation: COMPANY
WELL.            Montoya 1-24V: WELL
FLD.           Purgatorie River: FIELD
LOC.           605' FSL & 2557' FWL: LOCATION
CNTY.               Las Animas: COUNTY
SRVC.                         : SERVICE COMPANY
DATE.          Tue Nov 30 10:28:39 2004: LOG DATE
UWI.           05 071 08194 00: UNIQUE WELL ID
STAT.                 Colorado: STATE
~Curve Information Block
DEPT.FT            0 000 00 00: Depth
GR.GAPI                       : Gamma Ray
CCL.                          : Casing Collar Locator
TT3.usec                      : CBL 3' Travel Time
AMP3.mV                       : CBL 3' Amplitude
~Parameter Information Block
~A  Depth        GR         CCL         TT3         AMP3    
# ...
   643.5000    138.7328      0.0000    685.3585     10.5171
   643.7500    135.7048      0.0000    689.0668     10.4004
   644.0000    131.1680      0.0000    695.6423     10.2630
   644.2500    126.0452      0.0000    703.8601     10.1394
   644.5000    119.9599      0.0000    710.6552     10.0893
   644.7500    112.1631      0.0000    713.4859     10.1472
   645.0000    103.0968      0.0000    712.7961     10.2966
   645.2500     94.4496      0.0000    711.3255     10.4794
   645.5000     87.5842      0.0000    711.1551     10.6267
   645.7500     82.4044      0.0000    712.3411     10.6975
   646.0000     78.0316      0.0000    713.8715     10.6994
   646.2500     74.3795      0.0000    714.5284     10.6758
   646.5000     72.6360      0.0000    713.0817     10.6773
   646.7500     74.0218      0.0000    709.1389     10.7290
   647.0000     78.1135      0.0000    704.0798     10.8041
   647.2500     82.4912      0.0000    700.2254     10.8378
   647.5000     84.2654      0.0000    698.8383     10.7905
   647.7500     82.2270      0.0000    699.4572     10.6952
   648.0000     77.7261      0.0000    701.1507     10.6306
   648.2500     73.5189      0.0000    703.6855     10.6481
   648.5000     71.6201      0.0000    707.2538     10.7354
   648.7500     71.9374      0.0000    711.5964     10.8456
   649.0000     72.6797      0.0000    715.6148     10.9298
   649.2500     71.9675      0.0000    717.7346     10.9381
   649.5000     69.2227      0.0000    717.1422     10.8196
   649.7500     65.3899      0.0000    715.2834     10.5581
   650.0000     62.1001      0.0000    716.0115     10.2066
   650.2500     60.5006      0.0000    723.0157      9.8610
   650.5000     60.4964      0.0000    735.7133      9.5898
   650.7500     60.9794      0.0000    747.5952      9.4001
   651.0000     60.9749      0.0000    750.2028      9.2689
   651.2500     60.5792      0.0000    740.0878      9.1814
   651.5000     60.5903      0.0000    721.5520      9.1359
   651.7500     61.3853      0.0000    702.4177      9.1358
   652.0000     62.5493      0.0000    688.2454      9.1909
   652.2500     63.5096      0.0000    680.5757      9.3232
   652.5000     64.2025      0.0000    678.5143      9.5525
   652.7500     65.2293      0.0000    680.2460      9.8649
   653.0000     67.6107      0.0000    683.3906     10.2114
   653.2500     72.1612      0.0000    685.4736     10.5520
   653.5000     78.8587      0.0000    685.2684     10.8824
   653.7500     86.9724      0.0000    683.8951     11.1793
   654.0000     95.7750      0.0000    684.6442     11.3293
   654.2500    104.7780      0.0000    691.2919     11.1667
   654.5000    113.3389      0.0000    705.0202     10.6202
   654.7500    120.4831      0.0000    721.7648      9.8099
   655.0000    125.0545      0.0000    734.2645      8.9780
   655.2500    125.8008      0.0000    739.0009      8.3204
   655.5000    121.7508     -3.0000    740.3095      7.8859
   655.7500    113.1200     -3.0000    745.6780      7.6102
   656.0000    101.8599     -3.0000    757.1860      7.4152
   656.2500     91.0466      0.0000    768.5923      7.2771
   656.5000     83.5073      0.0000    770.7949      7.2241
   656.7500     80.7679      0.0000    759.8220      7.2923
   657.0000     82.8923      0.0000    739.5659      7.4990
   657.2500     88.9941      0.0000    717.6227      7.8562
   657.5000     97.8736      0.0000    699.7373      8.3914
   657.7500    108.3654      0.0000    687.8664      9.1140
   658.0000    119.2963      0.0000    681.4026      9.9605
   658.2500    129.2090      0.0000    678.8603     10.8128
   658.5000    136.2120      0.0000    678.9360     11.5895
   658.7500    138.4863      0.0000    680.8638     12.2900
   659.0000    135.5020      0.0000    684.0054     12.9392
   659.2500    129.0359      0.0000    687.1831     13.5096
   659.5000    122.5313      0.0000    688.8430     13.9073
   659.7500    118.8400      0.0000    688.2094     14.0396
   660.0000    118.4307      0.0000    686.0219     13.9025
   660.2500    119.6235      0.0000    683.7969     13.5977
   660.5000    120.2274      0.0000    682.5201     13.2551
   660.7500    119.1640      0.0000    682.2221     12.9472
   661.0000    117.0794      0.0000    682.4739     12.6876
   661.2500    115.6036      0.0000    682.9487     12.4846
   661.5000    115.9913      0.0000    683.6752     12.3598
   661.7500    118.3533      0.0000    685.2144     12.3146
   662.0000    121.7794      0.0000    688.9171     12.3108
   662.2500    125.0451      0.0000    696.8127     12.2964
   662.5000    127.5428      0.0000    710.1202     12.2375
   662.7500    129.4681      0.0000    726.6075     12.1285
   663.0000    130.7455      0.0000    739.8386     11.9921
   663.2500    130.1060      0.0000    743.0652     11.8712
   663.5000    125.8459      0.0000    734.8198     11.8063
   663.7500    117.7461      0.0000    719.9124     11.8083
   664.0000    108.0855      0.0000    705.0285     11.8510
   664.2500    100.3927      0.0000    694.3914     11.8892
   664.5000     96.9552      0.0000    689.1785     11.8848
   664.7500     97.5474      0.0000    689.2494     11.8231
   665.0000    100.4412      0.0000    694.4187     11.7194
   665.2500    104.2267      0.0000    704.3199     11.6181
   665.5000    108.5158      0.0000    717.6413     11.5776
   665.7500    113.1611      0.0000    732.0677     11.6269
   666.0000    117.3570      0.0000    745.3578     11.7192
   666.2500    120.0032      0.0000    756.5616     11.7577
   666.5000    120.8343      0.0000    765.9574     11.6919
   666.7500    120.6305      0.0000    773.7892     11.5701
   667.0000    120.3434      0.0000    779.5193     11.4738
   667.2500    120.4627      0.0000    782.6010     11.4398
   667.5000    120.9777      0.0000    783.4683     11.4638
   667.7500    121.4429      0.0000    783.2579     11.5379
   668.0000    121.3783      0.0000    782.8056     11.6513
   668.2500    121.0382      0.0000    782.2659     11.7732
   668.5000    121.2436      0.0000    781.4149     11.8589
   668.7500    121.9885      0.0000    780.0374     11.8784
   669.0000    122.0399      0.0000    778.4528     11.8318
   669.2500    120.6349      0.0000    777.8834     11.7266
   669.5000    118.9650      0.0000    779.7534     11.5414
   669.7500    119.1387      0.0000    784.1523     11.2413
   670.0000    121.8414      0.0000    789.1165     10.8507
   670.2500    125.5166      0.0000    791.9839     10.4898
   670.5000    127.8796      0.0000    791.9963     10.3183
   670.7500    127.9952      0.0000    791.7786     10.4352
   671.0000    126.9053      0.0000    795.9282     10.8043
   671.2500    126.4111      0.0000    807.3903     11.2411
   671.5000    127.3142      0.0000    824.3903     11.5065
   671.7500    128.9174      0.0000    840.7467     11.4806
   672.0000    130.0814      0.0000    849.9437     11.2529
   672.2500    130.3236      0.0000    850.1306     11.0156
   672.5000    129.7483      0.0000    845.7820     10.9008
   672.7500    128.4378      0.0000    844.3707     10.9468
   673.0000    126.3452      0.0000    850.5560     11.1439
   673.2500    123.6234      0.0000    862.2440     11.4276
   673.5000    120.8133      0.0000    871.1487     11.6618
   673.7500    118.7241      0.0000    867.8917     11.7207
   674.0000    118.1505      0.0000    849.3712     11.5969
   674.2500    119.4139      0.0000    823.1865     11.3942
   674.5000    122.0430      0.0000    803.5170     11.2302
   674.7500    125.0301      0.0000    800.2055     11.1714
   675.0000    127.3927      0.0000    811.6113     11.2315
   675.2500    128.4355      0.0000    828.6927     11.3904
   675.5000    127.8166      0.0000    843.8637     11.6131
   675.7500    125.7754      0.0000    853.8793     11.8598
   676.0000    123.0775      0.0000    857.1873     12.0837
   676.2500    120.3149      0.0000    853.1585     12.2329
   676.5000    117.3557      0.0000    843.3596     12.2800
   676.7500    113.8521      0.0000    830.6843     12.2521
