~Version Information
VERS.                      2.0: CWLS Log ASCII Standard - VERSION 2.0
WRAP.                       NO: One line per depth step
~Well Information Block
STRT.FT                -4.0000: 
STOP.FT              2638.2500: 
STEP.FT                 0.2500: 
NULL.                -999.2500: 
COMP.          Petrogulf Corporation: COMPANY
WELL.            Montoya 6-14V: WELL
FLD.           Purgatorie River: FIELD
LOC.           318' FSL & 882' FWL--: LOCATION
PROV.                       CO: PROVINCE
CNTY.               Las Animas: COUNTRY
SRVC.                         : SERVICE COMPANY
DATE.          Mon May 02 08:32:04 2005: LOG DATE
UWI.      005 071 08020: UNIQUE WELL ID
~Curve Information Block
DEPT.FT            0 000 00 00: Depth
AMP3.mV                       : CBL 3' Amplitude
CCL.                          : Casing Collar Locator
GR.GAPI                       : Gamma Ray
TT3.usec                      : CBL 3' Travel Time
~Parameter Information Block
~A  Depth       AMP3        CCL          GR         TT3     
# ...
  2441.5000      2.7256      0.0000     74.8871    717.5687
  2441.7500      2.6298     -2.0000     77.7702    719.1852
  2442.0000      2.6139      0.0000     83.9464    716.0774
  2442.2500      2.5714      0.0000     92.0669    711.3180
  2442.5000      2.4380      0.0000    100.4461    707.5674
  2442.7500      2.2633      0.0000    107.4050    705.3301
  2443.0000      2.1583      0.0000    111.4439    703.1766
  2443.2500      2.1875      0.0000    111.7060    699.0878
  2443.5000      2.3192      0.0000    108.5432    691.9612
  2443.7500      2.4597      0.0000    103.4833    682.6781
  2444.0000      2.5196      0.0000     98.3765    674.0605
  2444.2500      2.4537      0.0000     94.4014    669.4876
  2444.5000      2.2653      0.0000     91.8343    670.9424
  2444.7500      1.9973      0.0000     90.5042    677.6835
  2445.0000      1.7257      0.0000     90.0730    686.4412
  2445.2500      1.5478      0.0000     89.8538    693.3722
  2445.5000      1.5496      0.0000     88.8833    696.5620
  2445.7500      1.7588      0.0000     86.5865    696.9189
  2446.0000      2.1142      0.0000     83.3110    696.8378
  2446.2500      2.4929      0.0000     79.9965    698.4700
  2446.5000      2.7838      0.0000     77.4087    702.9929
  2446.7500      2.9455      0.0000     75.9152    710.3367
  2447.0000      2.9980      0.0000     75.9175    718.8661
  2447.2500      2.9690      0.0000     77.9030    725.8651
  2447.5000      2.8666      0.0000     81.6015    729.1191
  2447.7500      2.7107      0.0000     85.5175    728.2463
  2448.0000      2.5692      0.0000     87.9987    724.8889
  2448.2500      2.5292      0.0000     88.7102    722.0646
  2448.5000      2.6263      0.0000     88.6028    722.5512
  2448.7500      2.8282      0.0000     88.6264    726.6611
  2449.0000      3.0860      0.0000     89.0851    731.7028
  2449.2500      3.3679      0.0000     90.0337    734.3092
  2449.5000      3.6399      0.0000     91.4892    732.9702
  2449.7500      3.8476      0.0000     93.0686    728.0002
  2450.0000      3.9298      0.0000     93.9928    720.2266
  2450.2500      3.8389      0.0000     93.7463    710.8591
  2450.5000      3.5594      0.0000     92.5137    701.9302
  2450.7500      3.1367      0.0000     90.8247    695.5698
  2451.0000      2.6848      0.0000     89.0568    692.6056
  2451.2500      2.3279      0.0000     87.5808    692.3110
  2451.5000      2.1176      0.0000     87.0053    693.6176
  2451.7500      2.0174      0.0000     87.4558    696.2773
  2452.0000      1.9677      0.0000     87.6161    700.7020
  2452.2500      1.9555      0.0000     85.4648    706.8815
  2452.5000      2.0223      0.0000     80.2837    713.7368
  2452.7500      2.2167      0.0000     73.4329    719.6884
  2453.0000      2.5447      0.0000     67.1923    723.6982
  2453.2500      2.9549      0.0000     63.2368    725.5541
  2453.5000      3.3635      0.0000     61.8522    725.3425
  2453.7500      3.6988      0.0000     62.0294    723.1816
  2454.0000      3.9363      0.0000     62.4860    719.7241
  2454.2500      4.1089      0.0000     62.7942    716.5270
  2454.5000      4.2848      0.0000     63.2822    715.4456
  2454.7500      4.5184      0.0000     64.0122    717.2542
  2455.0000      4.8018      0.0000     64.5550    720.3907
  2455.2500      5.0706      0.0000     64.8881    721.2626
  2455.5000      5.2577      0.0000     65.7867    716.9952
  2455.7500      5.3287      0.0000     67.8253    708.3795
  2456.0000      5.2712      0.0000     70.3844    699.2861
  2456.2500      5.0786      0.0000     72.1861    693.0131
  2456.5000      4.7592      0.0000     72.6732    690.1480
  2456.7500      4.3484      0.0000     72.3391    689.8376
  2457.0000      3.9007      0.0000     71.6244    691.7218
  2457.2500      3.4715      0.0000     70.1800    696.1663
  2457.5000      3.0952      0.0000     67.7111    703.0648
  2457.7500      2.7672      0.0000     65.0376    710.6027
  2458.0000      2.4600      0.0000     63.5582    715.6018
  2458.2500      2.1714      0.0000     63.7435    715.8297
  2458.5000      1.9388      0.0000     64.6866    711.9032
  2458.7500      1.7895      0.0000     65.2302    706.3981
  2459.0000      1.6996      0.0000     65.1729    701.5168
  2459.2500      1.6273      0.0000     65.3014    698.1340
  2459.5000      1.5731      0.0000     66.6209    696.3623
  2459.7500      1.5868      0.0000     69.5925    696.0172
  2460.0000      1.7157      0.0000     73.6045    696.6350
  2460.2500      1.9492      0.0000     77.0620    697.5751
  2460.5000      2.2166      0.0000     78.6702    698.2648
  2460.7500      2.4464      0.0000     78.9777    698.3231
  2461.0000      2.6230      0.0000     80.0931    697.6577
  2461.2500      2.7698      0.0000     83.5191    696.5911
  2461.5000      2.8936      0.0000     88.6839    695.8455
  2461.7500      2.9864      0.0000     93.7501    696.2822
  2462.0000      3.0641      0.0000     97.2011    698.4898
  2462.2500      3.1509      0.0000     98.2336    702.3334
  2462.5000      3.2202      0.0000     96.2500    706.7082
  2462.7500      3.1960      0.0000     90.8295    709.9655
  2463.0000      3.0277      0.0000     82.3978    711.1375
  2463.2500      2.7519      0.0000     72.6273    710.8582
  2463.5000      2.4759      0.0000     63.7737    710.6646
  2463.7500      2.3060      0.0000     57.5395    711.4553
  2464.0000      2.2853      0.0000     54.6719    713.1753
  2464.2500      2.3855      0.0000     55.1733    715.6297
  2464.5000      2.5465      0.0000     58.2774    718.6446
  2464.7500      2.7259      0.0000     62.5657    721.5145
  2465.0000      2.9211      0.0000     66.8153    723.1608
  2465.2500      3.1578      0.0000     70.7656    722.9562
  2465.5000      3.4588      0.0000     74.7683    721.3079
  2465.7500      3.8242      0.0000     78.8653    719.8560
  2466.0000      4.2244      0.0000     82.6581    720.8913
  2466.2500      4.5891      0.0000     86.0620    725.4074
  2466.5000      4.8213      0.0000     89.6290    731.5941
  2466.7500      4.8731      0.0000     93.6887    736.2986
  2467.0000      4.8145      0.0000     97.4121    737.9471
  2467.2500      4.7852      0.0000     99.2858    737.2018
  2467.5000      4.8646      0.0000     98.6186    735.4446
  2467.7500      5.0073      0.0000     96.2688    733.7935
  2468.0000      5.0931      0.0000     93.8411    733.0054
  2468.2500      5.0225      0.0000     92.3772    732.9958
  2468.5000      4.7856      0.0000     91.6385    732.8566
  2468.7500      4.4662      0.0000     90.3203    732.3723
  2469.0000      4.1834      0.0000     87.1650    732.7700
  2469.2500      4.0254      0.0000     82.4438    734.7620
  2469.5000      4.0200      0.0000     78.4008    736.7305
  2469.7500      4.1282      0.0000     77.7733    736.4617
  2470.0000      4.2572      0.0000     81.5696    734.2606
  2470.2500      4.3185      0.0000     88.2668    732.8353
  2470.5000      4.2933      0.0000     95.0172    733.8166
  2470.7500      4.2202      0.0000     99.3518    735.3122
  2471.0000      4.1198      0.0000    100.0539    733.4455
  2471.2500      3.9667      0.0000     97.3084    726.1368
  2471.5000      3.7453      0.0000     92.4632    715.4588
  2471.7500      3.5075      0.0000     87.0493    706.6743
  2472.0000      3.3535      0.0000     81.5087    704.8075
  2472.2500      3.3578      0.0000     75.2029    711.4693
  2472.5000      3.5144      2.0000     67.7987    724.5793
  2472.7500      3.7413      2.0000     60.1506    740.6484
  2473.0000      3.9303      0.0000     53.6196    756.6255
  2473.2500      4.0115      0.0000     48.9805    769.6682
  2473.5000      4.0019      0.0000     46.2146    776.5405
  2473.7500      3.9977      0.0000     44.9914    774.5363
  2474.0000      4.0953      0.0000     44.9930    763.2413
  2474.2500      4.2979      0.0000     45.8596    745.4724
  2474.5000      4.5036      0.0000     47.1701    726.6072
  2474.7500      4.5952      0.0000     48.6418    712.5804
