~Version Information
VERS.                      2.0: CWLS Log ASCII Standard - VERSION 2.0
WRAP.                       NO: One line per depth step
~Well Information Block
STRT.FT               870.0000: 
STOP.FT              2517.5000: 
STEP.FT                 0.1000: 
NULL.                -999.2500: 
COMP.          Pioneer Natural Resources: COMPANY
WELL.              Tiaga 23-14: WELL
FLD.           Purgatoire River: FIELD
LOC.           2168' FSL & 2030' FWL: LOCATION
PROV.                 Colorado: PROVINCE
CNTY.               Las Animas: COUNTRY
SRVC.                         : SERVICE COMPANY
DATE.          Sat May 07 09:09:05 2005: LOG DATE
UWI.           05 071 08329 00: UNIQUE WELL ID
~Curve Information Block
DEPT.FT            0 000 00 00: Depth
LTEN.lb                       : Surface Line Tension
DCAL.in                       : CDL Caliper
RHOC.g/cc                     : CDL Density Correction
DPOR.pu                       : CDL Density Porosity
GR.GAPI                       : Gamma Ray
NPOR.pu                       : Neutron Porosity
~Parameter Information Block
~A  Depth       LTEN        DCAL        RHOC        DPOR         GR         NPOR    
# ...
  1522.8000    979.5491      7.9258      0.0893      7.1045     55.0964     21.5843
  1522.9000    979.5491      7.9258      0.1170      7.8943     51.5072     21.2233
  1523.0000    965.7591      7.9328      0.0729      8.3266     52.5570     21.1894
  1523.1000    965.7591      7.9328      0.1314      7.3684     54.4240     21.8278
  1523.2000    965.7591      7.9328      0.1207      5.4447     55.6536     22.7640
  1523.3000    986.0653      7.9479      0.1552      3.8681     55.8762     23.3117
  1523.4000    986.0653      7.9479      0.1171      3.3373     55.5878     23.1615
  1523.5000    986.4704      7.9454      0.0825      3.2358     55.7698     22.6917
  1523.6000    986.4704      7.9454      0.0753      2.3525     56.1478     22.3394
  1523.7000    986.4704      7.9454      0.1021      0.4749     56.9104     22.1484
  1523.8000    959.7172      7.9805      0.1135     -1.5437     58.6259     22.2121
  1523.9000    959.7172      7.9805      0.1672     -2.7958     62.8072     22.5078
  1524.0000    992.4465      7.9410      0.1666     -2.6576     68.1207     22.6923
  1524.1000    992.4465      7.9410      0.1244     -1.3198     69.1054     22.5299
  1524.2000    992.4465      7.9410      0.0702     -0.0255     65.7708     22.5686
  1524.3000    976.7290      7.9117      0.1385      0.9167     63.4521     23.4142
  1524.4000    976.7290      7.9117      0.1299      3.1091     65.5126     24.3126
  1524.5000    994.8453      7.9033      0.0380      6.6909     71.4843     24.3715
  1524.6000    994.8453      7.9033      0.0743      9.6729     77.7879     23.9695
  1524.7000    994.8453      7.9033     -0.0034     10.9634     81.3032     23.7598
  1524.8000    981.4496      7.9523      0.0508     10.6824     81.8330     23.6948
  1524.9000    981.4496      7.9523      0.0467      9.3063     80.2445     23.3453
  1525.0000   1018.0485      7.9862      0.0949      7.5852     76.2810     22.8150
  1525.1000   1018.0485      7.9862      0.1094      6.4308     71.0777     22.1528
  1525.2000   1018.0485      7.9862      0.0882      6.1547     67.4464     21.1711
  1525.3000    988.3118      7.9948      0.1106      6.5110     68.3009     20.3611
  1525.4000    988.3118      7.9948      0.0389      7.5415     75.5967     20.0516
  1525.5000   1009.9377      8.0146      0.0314      9.0541     86.2041     20.2951
  1525.6000   1009.9377      8.0146      0.0207     10.4474     94.4361     21.3635
  1525.7000   1009.9377      8.0146      0.0086     10.8653     97.9183     22.9282
  1525.8000   1021.3156      7.9978      0.0250     10.0869     98.6612     24.1733
  1525.9000   1021.3156      7.9978      0.0277      9.3011    100.4374     24.7418
  1526.0000   1016.0615      8.0421      0.0137      9.2171    102.2076     24.4415
  1526.1000   1016.0615      8.0421      0.0270      8.9203     99.9176     23.5101
  1526.2000   1016.0615      8.0421      0.1060      7.9629     94.9329     23.2754
  1526.3000   1051.9203      8.0478      0.0862      7.2578     91.1615     24.5643
  1526.4000   1051.9203      8.0478      0.0766      7.3404     89.5082     26.5241
  1526.5000    986.1359      8.0222      0.0597      7.7115     90.9292     27.7961
  1526.6000    986.1359      8.0222      0.0984      8.1790     96.8272     28.3926
  1526.7000    986.1359      8.0222      0.0701      9.0836    103.8175     28.6319
  1526.8000   1024.4889      8.0415      0.0405      9.6717    107.6091     28.0878
  1526.9000   1024.4889      8.0415      0.1075      9.3129    107.9702     26.9828
  1527.0000    995.7788      8.0260      0.1069      9.1546    107.4541     26.2443
  1527.1000    995.7788      8.0260      0.0367      9.6891    107.5280     26.4195
  1527.2000    995.7788      8.0260      0.0718      9.5661    109.0237     27.0868
  1527.3000   1019.8448      8.0196      0.0979      8.5482    111.9003     27.3074
  1527.4000   1019.8448      8.0196      0.1021      8.2541    112.5633     27.1241
  1527.5000    979.4696      8.0246      0.0684      9.2210    108.5550     27.2773
  1527.6000    979.4696      8.0246      0.1100     10.2112    101.6554     27.8053
  1527.7000    979.4696      8.0246      0.0820     10.5250     98.4493     28.6614
  1527.8000   1007.6253      8.0300      0.0314      9.9288    103.5377     29.7541
  1527.9000   1007.6253      8.0300      0.0882      8.2228    109.4093     30.1082
  1528.0000    976.9166      8.0369      0.0932      6.1441    109.2435     28.9597
  1528.1000    976.9166      8.0369      0.0637      4.3255    106.7431     27.0972
  1528.2000    976.9166      8.0369      0.0473      2.3615    106.1088     26.2159
  1528.3000    977.0355      8.0331      0.0806     -0.0798    108.1804     26.9022
  1528.4000    977.0355      8.0331      0.1128     -2.3980    113.4660     27.9876
  1528.5000   1011.9632      8.0279      0.1372     -3.5388    119.8042     28.2466
  1528.6000   1011.9632      8.0279      0.1468     -2.6296    121.7760     28.0285
  1528.7000   1011.9632      8.0279      0.1304      0.0957    118.6246     27.9765
  1528.8000    930.0407      8.0055      0.0693      3.5299    115.2010     27.7293
  1528.9000    930.0407      8.0055      0.0134      6.5204    114.2671     27.5351
  1529.0000   1036.1984      8.0324     -0.0007      8.2986    114.5694     27.9599
  1529.1000   1036.1984      8.0324     -0.0121      9.1053    117.0106     28.4033
  1529.2000   1036.1984      8.0324      0.0348      9.9065    122.2761     28.4486
  1529.3000    973.7211      8.0432     -0.0179     10.7905    125.2049     28.5865
  1529.4000    973.7211      8.0432      0.0268     11.0291    126.0113     29.3444
  1529.5000   1000.8459      8.0467      0.0146     10.6553    129.4854     30.0499
  1529.6000   1000.8459      8.0467      0.0225     10.0247    132.9362     29.5622
  1529.7000   1000.8459      8.0467      0.0751      9.6145    132.2196     28.6121
  1529.8000   1006.2689      8.0575      0.0672     10.2944    127.5895     28.3831
  1529.9000   1006.2689      8.0575     -0.0185     11.8963    122.3440     28.5173
  1530.0000    960.2828      8.0711      0.0397     13.2378    119.1816     28.2416
  1530.1000    960.2828      8.0711     -0.0374     13.5259    119.1328     27.5606
  1530.2000    960.2828      8.0711      0.0072     12.6464    122.4804     26.9895
  1530.3000   1008.4986      8.0785      0.0703     11.2013    128.9394     26.7294
  1530.4000   1008.4986      8.0785      0.0702      9.6861    134.7893     26.4262
  1530.5000    939.6194      8.1063      0.1199      8.4445    134.9905     26.1095
  1530.6000    939.6194      8.1063      0.0806      8.2545    130.7784     25.9282
  1530.7000    939.6194      8.1063      0.0456      9.3776    128.3277     25.1614
  1530.8000   1049.4108      8.1009      0.0113     10.8037    130.3427     24.0372
  1530.9000   1049.4108      8.1009      0.0268     11.0889    131.8273     24.3587
  1531.0000    968.2682      8.0947      0.0442     10.1523    130.1745     26.1392
  1531.1000    968.2682      8.0947      0.0737      9.4184    129.8501     27.6811
  1531.2000    968.2682      8.0947      0.0309      9.7639    130.5828     28.2248
  1531.3000   1028.9496      8.1039      0.0515     10.5674    129.8253     28.1813
  1531.4000   1028.9496      8.1039      0.0120     11.0819    130.0530     28.1466
  1531.5000   1007.2921      8.1216      0.0089     10.7402    129.9323     27.9725
  1531.6000   1007.2921      8.1216      0.0192      9.3721    126.7475     27.3156
  1531.7000   1007.2921      8.1216      0.0770      8.0941    123.7262     26.6085
  1531.8000    968.2009      8.1095      0.0809      8.1511    124.1477     26.6324
  1531.9000    968.2009      8.1095      0.1000      9.2918    125.9405     27.2392
  1532.0000   1019.9828      8.1122      0.0619     10.2466    125.6465     27.7917
  1532.1000   1019.9828      8.1122      0.0419      9.9646    121.5098     27.6949
  1532.2000   1019.9828      8.1122      0.1186      8.8585    113.7444     27.0107
  1532.3000    927.2836      8.1290      0.1008      8.3179    107.0974     26.6203
