~Version Information
VERS.                      2.0: CWLS Log ASCII Standard - VERSION 2.0
WRAP.                       NO: One line per depth step
~Well Information Block
STRT.FT               265.0000: 
STOP.FT              1214.0000: 
STEP.FT                 0.2500: 
NULL.                -999.2500: 
COMP.          Pioneer Natural Resources: COMPANY
WELL.          Pacheco 33-27 Tr: WELL
FLD.           Purgatoire River: FIELD
LOC.           2251' FSL & 2342' FEL: LOCATION
PROV.                 Colorado: PROVINCE
CNTY.               Las Animas: COUNTRY
SRVC.                Patterson: SERVICE COMPANY
DATE.          Fri Jun 10 13:29:04 2005: LOG DATE
UWI.           05 071 08384 00: UNIQUE WELL ID
~Curve Information Block
DEPT.FT            0 000 00 00: Depth
SN.Ohm-m                      : IEL Short Normal
SP.mV                         : IEL Spontaneous Potential
DIR.Ohm-m                     : IEL Induction Resistivity
GR.GAPI                       : Gamma Ray
~Parameter Information Block
~A  Depth        SN          SP         DIR          GR     
# ...
  1102.5000     12.4411     29.6597     11.1630    102.9818
  1102.7500     12.8425     30.1638     11.0817    102.6135
  1103.0000     13.3135     30.6331     11.1049    100.4547
  1103.2500     13.8377     31.0661     11.2345     98.3565
  1103.5000     14.3329     31.4581     11.4511     95.3424
  1103.7500     14.6944     31.7984     11.7199     93.5018
  1104.0000     14.9389     32.0764     12.0043     89.8662
  1104.2500     15.1673     32.2910     12.2810     86.0241
  1104.5000     15.3946     32.4537     12.5466     77.5509
  1104.7500     15.5593     32.5806     12.8156     70.4864
  1105.0000     15.6894     32.6851     13.1130     59.6596
  1105.2500     15.9629     32.7766     13.4667     53.9047
  1105.5000     16.5965     32.8611     13.9000     49.9460
  1105.7500     17.6636     32.9368     14.4210     50.7181
  1106.0000     19.0060     32.9928     15.0118     54.5896
  1106.2500     20.3199     33.0163     15.6196     56.5595
  1106.5000     21.3369     33.0008     16.1572     55.4875
  1106.7500     21.9687     32.9492     16.5206     51.9456
  1107.0000     22.3450     32.8713     16.6271     44.6829
  1107.2500     22.6995     32.7785     16.4548     40.4672
  1107.5000     23.0939     32.6783     16.0544     38.1397
  1107.7500     23.2505     32.5720     15.5192     40.5110
  1108.0000     22.7829     32.4591     14.9408     50.4608
  1108.2500     21.5669     32.3408     14.3788     60.4098
  1108.5000     19.8528     32.2202     13.8528     77.1661
  1108.7500     18.0667     32.1019     13.3518     87.6792
  1109.0000     16.5059     31.9931     12.8532    100.4035
  1109.2500     15.2204     31.8984     12.3420    106.4205
  1109.5000     14.1576     31.8085     11.8206    111.9645
  1109.7500     13.3288     31.7030     11.3041    113.9241
  1110.0000     12.7883     31.5707     10.8094    115.6562
  1110.2500     12.5164     31.4261     10.3485    116.5503
  1110.5000     12.4222     31.3034      9.9297    117.3564
  1110.7500     12.3887     31.2322      9.5623    117.1440
  1111.0000     12.2798     31.2174      9.2566    115.6300
  1111.2500     12.0617     31.2364      9.0214    114.3224
  1111.5000     11.8482     31.2558      8.8604    113.0204
  1111.7500     11.7234     31.2531      8.7708    112.9161
  1112.0000     11.6579     31.2297      8.7449    113.4554
  1112.2500     11.5949     31.2102      8.7741    113.5533
  1112.5000     11.5091     31.2312      8.8509    112.0668
  1112.7500     11.3890     31.3222      8.9686    109.7614
  1113.0000     11.2485     31.4843      9.1184    105.1955
  1113.2500     11.1885     31.6775      9.2887    102.3970
  1113.5000     11.3250     31.8371      9.4659     99.9153
  1113.7500     11.6490     31.9151      9.6378     99.4791
  1114.0000     12.0597     31.9134      9.7965     99.7652
  1114.2500     12.4588     31.8774      9.9393    100.0534
  1114.5000     12.7667     31.8582     10.0679    100.4172
  1114.7500     12.9447     31.8799     10.1875    100.8095
  1115.0000     13.0411     31.9342     10.3057    101.9717
  1115.2500     13.1474     31.9938     10.4306    103.1935
  1115.5000     13.2850     32.0249     10.5692    105.6568
  1115.7500     13.3866     31.9910     10.7262    107.6765
  1116.0000     13.4037     31.8621     10.9037    111.0830
  1116.2500     13.3645     31.6341     11.1029    113.3599
  1116.5000     13.3147     31.3349     11.3265    116.1602
  1116.7500     13.2917     31.0069     11.5790    117.2207
  1117.0000     13.3615     30.6815     11.8651    117.0433
  1117.2500     13.5645     30.3721     12.1866    115.5164
  1117.5000     13.8436     30.0833     12.5386    110.8336
  1117.7500     14.1160     29.8180     12.9077    106.0993
  1118.0000     14.3694     29.5754     13.2741     97.2746
  1118.2500     14.6370     29.3527     13.6200     91.2226
  1118.5000     14.9465     29.1523     13.9399     84.1334
  1118.7500     15.3444     28.9886     14.2478     81.9126
  1119.0000     15.9277     28.8851     14.5718     83.4524
  1119.2500     16.7844     28.8644     14.9398     87.6179
  1119.5000     17.8549     28.9340     15.3661     96.9827
  1119.7500     18.9191     29.0761     15.8470    103.8335
  1120.0000     19.7838     29.2503     16.3624    112.7267
  1120.2500     20.3941     29.4103     16.8775    117.0764
  1120.5000     20.7975     29.5268     17.3452    121.4645
  1120.7500     21.0774     29.5971     17.7160    123.6418
  1121.0000     21.2687     29.6383     17.9661    127.1140
  1121.2500     21.3503     29.6717     18.1227    129.9483
  1121.5000     21.3177     29.7087     18.2589    134.4146
  1121.7500     21.2335     29.7426     18.4549    136.6812
  1122.0000     21.1956     29.7457     18.7586    137.6167
  1122.2500     21.2475     29.6750     19.1734    136.2934
  1122.5000     21.3755     29.4855     19.6718    132.0949
  1122.7500     21.5751     29.1468     20.2180    128.7139
  1123.0000     21.8582     28.6566     20.7789    124.0237
  1123.2500     22.2681     28.0479     21.3215    121.2491
  1123.5000     22.9002     27.3825     21.8058    116.8765
  1123.7500     23.8415     26.7266     22.1807    113.3353
  1124.0000     25.1004     26.1270     22.3922    106.7902
  1124.2500     26.5667     25.6080     22.4065    101.7823
  1124.5000     27.9974     25.1837     22.2359     94.0310
  1124.7500     29.0960     24.8669     21.9384     89.3158
  1125.0000     29.6575     24.6621     21.5780     84.3304
  1125.2500     29.6247     24.5570     21.1805     83.3446
  1125.5000     29.0162     24.5233     20.7250     86.4105
  1125.7500     27.8916     24.5271     20.1748     91.2351
  1126.0000     26.3834     24.5436     19.5187    100.8461
  1126.2500     24.6581     24.5644     18.7877    107.6558
  1126.5000     22.8654     24.5962     18.0401    117.2506
  1126.7500     21.1769     24.6537     17.3332    122.9489
  1127.0000     19.7765     24.7488     16.7057    130.1201
  1127.2500     18.7571     24.8824     16.1765    133.7611
  1127.5000     18.1007     25.0436     15.7544    137.2863
  1127.7500     17.7236     25.2176     15.4465    138.4196
  1128.0000     17.4871     25.3932     15.2557    138.6059
  1128.2500     17.2859     25.5665     15.1748    137.7217
  1128.5000     17.1685     25.7408     15.1868    134.3792
  1128.7500     17.2591     25.9244     15.2778    130.6260
  1129.0000     17.5800     26.1305     15.4523    123.3992
  1129.2500     18.0606     26.3725     15.7400    118.2790
  1129.5000     18.7077     26.6548     16.1862    110.8243
  1129.7500     19.6345     26.9655     16.8349    105.8180
  1130.0000     20.8803     27.2790     17.7123     97.8501
  1130.2500     22.3309     27.5683     18.8181     92.4942
  1130.5000     23.8641     27.8200     20.1200     85.4826
  1130.7500     25.4493     28.0423     21.5484     81.9601
  1131.0000     27.0341     28.2569     22.9911     78.5447
  1131.2500     28.4573     28.4799     24.2968     77.4589
  1131.5000     29.5563     28.7078     25.2992     77.5624
  1131.7500     30.2628     28.9171     25.8653     78.6186
  1132.0000     30.5841     29.0731     25.9380     81.0594
  1132.2500     30.5354     29.1439     25.5487     82.9145
  1132.5000     30.0794     29.1187     24.7938     85.9200
  1132.7500     29.1745     29.0146     23.7991     88.3032
  1133.0000     27.8885     28.8593     22.6843     93.0988
  1133.2500     26.4181     28.6668     21.5435     97.3433
  1133.5000     24.9670     28.4377     20.4373    104.8159
  1133.7500     23.5920     28.1781     19.3960    109.7210
  1134.0000     22.2152     27.9115     18.4254    115.4745
  1134.2500     20.8076     27.6691     17.5168    117.9086
  1134.5000     19.4657     27.4709     16.6575    120.2047
  1134.7500     18.3134     27.3139     15.8412    121.7506
  1135.0000     17.4289     27.1765     15.0714    125.3871
  1135.2500     16.8195     27.0342     14.3588    128.6937
  1135.5000     16.3749     26.8795     13.7150    133.4879
  1135.7500     15.9339     26.7337     13.1463    135.3839
