~Version Information
VERS.                      2.0: CWLS Log ASCII Standard - VERSION 2.0
WRAP.                       NO: One line per depth step
~Well Information Block
STRT.FT               580.0000: 
STOP.FT              2729.7000: 
STEP.FT                 0.1000: 
NULL.                -999.2500: 
COMP.          Pioneer Natural Resources: COMPANY
WELL.          Sand Pebbles 13-33: WELL
FLD.           Purgatoire River: FIELD
LOC.           1883' FSL & 63' FWL----: LOCATION
PROV.                 Colorado: PROVINCE
CNTY.               Las Animas: COUNTRY
SRVC.                Patterson: SERVICE COMPANY
DATE.          Mon Mar 14 07:33:33 2005: LOG DATE
UWI.           05 071 08224 00: UNIQUE WELL ID
~Curve Information Block
DEPT.FT            0 000 00 00: Depth
DCAL.in                       : CDL Caliper
RHOB.g/cc                     : CDL Bulk Density
RHOC.g/cc                     : CDL Density Correction
DPOR.pu                       : CDL Density Porosity
NPOR.pu                       : Neutron Porosity
GR.GAPI                       : Gamma Ray
~Parameter Information Block
~A  Depth       DCAL        RHOB        RHOC        DPOR        NPOR         GR     
# ...
  1424.8000      8.2057      1.5415     -0.1053     67.1820     33.5430     89.1001
  1424.9000      8.2057      1.6168     -0.0210     62.6154     33.4746     88.7813
  1425.0000      8.2873      1.7323      0.1614     55.6189     32.6331     90.2471
  1425.1000      8.2873      1.8532      0.2100     48.2929     30.6787     91.3641
  1425.2000      8.2873      1.9601      0.2421     41.8130     28.5264     93.0241
  1425.3000      8.3298      2.0550      0.2366     36.0632     26.8099     96.3335
  1425.4000      8.3298      2.1532      0.1799     30.1062     25.8443    102.7844
  1425.5000      8.2689      2.2605      0.2333     23.6081     25.4776    110.0548
  1425.6000      8.2689      2.3625      0.2050     17.4264     24.9384    115.2646
  1425.7000      8.2689      2.4463      0.1673     12.3477     23.9076    117.9738
  1425.8000      8.2122      2.5033      0.1567      8.8890     22.6541    118.7600
  1425.9000      8.2122      2.5285      0.1104      7.3666     21.5459    119.5626
  1426.0000      8.2079      2.5251      0.0729      7.5725     21.0450    120.0366
  1426.1000      8.2079      2.4928      0.0674      9.5245     21.0952    118.4816
  1426.2000      8.2079      2.4190      0.0814     14.0012     21.3796    117.7944
  1426.3000      8.2014      2.3032     -0.0241     21.0164     22.0823    118.5948
  1426.4000      8.2014      2.1721     -0.0142     28.9654     22.9196    116.1164
  1426.5000      8.1364      2.0463     -0.0392     36.5903     22.9646    109.5112
  1426.6000      8.1364      1.9246     -0.0899     43.9664     22.5637    105.0184
  1426.7000      8.1364      1.7985     -0.0910     51.6036     22.7086    104.7818
  1426.8000      8.0489      1.6806     -0.2208     58.7506     23.6697    105.3566
  1426.9000      8.0489      1.6083     -0.1788     63.1359     24.9506    108.1449
  1427.0000      8.0591      1.5941     -0.1098     63.9920     25.8809    114.1238
  1427.1000      8.0591      1.6137     -0.0009     62.8056     26.7894    119.1613
  1427.2000      8.0591      1.6493     -0.0040     60.6493     28.4930    122.7974
  1427.3000      8.0217      1.7084      0.0332     57.0683     30.7046    125.6869
  1427.4000      8.0217      1.7990      0.1466     51.5763     32.4190    124.3444
  1427.5000      7.7347      1.9158      0.2668     44.4985     33.1247    121.4704
  1427.6000      7.7347      2.0431      0.3238     36.7790     33.1418    123.2711
  1427.7000      7.7347      2.1482      0.4000     30.4093     33.1733    126.7278
  1427.8000      7.4566      2.1941      0.4130     27.6290     33.3651    123.7155
  1427.9000      7.4566      2.1802      0.3231     28.4721     33.3359    116.7246
  1428.0000      7.3929      2.1403      0.2713     30.8894     33.2188    113.1389
  1428.1000      7.3929      2.1005      0.2758     33.3025     33.3762    115.9237
  1428.2000      7.3929      2.0751      0.1703     34.8454     33.6257    124.1844
  1428.3000      7.5344      2.0791      0.1860     34.5993     33.8869    129.4852
  1428.4000      7.5344      2.1091      0.2102     32.7827     34.0135    124.2071
  1428.5000      7.7423      2.1389      0.2497     30.9758     33.6624    113.5375
  1428.6000      7.7423      2.1488      0.2513     30.3737     33.3396    106.9014
  1428.7000      7.7423      2.1417      0.2687     30.8072     33.5798    105.7090
  1428.8000      7.8696      2.1171      0.2834     32.2955     33.9884    103.8689
  1428.9000      7.8696      2.0644      0.2364     35.4928     34.0686    100.5477
  1429.0000      7.9185      1.9903      0.1368     39.9797     33.8127    102.2474
  1429.1000      7.9185      1.9190      0.1170     44.3027     33.3235    107.6782
  1429.2000      7.9185      1.8798      0.0673     46.6772     32.9442    110.3177
  1429.3000      8.0402      1.9024      0.1031     45.3070     32.9441    111.7446
  1429.4000      8.0402      1.9813      0.2987     40.5302     32.8236    113.1106
  1429.5000      8.3997      2.0837      0.2919     34.3219     32.5488    111.7895
  1429.6000      8.3997      2.1998      0.3430     27.2840     32.6476    108.0299
  1429.7000      8.3997      2.3246      0.4089     19.7203     32.9429    102.8509
  1429.8000      9.1573      2.4362      0.4518     12.9565     33.0279     99.3723
  1429.9000      9.1573      2.5146      0.4809      8.2086     33.0636    102.8441
  1430.0000     10.3021      2.5480      0.5038      6.1810     33.5159    110.4577
  1430.1000     10.3021      2.5291      0.4734      7.3285     34.6914    111.4449
  1430.2000     10.3021      2.4533      0.4030     11.9191     35.9713    104.0840
  1430.3000     11.3721      2.3215      0.3434     19.9111     36.3563     95.7714
  1430.4000     11.3721      2.1552      0.2156     29.9900     36.0977     88.3535
  1430.5000     12.0927      1.9980      0.1157     39.5178     36.1829     81.2078
  1430.6000     12.0927      1.8762      0.0819     46.8965     36.9231     76.8554
  1430.7000     12.0927      1.7818      0.0472     52.6162     37.7982     75.0492
  1430.8000     12.7373      1.7077      0.0183     57.1071     38.1114     72.7638
  1430.9000     12.7373      1.6622      0.0567     59.8641     37.8514     69.4314
  1431.0000     13.7244      1.6447      0.1351     60.9281     37.5537     65.2041
  1431.1000     13.7244      1.6423      0.1678     61.0736     37.4923     61.1376
  1431.2000     13.7244      1.6433      0.2003     61.0113     37.6420     58.8128
  1431.3000     15.0992      1.6338      0.2222     61.5850     37.9201     59.7350
  1431.4000     15.0992      1.6033      0.1783     63.4369     38.2978     61.5045
  1431.5000     16.4243      1.5571      0.1736     66.2367     38.7154     59.1165
  1431.6000     16.4243      1.5020      0.1561     69.5776     39.1714     52.7862
  1431.7000     16.4243      1.4285      0.1652     74.0329     39.6368     46.4182
  1431.8000     17.1589      1.3318      0.1080     79.8939     39.6952     44.0524
  1431.9000     17.1589      1.2360      0.0381     85.6972     39.2713     45.5766
  1432.0000     17.3531      1.1673      0.0425     89.8596     38.8812     47.2734
  1432.1000     17.3531      1.1264      0.0213     92.3367     38.6281     49.0716
  1432.2000     17.3531      1.1037      0.0264     93.7132     38.4677     51.4148
  1432.3000     17.3356      1.0933      0.0035     94.3433     38.7563     52.1829
  1432.4000     17.3356      1.0965      0.0143     94.1487     39.2073     53.3421
  1432.5000     17.2728      1.1215      0.0073     92.6363     39.1325     56.4461
  1432.6000     17.2728      1.1722      0.0417     89.5620     38.5844     58.2304
  1432.7000     17.2728      1.2368      0.0591     85.6503     38.1894     57.1527
  1432.8000     17.2114      1.3008      0.0804     81.7679     38.4409     55.7990
  1432.9000     17.2114      1.3714      0.0500     77.4901     39.0911     58.0527
  1433.0000     17.1059      1.4608      0.1188     72.0736     39.2722     65.2200
  1433.1000     17.1059      1.5535      0.1825     66.4533     38.6958     73.4530
  1433.2000     17.1059      1.6307      0.1834     61.7784     38.0577     78.2194
  1433.3000     16.8600      1.7017      0.2043     57.4732     37.6674     80.0682
  1433.4000     16.8600      1.7797      0.2026     52.7483     37.3303     81.2310
  1433.5000     16.4473      1.8602      0.2432     47.8660     37.2200     78.2268
  1433.6000     16.4473      1.9463      0.1636     42.6472     37.3641     72.5911
  1433.7000     16.4473      2.0507      0.2913     36.3200     37.5441     73.3784
  1433.8000     15.9745      2.1614      0.3490     29.6103     37.6438     81.1869
  1433.9000     15.9745      2.2534      0.3823     24.0338     37.5147     88.6426
  1434.0000     15.4544      2.3151      0.3842     20.2972     36.9446     94.9466
  1434.1000     15.4544      2.3424      0.3140     18.6435     36.0163    102.5984
  1434.2000     15.4544      2.3229      0.2903     19.8227     35.5896    107.8026
  1434.3000     14.4797      2.2488      0.1929     24.3155     36.1251    107.3702
