~Version Information
VERS.                      2.0: CWLS Log ASCII Standard - VERSION 2.0
WRAP.                       NO: One line per depth step
~Well Information Block
STRT.FT               390.0000: 
STOP.FT              2770.2500: 
STEP.FT                 0.2500: 
NULL.                -999.2500: 
COMP.          Pioneer Natural Resources: COMPANY
WELL.              Lynch 43-30: WELL
FLD.           Purgatoire River: FIELD
LOC.           1438' FSL & 429' FEL: LOCATION
PROV.                 Colorado: PROVINCE
CNTY.               Las Animas: COUNTRY
SRVC.                Patterson: SERVICE COMPANY
DATE.          Wed Oct 27 08:06:51 2004: LOG DATE
UWI.           05 071 08170 00: UNIQUE WELL ID
~Curve Information Block
DEPT.FT            0 000 00 00: Depth
DIR.Ohm-m                     : IEL Induction Resistivity
SN.Ohm-m                      : IEL Short Normal
SP.mV                         : IEL Spontaneous Potential
GR.GAPI                       : Gamma Ray
~Parameter Information Block
~A  Depth       DIR          SN          SP          GR     
# ...
  2735.0000     39.1118     52.9658    216.6349     76.5249
  2735.2500     40.4437     55.1750    215.0623     78.8478
  2735.5000     42.0582     57.3799    213.5366     83.0326
  2735.7500     43.7431     59.4300    212.1362     85.3527
  2736.0000     45.2206     61.1685    210.9503     86.9749
  2736.2500     46.2910     62.5014    210.0662     86.3235
  2736.5000     46.9237     63.4227    209.5530     82.7055
  2736.7500     47.2171     63.9723    209.4463     79.3927
  2737.0000     47.2782     64.1665    209.7386     75.7956
  2737.2500     47.1283     63.9623    210.3785     75.8540
  2737.5000     46.6940     63.2787    211.2771     80.5712
  2737.7500     45.8795     62.0465    212.3192     86.0072
  2738.0000     44.6669     60.2535    213.3779     94.7606
  2738.2500     43.1504     57.9751    214.3295     99.3449
  2738.5000     41.4751     55.3693    215.0688    102.7139
  2738.7500     39.7511     52.6340    215.5215    102.5011
  2739.0000     38.0297     49.9505    215.6521     99.4918
  2739.2500     36.3466     47.4492    215.4650     96.7344
  2739.5000     34.7634     45.2029    214.9975     93.1642
  2739.7500     33.3633     43.2362    214.3070     91.5685
  2740.0000     32.2206     41.5413    213.4566     90.0159
  2740.2500     31.3750     40.0981    212.5036     89.2925
  2740.5000     30.8285     38.8918    211.4971     88.8743
  2740.7500     30.5595     37.9166    210.4834     89.3651
  2741.0000     30.5272     37.1673    209.5156     91.6044
  2741.2500     30.6466     36.6254    208.6613     94.1152
  2741.5000     30.7541     36.2505    208.0015     98.9478
  2741.7500     30.6359     35.9785    207.6211    102.0484
  2742.0000     30.1632     35.7271    207.5942    104.3393
  2742.2500     29.4258     35.4149    207.9699    103.4609
  2742.5000     28.6786     34.9924    208.7636     99.2115
  2742.7500     28.1400     34.4670    209.9560     95.7968
  2743.0000     27.8552     33.8986    211.4966     92.2964
  2743.2500     27.7107     33.3671    213.3103     92.0677
  2743.5000     27.5471     32.9364    215.3047     95.5486
  2743.7500     27.2653     32.6310    217.3774     99.8807
  2744.0000     26.8501     32.4278    219.4244    106.7855
  2744.2500     26.3320     32.2655    221.3502    109.8439
  2744.5000     25.7555     32.0767    223.0788    110.5526
  2744.7500     25.1839     31.8268    224.5614    108.8656
  2745.0000     24.7064     31.5346    225.7801    105.0104
  2745.2500     24.4128     31.2601    226.7460    102.5709
  2745.5000     24.3546     31.0765    227.4932    100.2755
  2745.7500     24.5281     31.0450    228.0702    100.0799
  2746.0000     24.8934     31.2022    228.5294    101.5586
  2746.2500     25.4098     31.5544    228.9134    102.7175
  2746.5000     26.0507     32.0758    229.2410    102.5428
  2746.7500     26.7862     32.7149    229.4982    100.8576
  2747.0000     27.5578     33.4122    229.6395     97.7901
  2747.2500     28.2814     34.1211    229.6026     96.7436
  2747.5000     28.8869     34.8186    229.3288     97.4741
  2747.7500     29.3601     35.4988    228.7820     99.0218
  2748.0000     29.7432     36.1589    227.9593    101.5422
  2748.2500     30.0939     36.7893    226.8910    102.6169
  2748.5000     30.4427     37.3667    225.6357    102.5460
  2748.7500     30.7817     37.8525    224.2735    101.2818
  2749.0000     31.0871     38.2046    222.9007     97.7746
  2749.2500     31.3492     38.3991    221.6219     94.5363
  2749.5000     31.5791     38.4481    220.5397     88.7866
  2749.7500     31.7894     38.3925    219.7417     84.8717
  2750.0000     31.9698     38.2737    219.2884     79.9760
  2750.2500     32.0832     38.1019    219.2071     77.5178
  2750.5000     32.0871     37.8448    219.4922     73.1864
  2750.7500     31.9584     37.4434    220.1123     67.7688
  2751.0000     31.6975     36.8497    221.0163     53.4570
  2751.2500     31.3106     36.0672    222.1385     40.7385
  2751.5000     30.7977     35.1608    223.3996     21.9574
  2751.7500     30.1611     34.2246    224.7062     12.4379
  2752.0000     29.4231     33.3368    225.9533      4.1179
  2752.2500     28.6313     32.5382    227.0322      1.6527
  2752.5000     27.8442     31.8364    227.8421      0.3187
  2752.7500     27.1120     31.2182    228.3018      0.0876
  2753.0000     26.4684     30.6679    228.3575      0.0081
  2753.2500     25.9336     30.1880    227.9819      0.0000
  2753.5000     25.5218     29.8101    227.1676   -999.2500
  2753.7500     25.2430     29.5839    225.9171   -999.2500
  2754.0000     25.0969     29.5553    224.2343   -999.2500
  2754.2500     25.0695     29.7461    222.1200   -999.2500
  2754.5000     25.1391     30.1492    219.5734   -999.2500
  2754.7500     25.2878     30.7365    216.5982   -999.2500
  2755.0000     25.5093     31.4718    213.2146   -999.2500
  2755.2500     25.8053     32.3169    209.4757   -999.2500
  2755.5000     26.1805     33.2315    205.4847   -999.2500
  2755.7500     26.6464     34.1753    201.4068   -999.2500
  2756.0000     27.2322     35.1162    197.4664   -999.2500
  2756.2500     27.9846     36.0382    193.9238   -999.2500
  2756.5000     28.9426     36.9337    191.0329   -999.2500
  2756.7500     30.0956     37.7806    188.9912   -999.2500
  2757.0000     31.3536     38.5192    187.9007   -999.2500
  2757.2500     33.9783     39.0533    187.7557   -999.2500
  2757.5000     35.0686     39.2849    188.4601   -999.2500
  2757.7500     35.8197     39.1656    189.8661   -999.2500
  2758.0000     36.1835     38.7310    191.8136   -999.2500
  2758.2500     36.1561     38.0873    194.1541   -999.2500
  2758.5000     35.7660     37.3546    196.7517   -999.2500
  2758.7500     35.0904     36.6039    199.4718   -999.2500
  2759.0000     34.2477     35.8367    202.1694   -999.2500
  2759.2500     33.3745     35.0157    204.6931   -999.2500
  2759.5000     32.6128     34.1110    206.9058   -999.2500
  2759.7500     32.1694     33.1298    208.7125   -999.2500
  2760.0000     32.4494     32.1326    210.0811   -999.2500
  2760.2500     34.2708     31.2280    211.0436   -999.2500
  2760.5000     39.3858     30.5324    211.6780   -999.2500
  2760.7500     48.7375     30.1154    212.0807   -999.2500
  2761.0000     84.0498     29.9760    212.3422   -999.2500
  2761.2500    427.1783     30.0610    212.5374   -999.2500
  2761.5000 100000.0000     30.2954    212.7304   -999.2500
  2761.7500 100000.0000     30.6030    212.9841   -999.2500
  2762.0000 100000.0000     30.9193    213.3654   -999.2500
  2762.2500 100000.0000     31.2086    213.9371   -999.2500
  2762.5000 100000.0000     31.4824    214.7299   -999.2500
  2762.7500 100000.0000     31.8047    215.7263   -999.2500
  2763.0000 100000.0000     32.2706    216.8194   -999.2500
  2763.2500 100000.0000     32.9608    217.7737   -999.2500
  2763.5000 100000.0000     33.8950    218.1654   -999.2500
  2763.7500 100000.0000     35.0107    217.2994   -999.2500
  2764.0000 100000.0000     36.1821    214.1416   -999.2500
  2764.2500 100000.0000     37.2691    207.3555   -999.2500
  2764.5000 100000.0000     38.1338    195.5527   -999.2500
  2764.7500 100000.0000     38.5477    177.7897   -999.2500
  2765.0000 100000.0000     37.9794    154.1625   -999.2500
  2765.2500 100000.0000     35.4907    126.1726   -999.2500
  2765.5000 100000.0000     30.1470     96.5555   -999.2500
  2765.7500 100000.0000     21.9558     68.5320   -999.2500
  2766.0000 100000.0000     12.4451     44.8111   -999.2500
  2766.2500 100000.0000      3.9426     26.8454   -999.2500
  2766.5000 100000.0000     -1.9452     14.6700   -999.2500
  2766.7500 100000.0000     -5.1115      7.2865   -999.2500
  2767.0000 100000.0000     -6.4354      3.2797   -999.2500
  2767.2500 100000.0000     -6.8661      1.3341   -999.2500
  2767.5000 100000.0000     -6.9752      0.4887   -999.2500
  2767.7500 100000.0000     -6.9967      0.1599   -999.2500
  2768.0000   3076.1121   -999.2500      0.0455   -999.2500
  2768.2500   1444.7296   -999.2500      0.0099   -999.2500
