~Version Information
VERS.                      2.0: CWLS Log ASCII Standard - VERSION 2.0
WRAP.                       NO: One line per depth step
~Well Information Block
STRT.FT               375.0000: 
STOP.FT              2637.2500: 
STEP.FT                 0.2500: 
NULL.                -999.2500: 
COMP.          Pioneer Natural Resources: COMPANY
WELL.            Cortina 23-25: WELL
FLD.           Purgatoire River: FIELD
LOC.           2344' FWL & 2526' FSL----: LOCATION
PROV.                 Colorado: PROVINCE
CNTY.               Las Animas: COUNTRY
SRVC.                Patterson: SERVICE COMPANY
DATE.          Wed Mar 23 19:09:49 2005: LOG DATE
UWI.           05 071 08340 00: UNIQUE WELL ID
~Curve Information Block
DEPT.FT            0 000 00 00: Depth
DIR.Ohm-m                     : IEL Induction Resistivity
SN.Ohm-m                      : IEL Short Normal
SP.mV                         : IEL Spontaneous Potential
GR.GAPI                       : Gamma Ray
~Parameter Information Block
~A  Depth       DIR          SN          SP          GR     
# ...
  2318.0000     14.7524     19.1248     15.8041    102.8171
  2318.2500     14.8620     18.7521     17.1188    103.0072
  2318.5000     14.8849     18.3342     18.5271    102.2855
  2318.7500     14.7964     17.8747     19.9998    102.3082
  2319.0000     14.5794     17.3329     21.5062    105.2503
  2319.2500     14.2386     16.6683     23.0170    109.2281
  2319.5000     13.8069     15.8912     24.5063    115.9074
  2319.7500     13.3356     15.0850     25.9523    119.3078
  2320.0000     12.8754     14.3779     27.3374    122.3495
  2320.2500     12.4608     13.8771     28.6471    123.8073
  2320.5000     12.1049     13.6063     29.8695    125.9397
  2320.7500     11.8018     13.4897     30.9949    126.7636
  2321.0000     11.5349     13.3976     32.0158    125.9077
  2321.2500     11.2854     13.2224     32.9271    124.1676
  2321.5000     11.0421     12.9340     33.7272    121.4801
  2321.7500     10.8055     12.5788     34.4177    120.5134
  2322.0000     10.5866     12.2322     35.0033    121.0129
  2322.2500     10.3986     11.9464     35.4912    122.5304
  2322.5000     10.2499     11.7272     35.8897    124.9939
  2322.7500     10.1406     11.5495     36.2071    125.3174
  2323.0000     10.0641     11.3884     36.4501    122.6037
  2323.2500     10.0116     11.2402     36.6237    119.3948
  2323.5000      9.9757     11.1177     36.7303    115.0043
  2323.7500      9.9523     11.0335     36.7704    113.4643
  2324.0000      9.9413     10.9853     36.7427    113.5851
  2324.2500      9.9464     10.9547     36.6448    114.8708
  2324.5000      9.9729     10.9188     36.4735    118.0031
  2324.7500     10.0253     10.8647     36.2254    120.8973
  2325.0000     10.1052     10.7962     35.8963    126.5977
  2325.2500     10.2102     10.7302     35.4810    131.2785
  2325.5000     10.3337     10.6853     34.9733    139.2051
  2325.7500     10.4650     10.6702     34.3657    144.2415
  2326.0000     10.5911     10.6820     33.6500    148.7263
  2326.2500     10.7001     10.7106     32.8180    148.4296
  2326.5000     10.7859     10.7477     31.8625    143.8315
  2326.7500     10.8506     10.7910     30.7785    139.9054
  2327.0000     10.9022     10.8447     29.5644    135.6730
  2327.2500     10.9498     10.9152     28.2217    134.4282
  2327.5000     11.0008     11.0052     26.7551    134.0109
  2327.7500     11.0609     11.1098     25.1716    133.8335
  2328.0000     11.1337     11.2185     23.4797    132.2902
  2328.2500     11.2214     11.3229     21.6890    129.9540
  2328.5000     11.3240     11.4229     19.8095    125.2162
  2328.7500     11.4394     11.5262     17.8524    122.5365
  2329.0000     11.5641     11.6407     15.8301    121.3487
  2329.2500     11.6942     11.7678     13.7567    122.5453
  2329.5000     11.8265     11.9013     11.6478    125.2279
  2329.7500     11.9586     12.0312      9.5203    126.0927
  2330.0000     12.0894     12.1502      7.3925    125.2819
  2330.2500     12.2195     12.2581      5.2833    124.1290
  2330.5000     12.3505     12.3622      3.2131    122.8251
  2330.7500     12.4852     12.4739      1.2039    121.9781
  2331.0000     12.6284     12.6019     -0.7210    119.0390
  2331.2500     12.7864     12.7463     -2.5382    115.5570
  2331.5000     12.9660     12.8982     -4.2274    109.7492
  2331.7500     13.1706     13.0470     -5.7753    107.0619
  2332.0000     13.3973     13.1891     -7.1796    105.8094
  2332.2500     13.6377     13.3311     -8.4521    106.0641
  2332.5000     13.8826     13.4864     -9.6192    106.4144
  2332.7500     14.1266     13.6701    -10.7189    106.3715
  2333.0000     14.3701     13.8950    -11.7947    106.1013
  2333.2500     14.6184     14.1680    -12.8890    105.5001
  2333.5000     14.8785     14.4880    -14.0352    102.9773
  2333.7500     15.1553     14.8447    -15.2527    100.1598
  2334.0000     15.4490     15.2231    -16.5451     95.5472
  2334.2500     15.7532     15.6099    -17.9006     93.2885
  2334.5000     16.0580     16.0024    -19.2951     92.5325
  2334.7500     16.3573     16.4136    -20.6956     94.2150
  2335.0000     16.6569     16.8710    -22.0630     99.8420
  2335.2500     16.9765     17.4108    -23.3544    104.8314
  2335.5000     17.3429     18.0688    -24.5235    111.5940
  2335.7500     17.7797     18.8680    -25.5218    113.8952
  2336.0000     18.2991     19.8039    -26.3008    112.0754
  2336.2500     18.9007     20.8403    -26.8153    107.5610
  2336.5000     19.5768     21.9255    -27.0295     98.4384
  2336.7500     20.3200     23.0186    -26.9224     92.4680
  2337.0000     21.1279     24.1045    -26.4935     84.8094
  2337.2500     22.0002     25.1881    -25.7656     80.3913
  2337.5000     22.9264     26.2745    -24.7830     74.8072
  2337.7500     23.8770     27.3523    -23.6063     72.3454
  2338.0000     24.8067     28.3905    -22.3043     71.4076
  2338.2500     25.6700     29.3488    -20.9445     72.4005
  2338.5000     26.4332     30.1942    -19.5853     74.8267
  2338.7500     27.0701     30.9120    -18.2712     76.2227
  2339.0000     27.5513     31.5056    -17.0310     77.6704
  2339.2500     27.8418     31.9849    -15.8798     78.6241
  2339.5000     27.9171     32.3515    -14.8220     80.6909
  2339.7500     27.7830     32.5913    -13.8552     82.3646
  2340.0000     27.4812     32.6843    -12.9737     84.5499
  2340.2500     27.0746     32.6235    -12.1708     85.5223
  2340.5000     26.6250     32.4300    -11.4411     86.6086
  2340.7500     26.1811     32.1513    -10.7806     87.3830
  2341.0000     25.7813     31.8465    -10.1870     88.1556
  2341.2500     25.4571     31.5657     -9.6596     87.6069
  2341.5000     25.2307     31.3359     -9.1983     84.3881
  2341.7500     25.1071     31.1600     -8.8027     80.9881
  2342.0000     25.0701     31.0264     -8.4715     75.3738
  2342.2500     25.0876     30.9239     -8.2018     72.1183
  2342.5000     25.1232     30.8521     -7.9893     69.1676
  2342.7500     25.1461     30.8215     -7.8277     68.8959
  2343.0000     25.1384     30.8442     -7.7096     70.8555
  2343.2500     25.1006     30.9263     -7.6262     73.0447
  2343.5000     25.0526     31.0672     -7.5679     75.8351
  2343.7500     25.0266     31.2659     -7.5240     76.6296
  2344.0000     25.0534     31.5234     -7.4836     76.5446
  2344.2500     25.1502     31.8424     -7.4359     76.2972
  2344.5000     25.3174     32.2259     -7.3704     76.2577
  2344.7500     25.5403     32.6761     -7.2776     76.7363
  2345.0000     25.7942     33.1910     -7.1498     79.0456
  2345.2500     26.0501     33.7559     -6.9820     81.5394
  2345.5000     26.2840     34.3376     -6.7717     84.5659
  2345.7500     26.4831     34.8928     -6.5198     84.7698
  2346.0000     26.6478     35.3851     -6.2301     82.2306
  2346.2500     26.7878     35.7995     -5.9093     79.6851
  2346.5000     26.9188     36.1443     -5.5659     76.4048
  2346.7500     27.0579     36.4400     -5.2105     74.9154
  2347.0000     27.2173     36.7040     -4.8542     73.0242
  2347.2500     27.3953     36.9364     -4.5082     71.4045
  2347.5000     27.5723     37.1146     -4.1832     68.4786
  2347.7500     27.7156     37.1990     -3.8880     66.9556
  2348.0000     27.7915     37.1498     -3.6293     66.5396
  2348.2500     27.7783     36.9478     -3.4114     67.5152
  2348.5000     27.6722     36.6085     -3.2362     69.9257
  2348.7500     27.4856     36.1792     -3.1042     71.6561
  2349.0000     27.2417     35.7194     -3.0159     74.1122
  2349.2500     26.9702     35.2740     -2.9724     75.5491
  2349.5000     26.7032     34.8591     -2.9764     77.1660
  2349.7500     26.4674     34.4634     -3.0322     78.1379
  2350.0000     26.2760     34.0632     -3.1444     80.9967
  2350.2500     26.1255     33.6402     -3.3174     84.5724
  2350.5000     26.0023     33.1970     -3.5534     91.2512
  2350.7500     25.8939     32.7596     -3.8520     94.6263
  2351.0000     25.7964     32.3661     -4.2091     95.5452
  2351.2500     25.7145     32.0495     -4.6175     93.7116
