~Version Information
VERS.                      2.0: CWLS Log ASCII Standard - VERSION 2.0
WRAP.                       NO: One line per depth step
~Well Information Block
STRT.FT               754.6000: 
STOP.FT              2329.0000: 
STEP.FT                 0.1000: 
NULL.                -999.2500: 
COMP.          Petrogulf Corporation: COMPANY
WELL.           Anderson 18-42: WELL
FLD.           Purgatoire River: FIELD
LOC.           1668' FNL & 1110' FEL: LOCATION
CNTY.               Las Animas: COUNTY
SRVC.                         : SERVICE COMPANY
DATE.          Tue Dec 16 12:18:55 2003: LOG DATE
UWI.                          : UNIQUE WELL ID
STAT.                 Colorado: STATE
~Curve Information Block
DEPT.FT            0 000 00 00: Depth
DCAL.in                       : CDL Caliper
RHOB.g/cc                     : CDL Bulk Density
RHOC.g/cc                     : CDL Density Correction
DPOR.pu                       : CDL Density Porosity
NPOR.pu                       : Neutron Porosity
GR.GAPI                       : Gamma Ray
~Parameter Information Block
~A  Depth       DCAL        RHOB        RHOC        DPOR        NPOR         GR     
# ...
  1196.2000      8.1442      2.5225      0.0296      7.7264     27.3903    130.2015
  1196.3000      8.1419      2.5245      0.0473      7.6032     27.4885    135.1874
  1196.4000      8.1419      2.5174      0.0735      8.0347     27.5768    137.2758
  1196.5000      8.1428      2.4880      0.0309      9.8162     27.2621    135.8111
  1196.6000      8.1428      2.4434      0.0179     12.5202     26.7766    129.0743
  1196.7000      8.1428      2.4030      0.0082     14.9671     26.7080    120.8777
  1196.8000      8.1451      2.3872     -0.0155     15.9252     27.1225    118.8603
  1196.9000      8.1451      2.3972      0.0172     15.3188     27.6398    125.6589
  1197.0000      8.1388      2.4166      0.0039     14.1451     27.9502    137.1150
  1197.1000      8.1388      2.4369      0.0278     12.9167     27.9286    146.1307
  1197.2000      8.1388      2.4582      0.0847     11.6227     27.7689    153.4594
  1197.3000      8.1750      2.4758      0.1125     10.5563     27.5768    167.6311
  1197.4000      8.1750      2.4791      0.1434     10.3566     27.1348    182.9672
  1197.5000      8.2351      2.4596      0.1343     11.5411     26.4057    183.5867
  1197.6000      8.2351      2.4265      0.1109     13.5431     25.7368    170.7913
  1197.7000      8.2351      2.3976      0.1431     15.2942     25.3684    158.2406
  1197.8000      8.2730      2.3800      0.0407     16.3632     25.0332    153.9071
  1197.9000      8.2730      2.3685      0.0330     17.0592     24.5549    158.7638
  1198.0000      8.2807      2.3543     -0.0430     17.9225     24.1928    170.8480
  1198.1000      8.2807      2.3398     -0.0547     18.8011     24.1603    182.1396
  1198.2000      8.2807      2.3278     -0.0223     19.5261     24.3293    184.2241
  1198.3000      8.2798      2.3155     -0.0362     20.2742     24.3521    179.9720
  1198.4000      8.2798      2.3074     -0.0725     20.7621     24.0890    176.9825
  1198.5000      8.1963      2.3092     -0.0615     20.6543     23.8211    175.3369
  1198.6000      8.1963      2.3204     -0.0565     19.9760     23.7952    172.0030
  1198.7000      8.1963      2.3404     -0.0519     18.7646     23.8633    170.7572
  1198.8000      8.1837      2.3613      0.0438     17.4972     24.0007    169.4169
  1198.9000      8.1837      2.3648      0.0474     17.2836     24.3756    161.7053
  1199.0000      8.1884      2.3472      0.0314     18.3534     24.7767    155.2431
  1199.1000      8.1884      2.3282      0.0596     19.5048     24.7895    157.8216
  1199.2000      8.1884      2.3278      0.1282     19.5266     24.5033    159.1290
  1199.3000      8.1686      2.3429      0.2132     18.6105     24.4116    149.7154
  1199.4000      8.1686      2.3522      0.2078     18.0488     24.6933    140.5056
  1199.5000      8.1793      2.3456      0.1277     18.4481     25.1618    142.8755
  1199.6000      8.1793      2.3326      0.0990     19.2340     25.5268    151.4738
  1199.7000      8.1793      2.3216      0.0736     19.9016     25.6983    156.5013
  1199.8000      8.1859      2.3103      0.0893     20.5902     25.8705    156.3300
  1199.9000      8.1859      2.2918      0.0556     21.7085     26.0598    158.5797
  1200.0000      8.1898      2.2665      0.0542     23.2397     26.1923    164.5493
  1200.1000      8.1898      2.2438      0.0423     24.6184     26.2466    165.7775
  1200.2000      8.1898      2.2300      0.0605     25.4558     26.3671    160.8621
  1200.3000      8.1875      2.2150      0.1697     26.3629     26.8189    156.6041
  1200.4000      8.1875      2.1895      0.1408     27.9073     27.3304    158.0025
  1200.5000      8.1886      2.1716      0.1662     28.9954     27.1446    161.9171
  1200.6000      8.1886      2.1810      0.1989     28.4220     26.3132    164.8926
  1200.7000      8.1886      2.2101      0.2224     26.6619     25.6440    166.7422
  1200.8000      8.1909      2.2363      0.2392     25.0753     25.3126    165.6124
  1200.9000      8.1909      2.2443      0.2570     24.5890     25.0831    161.9112
  1201.0000      8.2083      2.2381      0.2461     24.9665     24.9942    159.8751
  1201.1000      8.2083      2.2408      0.2562     24.7994     25.0216    160.1022
  1201.2000      8.2083      2.2719      0.2997     22.9138     24.9857    158.5874
  1201.3000      8.2258      2.3215      0.3110     19.9092     25.0132    158.1058
  1201.4000      8.2258      2.3584      0.3275     17.6754     25.2247    163.9841
  1201.5000      8.2333      2.3697      0.2776     16.9862     25.2274    169.4393
  1201.6000      8.2333      2.3745      0.2293     16.6992     24.8650    168.9464
  1201.7000      8.2333      2.3856      0.2069     16.0272     24.7221    167.4266
  1201.8000      8.2679      2.3952      0.2184     15.4428     25.2442    165.2489
  1201.9000      8.2679      2.4056      0.1503     14.8104     26.0500    161.3457
  1202.0000      8.2689      2.4302      0.1311     13.3231     26.5898    161.8274
  1202.1000      8.2689      2.4558      0.1816     11.7702     26.7447    168.3751
  1202.2000      8.2689      2.4554      0.1402     11.7932     26.6926    170.8391
  1202.3000      8.2699      2.4329      0.0944     13.1602     26.5838    165.6739
  1202.4000      8.2699      2.4133      0.0714     14.3460     26.4150    161.2657
  1202.5000      8.2838      2.4035      0.0640     14.9399     26.3865    161.9771
  1202.6000      8.2838      2.3879      0.0208     15.8875     26.5891    167.4597
  1202.7000      8.2838      2.3501      0.0480     18.1755     26.5142    174.6029
  1202.8000      8.2723      2.2811      0.0736     22.3565     25.7789    176.4624
  1202.9000      8.2723      2.1860      0.0723     28.1237     24.8695    169.6896
  1203.0000      8.2775      2.0941      0.0326     33.6890     24.3096    159.9264
  1203.1000      8.2775      2.0425     -0.0173     36.8157     23.8439    153.0533
  1203.2000      8.2775      2.0436     -0.0565     36.7518     23.0147    148.6437
  1203.3000      8.2798      2.0806     -0.0437     34.5102     21.9018    145.9245
  1203.4000      8.2798      2.1287      0.0188     31.5932     20.7765    142.2403
  1203.5000      8.2553      2.1703      0.1387     29.0713     19.6457    137.0821
  1203.6000      8.2553      2.2016      0.1511     27.1771     18.3936    133.8409
  1203.7000      8.2553      2.2374      0.1586     25.0065     17.3189    134.4767
  1203.8000      8.2291      2.2945      0.2001     21.5464     17.2020    138.8369
  1203.9000      8.2291      2.3661      0.2064     17.2090     18.1939    142.8821
  1204.0000      8.2266      2.4280      0.1367     13.4551     19.4969    144.8798
  1204.1000      8.2266      2.4651      0.0603     11.2088     20.5311    148.0045
  1204.2000      8.2266      2.4794      0.0473     10.3419     21.3460    153.3830
  1204.3000      8.2308      2.4823      0.0406     10.1625     22.2933    160.2478
  1204.4000      8.2308      2.4826      0.0692     10.1484     23.6016    169.4416
  1204.5000      8.2252      2.4771      0.0790     10.4780     24.7619    175.2902
  1204.6000      8.2252      2.4681      0.0352     11.0215     25.2815    171.7041
  1204.7000      8.2252      2.4736      0.0029     10.6908     25.6585    165.0833
  1204.8000      8.2262      2.4981      0.0589      9.2078     26.3781    160.7009
  1204.9000      8.2262      2.5215      0.0719      7.7857     27.1542    156.9332
  1205.0000      8.2249      2.5277      0.0557      7.4102     27.7538    155.5250
  1205.1000      8.2249      2.5212      0.0433      7.8045     28.2933    156.2652
  1205.2000      8.2249      2.5194     -0.0022      7.9173     28.5652    153.5666
  1205.3000      8.2286      2.5309      0.0178      7.2185     28.4428    146.7610
  1205.4000      8.2286      2.5445      0.0526      6.3939     28.3222    141.4327
  1205.5000      8.2269      2.5471      0.0391      6.2354     28.4989    140.7266
  1205.6000      8.2269      2.5405      0.0042      6.6343     28.8353    143.6863
  1205.7000      8.2269      2.5358      0.0005      6.9205     29.2372    149.1029
