~Version Information
VERS.                      2.0: CWLS Log ASCII Standard - VERSION 2.0
WRAP.                       NO: One line per depth step
~Well Information Block
STRT.FT               840.0000: 
STOP.FT              2019.0000: 
STEP.FT                 0.2500: 
NULL.                -999.2500: 
COMP.          Petrogulf Corporation: COMPANY
WELL.           Lavedure 7-44R: WELL
FLD.           Purgatorie River: FIELD
LOC.           946' FSL & 521' FEL: LOCATION
PROV.                 Colorado: PROVINCE
CNTY.               Las Animas: COUNTRY
SRVC.                Patterson: SERVICE COMPANY
DATE.          Mon Sep 26 08:35:42 2005: LOG DATE
UWI.                          : UNIQUE WELL ID
~Curve Information Block
DEPT.FT            0 000 00 00: Depth
SP.mV                         : DIL Spontaneous Potential
RILD.Ohm-m                    : DIL Deep Resistivity
RILM.Ohm-m                    : DIL Medium Resistivity
RLL3.Ohm-m                    : DIL Shallow Resistivity
GR.GAPI                       : Gamma Ray
~Parameter Information Block
~A  Depth        SP         RILD        RILM        RLL3         GR     
# ...
  1288.0000    163.0169      9.7648      9.9735     12.3443    117.4597
  1288.2500    162.5246      9.7794     10.0741     13.2695    125.9821
  1288.5000    162.0390      9.8125     10.0824     14.8708    118.8054
  1288.7500    161.6162      9.9656     10.0679     14.9007    131.8668
  1289.0000    161.1898     10.2088     10.2082     12.9226    107.8496
  1289.2500    160.7808     10.4826     10.2741     11.6242    107.2341
  1289.5000    160.4185     10.6007     10.5908     11.8476    100.5483
  1289.7500    160.1318     10.7894     11.0014     13.4917    115.7003
  1290.0000    159.9137     10.9777     11.6005     16.2795    108.4305
  1290.2500    159.8395     11.1112     12.2790     18.8522     97.5790
  1290.5000    159.9058     11.1113     12.6373     18.9705     98.9112
  1290.7500    160.0565     11.1189     12.8633     17.8162     95.5467
  1291.0000    160.2429     10.9839     13.0500     17.5371    122.5618
  1291.2500    160.4237     10.8548     13.1231     18.5897    124.2755
  1291.5000    160.6287     10.8163     13.0433     19.2909    101.2992
  1291.7500    160.7569     10.7660     12.7922     20.7153     87.4815
  1292.0000    160.7935     10.8885     12.2765     20.8345     87.6765
  1292.2500    160.7385     10.8506     11.6378     16.4859     96.3867
  1292.5000    160.5814     10.9047     11.1666     13.5231     89.9933
  1292.7500    160.2729     10.9327     10.6953     11.9909     85.0391
  1293.0000    160.0150     10.7136     10.6491     10.4366     97.2645
  1293.2500    159.7450     10.6262     10.9042     10.2901    104.3735
  1293.5000    159.3806     10.3684     11.2688     12.6774    107.6534
  1293.7500    159.1097     10.1850     11.4055     16.3758    111.9749
  1294.0000    158.8592      9.8476     11.3666     19.2020    103.3629
  1294.2500    158.6734      9.5354     11.0841     19.7253     98.3706
  1294.5000    158.6549      9.2564     10.5246     17.5057    113.8192
  1294.7500    158.7018      9.0986     10.0342     14.0701    124.7432
  1295.0000    158.9135      9.1989      9.6645     11.8879    118.8112
  1295.2500    159.1354      9.2593      9.3566     10.7501    120.7909
  1295.5000    159.4846      9.3441      9.2493     11.0016    115.7456
  1295.7500    159.9035      9.4857      9.1555     11.3012    114.4246
  1296.0000    160.2330      9.5619      9.2124     11.1964     83.2483
  1296.2500    160.4371      9.6980      9.2654     10.9266     90.3842
  1296.5000    160.4230      9.7672      9.3770     10.4920    114.2922
  1296.7500    160.3358      9.9370      9.6021     10.9333    125.7421
  1297.0000    160.1726     10.1008      9.7576     11.9257     93.7419
  1297.2500    160.0215     10.3410     10.0324     12.5147     79.7604
  1297.5000    159.9775     10.5567     10.4797     12.9388    104.9980
  1297.7500    159.9414     10.7499     10.9989     13.2074    108.9607
  1298.0000    159.9630     11.0577     11.5901     13.8943    105.9493
  1298.2500    160.0088     11.2976     11.9977     15.3732    100.3322
  1298.5000    160.0631     11.5348     12.6421     17.0143    104.3762
  1298.7500    160.0608     12.0380     13.2801     18.3232    108.7935
  1299.0000    160.0552     12.4961     13.8181     19.7240     98.8111
  1299.2500    160.1468     12.8324     14.3509     20.0888     98.3838
  1299.5000    160.3404     13.0864     14.7841     19.3504     75.2281
  1299.7500    160.5882     13.4229     15.3580     19.5009     83.4866
  1300.0000    160.9319     13.6750     15.5164     20.0100     71.9423
  1300.2500    161.2136     13.9535     15.8811     19.8422    101.7987
  1300.5000    161.3840     14.1350     15.6516     18.6674     97.2393
  1300.7500    161.3532     13.8810     15.5598     16.2989     71.6950
  1301.0000    161.1538     13.8810     15.2050     14.3446     86.0035
  1301.2500    160.8109     13.6014     15.0485     13.3993     88.4275
  1301.5000    160.3770     13.3062     14.5043     13.6518     82.3183
  1301.7500    159.9699     13.0468     13.9952     14.2520     88.7128
  1302.0000    159.6354     12.6697     13.5598     13.5002     98.9880
  1302.2500    159.3356     12.2968     12.7446     11.9618     83.5717
  1302.5000    159.0279     11.9642     12.2854     11.2543    101.3337
  1302.7500    158.8000     11.5166     11.7890     10.9753    129.5455
  1303.0000    158.6610     11.1921     11.2589     10.4746    116.5090
  1303.2500    158.5397     10.8307     10.8759      9.9845    126.5708
  1303.5000    158.4845     10.4041     10.5548      9.8401    120.4915
  1303.7500    158.5629     10.1175     10.2680      9.7788    114.4275
  1304.0000    158.7483      9.8929     10.0697      9.9968    124.9848
  1304.2500    158.9874      9.5757      9.7660     10.2916    133.8058
  1304.5000    159.2910      9.4862      9.5711     10.3123    128.7609
  1304.7500    159.7112      9.3558      9.2609     10.1608    126.3175
  1305.0000    160.0392      9.3180      9.0977      9.8556    128.0042
  1305.2500    160.1712      9.3073      9.0495      9.6863    107.9826
  1305.5000    160.1235      9.2349      8.9358      9.8190    105.5150
  1305.7500    159.9031      9.2416      9.0178      9.8035    116.4232
  1306.0000    159.6230      9.1547      9.1065      9.6128    130.9069
  1306.2500    159.2122      9.0459      9.2755     10.1997    132.9242
  1306.5000    158.8032      9.0169      9.4465     10.7797    114.3183
  1306.7500    158.4223      9.0472      9.4977     12.2073    118.9766
  1307.0000    157.9783      9.0679      9.3997     13.9278    114.4018
  1307.2500    157.5640      9.0599      9.3663     12.9441    129.2272
  1307.5000    157.2220      9.2055      9.2627     10.6848    118.1585
  1307.7500    156.8038      9.2970      9.1266     10.5607    107.6663
  1308.0000    156.3261      9.4549      9.1892     10.9908    105.2092
  1308.2500    155.9201      9.7041      9.3858     11.2526    126.6965
  1308.5000    155.6649      9.9269      9.5822     11.1721    113.1025
  1308.7500    155.6794     10.2453      9.9613     11.5628    107.8538
  1309.0000    155.7634     10.4818     10.3777     12.4401    133.4391
  1309.2500    155.9560     10.8310     10.6592     13.0697    140.9048
  1309.5000    156.2090     11.1504     11.1380     13.4600    157.6726
  1309.7500    156.5383     11.4336     11.6957     14.6182    162.6337
  1310.0000    156.7963     11.8782     12.3523     16.1663    139.7579
  1310.2500    156.8744     12.5145     12.9796     17.4314    135.1922
  1310.5000    156.9896     13.1274     13.9397     17.5230    121.2789
  1310.7500    157.1618     13.7973     14.9673     18.4181    124.5613
  1311.0000    157.5010     14.2278     16.6760     20.4303    123.4294
  1311.2500    157.9724     14.5692     18.4948     23.4862    124.0217
  1311.5000    158.6536     14.5392     20.7385     32.3256    115.5795
  1311.7500    159.4627     14.5043     22.5496     52.3145    103.0552
  1312.0000    160.4535     14.2828     23.8011     81.2350    118.4567
  1312.2500    161.4456     13.7594     23.3745    105.0833    113.8347
  1312.5000    162.3898     13.6690     21.2370     90.5621     90.3614
  1312.7500    163.4028     13.0922     18.6179     53.6664     67.3815
  1313.0000    164.3360     12.6116     16.0455     26.0097     63.7101
  1313.2500    165.1095     12.2803     13.8637     14.5591     75.0522
  1313.5000    165.7842     12.0945     12.3646     11.5000     97.5807
  1313.7500    166.1904     11.8012     11.3079     10.6880     97.8805
  1314.0000    166.5757     11.4903     10.6561      9.8816    114.0503
  1314.2500    166.8366     10.9954     10.1320      9.3832    124.2555
  1314.5000    166.8647     10.6059      9.8926      9.2139    125.6704
  1314.7500    166.7222     10.2372      9.7057      9.5296    133.7803
  1315.0000    166.4681      9.7579      9.5822     10.1694    150.1689
  1315.2500    166.2488      9.2055      9.4203     11.0885    127.8644
  1315.5000    166.0258      8.8900      9.3321     11.8540    136.2085
  1315.7500    165.8286      8.5191      9.1303     12.3297    127.1944
