~Version Information
 VERS.                                  2.0 : CWLS LAS VERSION
 WRAP.                                   NO : WRAPING MODE
 SWARE .                 MController 2.5.0N : SOFTWARE VERSION
~Well Information
 WELL.                   Casablanca 11-28TR : WELL
 COMP.    Pioneer Natural Resources USA Inc : COMPANY
 FLD.                      Purgatoire River : FIELD
 LOC.                NW/NW Sec 28 T32S R67W : LOCATION
 DATE.                         3/05-06/2005 : DATE(S) LOGGED
 SRVC.       Blanco Geological Services LLC : SERVICE COMPANY
 STAT.                                   CO : STATE
 CNTY.                           Las Animas : COUNTY
 CTRY.                                  USA : COUNTRY
 API.                       05-071-08314-00 : API NUMBER
 STRT.FT                             818.00 : START DEPTH
 STOP.FT                            2250.00 : STOP DEPTH
 STEP.FT                               1.00 : DEPTH INCREMENT
 NULL.                                -9999 : NULL VALUE
~Curve information
 DEPTH.FT                                   :
 ROP.MIN/FT                                 :
 GAS.UNITS                                  :
~ASCII Log data
# ...
      1188.0         0.40         23.3 
      1189.0         0.33         21.5 
      1190.0         0.38         22.1 
      1191.0         0.38         22.5 
      1192.0         0.33         22.9 
      1193.0         0.33         23.9 
      1194.0         0.37         24.1 
      1195.0         0.37         24.1 
      1196.0         0.33         25.0 
      1197.0         0.40         24.3 
      1198.0         0.33         24.6 
      1199.0         0.38         24.3 
      1200.0         0.33         23.6 
      1201.0         0.37         23.3 
      1202.0         0.35         24.7 
      1203.0         0.38         29.5 
      1204.0         0.33         30.5 
      1205.0         0.37         38.4 
      1206.0         0.33         37.9 
      1207.0         0.35         38.1 
      1208.0         0.37         35.8 
      1209.0         0.35         30.4 
      1210.0         0.38         24.4 
      1211.0         0.37         24.3 
      1212.0         0.37         23.8 
      1213.0         0.33         23.3 
      1214.0         0.40         24.0 
      1215.0         0.33         25.5 
      1216.0         0.37         26.6 
      1217.0         0.38         25.5 
      1218.0         0.35         25.7 
      1219.0         0.38         26.8 
      1220.0         0.37         25.2 
      1221.0         0.33         28.1 
      1222.0         0.37         35.1 
      1223.0         1.23         37.1 
      1224.0         0.55         24.6 
      1225.0         0.47         24.1 
      1226.0         0.50         24.3 
      1227.0         0.50         22.8 
      1228.0         0.50         22.8 
      1229.0         0.50         24.1 
      1230.0         0.47         25.7 
      1231.0         0.47         24.7 
      1232.0         0.52         24.4 
      1233.0         0.50         26.1 
      1234.0         0.50         50.8 
      1235.0         0.50         26.0 
      1236.0         0.47         39.2 
      1237.0         0.43         32.9 
      1238.0         0.48         34.9 
      1239.0         0.43         34.9 
      1240.0         1.58         37.4 
      1241.0         1.42         31.2 
      1242.0         1.43         30.4 
      1243.0         1.30         36.9 
      1244.0         0.90         38.1 
      1245.0         0.72         26.9 
      1246.0         0.53         23.3 
      1247.0         0.50         24.3 
      1248.0         0.52         24.1 
      1249.0         0.50         23.5 
      1250.0         0.47         25.7 
      1251.0         0.33         26.1 
      1252.0         0.33         28.1 
      1253.0         0.33         29.9 
      1254.0         0.35         74.8 
      1255.0         0.35         62.4 
      1256.0         0.37         46.2 
      1257.0         0.37         39.8 
      1258.0         0.30         36.5 
      1259.0         0.38         37.5 
      1260.0         0.67         36.2 
      1261.0         0.63         35.9 
      1262.0         0.40         35.1 
      1263.0         0.37         33.7 
      1264.0         0.33         32.0 
      1265.0         0.42         31.5 
      1266.0         1.27         31.5 
      1267.0         1.22         31.4 
      1268.0         0.47         30.5 
      1269.0         0.47         29.7 
      1270.0         0.42         30.3 
      1271.0         0.45         30.1 
      1272.0         0.38         28.4 
      1273.0         0.28         26.8 
      1274.0         0.35         27.0 
      1275.0         0.33         27.2 
      1276.0         0.38         26.5 
      1277.0         0.45         28.7 
      1278.0         0.40         29.2 
      1279.0         0.42         30.8 
      1280.0         0.42         34.4 
      1281.0         0.37         32.1 
      1282.0         0.38         29.8 
      1283.0         0.35         50.1 
      1284.0         0.33         17.7 
      1285.0         0.45         18.7 
      1286.0         0.68          4.3 
      1287.0         1.73          1.9 
      1288.0         2.18          1.8 
      1289.0         1.00         41.0 
      1290.0         0.68         39.2 
      1291.0         0.60         32.1 
      1292.0         0.53         28.6 
      1293.0         0.55         27.9 
      1294.0         0.53         28.3 
      1295.0         0.52         27.9 
      1296.0         0.55         29.9 
      1297.0         0.50         29.3 
      1298.0         0.50         27.1 
      1299.0         0.47         28.2 
      1300.0         0.93         31.3 
      1301.0         1.12         28.6 
      1302.0         1.55         30.8 
      1303.0         0.68         34.0 
      1304.0         0.78         32.4 
      1305.0         0.48         27.6 
      1306.0         0.45         25.7 
      1307.0         0.43         25.7 
      1308.0         0.37         24.9 
      1309.0         0.42         24.6 
      1310.0         0.38         24.0 
      1311.0         0.42         41.1 
      1312.0         0.38         30.0 
      1313.0         0.42         27.4 
      1314.0         0.43         29.4 
      1315.0         0.40         25.9 
      1316.0         0.40         25.0 
      1317.0         1.40         28.0 
      1318.0         0.87         30.2 
      1319.0         0.75         32.7 
      1320.0         0.47         24.3 
      1321.0         0.50         24.3 
      1322.0         0.47         25.0 
      1323.0         0.37         23.8 
      1324.0         0.40         20.6 
      1325.0         0.37         22.4 
      1326.0         0.38         25.3 
      1327.0         0.35         26.0 
      1328.0         0.37         27.4 
      1329.0         0.42         27.9 
      1330.0         2.45         27.7 
      1331.0         2.23         26.0 
      1332.0         2.18         26.2 
      1333.0         2.13         25.7 
      1334.0         2.12         23.4 
      1335.0         1.85         22.8 
      1336.0         1.72         31.3 
      1337.0         1.30         31.0 
      1338.0         1.47         29.4 
      1339.0         1.52         28.6 
      1340.0         1.43         26.1 
      1341.0         1.02         28.1 
      1342.0         1.00         27.9 
      1343.0         1.03         27.4 
      1344.0         1.07         54.8 
      1345.0         0.93         34.5 
      1346.0         1.25         35.1 
      1347.0         0.43         33.7 
      1348.0         0.47         33.9 
      1349.0         0.42         34.0 
      1350.0         0.95         33.1 
      1351.0         0.75         37.0 
      1352.0         0.77         37.1 
      1353.0         0.73         21.6 
      1354.0         0.78         24.8 
      1355.0         0.58         24.1 
      1356.0         0.62         20.5 
      1357.0         0.63         17.9 
      1358.0         0.57         21.0 
      1359.0         0.60         24.0 
      1360.0         0.63         27.0 
      1361.0         0.68         22.9 
      1362.0         0.67         26.6 
      1363.0         0.58         26.2 
      1364.0         0.57         28.6 
      1365.0         0.57         25.1 
      1366.0         0.55         42.2 
      1367.0         0.62         41.8 
      1368.0         0.53         17.0 
      1369.0         0.60         43.7 
      1370.0         0.53         41.5 
      1371.0         2.20         40.8 
      1372.0         1.58         37.5 
      1373.0         1.00         36.7 
      1374.0         0.73         30.4 
      1375.0         0.78         29.4 
      1376.0         0.73         29.6 
      1377.0         0.57         32.1 
      1378.0         0.50         33.0 
      1379.0         0.52         32.2 
      1380.0         0.50         32.2 
      1381.0         0.52         32.3 
      1382.0         0.50         33.8 
      1383.0         0.52         34.2 
      1384.0         0.50         30.3 
      1385.0         0.53         22.6 
      1386.0         0.55         12.9 
      1387.0         9.10        250.5 
