~Version Information
VERS.                      2.0: CWLS Log ASCII Standard - VERSION 2.0
WRAP.                       NO: One line per depth step
~Well Information Block
STRT.FT                -7.2500: 
STOP.FT               868.2500: 
STEP.FT                 0.2500: 
NULL.                -999.2500: 
COMP.          Pioneer Natural Resources: COMPANY
WELL.              Venom 32-22: WELL
FLD.           Purgatorie River: FIELD
LOC.           2307' FNL & 2024' FWL--: LOCATION
PROV.                       CO: PROVINCE
CNTY.               Las Animas: COUNTRY
SRVC.          Patterson Wireline: SERVICE COMPANY
DATE.          Mon May 16 15:26:38 2005: LOG DATE
UWI.           05 071 08361 00: UNIQUE WELL ID
~Curve Information Block
DEPT.FT            0 000 00 00: Depth
CCL.                          : Casing Collar Locator
TT3.usec                      : CBL 3' Travel Time
AMP3.mV                       : CBL 3' Amplitude
GR.GAPI                       : Gamma Ray
~Parameter Information Block
~A  Depth       CCL         TT3         AMP3         GR     
    -7.2500   -999.2500   -999.2500   -999.2500     94.1738
    -7.0000   -999.2500   -999.2500   -999.2500     97.8620
    -6.7500   -999.2500   -999.2500   -999.2500     99.8757
    -6.5000   -999.2500   -999.2500   -999.2500    100.7922
    -6.2500   -999.2500   -999.2500   -999.2500    102.2632
    -6.0000   -999.2500   -999.2500   -999.2500    104.7155
    -5.7500   -999.2500   -999.2500   -999.2500    106.9360
    -5.5000   -999.2500   -999.2500   -999.2500    107.8792
    -5.2500   -999.2500   -999.2500   -999.2500    107.8959
    -5.0000   -999.2500   -999.2500   -999.2500    108.0256
    -4.7500   -999.2500   -999.2500   -999.2500    108.7570
    -4.5000   -999.2500   -999.2500   -999.2500    109.6148
    -4.2500   -999.2500   -999.2500   -999.2500    109.4688
    -4.0000   -999.2500   -999.2500   -999.2500    107.2510
    -3.7500   -999.2500   -999.2500   -999.2500    102.9046
    -3.5000   -999.2500   -999.2500   -999.2500     97.6302
    -3.2500   -999.2500   -999.2500   -999.2500     92.7627
    -3.0000   -999.2500   -999.2500   -999.2500     88.5520
    -2.7500   -999.2500   -999.2500   -999.2500     84.4617
    -2.5000   -999.2500   -999.2500   -999.2500     80.4403
    -2.2500   -999.2500   1161.0000      0.5297     77.4455
    -2.0000   -999.2500   1161.0000      0.5133     76.8371
    -1.7500   -999.2500   1161.0000      0.5085     79.4013
    -1.5000   -999.2500   1161.0000      0.5100     84.5456
    -1.2500   -999.2500   1161.0000      0.5121     90.1373
    -1.0000   -999.2500   1161.0000      0.5137     93.4444
    -0.7500   -999.2500   1161.0000      0.5159     92.7108
    -0.5000   -999.2500   1161.0000      0.5169     88.0918
    -0.2500   -999.2500   1161.0000      0.5123     81.2633
     0.0000   -999.2500   1161.0000      0.4990     74.1735
     0.2500   -999.2500   1161.0000      0.4530     62.2337
     0.5000   -999.2500   1161.0000      0.4313     56.7937
     0.7500   -999.2500   1161.0000      0.4201     51.8163
     1.0000   -999.2500   1161.0000      0.4218     48.5576
     1.2500   -999.2500   1161.0000      0.4333     48.3734
     1.5000   -999.2500   1161.0000      0.4519     51.3654
     1.7500   -999.2500   1161.0000      0.4787     55.9540
     2.0000   -999.2500   1161.0000      0.5118     60.0340
     2.2500   -999.2500   1161.0000      0.5420     62.4792
     2.5000   -999.2500   1161.0000      0.5601     63.3962
     2.7500   -999.2500   1161.0000      0.5636     63.4339
     3.0000      0.0000   1161.0000      0.5548     63.4012
     3.2500      0.0000   1160.9424      0.5388     64.1385
     3.5000      0.0000   1160.5673      0.5338     66.0025
     3.7500      0.0000   1158.6617      0.6107     68.4113
     4.0000      0.0000   1151.1262      0.9903     70.2737
     4.2500      0.0000   1127.9181      2.1969     70.8478
     4.5000      0.0000   1072.3110      5.0827     70.0051
     4.7500      0.0000    968.7128     10.3876     67.9739
     5.0000      0.0000    819.3654     17.8528     65.2737
     5.2500      0.0000    655.5082     25.7261     62.8514
     5.5000      0.0000    527.1976     31.5432     61.8304
     5.7500      0.0000    477.5080     33.7159     62.7354
     6.0000      0.0000    521.5397     32.3922     64.9182
     6.2500      0.0000    640.4162     28.9239     66.9833
     6.5000      0.0000    790.3942     24.7684     67.8655
     6.7500      0.0000    925.7208     20.8235     67.4860
     7.0000     -2.0000   1021.6337     17.3888     66.5804
     7.2500      0.0000   1077.2045     14.4402     66.0747
     7.5000      0.0000   1100.1547     11.9020     66.3432
     7.7500      0.0000   1095.7889      9.7722     66.8248
     8.0000      0.0000   1069.6149      8.0950     66.6179
     8.2500      0.0000   1032.5496      6.8868     65.6137
     8.5000      0.0000    998.3657      6.0966     64.7256
     8.7500      0.0000    976.1823      5.6239     64.7682
     9.0000      0.0000    967.0020      5.3588     65.4505
     9.2500      0.0000    966.8846      5.2156     65.9202
     9.5000      0.0000    971.8778      5.1439     66.0632
     9.7500      0.0000    980.1744      5.1187     66.6760
    10.0000      0.0000    991.9196      5.1234     68.3888
    10.2500      0.0000   1008.3654      5.1393     70.9041
    10.5000      0.0000   1029.9746      5.1471     73.2704
    10.7500      0.0000   1053.7545      5.1345     74.5085
    11.0000      0.0000   1073.1614      5.1011     74.1004
    11.2500      0.0000   1082.4098      5.0560     72.3520
    11.5000      0.0000   1080.8146      5.0134     70.3869
    11.7500      0.0000   1072.3522      4.9888     69.4626
    12.0000      0.0000   1062.6083      4.9935     69.9816
    12.2500      0.0000   1057.0906      5.0268     71.1340
    12.5000      0.0000   1059.2570      5.0729     71.6555
    12.7500      0.0000   1067.4557      5.1088     71.0147
    13.0000      0.0000   1075.9297      5.1157     69.7850
    13.2500      0.0000   1081.1884      5.0805     68.9101
    13.5000      0.0000   1086.0488      4.9905     68.8479
    13.7500      0.0000   1095.5554      4.8308     69.5304
    14.0000      0.0000   1109.6930      4.5980     70.8735
    14.2500      0.0000   1122.1821      4.3185     73.0098
    14.5000      0.0000   1126.7555      4.0499     75.8427
    14.7500      0.0000   1123.3958      3.8497     78.5413
    15.0000      0.0000   1118.0629      3.7389     80.0350
    15.2500      0.0000   1117.2578      3.6999     80.2540
    15.5000      2.0000   1123.2988      3.7041     80.4248
    15.7500      2.0000   1133.8409      3.7297     81.7441
    16.0000      0.0000   1144.3527      3.7606     83.9755
    16.2500      0.0000   1150.5955      3.7941     85.6304
    16.5000      0.0000   1149.1504      3.8548     85.4708
    16.7500      0.0000   1136.7148      3.9819     83.6520
    17.0000      0.0000   1110.9983      4.1798     81.5881
    17.2500      0.0000   1074.0974      4.3964     81.1120
    17.5000      0.0000   1034.3046      4.5674     83.4601
    17.7500      0.0000   1002.2571      4.6702     88.1542
    18.0000      0.0000    984.3235      4.7229     92.7987
    18.2500      0.0000    980.0096      4.7494     94.7487
    18.5000      0.0000    984.5792      4.7630     93.2253
    18.7500      0.0000    992.6653      4.7720     89.6285
    19.0000      0.0000   1000.1475      4.7847     86.0066
    19.2500      0.0000   1004.6527      4.8042     83.5096
    19.5000      0.0000   1005.3839      4.8196     82.1620
    19.7500      0.0000   1002.5507      4.8089     81.7325
    20.0000      0.0000    996.6895      4.7591     82.3090
    20.2500      0.0000    987.9440      4.6868     83.8410
    20.5000      0.0000    975.5864      4.6316     85.6286
    20.7500      0.0000    958.7218      4.6276     86.8096
    21.0000      0.0000    938.1066      4.6792     87.2329
    21.2500      0.0000    916.7745      4.7618     87.5030
    21.5000      0.0000    897.3671      4.8386     88.1685
    21.7500      0.0000    877.2542      4.8798     89.0266
    22.0000      0.0000    846.2002      4.8743     89.3406
    22.2500      0.0000    791.6418      4.8316     88.7161
    22.5000      0.0000    710.8148      4.7754     87.6431
    22.7500      0.0000    619.3086      4.7328     87.0884
    23.0000      0.0000    545.5958      4.7232     87.5721
    23.2500      0.0000    515.2863      4.7467     88.6320
    23.5000      0.0000    538.4518      4.7773     89.1418
    23.7500      0.0000    606.1862      4.7777     88.2156
    24.0000      0.0000    694.9140      4.7299     85.9601
    24.2500      0.0000    777.1548      4.6500     83.2861
    24.5000      0.0000    833.6254      4.5706     80.9281
    24.7500      0.0000    857.7327      4.5170     78.9646
    25.0000      0.0000    851.9182      4.4983     77.4557
    25.2500      0.0000    823.8663      4.5097     77.0405
    25.5000      0.0000    785.3334      4.5342     78.3047
    25.7500      0.0000    748.9872      4.5533     80.6563
    26.0000      0.0000    722.6171      4.5609     82.4295
