~Version Information
VERS.                      2.0: CWLS Log ASCII Standard - VERSION 2.0
WRAP.                       NO: One line per depth step
~Well Information Block
STRT.FT                -7.6500: 
STOP.FT              3097.2500: 
STEP.FT                 0.0500: 
NULL.                -999.2500: 
COMP.          Pioneer Natural Resources: COMPANY
WELL.            Paradise 13-8: WELL
FLD.           Purgatoire River: FIELD
LOC.           1896' FSL & 1120' FWL--: LOCATION
PROV.                 Colorado: PROVINCE
CNTY.               Las Animas: COUNTRY
SRVC.                Patterson: SERVICE COMPANY
DATE.          Fri Feb 04 16:52:25 2005: LOG DATE
UWI.           05 071 07946 00: UNIQUE WELL ID
~Curve Information Block
DEPT.FT            0 000 00 00: Depth
CCL.                          : Casing Collar Locator
TT3.usec                      : CBL 3' Travel Time
AMP3.mV                       : CBL 3' Amplitude
GR.GAPI                       : Gamma Ray
~Parameter Information Block
~A  Depth       CCL         TT3         AMP3         GR     
# ...
  2672.3500      0.0000    683.5098      2.5617     47.6495
  2672.4000      0.0000    683.5098      2.5617     47.6495
  2672.4500      0.0000    683.5098      2.5617     47.6495
  2672.5000      0.0000    680.0009      2.6452     46.3941
  2672.5500      0.0000    680.0009      2.6452     46.3941
  2672.6000      0.0000    680.0009      2.6452     46.3941
  2672.6500      0.0000    680.0009      2.6452     46.3941
  2672.7000      0.0000    680.0009      2.6452     46.3941
  2672.7500      0.0000    676.3643      2.6905     45.0602
  2672.8000      0.0000    676.3643      2.6905     45.0602
  2672.8500      0.0000    676.3643      2.6905     45.0602
  2672.9000      0.0000    676.3643      2.6905     45.0602
  2672.9500      0.0000    676.3643      2.6905     45.0602
  2673.0000      0.0000    670.7117      2.7100     43.6079
  2673.0500      0.0000    670.7117      2.7100     43.6079
  2673.1000      0.0000    670.7117      2.7100     43.6079
  2673.1500      0.0000    670.7117      2.7100     43.6079
  2673.2000      0.0000    670.7117      2.7100     43.6079
  2673.2500      0.0000    662.8011      2.7197     42.0785
  2673.3000      0.0000    662.8011      2.7197     42.0785
  2673.3500      0.0000    662.8011      2.7197     42.0785
  2673.4000      0.0000    662.8011      2.7197     42.0785
  2673.4500      0.0000    662.8011      2.7197     42.0785
  2673.5000      0.0000    655.3239      2.7329     40.6897
  2673.5500      0.0000    655.3239      2.7329     40.6897
  2673.6000      0.0000    655.3239      2.7329     40.6897
  2673.6500      0.0000    655.3239      2.7329     40.6897
  2673.7000      0.0000    655.3239      2.7329     40.6897
  2673.7500      0.0000    652.9158      2.7588     39.6110
  2673.8000      0.0000    652.9158      2.7588     39.6110
  2673.8500      0.0000    652.9158      2.7588     39.6110
  2673.9000      0.0000    652.9158      2.7588     39.6110
  2673.9500      0.0000    652.9158      2.7588     39.6110
  2674.0000      0.0000    658.7996      2.8000     38.6995
  2674.0500      0.0000    658.7996      2.8000     38.6995
  2674.1000      0.0000    658.7996      2.8000     38.6995
  2674.1500      0.0000    658.7996      2.8000     38.6995
  2674.2000      0.0000    658.7996      2.8000     38.6995
  2674.2500      0.0000    672.3279      2.8493     37.9266
  2674.3000      0.0000    672.3279      2.8493     37.9266
  2674.3500      0.0000    672.3279      2.8493     37.9266
  2674.4000      0.0000    672.3279      2.8493     37.9266
  2674.4500      0.0000    672.3279      2.8493     37.9266
  2674.5000      0.0000    689.2534      2.8939     38.0201
  2674.5500      0.0000    689.2534      2.8939     38.0201
  2674.6000      0.0000    689.2534      2.8939     38.0201
  2674.6500      0.0000    689.2534      2.8939     38.0201
  2674.7000      0.0000    689.2534      2.8939     38.0201
  2674.7500      0.0000    702.8027      2.9226     40.1600
  2674.8000      0.0000    702.8027      2.9226     40.1600
  2674.8500      0.0000    702.8027      2.9226     40.1600
  2674.9000      0.0000    702.8027      2.9226     40.1600
  2674.9500      0.0000    702.8027      2.9226     40.1600
  2675.0000      0.0000    705.2609      2.9316     45.0825
  2675.0500      0.0000    705.2609      2.9316     45.0825
  2675.1000      0.0000    705.2609      2.9316     45.0825
  2675.1500      0.0000    705.2609      2.9316     45.0825
  2675.2000      0.0000    705.2609      2.9316     45.0825
  2675.2500      0.0000    692.4086      2.9228     52.8389
  2675.3000      0.0000    692.4086      2.9228     52.8389
  2675.3500      0.0000    692.4086      2.9228     52.8389
  2675.4000      0.0000    692.4086      2.9228     52.8389
  2675.4500      0.0000    692.4086      2.9228     52.8389
  2675.5000      0.0000    668.2980      2.8969     63.2768
  2675.5500      0.0000    668.2980      2.8969     63.2768
  2675.6000      0.0000    668.2980      2.8969     63.2768
  2675.6500      0.0000    668.2980      2.8969     63.2768
  2675.7000      0.0000    668.2980      2.8969     63.2768
  2675.7500      0.0000    643.8206      2.8524     76.2766
  2675.8000      0.0000    643.8206      2.8524     76.2766
  2675.8500      0.0000    643.8206      2.8524     76.2766
  2675.9000      0.0000    643.8206      2.8524     76.2766
  2675.9500      0.0000    643.8206      2.8524     76.2766
  2676.0000      0.0000    628.9213      2.7930     90.9621
  2676.0500      0.0000    628.9213      2.7930     90.9621
  2676.1000      0.0000    628.9213      2.7930     90.9621
  2676.1500      0.0000    628.9213      2.7930     90.9621
  2676.2000      0.0000    628.9213      2.7930     90.9621
  2676.2500      0.0000    625.9323      2.7342    104.3301
  2676.3000      0.0000    625.9323      2.7342    104.3301
  2676.3500      0.0000    625.9323      2.7342    104.3301
  2676.4000      0.0000    625.9323      2.7342    104.3301
  2676.4500      0.0000    625.9323      2.7342    104.3301
  2676.5000      0.0000    629.3113      2.6963    111.4785
  2676.5500      0.0000    629.3113      2.6963    111.4785
  2676.6000      0.0000    629.3113      2.6963    111.4785
  2676.6500      0.0000    629.3113      2.6963    111.4785
  2676.7000      0.0000    629.3113      2.6963    111.4785
  2676.7500      0.0000    630.7261      2.6902    109.1265
  2676.8000      0.0000    630.7261      2.6902    109.1265
  2676.8500      0.0000    630.7261      2.6902    109.1265
  2676.9000      0.0000    630.7261      2.6902    109.1265
  2676.9500      0.0000    630.7261      2.6902    109.1265
  2677.0000      0.0000    625.2347      2.7124     99.4959
  2677.0500      0.0000    625.2347      2.7124     99.4959
  2677.1000      0.0000    625.2347      2.7124     99.4959
  2677.1500      0.0000    625.2347      2.7124     99.4959
  2677.2000      0.0000    625.2347      2.7124     99.4959
  2677.2500      0.0000    613.8369      2.7519     89.3131
  2677.3000      0.0000    613.8369      2.7519     89.3131
  2677.3500      0.0000    613.8369      2.7519     89.3131
  2677.4000      0.0000    613.8369      2.7519     89.3131
  2677.4500      0.0000    613.8369      2.7519     89.3131
  2677.5000      0.0000    601.1660      2.7949     84.2759
  2677.5500      0.0000    601.1660      2.7949     84.2759
  2677.6000      0.0000    601.1660      2.7949     84.2759
  2677.6500      0.0000    601.1660      2.7949     84.2759
  2677.7000      0.0000    601.1660      2.7949     84.2759
  2677.7500      0.0000    592.1880      2.8277     85.1366
  2677.8000      0.0000    592.1880      2.8277     85.1366
  2677.8500      0.0000    592.1880      2.8277     85.1366
  2677.9000      0.0000    592.1880      2.8277     85.1366
  2677.9500      0.0000    592.1880      2.8277     85.1366
  2678.0000      0.0000    591.2318      2.8398     88.7887
  2678.0500      0.0000    591.2318      2.8398     88.7887
  2678.1000      0.0000    591.2318      2.8398     88.7887
  2678.1500      0.0000    591.2318      2.8398     88.7887
  2678.2000      0.0000    591.2318      2.8398     88.7887
  2678.2500      0.0000    601.5981      2.8275     91.7133
  2678.3000      0.0000    601.5981      2.8275     91.7133
  2678.3500      0.0000    601.5981      2.8275     91.7133
  2678.4000      0.0000    601.5981      2.8275     91.7133
  2678.4500      0.0000    601.5981      2.8275     91.7133
  2678.5000      0.0000    622.9705      2.7956     92.3545
  2678.5500      0.0000    622.9705      2.7956     92.3545
  2678.6000      0.0000    622.9705      2.7956     92.3545
  2678.6500      0.0000    622.9705      2.7956     92.3545
  2678.7000      0.0000    622.9705      2.7956     92.3545
  2678.7500      0.0000    648.6012      2.7555     91.5383
  2678.8000      0.0000    648.6012      2.7555     91.5383
  2678.8500      0.0000    648.6012      2.7555     91.5383
  2678.9000      0.0000    648.6012      2.7555     91.5383
  2678.9500      0.0000    648.6012      2.7555     91.5383
  2679.0000      0.0000    667.5819      2.7213     91.3026
