~Version Information
VERS.                      2.0: CWLS Log ASCII Standard - VERSION 2.0
WRAP.                       NO: One line per depth step
~Well Information Block
STRT.FT                 0.0000: 
STOP.FT              1439.5000: 
STEP.FT                 0.2500: 
NULL.                -999.2500: 
COMP.          Petrogulf Corporation: COMPANY
WELL.          Robinson 15-12R: WELL
FLD.           Purgatorie River: FIELD
LOC.           1752' FNL & 561' FWL: LOCATION
PROV.                 Colorado: PROVINCE
CNTY.               Las Animas: COUNTRY
SRVC.                Patterson: SERVICE COMPANY
DATE.          Tue Oct 04 09:17:52 2005: LOG DATE
UWI.                          : UNIQUE WELL ID
~Curve Information Block
DEPT.FT            0 000 00 00: Depth
GR.GAPI                       : Gamma Ray
CCL.                          : Casing Collar Locator
TT3.usec                      : CBL 3' Travel Time
AMP3.mV                       : CBL 3' Amplitude
~Parameter Information Block
~A  Depth        GR         CCL         TT3         AMP3    
# ...
  1407.0000    127.1215      0.0000    754.6271      2.9852
  1407.2500    128.1845      0.0000    770.1945      3.3147
  1407.5000    128.7696      0.0000    776.1232      3.5660
  1407.7500    129.9578      0.0000    767.2811      3.7549
  1408.0000    131.8576      0.0000    743.8107      3.9058
  1408.2500    132.7283      0.0000    711.4794      4.0426
  1408.5000    130.4054      0.0000    673.7816      4.1835
  1408.7500    124.6144      0.0000    634.3532      4.3312
  1409.0000    117.4465      0.0000    607.9431      4.4581
  1409.2500    111.6083      0.0000    607.2413      4.5084
  1409.5000    108.5914      0.0000    625.9980      4.4633
  1409.7500    108.3429      0.0000    651.9528      4.3801
  1410.0000    109.9298      0.0000    677.0328      4.3185
  1410.2500    112.1926      0.0000    690.8394      4.2841
  1410.5000    114.2875      0.0000    692.3932      4.2539
  1410.7500    116.1180      0.0000    697.9065      4.2111
  1411.0000    118.0969      0.0000    717.3340      4.1608
  1411.2500    120.2379      0.0000    740.7037      4.1226
  1411.5000    121.7833      0.0000    754.1887      4.1178
  1411.7500    122.0102      0.0000    755.3150      4.1579
  1412.0000    121.1943      0.0000    750.9315      4.2143
  1412.2500    120.4483      0.0000    747.5245      4.2398
  1412.5000    120.6685      0.0000    746.7238      4.2403
  1412.7500    121.7696      0.0000    748.0120      4.2658
  1413.0000    122.9116      0.0000    751.3456      4.3299
  1413.2500    123.4074      0.0000    755.7706      4.3841
  1413.5000    123.3228      0.0000    758.0992      4.3874
  1413.7500    123.1212      0.0000    757.1191      4.3676
  1414.0000    122.9614      0.0000    757.4329      4.3712
  1414.2500    122.6769      0.0000    763.8685      4.3926
  1414.5000    122.3032      0.0000    774.4361      4.4023
  1414.7500    122.1581      0.0000    782.9104      4.3947
  1415.0000    122.2847      0.0000    785.1343      4.3844
  1415.2500    122.2003      0.0000    778.9269      4.4025
  1415.5000    121.4308      0.0000    763.0441      4.4806
  1415.7500    120.1854      0.0000    744.0270      4.5936
  1416.0000    119.3891      0.0000    737.5237      4.6691
  1416.2500    119.8386      0.0000    750.1703      4.6822
  1416.5000    121.1766      0.0000    768.8403      4.6775
  1416.7500    122.1016      0.0000    777.0945      4.7063
  1417.0000    121.9497      0.0000    769.6305      4.8000
  1417.2500    121.4357      0.0000    753.2645      4.9845
  1417.5000    121.3204      0.0000    744.3070      5.2274
  1417.7500    121.0472      0.0000    752.5522      5.3371
  1418.0000    119.3124      0.0000    766.9300      5.0996
  1418.2500    115.4886      0.0000    769.3293      4.6769
  1418.5000    110.1317      0.0000    755.1251      4.5249
  1418.7500    104.5433      0.0000    737.3532      4.6969
  1419.0000    100.0680      0.0000    733.7739      4.8013
  1419.2500     97.4677      0.0000    745.0460      4.6371
  1419.5000     96.5761      0.0000    754.1913      4.2652
  1419.7500     96.4193      0.0000    752.5903      3.7848
  1420.0000     95.8361      0.0000    752.2523      3.3303
  1420.2500     94.3929      2.0000    772.0660      3.0065
  1420.5000     92.9147      0.0000    824.4298      2.7809
  1420.7500     92.9469      0.0000    904.1303      2.5570
  1421.0000     95.4153      0.0000    975.0506      2.3872
  1421.2500     99.6721      0.0000    993.6391      2.4333
  1421.5000    103.9790      0.0000    958.7703      2.6466
  1421.7500    107.2594      0.0000    907.2612      2.8095
  1422.0000    110.3793      0.0000    861.5924      2.8656
  1422.2500    115.2211      0.0000    813.0306      2.8955
  1422.5000    122.3498      0.0000    756.2383      2.9553
  1422.7500    130.0169      0.0000    708.5378      3.0587
  1423.0000    135.7390      0.0000    687.1997      3.1717
  1423.2500    138.6698      0.0000    698.8255      3.2225
  1423.5000    140.0441      0.0000    750.9380      3.1626
  1423.7500    141.2937      0.0000    838.6089      3.0031
  1424.0000    142.2794      0.0000    919.5980      2.7842
  1424.2500    141.6651      0.0000    941.6713      2.5478
  1424.5000    138.4798      0.0000    896.9583      2.3335
  1424.7500    132.7080      0.0000    820.9063      2.1466
  1425.0000    124.6883      0.0000    738.3981      1.9139
  1425.2500    114.7883      0.0000    627.4457      1.4941
  1425.5000    103.7843      0.0000    458.4576      0.8101
  1425.7500     92.9799      0.0000    261.6089      0.0177
  1426.0000     83.6157      0.0000    108.5600     -0.5932
  1426.2500     76.2641      0.0000     31.2574     -0.9003
  1426.5000     70.9314      0.0000      6.0613     -1.0001
  1426.7500     67.7492      0.0000      0.7741     -1.0210
  1427.0000     67.4302      0.0000      0.0615     -1.0239
  1427.2500     70.9501      0.0000   -999.2500   -999.2500
  1427.5000     78.6858      0.0000   -999.2500   -999.2500
  1427.7500     89.7133      0.0000   -999.2500   -999.2500
  1428.0000    101.9325      0.0000   -999.2500   -999.2500
  1428.2500    113.0464      0.0000   -999.2500   -999.2500
  1428.5000    121.4517      0.0000   -999.2500   -999.2500
  1428.7500    126.3743      0.0000   -999.2500   -999.2500
  1429.0000    127.7375      0.0000   -999.2500   -999.2500
  1429.2500    126.1924      0.0000   -999.2500   -999.2500
  1429.5000    122.8656      0.0000   -999.2500   -999.2500
  1429.7500    118.7834      0.0000   -999.2500   -999.2500
  1430.0000    114.6959      0.0000   -999.2500   -999.2500
  1430.2500    111.5459      0.0000   -999.2500   -999.2500
  1430.5000    110.5715      0.0000   -999.2500   -999.2500
  1430.7500    112.1890      0.0000   -999.2500   -999.2500
  1431.0000    114.8027      0.0000   -999.2500   -999.2500
  1431.2500    115.6711      0.0000   -999.2500   -999.2500
  1431.5000    113.3478      0.0000   -999.2500   -999.2500
  1431.7500    108.6024      0.0000   -999.2500   -999.2500
  1432.0000    102.7673      0.0000   -999.2500   -999.2500
  1432.2500     96.2051      0.0000   -999.2500   -999.2500
  1432.5000     88.8197      0.0000   -999.2500   -999.2500
  1432.7500     81.0974      0.0000   -999.2500   -999.2500
  1433.0000     73.9859      2.0000   -999.2500   -999.2500
  1433.2500     68.3360   -999.2500   -999.2500   -999.2500
  1433.5000     64.8816   -999.2500   -999.2500   -999.2500
  1433.7500     64.2260   -999.2500   -999.2500   -999.2500
  1434.0000     66.4025   -999.2500   -999.2500   -999.2500
  1434.2500     70.8031   -999.2500   -999.2500   -999.2500
  1434.5000     76.8060   -999.2500   -999.2500   -999.2500
  1434.7500     84.0879   -999.2500   -999.2500   -999.2500
  1435.0000     91.6102   -999.2500   -999.2500   -999.2500
  1435.2500     96.1174   -999.2500   -999.2500   -999.2500
  1435.5000     92.6559   -999.2500   -999.2500   -999.2500
  1435.7500     78.3207   -999.2500   -999.2500   -999.2500
  1436.0000     55.9556   -999.2500   -999.2500   -999.2500
  1436.2500     32.9354   -999.2500   -999.2500   -999.2500
  1436.5000     15.7029   -999.2500   -999.2500   -999.2500
  1436.7500      5.9969   -999.2500   -999.2500   -999.2500
  1437.0000      1.8205   -999.2500   -999.2500   -999.2500
  1437.2500      0.4365   -999.2500   -999.2500   -999.2500
  1437.5000      0.0820   -999.2500   -999.2500   -999.2500
  1437.7500      0.0110   -999.2500   -999.2500   -999.2500
  1438.0000      0.0000   -999.2500   -999.2500   -999.2500
  1438.2500   -999.2500   -999.2500   -999.2500   -999.2500
  1438.5000   -999.2500   -999.2500   -999.2500   -999.2500
  1438.7500   -999.2500   -999.2500   -999.2500   -999.2500
  1439.0000   -999.2500   -999.2500   -999.2500   -999.2500
  1439.2500   -999.2500   -999.2500   -999.2500   -999.2500
  1439.5000   -999.2500   -999.2500   -999.2500   -999.2500
