~Version Information
VERS.                      2.0: CWLS Log ASCII Standard - VERSION 2.0
WRAP.                       NO: One line per depth step
~Well Information Block
STRT.FT                 8.7500: 
STOP.FT              2723.0000: 
STEP.FT                 0.2500: 
NULL.                -999.2500: 
COMP.          Pioneer Natural Resources: COMPANY
WELL.           Desoto 13-7 Tr: WELL
FLD.           Purgatoire River: FIELD
LOC.           1404' FSL & 1115' FWL: LOCATION
PROV.                 Colorado: PROVINCE
CNTY.               Las Animas: COUNTRY
SRVC.                Patterson: SERVICE COMPANY
DATE.          Wed Mar 16 18:00:51 2005: LOG DATE
UWI.           05 071 08216 00: UNIQUE WELL ID
~Curve Information Block
DEPT.FT            0 000 00 00: Depth
GR.GAPI                       : Gamma Ray
CCL.                          : Casing Collar Locator
TT3.usec                      : CBL 3' Travel Time
AMP3.mV                       : CBL 3' Amplitude
AMP5.mV                       : CBL 5' Amplitude
~Parameter Information Block
~A  Depth        GR         CCL         TT3         AMP3        AMP5    
# ...
  1632.7500    116.4860      0.0000   1239.9475     35.9888      9.5792
  1633.0000    112.4972      0.0000   1249.1156     35.8344      9.4638
  1633.2500    109.4226      0.0000   1269.1948     35.5620      9.3571
  1633.5000    107.7215      0.0000   1282.9786     35.1952      9.2560
  1633.7500    107.1080      0.0000   1276.6317     34.7625      9.1273
  1634.0000    106.3994      0.0000   1249.4486     34.2670      8.9338
  1634.2500    104.2492      0.0000   1213.6354     33.6895      8.6658
  1634.5000    100.1985      0.0000   1184.1368     33.0169      8.3473
  1634.7500     95.0209      0.0000   1167.3179     32.2736      8.0167
  1635.0000     90.0205      0.0000   1159.4102     31.5245      7.7025
  1635.2500     86.0901      0.0000   1154.1556     30.8394      7.4163
  1635.5000     83.4075      0.0000   1148.1083     30.2447      7.1596
  1635.7500     81.6369      0.0000   1139.6580     29.7131      6.9313
  1636.0000     80.2193      0.0000   1128.9940     29.1994      6.7283
  1636.2500     78.8059      0.0000   1120.3877     28.6819      6.5463
  1636.5000     77.7070      0.0000   1119.9415     28.1689      6.3809
  1636.7500     77.7555      0.0000   1129.6262     27.6748      6.2274
  1637.0000     79.4258      0.0000   1145.4838     27.2029      6.0809
  1637.2500     82.0249      0.0000   1160.9380     26.7479      5.9378
  1637.5000     84.0129      0.0000   1170.1096     26.3105      5.7978
  1637.7500     84.3385      0.0000   1169.8004     25.9055      5.6618
  1638.0000     83.2810      0.0000   1161.3093     25.5514      5.5305
  1638.2500     81.8442      0.0000   1149.7252     25.2495      5.4054
  1638.5000     80.5591      0.0000   1139.8470     24.9790      5.2927
  1638.7500     78.9724      0.0000   1133.5037     24.7201      5.2034
  1639.0000     76.0544      0.0000   1130.6478     24.4752      5.1480
  1639.2500     71.1084      0.0000   1130.4722     24.2623      5.1294
  1639.5000     64.6801      0.0000   1130.1873     24.1026      5.1399
  1639.7500     58.6366      0.0000   1125.1670     24.0207      5.1677
  1640.0000     54.9160      0.0000   1113.3334     24.0415      5.2087
  1640.2500     54.0598      0.0000   1099.6954     24.1731      5.2717
  1640.5000     55.2754      0.0000   1094.1086     24.3976      5.3722
  1640.7500     57.9005      0.0000   1102.7251     24.6870      5.5156
  1641.0000     62.3069      0.0000   1123.0306     25.0121      5.6757
  1641.2500     69.2522      0.0000   1148.2654     25.3158      5.7761
  1641.5000     78.7827      0.0000   1174.2366     25.4662      5.7033
  1641.7500     89.8929      0.0000   1200.4313     25.2796      5.3790
  1642.0000    100.8778      0.0000   1227.1595     24.6356      4.8482
  1642.2500    109.8902      0.0000   1253.2477     23.5783      4.2791
  1642.5000    115.6335      0.0000   1274.4933     22.2897      3.8501
  1642.7500    117.9642      0.0000   1283.6016     21.0072      3.6349
  1643.0000    117.6746      0.0000   1274.7150     19.9944      3.5949
  1643.2500    115.4438      0.0000   1250.3953     19.4716      3.6505
  1643.5000    111.3916      0.0000   1223.0106     19.4635      3.7427
  1643.7500    106.0430      0.0000   1206.7722     19.7622      3.8472
  1644.0000    101.1851      0.0000   1206.6727     20.1062      3.9608
  1644.2500     98.9274      0.0000   1213.2389     20.3761      4.0832
  1644.5000     99.9011      0.0000   1205.2944     20.6714      4.2085
  1644.7500    102.9081      0.0000   1159.8333     21.2928      4.3263
  1645.0000    106.4099      0.0000   1069.1224     22.5959      4.4312
  1645.2500    109.9549      0.0000    954.4221     24.6973      4.5349
  1645.5000    114.0016      0.0000    857.6768     27.3068      4.6773
  1645.7500    118.7537      0.0000    812.6677     29.9508      4.9280
  1646.0000    123.7055      0.0000    824.8017     32.2950      5.3503
  1646.2500    128.2139      0.0000    877.1428     34.1649      5.9377
  1646.5000    131.8665      0.0000    946.5734     35.4143      6.5995
  1646.7500    134.0322      0.0000   1012.5765     35.9603      7.2377
  1647.0000    133.6074      0.0000   1061.5223     35.8860      7.8170
  1647.2500    130.0257      0.0000   1089.9937     35.4109      8.3283
  1647.5000    124.7141      0.0000   1102.9707     34.7826      8.7302
  1647.7500    120.6439      0.0000   1107.6094     34.1990      8.9741
  1648.0000    119.5324      0.0000   1108.8551     33.7730      9.0629
  1648.2500    119.9490      0.0000   1109.0563     33.5124      9.0499
  1648.5000    119.1627      0.0000   1109.1627     33.3496      8.9925
  1648.7500    116.5781      0.0000   1109.4978     33.2198      8.9239
  1649.0000    114.3734      0.0000   1110.0217     33.1259      8.8566
  1649.2500    114.9043      0.0000   1110.2723     33.1170      8.7965
  1649.5000    118.3442      0.0000   1109.2777     33.2053      8.7508
  1649.7500    122.8977      0.0000   1105.4562     33.3279      8.7260
  1650.0000    126.5618      0.0000   1097.2361     33.4008      8.7242
  1650.2500    128.2902      0.0000   1085.5833     33.4022      8.7415
  1650.5000    127.8965      0.0000   1077.2672     33.3860      8.7737
  1650.7500    125.6222      0.0000   1083.3152     33.4121      8.8192
  1651.0000    122.0512      0.0000   1109.1296     33.4709      8.8771
  1651.2500    117.9995      0.0000   1143.8640     33.4844      8.9408
  1651.5000    113.9707      0.0000   1162.9634     33.3761      8.9931
  1651.7500    109.6319      0.0000   1146.5846     33.1293      9.0059
  1652.0000    104.1483      0.0000   1098.6918     32.7871      8.9519
  1652.2500     97.4825      0.0000   1047.1935     32.4123      8.8217
  1652.5000     91.3159      0.0000   1021.8361     32.0462      8.6298
  1652.7500     88.0651      0.0000   1030.6211     31.6790      8.4034
  1653.0000     88.6845      0.0000   1058.3628     31.2455      8.1641
  1653.2500     91.7763      0.0000   1084.8160     30.6691      7.9219
  1653.5000     94.8973      0.0000   1099.9298     29.9341      7.6833
  1653.7500     96.3907      0.0000   1104.6219     29.1126      7.4591
  1654.0000     96.0744      0.0000   1104.0923     28.3100      7.2607
  1654.2500     94.7445      0.0000   1102.6996     27.5866      7.0936
  1654.5000     93.3629      0.0000   1102.0682     26.9339      6.9594
  1654.7500     92.5914      0.0000   1101.2406     26.3220      6.8647
  1655.0000     92.6407      0.0000   1098.3188     25.7569      6.8222
  1655.2500     93.2723      0.0000   1092.4871     25.2914      6.8400
  1655.5000     94.1400      0.0000   1084.8301     25.0008      6.9101
  1655.7500     95.3000      0.0000   1077.4161     24.9594      7.0104
  1656.0000     97.1256      0.0000   1071.5283     25.2196      7.1143
  1656.2500     99.6432      0.0000   1066.5332     25.7886      7.2002
  1656.5000    102.2353      0.0000   1059.9656     26.6127      7.2580
  1656.7500    104.0804      0.0000   1049.1979     27.5833      7.2931
  1657.0000    104.7282      0.0000   1034.8495     28.5615      7.3239
  1657.2500    104.3532      0.0000   1023.3548     29.4192      7.3704
  1657.5000    103.7221      0.0000   1023.7535     30.0867      7.4416
  1657.7500    103.9376      0.0000   1039.3344     30.5794      7.5313
  1658.0000    105.7826      0.0000   1063.7299     30.9719      7.6222
  1658.2500    109.0154      0.0000   1087.1307     31.3308      7.6935
  1658.5000    112.5582      0.0000   1105.0215     31.6568      7.7271
  1658.7500    115.6486      0.0000   1119.5062     31.8860      7.7133
  1659.0000    118.6081      0.0000   1133.5685     31.9417      7.6559
  1659.2500    122.2259      0.0000   1145.7504     31.7812      7.5689
  1659.5000    126.5813      0.0000   1150.9841     31.3978      7.4627
  1659.7500    130.6527      0.0000   1146.4015     30.8054      7.3332
  1660.0000    132.9601      0.0000   1134.8352     30.0450      7.1685
  1660.2500    132.6285      0.0000   1121.5275     29.1925      6.9688
  1660.5000    130.1004      0.0000   1108.3105     28.3325      6.7592
