~Version Information
VERS.                      2.0: CWLS Log ASCII Standard - VERSION 2.0
WRAP.                       NO: One line per depth step
~Well Information Block
STRT.FT               350.0000: 
STOP.FT              2531.5000: 
STEP.FT                 0.1000: 
NULL.                -999.2500: 
COMP.          Pioneer Natural Resources: COMPANY
WELL.          Cock-a-doodle-doo: WELL
FLD.           Purgatoire River: FIELD
LOC.           163' FSL & 54' FEL: LOCATION
PROV.                 Colorado: PROVINCE
CNTY.               Las Animas: COUNTRY
SRVC.                Patterson: SERVICE COMPANY
DATE.          Fri Jul 01 09:34:59 2005: LOG DATE
UWI.           05 071 08429 00: UNIQUE WELL ID
~Curve Information Block
DEPT.FT            0 000 00 00: Depth
DCAL.in                       : CDL Caliper
RHOB.g/cc                     : CDL Bulk Density
RHOC.g/cc                     : CDL Density Correction
DPOR.pu                       : CDL Density Porosity
GR.GAPI                       : Gamma Ray
NPOR.pu                       : Neutron Porosity
~Parameter Information Block
~A  Depth       DCAL        RHOB        RHOC        DPOR         GR         NPOR    
# ...
   494.0000      8.2107      2.5191      0.0450      7.9329    125.3601     27.8058
   494.1000      8.2107      2.5033     -0.0491      8.8922    122.8718     28.3660
   494.2000      8.2107      2.5141      0.0154      8.2379    120.7485     28.2251
   494.3000      8.1946      2.5274      0.0724      7.4295    120.4671     27.8089
   494.4000      8.1946      2.5124      0.0797      8.3373    121.6788     27.6230
   494.5000      8.1705      2.4764      0.0338     10.5235    122.1041     27.6505
   494.6000      8.1705      2.4602      0.0234     11.5036    121.9597     27.5959
   494.7000      8.1705      2.4854      0.0544      9.9729    122.7420     27.3775
   494.8000      8.1627      2.5338      0.1248      7.0450    123.0311     27.0815
   494.9000      8.1627      2.5831      0.0766      4.0568    122.0020     26.6246
   495.0000      8.1557      2.6287      0.1349      1.2888    124.0503     26.2724
   495.1000      8.1557      2.6667      0.2070     -1.0100    133.4956     26.3610
   495.2000      8.1557      2.6920      0.2501     -2.5445    145.8539     26.5651
   495.3000      8.1674      2.7035      0.2978     -3.2400    150.6175     26.4845
   495.4000      8.1674      2.6932      0.3228     -2.6195    144.2428     26.1405
   495.5000      8.2071      2.6557      0.2371     -0.3469    135.8830     25.6177
   495.6000      8.2071      2.6113      0.1202      2.3482    135.5875     25.2975
   495.7000      8.2071      2.5897      0.0587      3.6559    142.2398     25.6565
   495.8000      8.2151      2.5934      0.0914      3.4304    146.0347     26.4045
   495.9000      8.2151      2.6009      0.0801      2.9784    142.1896     26.7951
   496.0000      8.2163      2.5949      0.0742      3.3380    136.6910     26.8211
   496.1000      8.2163      2.5772      0.0313      4.4137    131.9796     26.8194
   496.2000      8.2163      2.5617      0.0411      5.3530    123.9581     26.6342
   496.3000      8.1511      2.5471      0.0615      6.2384    118.5222     26.4802
   496.4000      8.1511      2.5232      0.0490      7.6875    124.1383     26.8180
   496.5000      8.1579      2.5070     -0.0294      8.6676    132.2436     27.2828
   496.6000      8.1579      2.5143      0.0513      8.2224    130.9468     27.3654
   496.7000      8.1579      2.5187      0.0214      7.9573    124.7464     27.0537
   496.8000      8.1478      2.5077     -0.0017      8.6222    124.9220     26.5677
   496.9000      8.1478      2.5070      0.0172      8.6668    131.2886     26.2225
   497.0000      8.1501      2.5220      0.0455      7.7574    129.3435     26.0854
   497.1000      8.1501      2.5386      0.0534      6.7504    114.2646     25.9001
   497.2000      8.1501      2.5606      0.0878      5.4205    100.6295     25.6326
   497.3000      8.1737      2.5889      0.0825      3.7057     97.1162     25.4444
   497.4000      8.1737      2.6032      0.1241      2.8360     95.9691     25.4010
   497.5000      8.2082      2.5924      0.1358      3.4930     88.9863     25.4068
   497.6000      8.2082      2.5751      0.0664      4.5389     80.8692     25.4156
   497.7000      8.2082      2.5733      0.1192      4.6474     79.2731     25.5920
   497.8000      8.2223      2.5855      0.1202      3.9065     79.8425     25.9803
   497.9000      8.2223      2.5966      0.1131      3.2339     77.7407     26.5180
   498.0000      8.2175      2.5989      0.0605      3.0945     74.5783     27.2930
   498.1000      8.2175      2.5980      0.0400      3.1494     72.2534     28.3064
   498.2000      8.2175      2.5913      0.1005      3.5603     71.3543     29.4647
   498.3000      8.2211      2.5683      0.0656      4.9521     71.6533     30.2924
   498.4000      8.2211      2.5335      0.0274      7.0597     72.7773     30.2914
   498.5000      8.2301      2.4976      0.0206      9.2361     73.6694     29.6546
   498.6000      8.2301      2.4653      0.0262     11.1922     71.7610     28.8253
   498.7000      8.2301      2.4398     -0.0267     12.7368     66.6955     28.0571
   498.8000      8.1793      2.4216      0.0322     13.8406     62.4929     27.2310
   498.9000      8.1793      2.4107      0.0591     14.5044     61.2953     26.4670
   499.0000      8.1714      2.4190      0.0403     14.0019     60.9904     25.9935
   499.1000      8.1714      2.4579      0.1234     11.6430     60.6655     25.2148
   499.2000      8.1714      2.5145      0.1897      8.2103     60.2606     24.0160
   499.3000      8.1311      2.5741      0.2032      4.6027     58.4569     23.1412
   499.4000      8.1311      2.6369      0.2976      0.7953     55.6187     22.5278
   499.5000      8.0952      2.6951      0.3620     -2.7345     53.6524     21.8324
   499.6000      8.0952      2.7362      0.3514     -5.2267     53.7846     21.1897
   499.7000      8.0952      2.7564      0.3671     -6.4463     55.9977     20.7205
   499.8000      8.0913      2.7526      0.3299     -6.2175     57.7549     20.3525
   499.9000      8.0913      2.7295      0.2407     -4.8155     56.0960     19.7404
   500.0000      8.0942      2.6897      0.2399     -2.4036     51.7202     19.0085
   500.1000      8.0942      2.6288      0.1536      1.2863     48.9615     18.6263
   500.2000      8.0942      2.5587      0.0900      5.5345     48.5678     18.2722
   500.3000      8.0982      2.5058      0.0034      8.7404     46.5305     17.6144
   500.4000      8.0982      2.4888      0.0154      9.7669     44.4003     17.2272
   500.5000      8.0906      2.5031      0.0940      8.9017     46.1019     17.4392
   500.6000      8.0906      2.5284      0.1087      7.3686     49.2855     17.8071
   500.7000      8.0906      2.5607      0.0724      5.4122     50.1585     18.0838
   500.8000      8.0671      2.6026      0.1378      2.8726     49.6598     18.3966
   500.9000      8.0671      2.6308      0.1802      1.1634     49.4941     18.6399
   501.0000      8.1105      2.6236      0.1647      1.5997     49.2188     18.5551
   501.1000      8.1105      2.5994      0.1350      3.0667     49.4096     18.1520
   501.2000      8.1105      2.5904      0.0889      3.6114     49.8085     17.8379
   501.3000      8.1348      2.5978      0.1252      3.1627     47.5862     17.7900
   501.4000      8.1348      2.5939      0.1713      3.3993     43.4859     17.8691
   501.5000      8.1457      2.5699      0.1075      4.8560     42.1401     18.1019
   501.6000      8.1457      2.5496      0.1015      6.0866     42.4698     18.4176
   501.7000      8.1457      2.5453      0.1038      6.3435     39.8951     18.5092
   501.8000      8.1687      2.5461      0.1278      6.2976     36.0511     18.4301
   501.9000      8.1687      2.5408      0.1109      6.6188     34.4006     18.4233
   502.0000      8.2034      2.5262      0.0818      7.5036     34.0592     18.3454
   502.1000      8.2034      2.5047      0.0755      8.8076     33.2660     18.1245
   502.2000      8.2034      2.4884      0.0207      9.7959     32.9732     18.0367
   502.3000      8.2113      2.4868      0.0640      9.8914     34.5992     18.0432
   502.4000      8.2113      2.4907      0.0883      9.6553     36.1557     17.8701
   502.5000      8.2170      2.5009      0.0351      9.0393     34.2976     17.5726
   502.6000      8.2170      2.5188      0.1599      7.9496     29.6213     17.2459
   502.7000      8.2170      2.5269      0.1393      7.4584     26.8120     16.7591
   502.8000      8.2154      2.5299      0.1288      7.2758     28.3384     16.2173
   502.9000      8.2154      2.5483      0.1598      6.1632     31.1577     16.1284
   503.0000      8.2121      2.5850      0.1418      3.9403     32.1236     16.6570
   503.1000      8.2121      2.6251      0.1648      1.5078     30.7557     17.1266
   503.2000      8.2121      2.6412      0.2007      0.5304     29.0037     16.8370
   503.3000      8.1903      2.6255      0.1739      1.4867     29.5330     16.0340
   503.4000      8.1903      2.6008      0.1887      2.9802     32.4961     15.4101
   503.5000      8.1869      2.5827      0.1818      4.0809     35.4641     15.2718
