~Version Information
VERS.                      2.0: CWLS Log ASCII Standard - VERSION 2.0
WRAP.                       NO: One line per depth step
~Well Information Block
STRT.FT               590.0000: 
STOP.FT              1563.5000: 
STEP.FT                 0.1000: 
NULL.                -999.2500: 
COMP.          Petrogulf Corporation: COMPANY
WELL.             State 16-43R: WELL
FLD.           Purgatorie River: FIELD
LOC.           2538' FSL & 716' FEL: LOCATION
PROV.                 Colorado: PROVINCE
CNTY.               Las Animas: COUNTRY
SRVC.                Patterson: SERVICE COMPANY
DATE.          Tue Aug 09 14:21:37 2005: LOG DATE
UWI.                          : UNIQUE WELL ID
~Curve Information Block
DEPT.FT            0 000 00 00: Depth
DCAL.in                       : CDL Caliper
RHOB.g/cc                     : CDL Bulk Density
RHOC.g/cc                     : CDL Density Correction
DPOR.pu                       : CDL Density Porosity
GR.GAPI                       : Gamma Ray
NPOR.pu                       : Neutron Porosity
~Parameter Information Block
~A  Depth       DCAL        RHOB        RHOC        DPOR         GR         NPOR    
# ...
  1089.2000      8.1375      2.4621      0.0248     11.3902     99.0731     19.9060
  1089.3000      8.1308      2.4720      0.0806     10.7861     99.5266     19.7996
  1089.4000      8.1308      2.4893      0.0702      9.7374     99.3526     19.6653
  1089.5000      8.1273      2.4958      0.0941      9.3485     99.0490     19.5525
  1089.6000      8.1273      2.4883      0.0753      9.8000     97.6472     19.5884
  1089.7000      8.1273      2.4802      0.0454     10.2930     94.6349     19.7094
  1089.8000      8.1266      2.4766      0.0857     10.5088     92.2389     19.6562
  1089.9000      8.1266      2.4743      0.0591     10.6512     92.8401     19.4445
  1090.0000      8.1245      2.4811      0.0316     10.2335     94.2991     19.4339
  1090.1000      8.1245      2.4934      0.0904      9.4919     93.4714     19.6710
  1090.2000      8.1245      2.4901      0.0958      9.6895     91.4546     19.7640
  1090.3000      8.1252      2.4715      0.0457     10.8153     91.2476     19.6801
  1090.4000      8.1252      2.4547      0.0562     11.8341     93.3076     19.8818
  1090.5000      8.1053      2.4482      0.0333     12.2326     94.5271     20.4032
  1090.6000      8.1053      2.4510      0.0564     12.0617     93.3694     20.6444
  1090.7000      8.1053      2.4581      0.0356     11.6311     93.1486     20.3941
  1090.8000      8.1062      2.4656      0.0747     11.1732     94.7430     20.1307
  1090.9000      8.1062      2.4763      0.0459     10.5245     95.7539     20.1836
  1091.0000      8.1063      2.4934      0.1025      9.4883     95.2263     20.4336
  1091.1000      8.1063      2.5091      0.0887      8.5380     93.4866     20.5522
  1091.2000      8.1063      2.5169      0.0750      8.0658     92.7302     20.3276
  1091.3000      8.1118      2.5208      0.0727      7.8315     95.5889     19.9427
  1091.4000      8.1118      2.5226      0.0948      7.7196    100.6681     19.7088
  1091.5000      8.1062      2.5191      0.0657      7.9316    103.7439     19.6850
  1091.6000      8.1062      2.5127      0.0613      8.3203    103.4648     19.8013
  1091.7000      8.1062      2.5072      0.0673      8.6573    103.1784     20.0260
  1091.8000      8.1062      2.5024      0.0657      8.9440    105.6847     20.3465
  1091.9000      8.1062      2.5004      0.0655      9.0643    109.6052     20.6427
  1092.0000      8.1133      2.5044      0.0431      8.8229    111.2388     20.7478
  1092.1000      8.1133      2.5145      0.0634      8.2138    110.8952     20.6972
  1092.2000      8.1133      2.5271      0.0975      7.4506    110.8755     20.5097
  1092.3000      8.1168      2.5349      0.0896      6.9782    109.5902     20.1546
  1092.4000      8.1168      2.5294      0.0910      7.3079    106.5416     20.0262
  1092.5000      8.1096      2.5150      0.0378      8.1820    103.3963     20.3798
  1092.6000      8.1096      2.5071      0.0499      8.6616    100.9664     20.8364
  1092.7000      8.1096      2.5093      0.0654      8.5248    100.2783     21.0998
  1092.8000      8.1233      2.5146      0.0555      8.2044    101.7635     21.3634
  1092.9000      8.1233      2.5169      0.0706      8.0656    104.8252     21.6121
  1093.0000      8.1555      2.5163      0.0257      8.1019    108.8704     21.5519
  1093.1000      8.1555      2.5174      0.0839      8.0375    111.6023     21.3520
  1093.2000      8.1555      2.5197      0.0670      7.8982    110.0009     21.4074
  1093.3000      8.1432      2.5273      0.0428      7.4385    106.6392     21.7559
  1093.4000      8.1432      2.5462      0.0612      6.2891    106.8806     22.1389
  1093.5000      8.1225      2.5653      0.0997      5.1304    110.4709     22.2371
  1093.6000      8.1225      2.5658      0.0937      5.1037    113.8774     21.8601
  1093.7000      8.1225      2.5434      0.0655      6.4590    115.0916     21.3205
  1093.8000      8.1083      2.5165      0.0131      8.0931    112.3287     21.1192
  1093.9000      8.1083      2.5082      0.0244      8.5933    106.2466     21.1580
  1094.0000      8.1148      2.5183      0.0483      7.9804    102.3383     21.1945
  1094.1000      8.1148      2.5271      0.0508      7.4494    103.7455     21.2849
  1094.2000      8.1148      2.5212      0.0454      7.8049    107.9567     21.3575
  1094.3000      8.1100      2.5069      0.0145      8.6743    110.4981     21.3740
  1094.4000      8.1100      2.5009      0.0131      9.0373    108.7779     21.4505
  1094.5000      8.1138      2.5096      0.0521      8.5101    105.0483     21.3898
  1094.6000      8.1138      2.5221      0.0824      7.7536    103.0130     20.9617
  1094.7000      8.1138      2.5233      0.0875      7.6795    102.5805     20.5744
  1094.8000      8.1194      2.5092      0.0576      8.5355    102.4731     20.6942
  1094.9000      8.1194      2.4905      0.0452      9.6647    102.2755     21.0726
  1095.0000      8.1216      2.4817      0.0103     10.2014    101.6372     21.2650
  1095.1000      8.1216      2.4839      0.0444     10.0670    102.2315     21.2205
  1095.2000      8.1216      2.4896      0.0106      9.7228    105.5841     21.0993
  1095.3000      8.1432      2.4970      0.0578      9.2757    109.2265     20.9504
  1095.4000      8.1432      2.5041      0.0488      8.8435    109.7282     20.7622
  1095.5000      8.1527      2.5070      0.0962      8.6661    108.2748     20.4951
  1095.6000      8.1527      2.5068      0.0416      8.6787    106.8897     20.2269
  1095.7000      8.1527      2.5047      0.0520      8.8058    106.0016     20.2790
  1095.8000      8.1639      2.4983      0.0520      9.1913    107.7930     20.6776
  1095.9000      8.1639      2.4907      0.0218      9.6533    112.6181     21.0576
  1096.0000      8.1687      2.4857      0.0690      9.9596    116.4847     21.1972
  1096.1000      8.1687      2.4851      0.0229      9.9930    116.4441     21.2719
  1096.2000      8.1687      2.4930      0.0439      9.5180    113.4071     21.4932
  1096.3000      8.1979      2.5014      0.0980      9.0048    110.2940     21.6648
  1096.4000      8.1979      2.4997      0.0725      9.1117    108.6414     21.6159
  1096.5000      8.2354      2.4948      0.0661      9.4057    108.8400     21.5147
  1096.6000      8.2354      2.4958      0.0516      9.3456    110.2707     21.2971
  1096.7000      8.2354      2.4990      0.0689      9.1533    110.8001     20.9478
  1096.8000      8.2618      2.4957      0.0653      9.3486    109.6592     20.9131
  1096.9000      8.2618      2.4818      0.0436     10.1967    108.3922     21.3712
  1097.0000      8.2864      2.4645      0.0146     11.2395    107.8985     21.6574
  1097.1000      8.2864      2.4606      0.0089     11.4801    107.9026     21.2647
  1097.2000      8.2864      2.4740      0.0443     10.6656    107.7805     20.6227
  1097.3000      8.3201      2.4906      0.0518      9.6618    105.9942     20.2408
  1097.4000      8.3201      2.4995      0.0365      9.1241    101.4767     20.3396
  1097.5000      8.3604      2.4979      0.0833      9.2185     96.7461     20.7617
  1097.6000      8.3604      2.4852      0.0490      9.9849     96.1375     20.9777
  1097.7000      8.3604      2.4740      0.0429     10.6679     98.7433     21.0050
  1097.8000      8.3664      2.4750      0.0893     10.6062    100.1843     21.1802
  1097.9000      8.3664      2.4753      0.0944     10.5904     99.7124     21.2210
  1098.0000      8.3748      2.4633      0.0505     11.3164     98.6819     20.8739
  1098.1000      8.3748      2.4515      0.0315     12.0332     98.0713     20.3442
  1098.2000      8.3748      2.4532      0.0491     11.9244     98.4585     19.9645
  1098.3000      8.3825      2.4617      0.0662     11.4100     99.7577     20.0433
  1098.4000      8.3825      2.4617      0.0411     11.4138    100.0962     20.3807
  1098.5000      8.4034      2.4503      0.0351     12.1049     98.4985     20.5374
  1098.6000      8.4034      2.4398      0.0126     12.7389     96.8625     20.5892
  1098.7000      8.4034      2.4413      0.0449     12.6483     95.2330     20.7835
