~Version Information
VERS.                      2.0: CWLS Log ASCII Standard - VERSION 2.0
WRAP.                       NO: One line per depth step
~Well Information Block
STRT.FT                -5.5000: 
STOP.FT              1979.7500: 
STEP.FT                 0.2500: 
NULL.                -999.2500: 
COMP.          Pioneer Natural Resources: COMPANY
WELL.          Bucksnort 41-35: WELL
FLD.           Purgatorie River: FIELD
LOC.           117' FNL & 463' FEL: LOCATION
PROV.                 Colorado: PROVINCE
CNTY.               Las Animas: COUNTRY
SRVC.                Patterson: SERVICE COMPANY
DATE.          Fri Jul 29 10:31:46 2005: LOG DATE
UWI.                          : UNIQUE WELL ID
~Curve Information Block
DEPT.FT            0 000 00 00: Depth
GR.GAPI                       : Gamma Ray
CCL.                          : Casing Collar Locator
TT3.usec                      : CBL 3' Travel Time
AMP3.mV                       : CBL 3' Amplitude
~Parameter Information Block
~A  Depth        GR         CCL         TT3         AMP3    
# ...
   128.5000     82.9635      0.0000    746.6408     10.8595
   128.7500     85.3407      0.0000    755.7129     10.8301
   129.0000     90.2933      0.0000    758.7798     10.8072
   129.2500     94.5458      0.0000    758.2028     10.7818
   129.5000     94.9958      0.0000    760.1230     10.7312
   129.7500     91.4507      0.0000    766.1396     10.6575
   130.0000     86.9392      0.0000    770.1976     10.5929
   130.2500     85.0303      0.0000    764.5081     10.5533
   130.5000     86.7973      0.0000    748.8999     10.5226
   130.7500     90.3680      0.0000    727.6302     10.4926
   131.0000     92.9530      0.0000    697.9772     10.4808
   131.2500     92.9999      0.0000    658.1826     10.5014
   131.5000     90.8325      0.0000    628.8138     10.5433
   131.7500     87.9608      0.0000    638.9434     10.5848
   132.0000     86.0286      0.0000    683.2762     10.6275
   132.2500     86.0720      0.0000    726.2789     10.6925
   132.5000     88.1120      0.0000    748.7656     10.7804
   132.7500     90.9854      0.0000    759.2161     10.8658
   133.0000     92.8767      0.0000    769.7032     10.9271
   133.2500     92.6618      0.0000    782.0364     10.9519
   133.5000     90.7220      0.0000    791.8552     10.9436
   133.7500     88.2043      0.0000    796.4257     10.9389
   134.0000     85.8310      0.0000    795.5514     10.9883
   134.2500     83.7001      0.0000    788.0245     11.1061
   134.5000     81.7528      0.0000    772.7524     11.2508
   134.7500     79.9394      0.0000    754.0674     11.3679
   135.0000     78.2065      0.0000    740.7358     11.4544
   135.2500     76.7669      0.0000    737.6916     11.5523
   135.5000     76.2255      0.0000    740.6992     11.6882
   135.7500     77.1183      0.0000    738.6951     11.8545
   136.0000     79.3738      0.0000    724.9346     12.0467
   136.2500     82.3249      0.0000    706.1339     12.2799
   136.5000     85.0107      0.0000    693.8928     12.5668
   136.7500     86.4647      0.0000    689.8690     12.8994
   137.0000     86.3178      0.0000    683.9060     13.2429
   137.2500     85.3574      0.0000    665.5389     13.5442
   137.5000     84.7623      0.0000    639.3421     13.7650
   137.7500     84.4382      0.0000    626.7027     13.9083
   138.0000     82.8664      0.0000    644.2601     14.0041
   138.2500     79.0430      0.0000    689.5146     14.0796
   138.5000     73.8357      0.0000    752.7253     14.1582
   138.7500     68.9071      0.0000    820.1019     14.2752
   139.0000     64.8819      0.0000    871.5836     14.4596
   139.2500     61.1368      0.0000    898.6763     14.6942
   139.5000     57.1426      0.0000    911.2976     14.9065
   139.7500     53.4925      0.0000    920.0708     15.0256
   140.0000     51.4115      0.0000    927.2422     15.0423
   140.2500     51.4555      0.0000    931.4421     14.9945
   140.5000     53.0283      0.0000    928.7058     14.9192
   140.7500     55.1066      0.0000    916.3281     14.8348
   141.0000     56.9459      0.0000    900.3609     14.7421
   141.2500     58.0371      0.0000    889.7445     14.6296
   141.5000     58.0052      0.0000    884.9689     14.4803
   141.7500     56.9234      0.0000    879.7134     14.2882
   142.0000     55.4421      0.0000    871.3226     14.0640
   142.2500     54.3062      0.0000    863.2452     13.8112
   142.5000     53.7503      0.0000    858.3508     13.5203
   142.7500     53.4750      0.0000    856.0276     13.1964
   143.0000     53.2177      0.0000    854.7883     12.8629
   143.2500     53.2345      0.0000    853.8929     12.5450
   143.5000     54.1182      0.0000    852.5414     12.2667
   143.7500     56.0845      0.0000    847.7886     12.0424
   144.0000     58.4493      0.0000    833.6562     11.8632
   144.2500     59.8976      0.0000    807.8674     11.7074
   144.5000     59.4741      0.0000    783.5158     11.5539
   144.7500     57.4994      0.0000    782.2616     11.3845
   145.0000     55.4167      0.0000    807.1555     11.1974
   145.2500     54.3702      0.0000    837.4769     11.0128
   145.5000     53.8763      0.0000    854.2928     10.8584
   145.7500     52.3588      0.0000    855.1294     10.7535
   146.0000     49.1517      0.0000    846.2367     10.6990
   146.2500     45.4024      0.0000    834.2965     10.6794
   146.5000     42.7830      0.0000    826.2221     10.6728
   146.7500     42.0371      0.0000    826.4466     10.6530
   147.0000     43.0894      0.0000    831.3677     10.5983
   147.2500     45.7000      0.0000    834.4338     10.5065
   147.5000     49.3685      0.0000    833.0334     10.3930
   147.7500     53.1839      0.0000    824.9201     10.2912
   148.0000     56.3869      0.0000    806.2641     10.2441
   148.2500     58.8627      0.0000    776.7043     10.2750
   148.5000     60.7948      0.0000    744.6285     10.3827
   148.7500     62.0329      0.0000    718.0232     10.5700
   149.0000     62.1568      0.0000    686.4883     10.8235
   149.2500     61.2525      0.0000    636.9422     11.0534
   149.5000     60.3287      0.0000    587.5874     11.0413
   149.7500     60.5028      0.0000    572.3560     10.4879
   150.0000     61.6925      0.0000    596.7257      9.4109
   150.2500     62.5029      0.0000    639.9360      8.3657
   150.5000     61.7608      0.0000    687.0975      7.8307
   150.7500     60.0739      0.0000    732.5413      7.7297
   151.0000     59.6045     -2.0000    774.4399      7.7502
   151.2500     62.1591     -2.0000    820.1218      7.7161
   151.5000     67.5881      0.0000    868.1358      7.6324
   151.7500     74.1374      0.0000    891.8377      7.6092
   152.0000     80.1740      0.0000    865.0093      7.7554
   152.2500     85.3620      0.0000    795.3461      7.9794
   152.5000     90.2668      0.0000    718.7632      7.9702
   152.7500     95.0309      0.0000    662.1422      7.7404
   153.0000     98.4894      0.0000    630.0475      7.8224
   153.2500     98.7056      0.0000    617.7052      8.4802
   153.5000     94.7890      0.0000    618.2618      9.3654
   153.7500     88.3112      0.0000    630.9507     10.0483
   154.0000     82.5640      0.0000    661.2195     10.3769
   154.2500     80.0923      0.0000    701.8235     10.4150
   154.5000     80.9732      0.0000    730.1131     10.2755
   154.7500     83.4430      0.0000    733.2247     10.0560
   155.0000     85.8288      0.0000    721.6536      9.8527
   155.2500     87.6070      0.0000    711.1299      9.7376
   155.5000     88.9935      0.0000    705.4993      9.7381
   155.7500     90.2048      0.0000    700.4636      9.8621
   156.0000     91.2900      0.0000    691.5615     10.1149
   156.2500     92.2774      0.0000    676.8106     10.4631
   156.5000     93.2836      0.0000    657.7191     10.7976
   156.7500     94.5954      0.0000    640.9908     11.0057
   157.0000     96.4595      0.0000    636.7247     11.0968
   157.2500     98.5062      0.0000    649.4842     11.1787
   157.5000     99.6677      0.0000    671.7536     11.3064
   157.7500     99.0745      0.0000    690.7242     11.4253
   158.0000     96.9517      0.0000    700.3917     11.4380
   158.2500     94.3643      0.0000    702.3023     11.3292
   158.5000     92.3524      0.0000    696.8499     11.2394
   158.7500     91.5737      0.0000    679.6056     11.3317
   159.0000     92.3365      0.0000    649.3416     11.5924
   159.2500     94.3369      0.0000    614.6205     11.8574
   159.5000     96.4797      0.0000    583.9331     12.0156
   159.7500     97.4878      0.0000    562.2321     12.1066
   160.0000     96.8711      0.0000    559.0134     12.2234
   160.2500     95.1165      0.0000    575.7333     12.3872
   160.5000     92.8363      0.0000    597.6271     12.5600
   160.7500     89.8784      0.0000    613.7097     12.7135
   161.0000     85.4935      0.0000    628.0082     12.8166
   161.2500     79.4389      0.0000    647.8819     12.8464
   161.5000     72.6490      0.0000    671.4803     12.8303
   161.7500     66.6799      0.0000    689.6305     12.7900
