~Version Information
VERS.                      2.0: CWLS Log ASCII Standard - VERSION 2.0
WRAP.                       NO: One line per depth step
~Well Information Block
STRT.FT                -7.0000: 
STOP.FT              2730.2500: 
STEP.FT                 0.2500: 
NULL.                -999.2500: 
COMP.          Pioneer Natural Resources: COMPANY
WELL.             Squeal 11-26: WELL
FLD.           Purgatorie River: FIELD
LOC.           1186' FNL & 152' FWL--: LOCATION
PROV.                       CO: PROVINCE
CNTY.               Las Animas: COUNTRY
SRVC.          Patterson Wireline: SERVICE COMPANY
DATE.          Tue Jul 26 11:59:46 2005: LOG DATE
UWI.           05 071 08404 00: UNIQUE WELL ID
~Curve Information Block
DEPT.FT            0 000 00 00: Depth
CCL.                          : Casing Collar Locator
TT3.usec                      : CBL 3' Travel Time
AMP3.mV                       : CBL 3' Amplitude
GR.GAPI                       : Gamma Ray
~Parameter Information Block
~A  Depth       CCL         TT3         AMP3         GR     
# ...
  1969.5000      0.0000    642.3468      4.1951    149.9280
  1969.7500      0.0000    639.6188      4.1771    150.5122
  1970.0000      0.0000    636.7789      4.1476    151.4289
  1970.2500      0.0000    635.2922      4.0986    153.7763
  1970.5000      0.0000    635.7626      4.0373    157.2782
  1970.7500      0.0000    638.5947      3.9868    160.0635
  1971.0000      0.0000    644.0170      3.9738    160.0853
  1971.2500      0.0000    651.3981      4.0093    157.0029
  1971.5000      0.0000    659.1004      4.0820    152.5547
  1971.7500      0.0000    665.6259      4.1679    148.9049
  1972.0000      0.0000    670.6555      4.2457    146.8012
  1972.2500      0.0000    674.3690      4.3044    145.3972
  1972.5000      0.0000    676.2192      4.3427    143.2757
  1972.7500      0.0000    675.1641      4.3656    139.4289
  1973.0000      0.0000    670.8862      4.3807    133.8909
  1973.2500      0.0000    663.8276      4.3967    127.8587
  1973.5000      0.0000    654.2946      4.4255    122.8836
  1973.7500      0.0000    643.1886      4.4881    119.6699
  1974.0000      0.0000    634.4130      4.6070    117.7335
  1974.2500      0.0000    634.4971      4.7764    116.1502
  1974.5000      0.0000    647.1497      4.9344    114.3216
  1974.7500      0.0000    668.5610      4.9911    112.1483
  1975.0000      0.0000    689.5740      4.9083    109.8736
  1975.2500      0.0000    701.9495      4.7475    107.6768
  1975.5000      0.0000    701.8796      4.6290    105.1888
  1975.7500      0.0000    690.0444      4.6513    101.5730
  1976.0000      2.0000    671.5458      4.8446     96.3669
  1976.2500      0.0000    655.4128      5.1699     90.1406
  1976.5000      0.0000    649.5004      5.5413     84.2012
  1976.7500      0.0000    652.5789      5.8664     79.9548
  1977.0000      0.0000    654.4283      6.0818     78.7094
  1977.2500      0.0000    647.6249      6.1466     81.5893
  1977.5000      0.0000    636.8376      6.0246     89.0579
  1977.7500      0.0000    632.7652      5.7154    100.4307
  1978.0000      0.0000    639.7695      5.2964    113.8833
  1978.2500      0.0000    653.2603      4.8928    127.0340
  1978.5000      0.0000    666.6175      4.5980    137.9094
  1978.7500      0.0000    676.7401      4.4420    145.7718
  1979.0000      0.0000    683.9688      4.4182    151.1268
  1979.2500      0.0000    689.9203      4.5117    154.9566
  1979.5000      0.0000    695.8839      4.6989    157.8076
  1979.7500      0.0000    701.9619      4.9405    159.3378
  1980.0000      0.0000    707.0620      5.1921    158.7422
  1980.2500      0.0000    710.1557      5.4233    155.7147
  1980.5000      0.0000    711.4808      5.6258    150.9296
  1980.7500      0.0000    712.0875      5.8022    145.7461
  1981.0000      0.0000    712.4661      5.9523    141.6410
  1981.2500      0.0000    712.5716      6.0677    139.7057
  1981.5000      0.0000    712.9974      6.1333    140.1711
  1981.7500      0.0000    714.8832      6.1347    142.2597
  1982.0000      0.0000    718.3046      6.0648    144.6800
  1982.2500      0.0000    721.6078      5.9252    146.4295
  1982.5000      0.0000    722.6288      5.7231    147.2124
  1982.7500      0.0000    720.2477      5.4755    147.3843
  1983.0000      0.0000    715.1726      5.2171    147.8531
  1983.2500      0.0000    709.9656      4.9901    149.8228
  1983.5000      0.0000    707.8188      4.8205    153.8838
  1983.7500      0.0000    710.1431      4.7063    158.9522
  1984.0000      0.0000    715.2797      4.6287    162.4688
  1984.2500      0.0000    719.9863      4.5688    162.2793
  1984.5000      0.0000    721.9120      4.5159    158.7262
  1984.7500      0.0000    720.5518      4.4680    154.7435
  1985.0000      0.0000    716.6676      4.4272    153.4698
  1985.2500      0.0000    711.4341      4.3943    155.7567
  1985.5000      0.0000    705.9681      4.3682    159.8377
  1985.7500      0.0000    701.3461      4.3511    162.8109
  1986.0000      0.0000    698.6486      4.3516    162.3961
  1986.2500      0.0000    698.2563      4.3773    158.1873
  1986.5000      0.0000    698.6129      4.4234    151.7467
  1986.7500      0.0000    696.2383      4.4733    145.2103
  1987.0000      0.0000    688.2831      4.5107    139.6338
  1987.2500      0.0000    675.8925      4.5295    134.8440
  1987.5000      0.0000    664.3212      4.5315    130.6836
  1987.7500      0.0000    658.6122      4.5229    127.8013
  1988.0000      0.0000    659.3869      4.5137    127.0637
  1988.2500      0.0000    663.5956      4.5163    128.5997
  1988.5000      0.0000    668.6337      4.5361    131.5910
  1988.7500      0.0000    674.3731      4.5631    134.5275
  1989.0000      0.0000    681.5460      4.5793    135.4182
  1989.2500      0.0000    689.5140      4.5741    132.3378
  1989.5000      0.0000    695.8586      4.5538    124.6917
  1989.7500      0.0000    697.5557      4.5352    114.4739
  1990.0000      0.0000    692.7784      4.5320    105.9891
  1990.2500      0.0000    682.6086      4.5473    103.3959
  1990.5000      0.0000    671.2544      4.5728    107.8137
  1990.7500      0.0000    663.6100      4.5910    116.7360
  1991.0000      0.0000    662.0168      4.5838    126.0225
  1991.2500      0.0000    665.4666      4.5428    132.0973
  1991.5000      0.0000    671.3177      4.4731    132.9361
  1991.7500      0.0000    677.1400      4.3857    128.5255
  1992.0000      0.0000    681.5559      4.2906    120.9447
  1992.2500      0.0000    684.3765      4.1994    113.2490
  1992.5000      0.0000    686.2967      4.1281    107.8498
  1992.7500      0.0000    688.2682      4.0903    106.0945
  1993.0000      0.0000    690.7481      4.0867    108.7911
  1993.2500      0.0000    693.1966      4.1028    116.1101
  1993.5000      0.0000    694.4217      4.1193    126.9465
  1993.7500      0.0000    693.7419      4.1240    139.1368
  1994.0000      0.0000    691.7238      4.1146    150.5452
  1994.2500      0.0000    689.5804      4.0953    159.6036
  1994.5000      0.0000    688.1014      4.0724    165.0420
  1994.7500      0.0000    687.3467      4.0535    166.1204
  1995.0000      0.0000    687.0641      4.0468    163.6963
  1995.2500      0.0000    687.0574      4.0571    160.4160
  1995.5000      0.0000    687.2458      4.0828    158.8538
  1995.7500      0.0000    687.6798      4.1160    159.2055
  1996.0000      0.0000    688.7167      4.1453    159.3989
  1996.2500      0.0000    691.1393      4.1625    157.7181
  1996.5000      0.0000    695.8057      4.1704    154.7294
  1996.7500      0.0000    702.8080      4.1883    152.3087
  1997.0000      0.0000    710.9406      4.2470    151.4484
  1997.2500      0.0000    718.2914      4.3755    151.5191
  1997.5000      0.0000    723.5297      4.5913    151.2084
  1997.7500      0.0000    726.5897      4.8971    149.6025
  1998.0000      0.0000    728.3000      5.2851    146.5844
  1998.2500      0.0000    729.7155      5.7420    142.9500
  1998.5000      0.0000    731.8940      6.2547    140.3748
  1998.7500      0.0000    735.9753      6.8133    140.5594
  1999.0000      0.0000    742.8297      7.4076    143.7066
  1999.2500      0.0000    752.0080      8.0146    147.9545
  1999.5000      0.0000    760.9055      8.5819    150.6558
  1999.7500      0.0000    765.5316      9.0231    150.1524
  2000.0000      0.0000    762.9794      9.2379    146.4534
  2000.2500      0.0000    753.7780      9.1546    140.8547
  2000.5000      0.0000    741.8456      8.7713    135.1264
  2000.7500      0.0000    731.6789      8.1617    130.4926
  2001.0000      0.0000    725.3562      7.4370    127.0481
  2001.2500      0.0000    722.2154      6.6959    124.2360
  2001.5000      0.0000    720.5806      6.0048    121.6895
  2001.7500      0.0000    718.8458      5.4047    119.3577
  2002.0000      0.0000    715.5400      4.9188    117.0743
  2002.2500      0.0000    709.8795      4.5516    114.5824
  2002.5000      0.0000    702.6291      4.2899    112.1151
  2002.7500      0.0000    695.7274      4.1099    110.5145
