~Version Information
VERS.                      2.0: CWLS Log ASCII Standard - VERSION 2.0
WRAP.                       NO: One line per depth step
~Well Information Block
STRT.FT               651.5000: 
STOP.FT              2190.5000: 
STEP.FT                 0.2500: 
NULL.                -999.2500: 
COMP.          Pioneer Natural Resources: COMPANY
WELL.               King 22-13: WELL
FLD.           Purgatoire River: FIELD
LOC.           2419' FNL & 1806' FWL----: LOCATION
PROV.                 Colorado: PROVINCE
CNTY.               Las Animas: COUNTRY
SRVC.                Patterson: SERVICE COMPANY
DATE.          Thu Mar 31 14:33:28 2005: LOG DATE
UWI.           05 071 08318 00: UNIQUE WELL ID
~Curve Information Block
DEPT.FT            0 000 00 00: Depth
SN.Ohm-m                      : IEL Short Normal
SP.mV                         : IEL Spontaneous Potential
DIR.Ohm-m                     : IEL Induction Resistivity
GR.GAPI                       : Gamma Ray
~Parameter Information Block
~A  Depth        SN          SP         DIR          GR     
# ...
  1053.5000     21.8832   -121.4723     15.5025     96.0090
  1053.7500     20.4599   -121.4979     15.8771     99.8376
  1054.0000     19.2688   -121.4997     16.4642    107.2324
  1054.2500     18.1927   -121.4762     17.1948    111.9132
  1054.5000     17.2449   -121.4169     17.9656    117.1808
  1054.7500     16.5086   -121.3015     18.6656    119.9661
  1055.0000     16.0283   -121.1078     19.2143    124.8040
  1055.2500     15.7835   -120.8270     19.5837    128.8090
  1055.5000     15.7258   -120.4741     19.7922    134.8167
  1055.7500     15.8151   -120.0833     19.8782    138.0123
  1056.0000     16.0250   -119.6888     19.8782    141.1898
  1056.2500     16.3202   -119.3091     19.8184    142.0350
  1056.5000     16.6504   -118.9479     19.7184    140.0634
  1056.7500     16.9743   -118.6050     19.5960    135.8513
  1057.0000     17.2733   -118.2856     19.4683    125.8912
  1057.2500     17.5357   -118.0052     19.3497    118.4556
  1057.5000     17.7233   -117.7884     19.2496    109.4142
  1057.7500     17.7628   -117.6652     19.1726    106.0772
  1058.0000     17.5944   -117.6638     19.1192    105.3582
  1058.2500     17.2293   -117.8062     19.0846    107.0147
  1058.5000     16.7328   -118.1009     19.0584    111.2248
  1058.7500     16.1624   -118.5375     19.0243    114.5012
  1059.0000     15.5520   -119.0878     18.9620    119.1228
  1059.2500     14.9425   -119.7187     18.8527    121.5646
  1059.5000     14.4083   -120.4039     18.6847    124.0413
  1059.7500     14.0579   -121.1280     18.4575    124.9889
  1060.0000     13.9890   -121.8826     18.1820    125.4700
  1060.2500     14.2130   -122.6651     17.8793    125.2147
  1060.5000     14.6233   -123.4777     17.5758    124.0603
  1060.7500     15.0232   -124.3196     17.2978    122.6889
  1061.0000     15.2026   -125.1791     17.0659    119.4128
  1061.2500     15.0658   -126.0318     16.8912    116.6790
  1061.5000     14.7173   -126.8491     16.7762    113.7019
  1061.7500     14.3879   -127.6084     16.7172    114.0019
  1062.0000     14.2547   -128.2979     16.7072    119.1764
  1062.2500     14.3343   -128.9146     16.7376    124.9936
  1062.5000     14.5256   -129.4564     16.7965    133.8585
  1062.7500     14.7128   -129.9162     16.8687    137.8694
  1063.0000     14.8317   -130.2772     16.9380    139.8178
  1063.2500     14.8897   -130.5128     16.9951    139.1355
  1063.5000     14.9497   -130.5942     17.0447    137.1888
  1063.7500     15.0736   -130.5057     17.1046    135.9996
  1064.0000     15.2752   -130.2577     17.1942    134.8880
  1064.2500     15.5259   -129.8840     17.3222    135.0934
  1064.5000     15.7828   -129.4238     17.4829    138.0409
  1064.7500     16.0106   -128.9051     17.6625    141.7776
  1065.0000     16.1979   -128.3407     17.8497    148.0067
  1065.2500     16.3582   -127.7384     18.0403    151.0284
  1065.5000     16.5143   -127.1129     18.2333    152.9806
  1065.7500     16.6768   -126.4902     18.4251    153.2234
  1066.0000     16.8419   -125.9056     18.6062    152.7977
  1066.2500     17.0073   -125.4001     18.7629    151.2863
  1066.5000     17.1811   -125.0153     18.8800    145.4722
  1066.7500     17.3693   -124.7855     18.9429    139.4502
  1067.0000     17.5557   -124.7286     18.9393    129.7602
  1067.2500     17.7012   -124.8398     18.8619    124.4561
  1067.5000     17.7636   -125.0922     18.7113    119.8245
  1067.7500     17.7159   -125.4441     18.4958    119.1192
  1068.0000     17.5641   -125.8537     18.2260    120.3704
  1068.2500     17.3539   -126.2928     17.9106    121.2831
  1068.5000     17.1245   -126.7518     17.5537    120.8334
  1068.7500     16.8692   -127.2369     17.1558    119.4870
  1069.0000     16.5721   -127.7624     16.7165    118.0091
  1069.2500     16.2521   -128.3410     16.2382    118.5486
  1069.5000     15.9498   -128.9762     15.7308    121.9662
  1069.7500     15.6890   -129.6590     15.2129    125.2939
  1070.0000     15.4537   -130.3661     14.7090    130.3493
  1070.2500     15.2018   -131.0608     14.2430    133.1744
  1070.5000     14.9017   -131.7003     13.8339    136.2925
  1070.7500     14.5300   -132.2480     13.4939    137.8153
  1071.0000     14.0394   -132.6844     13.2296    140.0114
  1071.2500     13.3729   -133.0062     13.0443    141.7798
  1071.5000     12.5393   -133.2169     12.9395    144.7038
  1071.7500     11.6688   -133.3159     12.9151    146.3407
  1072.0000     10.9837   -133.2926     12.9678    147.5829
  1072.2500     10.7108   -133.1313     13.0896    147.2755
  1072.5000     10.9951   -132.8206     13.2673    144.3165
  1072.7500     11.8242   -132.3600     13.4832    140.4330
  1073.0000     12.9800   -131.7582     13.7186    132.9762
  1073.2500     14.1017   -131.0263     13.9567    128.4553
  1073.5000     14.8585   -130.1700     14.1849    124.2208
  1073.7500     15.0903   -129.1867     14.3953    122.7467
  1074.0000     14.8514   -128.0729     14.5855    119.7966
  1074.2500     14.4283   -126.8409     14.7603    115.7861
  1074.5000     14.3003   -125.5351     14.9314    107.2079
  1074.7500     14.8707   -124.2373     15.1147    102.2389
  1075.0000     16.0884   -123.0533     15.3228    100.1817
  1075.2500     17.4365   -122.0845     15.5572    102.5456
  1075.5000     18.3772   -121.3945     15.8042    108.1302
  1075.7500     18.7206   -120.9890     16.0365    111.3558
  1076.0000     18.5908   -120.8225     16.2213    115.7056
  1076.2500     18.2087   -120.8246     16.3301    119.4766
  1076.5000     17.7515   -120.9291     16.3466    126.6739
  1076.7500     17.3199   -121.0891     16.2696    131.1479
  1077.0000     16.9565   -121.2790     16.1126    135.3924
  1077.2500     16.6660   -121.4859     15.8990    136.8784
  1077.5000     16.4243   -121.7039     15.6595    138.3293
  1077.7500     16.1850   -121.9317     15.4270    138.3914
  1078.0000     15.8916   -122.1710     15.2330    135.6224
  1078.2500     15.5182   -122.4207     15.1026    132.2473
  1078.5000     15.1170   -122.6743     15.0488    127.7072
  1078.7500     14.7965   -122.9221     15.0686    126.3114
  1079.0000     14.6382   -123.1553     15.1440    126.7069
  1079.2500     14.6440   -123.3650     15.2467    128.0092
  1079.5000     14.7454   -123.5401     15.3487    130.4932
  1079.7500     14.8575   -123.6711     15.4315    131.9992
  1080.0000     14.9432   -123.7580     15.4919    133.3600
  1080.2500     15.0331   -123.8092     15.5410    133.5379
  1080.5000     15.1719   -123.8295     15.5986    132.7284
  1080.7500     15.3577   -123.8104     15.6864    131.3402
  1081.0000     15.5455   -123.7321     15.8220    127.7434
  1081.2500     15.6946   -123.5753     16.0164    124.7657
  1081.5000     15.7988   -123.3316     16.2719    121.3171
  1081.7500     15.8897   -123.0044     16.5816    120.6434
  1082.0000     16.0176   -122.6052     16.9296    122.0821
  1082.2500     16.2254   -122.1520     17.2919    124.0439
  1082.5000     16.5443   -121.6700     17.6402    127.2400
  1082.7500     16.9982   -121.1921     17.9477    128.6510
  1083.0000     17.5741   -120.7534     18.1975    128.2673
  1083.2500     18.1721   -120.3833     18.3883    126.5701
  1083.5000     18.6172   -120.0977     18.5345    124.2758
  1083.7500     18.7883   -119.8950     18.6600    123.6059
  1084.0000     18.7503   -119.7606     18.7888    120.9670
  1084.2500     18.7223   -119.6806     18.9390    115.5412
  1084.5000     18.9036   -119.6555     19.1179    101.8269
  1084.7500     19.3344   -119.7027     19.3209     92.3935
  1085.0000     19.8800   -119.8459     19.5314     85.2976
  1085.2500     20.3268   -120.0998     19.7224     87.5891
  1085.5000     20.5245   -120.4609     19.8648     99.9362
  1085.7500     20.4615   -120.9092     19.9386    110.8247
  1086.0000     20.2159   -121.4144     19.9436    125.0654
  1086.2500     19.8553   -121.9412     19.9034    130.9068
  1086.5000     19.3808   -122.4558     19.8575    133.2628
  1086.7500     18.7430   -122.9340     19.8487    131.1946
