~Version Information
VERS.                      2.0: CWLS Log ASCII Standard - VERSION 2.0
WRAP.                       NO: One line per depth step
~Well Information Block
STRT.FT               700.0000: 
STOP.FT              1869.5000: 
STEP.FT                 0.1000: 
NULL.                -999.2500: 
COMP.          Petrogulf Corporation: COMPANY
WELL.             State 16-24R: WELL
FLD.           Purgatorie River: FIELD
LOC.           541' FSL & 2371' FWL: LOCATION
PROV.                 Colorado: PROVINCE
CNTY.               Las Animas: COUNTRY
SRVC.                Patterson: SERVICE COMPANY
DATE.          Fri Aug 12 09:07:22 2005: LOG DATE
UWI.                071-08312 : UNIQUE WELL ID
~Curve Information Block
DEPT.FT            0 000 00 00: Depth
DCAL.in                       : CDL Caliper
RHOB.g/cc                     : CDL Bulk Density
RHOC.g/cc                     : CDL Density Correction
DPOR.pu                       : CDL Density Porosity
GR.GAPI                       : Gamma Ray
NPOR.pu                       : Neutron Porosity
~Parameter Information Block
~A  Depth       DCAL        RHOB        RHOC        DPOR         GR         NPOR    
# ...
  1381.6000      7.9291      2.5725      0.0548      4.6974    128.9154     22.4371
  1381.7000      7.9291      2.5550      0.0562      5.7596    134.0761     22.0889
  1381.8000      7.9290      2.5358      0.0246      6.9201    137.6183     22.0411
  1381.9000      7.9290      2.5263      0.0144      7.4951    139.3877     21.9601
  1382.0000      7.9443      2.5272      0.0470      7.4400    141.0298     21.7719
  1382.1000      7.9443      2.5333      0.0153      7.0727    140.9377     21.8633
  1382.2000      7.9443      2.5462      0.0133      6.2915    138.6723     22.4118
  1382.3000      7.9550      2.5676      0.0466      4.9955    136.5718     23.3284
  1382.4000      7.9550      2.5856      0.1096      3.9034    136.4231     24.2120
  1382.5000      7.9614      2.5927      0.0555      3.4707    139.5997     24.6498
  1382.6000      7.9614      2.6044      0.0463      2.7610    144.5359     24.9609
  1382.7000      7.9614      2.6285      0.0856      1.3044    146.5885     25.6650
  1382.8000      7.9530      2.6498      0.0760      0.0139    145.3733     26.5745
  1382.9000      7.9530      2.6536      0.1154     -0.2208    145.0333     26.8628
  1383.0000      7.9484      2.6382      0.0637      0.7181    145.7533     26.5061
  1383.1000      7.9484      2.6156      0.0586      2.0850    143.6569     26.3756
  1383.2000      7.9484      2.6013      0.0288      2.9539    140.4044     26.8128
  1383.3000      7.9314      2.6026      0.0477      2.8718    138.5513     27.1883
  1383.4000      7.9314      2.6151      0.0606      2.1125    137.4313     27.0763
  1383.5000      7.9175      2.6205      0.1250      1.7885    138.9646     26.6905
  1383.6000      7.9175      2.6040      0.0444      2.7874    142.8528     26.1064
  1383.7000      7.9175      2.5743      0.0309      4.5879    143.7000     25.6460
  1383.8000      7.9636      2.5443      0.0186      6.4060    141.4780     25.7770
  1383.9000      7.9636      2.5155      0.0127      8.1488    141.3482     26.1495
  1384.0000      7.9782      2.4825      0.0511     10.1534    142.4451     26.1611
  1384.1000      7.9782      2.4408      0.0232     12.6805    141.3352     25.8955
  1384.2000      7.9782      2.3964      0.0114     15.3723    138.4015     25.5130
  1384.3000      7.9608      2.3614     -0.0143     17.4928    135.3527     25.2435
  1384.4000      7.9608      2.3520     -0.0608     18.0617    133.2436     25.4126
  1384.5000      7.9455      2.3729      0.0272     16.7958    132.6045     25.7522
  1384.6000      7.9455      2.4029      0.1158     14.9787    132.2834     25.8429
  1384.7000      7.9455      2.4201      0.1373     13.9332    130.8221     25.7275
  1384.8000      7.9541      2.4238      0.1472     13.7091    130.4910     25.6959
  1384.9000      7.9541      2.4273      0.1505     13.4954    133.7155     25.7526
  1385.0000      8.0121      2.4451      0.1335     12.4176    136.6217     25.5592
  1385.1000      8.0121      2.4750      0.1017     10.6053    134.6798     25.0415
  1385.2000      8.0121      2.4991      0.1173      9.1450    130.2318     24.5765
  1385.3000      7.9554      2.5127      0.0566      8.3233    127.2655     24.4000
  1385.4000      7.9554      2.5271      0.0814      7.4500    125.4938     24.4060
  1385.5000      7.9583      2.5407      0.1161      6.6242    123.0819     24.4100
  1385.6000      7.9583      2.5455      0.1160      6.3322    121.8934     24.1729
  1385.7000      7.9583      2.5490      0.0909      6.1212    124.5731     23.5095
  1385.8000      7.9943      2.5599      0.0770      5.4596    130.4696     22.8486
  1385.9000      7.9943      2.5672      0.1325      5.0168    137.5640     22.9822
  1386.0000      8.0343      2.5552      0.0776      5.7443    142.6071     23.5744
  1386.1000      8.0343      2.5362      0.0493      6.8980    140.9588     23.4980
  1386.2000      8.0343      2.5320      0.0393      7.1529    133.8180     22.8634
  1386.3000      8.0425      2.5361      0.0751      6.9026    128.2070     22.3419
  1386.4000      8.0425      2.5339      0.0249      7.0363    126.8374     21.9952
  1386.5000      8.0395      2.5337      0.0405      7.0479    127.3241     21.7786
  1386.6000      8.0395      2.5465      0.0436      6.2738    127.5584     21.6609
  1386.7000      8.0395      2.5656      0.0972      5.1128    126.0018     21.5070
  1386.8000      8.0403      2.5797      0.1079      4.2618    123.7465     21.5667
  1386.9000      8.0403      2.5875      0.0581      3.7886    123.5979     21.9604
  1387.0000      8.0322      2.5911      0.0917      3.5693    125.3731     22.2879
  1387.1000      8.0322      2.5921      0.0553      3.5117    126.0026     22.6148
  1387.2000      8.0322      2.5957      0.0660      3.2912    123.2418     23.2697
  1387.3000      8.0334      2.6058      0.0692      2.6786    118.6847     23.7588
  1387.4000      8.0334      2.6225      0.0649      1.6663    114.9116     23.2534
  1387.5000      8.0106      2.6400      0.0778      0.6079    110.2716     21.7415
  1387.6000      8.0106      2.6502      0.1109     -0.0143    102.1695     20.2251
  1387.7000      8.0106      2.6503      0.0937     -0.0169     93.1085     19.3736
  1387.8000      7.9862      2.6420      0.0640      0.4851     86.5096     18.7147
  1387.9000      7.9862      2.6320      0.0485      1.0925     81.8671     17.6813
  1388.0000      7.9589      2.6279      0.0163      1.3381     79.0045     16.1064
  1388.1000      7.9589      2.6271      0.0877      1.3871     79.2247     14.3698
  1388.2000      7.9589      2.6161      0.0850      2.0566     81.9834     13.3626
  1388.3000      7.9458      2.5929      0.0214      3.4578     85.8930     13.5298
  1388.4000      7.9458      2.5728      0.0158      4.6782     88.5033     14.1316
  1388.5000      7.9357      2.5683      0.0314      4.9544     88.5524     14.1893
  1388.6000      7.9357      2.5727      0.0508      4.6868     88.6371     14.1106
  1388.7000      7.9357      2.5720      0.0710      4.7276     90.9062     14.4533
  1388.8000      7.9065      2.5701      0.0287      4.8430     94.9564     14.8570
  1388.9000      7.9065      2.5786      0.0670      4.3274     98.3455     15.0865
  1389.0000      7.8855      2.5931      0.0916      3.4462    100.1291     15.0567
  1389.1000      7.8855      2.6015      0.1050      2.9372    102.2645     14.7331
  1389.2000      7.8855      2.6011      0.0998      2.9608    103.6898     14.5691
  1389.3000      7.8740      2.5972      0.0696      3.1993    101.5554     15.1374
  1389.4000      7.8740      2.5880      0.0795      3.7566     97.8083     16.2009
  1389.5000      7.8328      2.5706      0.0380      4.8126     95.7751     16.8611
  1389.6000      7.8328      2.5585      0.0146      5.5449     95.9394     16.8685
  1389.7000      7.8328      2.5595      0.0710      5.4828     97.5975     16.7938
  1389.8000      7.8892      2.5600      0.0398      5.4518     98.9843     16.8979
  1389.9000      7.8892      2.5530      0.0543      5.8780     98.3829     17.1393
  1390.0000      7.9433      2.5501      0.0254      6.0551     96.0559     17.5266
  1390.1000      7.9433      2.5613      0.0351      5.3735     93.1859     17.8946
  1390.2000      7.9433      2.5770      0.0665      4.4219     91.5718     18.0638
  1390.3000      7.9376      2.5813      0.0735      4.1640     93.3696     18.2503
  1390.4000      7.9376      2.5749      0.0449      4.5537     97.2421     18.6585
  1390.5000      7.9470      2.5714      0.0611      4.7660     98.3012     18.9574
  1390.6000      7.9470      2.5728      0.0766      4.6773     95.2351     18.6357
  1390.7000      7.9470      2.5666      0.0782      5.0549     91.4759     18.0408
  1390.8000      7.9183      2.5518      0.0165      5.9523     89.9215     17.8621
  1390.9000      7.9183      2.5447      0.0131      6.3819     91.8969     17.9442
  1391.0000      7.9291      2.5510      0.0593      6.0007     96.1163     17.7807
  1391.1000      7.9291      2.5617      0.0401      5.3513     99.4553     17.3736
