~Version Information
 VERS.                2.0:  CWLS LOG ASCII STANDARD -VERSION 2.0
 WRAP.                 NO:  ONE LINE PER DEPTH STEP
~WELL INFORMATION BLOCK
#MNEM.UNIT       DATA		            DESCRIPTION OF MNEMONIC
#---------    -------------            ------------------------
 STRT.FT  0.500                          :START DEPTH
 STOP.FT  1808.700                       :STOP DEPTH
 STEP.FT  0.100                          :STEP    UP_HOLE  
 NULL.    -999.25                        :NULL VALUE
 COMP.              EL PASO PRODUCTIONS  :COMPANY
 WELL.                     COREHOLE #38  :WELL
 FLD .                 PURGATOIRE RIVER  :FIELD
 LOC .      15   35S   65W               :LOCATION
 CNTY.                           COLFAX  :COUNTY
 STAT.                     NM            :STATE
 CTRY.                                   :
 SRVC.     O'DRISCOLL                    :SERVICE COMPANY
 DATE.   04/28/05                        :LOG DATE
 API .                                   :API NUMBER
 LIC .                                   :LICENSE NUMBER
~Curve Information Block
#MNEM.UNIT      API CODE     Curve Description
#---------    -------------  ------------------------
 DEPT     .FT        00 001 00 00          :  1  DEPTH   
 GAMMA    .API-GR    00 310 00 00          :  2                GAMMA
 VOLTAGE  .MV        00 000 00 00          :  3              VOLTAGE
 CALIPER  .INCH      00 280 00 00          :  4              CALIPER
 DEN(LS)  .G/CC      00 350 00 00          :  5              DEN(LS)
 DEN(SS)  .G/CC      00 350 00 00          :  6              DEN(SS)
 CURRENT  .UA        00 000 00 00          :  7              CURRENT
 RES(SG)  .OHM-M     00 220 00 00          :  8              RES(SG)
 POR(DEN) .PERCENT   00 890 00 00          :  9             POR(DEN)
 DEN(LS)  .CPS       00 350 00 00          : 10              DEN(LS)
 DEN(SS)  .CPS       00 350 00 00          : 11              DEN(SS)
 COMP     .G/CC      00 356 00 00          : 12                 COMP
 DEN(CDL) .G/CC      00 350 00 00          : 13             DEN(CDL)
 TEMP     .DEG F     00 660 00 00          : 14                 TEMP
 DEL_TEMP .DEG F     00 000 00 00          : 15             DEL_TEMP
 TIME     .MINUTES   00 000 00 00          : 16                 TIME
~Parameter Information Block
#MNEM.UNIT   Information     Description
#---------- ---------------  ------------------------
 FILE.      ORIGINAL           :File Type
 FIID.      9139A              :File Type Identifier
 VERS.      3.58G              :System Version
 SER .      1                  :System Serial Number
 TRUK.      .498775            :Truck Calibration Number
 TOOL.        1245             :Tool Serial Number
 TIME.      1507               :Time    HrHrMinMin
 LAT .       36 59'            :Latitude
 LON .       104 39'           :Longitude
 LMF .            GL           :Log Measured From
 DMF .            GL           :Driller Measured From
 PD  .            GL           :Permanent Data
 PDEV.                         :Elevation Permanent Data
 EKB .M                        :Elevation Kelly Bushing
 ELEV.DF                       :Elevation DF
 EGL .M        7777            :Elevation Ground Level
 DRDP.          1825           :Driller's Depth
 CASD.       10.               :Casing Diameter
 CASB.           300           :Casing Bottom
 CASX.         STEEL           :Casing Type
 CAST.                         :Casing Thickness
 TNOC.                         :Time Circulation Stopped
 LOGU.        108              :Logging Unit
 RECB.           R.SIPES       :Recorded By
 OSR1.          9057           :Other Services
 OSR2.                         :Other Services
 OSR3.                         :Other Services
 BS  .MM         3.5           :Bit Size
 MST .                         :Mean Surface Temperature
 TGRD.                         :Temperature Gradiant
 MAGN.            12           :Magnetic Declination
 MDEN.       2.7               :Density Matrix
 MATR.      SANDSTONE          :Neutron Matrix
 DTMT.            54           :Delta T Matrix
 DTFL.                         :Delta T Fluid
 MUDS.                         :Mud Sample Source
 MRS .                         :Mud Resistivity
 MTP .                         :Mud Temperature
 MFRS.                         :Resistivity Mud Filtrate
 MFTP.                         :Temperature Mud Filtrate
 MCRS.                         :Resistivity Mud Cake
 MCTP.                         :Temperature Mud Cake
 FTYP.                         :Fluid Type
 FD  .K/M3                     :Fluid Density
 DFV .S                        :Fluid Viscosity
 FPH .                         :Fuild PH
 ELCO.       50000             :Electron Cutoff
~Other Information
#MNEM.UNIT  Information      Description
#---------- ---------------  ------------------------
# -------------------------- 
~A DEPTH  GAMMA    VOLTAGE  CALIPER DEN(LS) DEN(SS) CURRENT  RES(SG)  POR(DEN) DEN(LS) DEN(SS) COMP  DEN(CDL) TEMP  DEL_TEMP TIME    
# ...
1447.000    168.2      1.6   3.1  2.60 2.80   105.3      1.1  28.1  567.66 4192.07 -0.380 2.29 33.3  0.00 0.30000 
1447.100    163.4      1.4   3.0  2.63 2.85    69.3      1.5  29.3  535.86 3997.37 -0.433 2.27 33.3  0.00 0.20000 
1447.200    168.2      0.9   3.0  2.58 2.85    57.7      1.1  40.7  601.08 4004.43 -0.569 2.27 33.3  0.00 0.20000 
1447.300    151.2      1.3   3.0  2.71 2.87   110.6      0.8  17.2  460.65 3936.00 -0.302 2.25 33.3  0.00 0.20000 
1447.400    145.5      1.5   3.0  2.72 2.83   103.5      1.0   9.9  450.61 4094.69 -0.187 2.30 33.3  0.00 0.20000 
1447.500    138.9      1.8   3.0  2.66 2.93   101.5      1.3  36.0  510.78 3726.22 -0.571 2.34 33.3  0.00 0.20000 
1447.600    127.6      1.2   3.0  2.78 2.96    94.8      0.9  15.1  395.47 3639.33 -0.338 2.33 33.3  0.00 0.20000 
1447.700    112.4      1.7   3.0  2.74 3.00    89.4      1.4  27.5  425.54 3521.83 -0.513 2.32 33.3  0.00 0.20000 
1447.800    112.4      0.8   3.0  2.82 3.05    88.7      0.7  19.6  365.41 3373.81 -0.451 2.36 33.3  0.00 0.20000 
1447.900     98.3      0.5   3.0  2.79 2.95    40.5      0.9  12.5  390.46 3675.08 -0.300 2.26 33.3  0.00 0.20000 
1448.000     89.8      0.5   3.0  2.75 2.99    12.2      3.1  25.6  420.53 3542.25 -0.484 2.23 33.3  0.00 0.20000 
1448.100     87.9      0.3   3.0  2.69 3.03    45.2      0.5  44.2  475.69 3414.63 -0.745 2.22 33.3  0.00 0.20000 
1448.200     82.2      1.2   3.0  2.81 3.15    84.8      1.0  37.8  370.41 3062.90 -0.754 2.12 33.3  0.00 0.20000 
1448.300     82.2      0.7   3.0  2.85 3.10    36.6      1.3  20.9  340.35 3215.83 -0.504 2.07 33.3  0.00 0.20000 
1448.400     82.2      0.5   3.0  2.72 3.06   101.0      0.3  43.3  450.61 3327.94 -0.756 2.09 33.3  0.00 0.20000 
1448.500     77.5     -0.4   3.0  2.73 3.06    65.0     -0.5  39.3  435.57 3338.38 -0.703 2.19 33.3  0.00 0.20000 
1448.600     73.7     -0.3   3.0  2.75 3.08    14.8     -1.7  39.1  420.54 3282.00 -0.714 2.15 33.3  0.00 0.20000 
1448.700     75.6      0.5   3.0  2.84 2.99    43.6      0.8   7.9  350.38 3557.58 -0.271 2.19 33.3  0.00 0.20000 
1448.800     77.5      0.9   3.0  2.79 3.09   151.0      0.4  32.7  390.49 3246.38 -0.642 2.26 33.3  0.00 0.20000 
1448.900     80.3      0.6   3.0  2.81 3.09    91.0      0.4  29.6  375.43 3225.96 -0.610 2.40 33.3  0.00 0.20000 
1449.000     87.9      0.4   3.0  2.75 2.94    97.9      0.3  18.9  420.53 3695.62 -0.370 2.35 33.3  0.00 0.20000 
1449.100     93.6      0.6   3.0  2.87 2.97   164.2      0.3  -0.1  325.32 3593.40 -0.172 2.41 33.3  0.00 0.20000 
1449.200     89.8      0.4   3.0  2.77 3.00   169.7      0.2  21.6  400.48 3516.78 -0.442 2.41 33.3  0.00 0.20000 
1449.300     84.1     -1.5   3.0  2.84 3.05    85.8     -1.3  14.6  345.37 3373.84 -0.391 2.38 33.3  0.00 0.20000 
1449.400     82.2      0.4   3.0  2.76 3.03    90.6      0.3  30.6  415.52 3414.64 -0.576 2.27 33.3  0.00 0.20000 
1449.500     71.8      0.7   3.0  2.78 3.05   153.2      0.3  28.1  395.48 3358.51 -0.559 2.29 33.3  0.00 0.20000 
1449.600     73.7      0.9   3.0  2.73 3.00   189.8      0.3  32.0  440.58 3496.29 -0.573 2.23 33.3  0.00 0.20000 
1449.700     67.1      1.2   3.0  2.77 2.94   237.8      0.4  14.3  400.48 3690.41 -0.317 2.23 33.3  0.00 0.20000 
1449.800     64.3      0.3   2.9  2.75 3.05   237.5      0.1  34.1  420.54 3373.87 -0.629 2.22 33.3  0.00 0.30000 
1449.900     63.3     -1.0   3.0  2.68 2.93   194.1     -0.4  30.7  485.71 3726.52 -0.506 2.26 33.3  0.00 0.20000 
1450.000     68.1      1.2   3.0  2.70 2.94    91.3      0.9  29.1  470.66 3690.43 -0.494 2.29 33.3  0.00 0.20000 
1450.100     55.8      1.0   3.0  2.72 2.93    76.1      1.0  22.5  450.62 3751.82 -0.402 2.38 33.3  0.00 0.19900 
1450.200     59.6      1.7   3.1  2.84 2.95   131.8      0.9   3.6  350.39 3669.98 -0.199 2.47 33.3  0.00 0.20100 
1450.300     58.6      1.4   3.1  2.72 2.80   117.0      0.8   7.2  450.61 4181.85 -0.141 2.53 33.3  0.00 0.20000 
1450.400     60.5      0.6   3.1  2.74 2.82    66.4      0.6   5.4  425.54 4100.22 -0.137 2.52 33.3  0.00 0.20000 
1450.500     59.6     -1.5   3.1  2.69 2.80   103.8     -1.0  12.3  480.70 4181.89 -0.199 2.42 33.3  0.00 0.20000 
1450.600     75.6      1.1   3.0  2.64 2.84   106.4      0.7  25.0  525.83 4058.87 -0.368 2.33 33.3  0.00 0.19900 
1450.700     81.6      1.5   3.0  2.61 2.84   103.2      1.1  31.9  555.93 4033.25 -0.457 2.31 33.3  0.00 0.20100 
1450.800     94.8      2.0   3.0  2.63 2.88   110.0      1.3  34.5  540.88 3900.11 -0.516 2.30 33.3  0.00 0.20000 
1450.900     95.8      2.3   3.0  2.74 2.88   111.1      1.5  12.2  430.58 3920.66 -0.247 2.31 33.3  0.00 0.20000 
1451.000    102.4      1.1   3.0  2.71 2.85   111.7      0.7  14.0  455.63 3997.39 -0.252 2.35 33.3  0.00 0.19900 
1451.100     96.7      2.2   3.0  2.69 2.88   115.6      1.3  21.6  475.68 3895.05 -0.362 2.35 33.3  0.00 0.20000 
1451.200    101.1      1.4   3.0  2.72 2.93   122.8      0.8  21.9  445.60 3741.54 -0.397 2.25 33.3  0.00 0.20100 
1451.300     94.5      0.9   3.0  2.72 3.01   122.2      0.5  33.3  445.60 3491.20 -0.591 2.21 33.3  0.00 0.20000 
1451.400     93.6      1.4   3.0  2.68 3.00   121.0      0.8  41.0  485.71 3511.62 -0.682 2.31 33.3  0.00 0.19900 
1451.500     88.8      1.4   3.0  2.72 2.95   121.2      0.8  25.3  445.60 3659.94 -0.455 2.35 33.3  0.00 0.20000 
1451.600     93.6      1.0   3.0  2.87 2.89   121.8      0.6  -7.5  330.33 3874.54 -0.038 2.36 33.3  0.00 0.20000 
1451.700     99.2      1.2   3.0  2.72 2.83   130.0      0.7  10.7  450.61 4069.13 -0.201 2.44 33.3  0.00 0.20100 
1451.800     99.2      0.7   3.0  2.67 2.91   139.3      0.4  29.9  495.75 3792.67 -0.482 2.43 33.3  0.00 0.20000 
1451.900    102.1      1.3   3.0  2.71 2.88   142.0      0.6  18.3  460.64 3905.47 -0.321 2.38 33.3  0.00 0.30000 
1452.000    113.4      1.3   3.0  2.68 2.91   141.2      0.7  27.2  485.75 3808.28 -0.446 2.40 33.3  0.00 0.19900 
1452.100    104.9      1.1   3.0  2.81 2.94   138.2      0.5   8.6  375.43 3687.26 -0.252 2.36 33.3  0.00 0.20000 
1452.200     98.3     -0.2   3.0  2.81 2.90   134.3     -0.1   3.9  375.42 3823.39 -0.172 2.37 33.3  0.00 0.20000 
1452.300     96.4     -0.7   3.0  2.74 3.08   137.1     -0.3  41.3  430.56 3282.02 -0.742 2.43 33.3  0.00 0.20000 
1452.400     86.9     -1.7   3.0  2.75 2.92   150.0     -0.8  16.5  420.53 3756.90 -0.330 2.37 33.3  0.00 0.20100 
1452.500     71.8     -3.2   3.0  2.79 2.93   153.3     -1.5   9.5  385.45 3726.21 -0.254 2.35 33.3  0.00 0.19900 
1452.600     63.3     -2.8   3.0  2.78 3.03   155.5     -1.3  25.6  395.47 3409.52 -0.515 2.42 33.3  0.00 0.20000 
1452.700     63.3     -0.3   3.0  2.84 3.01   147.5     -0.1   9.4  345.36 3491.19 -0.303 2.41 33.3  0.00 0.20000 
1452.800     59.6     -3.6   3.0  2.77 3.00   125.2     -2.1  22.9  405.50 3516.72 -0.457 2.37 33.3  0.00 0.20000 
1452.900     66.2      0.6   3.0  2.82 3.04   136.9      0.3  17.6  360.39 3389.12 -0.424 2.44 33.3  0.00 0.20000 
1453.000     65.2      0.5   3.0  2.77 2.99   146.8      0.3  21.2  400.48 3526.97 -0.434 2.40 33.3  0.00 0.20000 
1453.100     70.3      0.6   3.0  2.83 2.97   148.1      0.3   6.8  355.38 3613.76 -0.247 2.47 33.3  0.00 0.20000 
1453.200     71.2      0.2   3.0  2.75 2.95   151.6      0.1  19.5  420.53 3680.31 -0.381 2.49 33.3  0.00 0.20000 
1453.300     69.3     -3.3   3.0  2.77 2.84   143.9     -1.6   2.6  400.48 4028.12 -0.119 2.53 33.3  0.00 0.20000 
1453.400     67.4     -5.5   3.0  2.76 2.90   127.5     -3.1  12.4  415.52 3833.59 -0.267 2.53 33.3  0.00 0.20000 
1453.500     73.1     -1.8   3.0  2.79 2.92   142.8     -0.9   8.4  390.46 3787.63 -0.230 2.54 33.3  0.00 0.20000 
1453.600     80.3     -0.7   3.0  2.77 2.86   149.2     -0.3   5.8  405.50 3961.56 -0.166 2.49 33.3  0.00 0.20000 
1453.700     77.5     -0.8   3.0  2.73 2.90   149.3     -0.4  17.7  440.59 3823.43 -0.330 2.48 33.3  0.00 0.20000 
1453.800     90.7     -3.3   3.0  2.71 2.87   147.9     -1.6  17.2  460.64 3935.95 -0.302 2.50 33.3  0.00 0.20000 
1453.900     89.8     -5.9   3.0  2.74 2.90   128.5     -3.3  14.5  425.54 3833.63 -0.291 2.48 33.3  0.00 0.20000 
