~Version Information
VERS.                      2.0: CWLS Log ASCII Standard - VERSION 2.0
WRAP.                       NO: One line per depth step
~Well Information Block
STRT.FT               546.2500: 
STOP.FT              2496.7500: 
STEP.FT                 0.2500: 
NULL.                -999.2500: 
COMP.          Petrogulf Corporation: COMPANY
WELL.               Egan 9-11V: WELL
FLD.           Purgatorie River: FIELD
LOC.           724' FNL & 1379' FWL: LOCATION
PROV.                 Colorado: PROVINCE
CNTY.               Las Animas: COUNTRY
SRVC.          Patterson Wireline: SERVICE COMPANY
DATE.          Fri Jul 11 23:32:41 2003: LOG DATE
UWI.           05 071 07875 00: UNIQUE WELL ID
~Curve Information Block
DEPT.FT            0 000 00 00: Depth
SP.mV                         : DIL Spontaneous Potential
RILD.Ohm-m                    : DIL Deep Resistivity
RILM.Ohm-m                    : DIL Medium Resistivity
RLL3.Ohm-m                    : DIL Shallow Resistivity
GR.GAPI                       : Gamma Ray
~Parameter Information Block
~A  Depth        SP         RILD        RILM        RLL3         GR     
# ...
  2338.2500   -114.8181      0.0839      0.2211     19.7236     40.1611
  2338.5000   -120.3474      0.0638      0.1956     15.5283     36.0625
  2338.7500   -126.4720      0.0521      0.1770     10.5130     34.2736
  2339.0000   -133.3227      0.0458      0.1639      6.5227     32.5013
  2339.2500   -140.8621      0.0428      0.1554      4.5486     31.8087
  2339.5000   -148.7233      0.0420      0.1507      4.9565     31.3991
  2339.7500   -156.1269      0.0427      0.1497      8.2994     31.4559
  2340.0000   -161.9899      0.0443      0.1521     15.8717     31.8508
  2340.2500   -165.2468      0.0472      0.1581     29.5929     32.2127
  2340.5000   -165.2749      0.0524      0.1682     51.3780     32.7444
  2340.7500   -162.1882      0.0621      0.1829     82.5511     33.1074
  2341.0000   -156.7732      0.0799      0.2034    123.8367     34.0161
  2341.2500   -150.0776      0.1120      0.2311    175.6400     35.0664
  2341.5000   -142.9411      0.1682      0.2683    237.3606     37.0281
  2341.7500   -135.7709      0.2624      0.3182    305.1418     38.0490
  2342.0000   -128.6184      0.4173      0.3856    369.7651     38.2570
  2342.2500   -121.3933      0.6830      0.4775    417.4255     37.3654
  2342.5000   -114.0381      1.2060      0.6044    434.1352     34.9931
  2342.7500   -106.5971      2.5470      0.7827    411.7701     33.3640
  2343.0000    -99.2024      9.2984      1.0385    352.7430     32.2067
  2343.2500    -92.0221 100000.0000      1.4143    270.5612     33.0623
  2343.5000    -85.2206 100000.0000      1.9818    184.9234     37.8341
  2343.7500    -78.9565 100000.0000      2.8641    113.4757     43.6448
  2344.0000    -73.3944 100000.0000      4.2738     65.6596     55.8901
  2344.2500    -68.6859 100000.0000      6.5626     42.8043     65.5042
  2344.5000    -64.9043 100000.0000     10.2014     43.2668     79.6283
  2344.7500    -61.9808 100000.0000     15.3483     67.4722     87.0942
  2345.0000    -59.7080 100000.0000     20.5602    118.2305     92.5578
  2345.2500    -57.8164     42.8370     22.7057    195.2700     91.4728
  2345.5000    -56.0731     24.5765     20.9964    287.5504     83.4018
  2345.7500    -54.3438     19.3493     17.7513    370.6779     75.2454
  2346.0000    -52.6020     17.0297     14.7612    415.3359     62.1366
  2346.2500    -50.9044     15.6035     12.4929    403.5951     54.4279
  2346.5000    -49.3529     14.3995     10.8747    340.4708     46.0489
  2346.7500    -48.0495     13.2177      9.7396    250.3521     43.0261
  2347.0000    -47.0529     12.0703      8.9469    161.7122     42.9417
  2347.2500    -46.3546     11.0275      8.3951     93.1582     46.2674
  2347.5000    -45.8882     10.1348      8.0137     49.4939     56.4196
  2347.7500    -45.5619      9.3973      7.7523     26.1432     65.8034
  2348.0000    -45.2936      8.7933      7.5742     15.5964     81.0050
  2348.2500    -45.0299      8.2925      7.4518     11.5878     90.1505
  2348.5000    -44.7442      7.8673      7.3644     10.3280    100.6151
  2348.7500    -44.4254      7.4984      7.2964     10.0191    105.3641
  2349.0000    -44.0701      7.1759      7.2372      9.9800    110.1363
  2349.2500    -43.6831      6.8980      7.1802     10.0227    112.3476
  2349.5000    -43.2782      6.6678      7.1232     10.1299    114.4976
  2349.7500    -42.8766      6.4893      7.0674     10.3132    114.9941
  2350.0000    -42.5013      6.3658      7.0164     10.5545    114.3781
  2350.2500    -42.1739      6.2989      6.9758     10.7969    113.5718
  2350.5000    -41.9136      6.2893      6.9522     10.9628    112.9220
  2350.7500    -41.7350      6.3379      6.9526     10.9821    113.1572
  2351.0000    -41.6465      6.4450      6.9841     10.8227    114.2072
  2351.2500    -41.6470      6.6100      7.0534     10.5206    115.1517
  2351.5000    -41.7248      6.8287      7.1668     10.2106    116.8992
  2351.7500    -41.8568      7.0933      7.3305     10.1501    118.1447
  2352.0000    -42.0095      7.3938      7.5506     10.6968    118.8839
  2352.2500    -42.1436      7.7214      7.8331     12.1463    117.4568
  2352.5000    -42.2177      8.0723      8.1839     14.4292    111.2434
  2352.7500    -42.1912      8.4496      8.6093     16.9276    104.9208
  2353.0000    -42.0302      8.8618      9.1158     18.7701     94.9056
  2353.2500    -41.7151      9.3199      9.7100     19.5246     89.5595
  2353.5000    -41.2418      9.8351     10.3976     19.6628     84.6743
  2353.7500    -40.6141     10.4182     11.1834     20.2964     82.7929
  2354.0000    -39.8319     11.0771     12.0681     22.4096     79.4677
  2354.2500    -38.8815     11.8112     13.0466     26.2370     75.7527
  2354.5000    -37.7388     12.6026     14.1029     31.1982     68.0175
  2354.7500    -36.3960     13.4094     15.2059     36.2996     62.5342
  2355.0000    -34.9028     14.1677     16.3053     40.6150     55.8063
  2355.2500    -33.3932     14.8080     17.3310     43.5249     52.7239
  2355.5000    -32.0651     15.2773     18.1990     44.7112     49.7437
  2355.7500    -31.1178     15.5521     18.8259     44.0780     48.5455
  2356.0000    -30.6814     15.6355     19.1478     41.6943     48.1143
  2356.2500    -30.7751     15.5455     19.1385     37.7816     49.1922
  2356.5000    -31.3073     15.3051     18.8163     32.7740     53.6384
  2356.7500    -32.1060     14.9390     18.2365     27.3794     58.6025
  2357.0000    -32.9665     14.4732     17.4750     22.4645     68.2996
  2357.2500    -33.7034     13.9355     16.6096     18.7319     75.3540
  2357.5000    -34.1923     13.3546     15.7076     16.4180     85.0691
  2357.7500    -34.3846     12.7595     14.8196     15.2596     90.1877
  2358.0000    -34.2902     12.1772     13.9795     14.7298     95.1214
  2358.2500    -33.9466     11.6300     13.2078     14.3415     96.4983
  2358.5000    -33.3952     11.1344     12.5149     13.8260     96.2052
  2358.7500    -32.6729     10.7000     11.9045     13.1450     95.1952
  2359.0000    -31.8121     10.3311     11.3764     12.4054     94.1936
  2359.2500    -30.8398     10.0280     10.9281     11.7526     94.6876
  2359.5000    -29.7790      9.7880     10.5558     11.2880     97.7318
  2359.7500    -28.6521      9.6067     10.2550     11.0379    101.1417
  2360.0000    -27.4884      9.4791     10.0213     10.9772    107.3562
  2360.2500    -26.3308      9.4000      9.8498     11.0681    111.3549
  2360.5000    -25.2342      9.3637      9.7359     11.2760    115.7979
  2360.7500    -24.2522      9.3642      9.6750     11.5675    117.4559
  2361.0000    -23.4165      9.3945      9.6628     11.9180    118.3254
  2361.2500    -22.7258      9.4484      9.6950     12.3220    118.0585
  2361.5000    -22.1530      9.5225      9.7679     12.7809    116.3608
  2361.7500    -21.6631      9.6169      9.8783     13.2612    114.3073
  2362.0000    -21.2304      9.7362     10.0236     13.6592    110.4373
  2362.2500    -20.8462      9.8872     10.2018     13.8213    108.1588
  2362.5000    -20.5191     10.0761     10.4111     13.6353    106.6339
  2362.7500    -20.2697     10.3057     10.6497     13.1304    107.2277
  2363.0000    -20.1227     10.5724     10.9146     12.5005    110.2142
  2363.2500    -20.0964     10.8626     11.2002     12.0482    113.1508
  2363.5000    -20.1971     11.1515     11.4970     12.1684    117.8505
  2363.7500    -20.4246     11.4034     11.7900     13.4738    120.2301
  2364.0000    -20.7854     11.5771     12.0576     16.9480    120.9708
  2364.2500    -21.3023     11.6371     12.2729     23.7518    118.9663
  2364.5000    -22.0077     11.5655     12.4060     34.2904    111.9408
  2364.7500    -22.9239     11.3703     12.4296     46.8279    104.7389
  2365.0000    -24.0404     11.0824     12.3255     57.0919     91.3668
  2365.2500    -25.3057     10.7440     12.0901     60.2900     82.2395
  2365.5000    -26.6370     10.3944     11.7365     54.5698     71.5688
  2365.7500    -27.9414     10.0603     11.2910     42.6179     68.1179
  2366.0000    -29.1366      9.7524     10.7874     29.5850     69.4421
