~Version Information
VERS.                      2.0: CWLS Log ASCII Standard - VERSION 2.0
WRAP.                       NO: One line per depth step
~Well Information Block
STRT.FT               340.0000: 
STOP.FT              1731.0000: 
STEP.FT                 0.1000: 
NULL.                -999.2500: 
COMP.          Pioneer Natural Resources: COMPANY
WELL.          Rancher 12-35 Tr: WELL
FLD.           Purgatoire River: FIELD
LOC.           2242' FNL & 308' FWL SWNW 35 32S 67W: LOCATION
PROV.                 Colorado: PROVINCE
CNTY.               Las Animas: COUNTRY
SRVC.                Patterson: SERVICE COMPANY
DATE.          Tue Jul 05 07:18:22 2005: LOG DATE
UWI.              05 071 08430 00: UNIQUE WELL ID
~Curve Information Block
DEPT.FT            0 000 00 00: Depth
DCAL.in                       : CDL Caliper
RHOB.g/cc                     : CDL Bulk Density
RHOC.g/cc                     : CDL Density Correction
DPOR.pu                       : CDL Density Porosity
GR.GAPI                       : Gamma Ray
NPOR.pu                       : Neutron Porosity
~Parameter Information Block
~A  Depth       DCAL        RHOB        RHOC        DPOR         GR         NPOR    
# ...
   800.8000      8.8136      1.3782      0.1807     77.0785     89.7954     25.0693
   800.9000      8.8136      1.3594      0.1236     78.2170     91.4705     29.8994
   801.0000      9.1843      1.3640      0.1740     77.9400     86.5622     32.3389
   801.1000      9.1843      1.3832      0.1496     76.7777     77.0606     32.0792
   801.2000      9.1843      1.4100      0.1709     75.1509     68.5316     31.3577
   801.3000      9.3681      1.4408      0.1558     73.2855     63.0436     32.2895
   801.4000      9.3681      1.4764      0.1056     71.1294     60.4439     34.4007
   801.5000      9.6034      1.5221      0.1060     68.3603     61.2866     35.0924
   801.6000      9.6034      1.5672      0.1709     65.6233     63.4975     33.6660
   801.7000      9.6034      1.5852      0.1820     64.5317     64.2712     31.6152
   801.8000      9.5908      1.5673      0.1520     65.6171     65.4311     29.5276
   801.9000      9.5908      1.5386      0.0674     67.3552     69.4604     27.5323
   802.0000      8.8686      1.5238      0.1144     68.2525     75.2188     26.3096
   802.1000      8.8686      1.5275      0.0348     68.0304     81.9513     25.7379
   802.2000      8.8686      1.5617     -0.0371     65.9563     89.1841     25.8966
   802.3000      8.6389      1.6368      0.0179     61.4052     92.1029     28.2861
   802.4000      8.6389      1.7372      0.0606     55.3208     90.6813     32.8027
   802.5000      8.5845      1.8488      0.0640     48.5597     91.6391     36.2123
   802.6000      8.5845      1.9718      0.1454     41.1037     96.3297     36.7901
   802.7000      8.5845      2.0936      0.2261     33.7231    105.1645     36.2503
   802.8000      8.5295      2.1972      0.2255     27.4405    118.6923     35.9190
   802.9000      8.5295      2.2785      0.2067     22.5143    130.5735     34.9196
   803.0000      8.6391      2.3292      0.1588     19.4411    136.4632     32.9963
   803.1000      8.6391      2.3456      0.1031     18.4512    142.2333     32.0674
   803.2000      8.6391      2.3484     -0.0171     18.2811    151.9599     33.4303
   803.3000      8.6694      2.3667     -0.0279     17.1704    160.3021     35.6457
   803.4000      8.6694      2.4051      0.0428     14.8426    160.2006     36.9521
   803.5000      8.2984      2.4464      0.0574     12.3405    152.4260     36.7904
   803.6000      8.2984      2.4775      0.0798     10.4525    144.8144     34.6555
   803.7000      8.2984      2.4985      0.0223      9.1825    143.3563     30.8594
   803.8000      8.2091      2.5059      0.0984      8.7335    149.2472     26.9132
   803.9000      8.2091      2.4935      0.0571      9.4865    157.2181     24.7163
   804.0000      8.1933      2.4729      0.0490     10.7351    160.0445     25.7796
   804.1000      8.1933      2.4558      0.0797     11.7719    159.2855     28.9648
   804.2000      8.1933      2.4419      0.0554     12.6103    161.3730     30.8982
   804.3000      8.1703      2.4354      0.0426     13.0034    164.1348     30.2087
   804.4000      8.1703      2.4317      0.0744     13.2295    160.7954     28.5667
   804.5000      8.1445      2.4187      0.0499     14.0189    155.9262     26.7553
   804.6000      8.1445      2.4158     -0.0061     14.1969    157.1711     24.2735
   804.7000      8.1445      2.4463      0.0835     12.3429    160.6895     21.4944
   804.8000      8.1168      2.4903      0.1261      9.6771    158.1833     17.9505
   804.9000      8.1168      2.5215      0.1547      7.7880    152.1106     14.3375
   805.0000      8.1153      2.5346      0.1804      6.9949    153.2597     13.3458
   805.1000      8.1153      2.5298      0.1921      7.2871    162.0252     15.8209
   805.2000      8.1153      2.5096      0.2292      8.5116    168.8118     20.5235
   805.3000      8.1179      2.4836      0.1678     10.0874    168.7266     24.6162
   805.4000      8.1179      2.4635      0.1706     11.3043    162.3505     26.2683
   805.5000      8.1315      2.4538      0.1318     11.8895    156.0676     27.0448
   805.6000      8.1315      2.4546      0.0919     11.8405    157.0278     28.8453
   805.7000      8.1315      2.4608      0.1063     11.4690    164.1249     30.1629
   805.8000      8.1319      2.4635      0.1321     11.3050    171.8983     28.7837
   805.9000      8.1319      2.4605      0.1157     11.4878    176.7628     25.3075
   806.0000      8.1489      2.4579      0.0937     11.6407    175.7070     22.4832
   806.1000      8.1489      2.4656      0.1236     11.1744    169.7629     21.2665
   806.2000      8.1489      2.4818      0.1401     10.1941    164.5331     19.5335
   806.3000      8.1588      2.4883      0.1108      9.8006    159.0003     17.2896
   806.4000      8.1588      2.4759      0.0725     10.5525    149.1777     17.8230
   806.5000      8.1341      2.4547      0.0700     11.8351    140.6393     22.5230
   806.6000      8.1341      2.4385      0.0665     12.8177    140.8730     28.4911
   806.7000      8.1341      2.4431      0.0210     12.5423    148.9359     31.4221
   806.8000      8.1636      2.4691      0.0980     10.9630    159.8824     30.8395
   806.9000      8.1636      2.4942      0.0479      9.4432    170.2338     29.1829
   807.0000      8.2468      2.5051      0.0996      8.7839    176.8117     28.5128
   807.1000      8.2468      2.5041      0.1019      8.8445    175.9002     28.2961
   807.2000      8.2468      2.4964      0.1038      9.3080    168.3208     26.2018
   807.3000      8.3296      2.4880      0.0412      9.8186    161.3306     23.0005
   807.4000      8.3296      2.4802      0.0852     10.2938    161.9307     22.8558
   807.5000      8.3728      2.4748      0.0090     10.6152    169.4121     26.9924
   807.6000      8.3728      2.4789      0.0042     10.3727    176.7113     32.0200
   807.7000      8.3728      2.4772      0.0334     10.4722    178.7570     34.6591
   807.8000      8.2889      2.4553     -0.0092     11.8027    176.5472     34.4282
   807.9000      8.2889      2.4396     -0.0644     12.7501    175.4773     31.9152
   808.0000      8.2372      2.4532     -0.0151     11.9266    176.8113     29.0260
   808.1000      8.2372      2.4802      0.0283     10.2913    173.7446     27.6693
   808.2000      8.2372      2.5005      0.0679      9.0584    165.2029     26.6454
   808.3000      8.2426      2.4999      0.1267      9.0985    158.8548     23.6099
   808.4000      8.2426      2.4698      0.0764     10.9217    159.8069     20.3544
   808.5000      8.2421      2.4288      0.0334     13.4045    166.3151     21.0661
   808.6000      8.2421      2.4034      0.0210     14.9449    172.9312     25.6799
   808.7000      8.2421      2.3956      0.0420     15.4179    175.5655     28.9931
   808.8000      8.2025      2.3890      0.0271     15.8183    173.6130     27.6751
   808.9000      8.2025      2.3804      0.0192     16.3389    170.3404     24.0111
   809.0000      8.1700      2.3860      0.0386     15.9990    172.2752     21.4052
   809.1000      8.1700      2.4134      0.0217     14.3409    176.4612     20.9375
   809.2000      8.1700      2.4519      0.0659     12.0042    171.7009     23.1046
   809.3000      8.1934      2.4879      0.0873      9.8222    160.2304     26.8891
   809.4000      8.1934      2.5116      0.1725      8.3859    154.4288     28.7756
   809.5000      8.2001      2.5136      0.1411      8.2683    157.3111     27.9762
   809.6000      8.2001      2.5085      0.1047      8.5771    161.5302     27.7802
   809.7000      8.2001      2.5268      0.1579      7.4643    160.5471     29.6771
   809.8000      8.1937      2.5668      0.1487      5.0403    153.5395     31.8468
   809.9000      8.1937      2.6086      0.1216      2.5110    144.0188     32.4552
   810.0000      8.1797      2.6502      0.1204     -0.0098    137.9939     30.7995
   810.1000      8.1797      2.6932      0.1448     -2.6178    139.5817     28.3321
   810.2000      8.1797      2.7235      0.1653     -4.4549    144.7110     27.0600
   810.3000      8.1441      2.7170      0.2080     -4.0619    144.1279     25.6766
