~Version Information
VERS.                      2.0: CWLS Log ASCII Standard - VERSION 2.0
WRAP.                       NO: One line per depth step
~Well Information Block
STRT.FT               475.0000: 
STOP.FT              2336.7000: 
STEP.FT                 0.1000: 
NULL.                -999.2500: 
COMP.          Pioneer Natural Resources: COMPANY
WELL.              Bobsy 34-11: WELL
FLD.           Purgatoire River: FIELD
LOC.           1937' FEL & 451' FSL----: LOCATION
PROV.                 Colorado: PROVINCE
CNTY.               Las Animas: COUNTRY
SRVC.                Patterson: SERVICE COMPANY
DATE.          Fri Apr 08 11:07:54 2005: LOG DATE
UWI.           05 071 08330 00: UNIQUE WELL ID
~Curve Information Block
DEPT.FT            0 000 00 00: Depth
DCAL.in                       : CDL Caliper
RHOB.g/cc                     : CDL Bulk Density
RHOC.g/cc                     : CDL Density Correction
DPOR.pu                       : CDL Density Porosity
NPOR.pu                       : Neutron Porosity
GR.GAPI                       : Gamma Ray
~Parameter Information Block
~A  Depth       DCAL        RHOB        RHOC        DPOR        NPOR         GR     
# ...
  2068.6000      8.2174      2.0797     -0.1293     34.5647     32.0873    128.3040
  2068.7000      8.2174      2.0660     -0.1050     35.3937     31.8264    130.5789
  2068.8000      8.2359      2.0800     -0.0442     34.5461     31.8122    129.7610
  2068.9000      8.2359      2.1081      0.0158     32.8430     31.9850    127.6410
  2069.0000      8.2551      2.1402      0.0624     30.8979     32.0678    125.0038
  2069.1000      8.2551      2.1788      0.0768     28.5558     31.8985    120.0632
  2069.2000      8.2551      2.2360      0.1081     25.0885     31.6563    115.8171
  2069.3000      8.2634      2.3149      0.1438     20.3103     31.5607    116.3432
  2069.4000      8.2634      2.3955      0.1891     15.4246     31.4683    119.3400
  2069.5000      8.2643      2.4466      0.2159     12.3244     31.2443    118.2512
  2069.6000      8.2643      2.4485      0.1643     12.2110     30.9329    115.6301
  2069.7000      8.2643      2.4120      0.0471     14.4263     30.7990    118.4352
  2069.8000      8.2667      2.3688      0.0238     17.0436     31.1730    125.4028
  2069.9000      8.2667      2.3355      0.0330     19.0612     32.0344    133.4638
  2070.0000      8.2704      2.3018      0.0533     21.1022     33.0489    139.7400
  2070.1000      8.2704      2.2459      0.0361     24.4890     34.0095    139.2067
  2070.2000      8.2704      2.1543     -0.0098     30.0415     34.9919    127.9145
  2070.3000      8.2720      2.0369     -0.0876     37.1582     35.5384    111.7490
  2070.4000      8.2720      1.9204     -0.1204     44.2201     35.1660     99.6377
  2070.5000      8.2715      1.8163     -0.0920     50.5276     34.7760     91.8837
  2070.6000      8.2715      1.7155     -0.1629     56.6339     35.2577     86.2597
  2070.7000      8.2715      1.6132     -0.1899     62.8348     35.9956     81.6092
  2070.8000      8.2753      1.5119     -0.1348     68.9772     36.2307     77.0274
  2070.9000      8.2753      1.4268     -0.1496     74.1322     36.2890     70.5748
  2071.0000      8.3012      1.3838     -0.1048     76.7374     36.5011     60.2374
  2071.1000      8.3012      1.3794      0.0147     77.0037     36.2614     50.0276
  2071.2000      8.3012      1.3821      0.0544     76.8422     35.4473     46.6660
  2071.3000      8.3470      1.3818      0.0220     76.8635     34.9431     47.2110
  2071.4000      8.3470      1.3906      0.0289     76.3293     35.2567     45.8016
  2071.5000      8.3767      1.4057      0.0573     75.4114     36.0535     43.7901
  2071.6000      8.3767      1.4113      0.0415     75.0756     36.4693     41.9770
  2071.7000      8.3767      1.4027      0.0168     75.5947     35.9126     38.3179
  2071.8000      8.3837      1.3892     -0.0071     76.4138     35.0777     34.4490
  2071.9000      8.3837      1.3785     -0.0012     77.0615     34.9657     33.7444
  2072.0000      8.3839      1.3696      0.0081     77.5992     35.3181     33.5966
  2072.1000      8.3839      1.3606     -0.0093     78.1447     35.3317     31.5417
  2072.2000      8.3839      1.3535     -0.0228     78.5752     34.8749     32.1812
  2072.3000      8.3841      1.3496     -0.0200     78.8129     34.3534     36.0927
  2072.4000      8.3841      1.3467     -0.0092     78.9873     34.1509     37.1863
  2072.5000      8.3854      1.3411     -0.0107     79.3282     34.1713     32.8812
  2072.6000      8.3854      1.3319     -0.0261     79.8853     34.0198     26.0447
  2072.7000      8.3854      1.3251     -0.0206     80.2987     33.5623     21.1498
  2072.8000      8.3880      1.3282     -0.0194     80.1097     33.1187     20.3657
  2072.9000      8.3880      1.3432      0.0062     79.1998     33.0422     21.8870
  2073.0000      8.3934      1.3678      0.0025     77.7072     33.5235     22.5292
  2073.1000      8.3934      1.3973      0.0322     75.9214     34.3014     22.6332
  2073.2000      8.3934      1.4232      0.0256     74.3501     34.9562     24.2254
  2073.3000      8.4105      1.4426      0.0402     73.1735     35.2300     27.7057
  2073.4000      8.4105      1.4622      0.0382     71.9874     35.0317     33.0564
  2073.5000      8.4411      1.4913      0.0283     70.2230     34.6778     39.5971
  2073.6000      8.4411      1.5326      0.0697     67.7202     34.4708     47.9584
  2073.7000      8.4411      1.5815      0.0562     64.7589     34.4631     58.9501
  2073.8000      8.4367      1.6355      0.0777     61.4857     34.5357     68.1996
  2073.9000      8.4367      1.6964      0.0767     57.7955     34.4903     71.4628
  2074.0000      8.3404      1.7669      0.0926     53.5230     34.1733     69.4440
  2074.1000      8.3404      1.8504      0.1019     48.4581     33.5412     66.1311
  2074.2000      8.3404      1.9493      0.1321     42.4667     32.8394     67.6992
  2074.3000      8.1966      2.0548      0.2111     36.0756     32.3865     75.6174
  2074.4000      8.1966      2.1560      0.1969     29.9367     32.2969     85.3561
  2074.5000      8.0850      2.2541      0.2121     23.9934     32.1693     94.1819
  2074.6000      8.0850      2.3411      0.2216     18.7215     31.4286    104.6613
  2074.7000      8.0850      2.3969      0.1948     15.3409     30.2783    116.9253
  2074.8000      8.0335      2.4225      0.1303     13.7863     29.1244    124.8809
  2074.9000      8.0335      2.4404      0.1082     12.7033     28.1132    124.6781
  2075.0000      8.0219      2.4595      0.0949     11.5441     27.4291    123.9255
  2075.1000      8.0219      2.4726      0.0928     10.7539     27.2910    129.1188
  2075.2000      8.0219      2.4816      0.0588     10.2057     27.7215    132.0879
  2075.3000      8.0210      2.4971      0.0395      9.2655     28.1094    128.3632
  2075.4000      8.0210      2.5154      0.0597      8.1588     27.8462    123.3945
  2075.5000      8.0194      2.5205      0.0545      7.8481     27.2398    117.7080
  2075.6000      8.0194      2.5107      0.0243      8.4394     26.6998    113.1814
  2075.7000      8.0194      2.5031     -0.0293      8.9037     26.5820    116.1193
  2075.8000      8.0189      2.5067      0.0253      8.6843     26.9473    124.0869
  2075.9000      8.0189      2.5134      0.0161      8.2760     27.0335    127.0919
  2076.0000      8.0202      2.5217      0.0245      7.7758     26.4903    122.1145
  2076.1000      8.0202      2.5352      0.0620      6.9550     25.9622    116.0683
  2076.2000      8.0202      2.5479      0.0245      6.1861     25.6897    113.8448
  2076.3000      8.0201      2.5532      0.0332      5.8647     25.3250    115.4744
  2076.4000      8.0201      2.5515      0.0229      5.9689     25.2861    119.8004
  2076.5000      8.0201      2.5433      0.0377      6.4656     25.8869    122.7354
  2076.6000      8.0201      2.5303      0.0064      7.2549     26.5195    121.6394
  2076.7000      8.0201      2.5161      0.0122      8.1178     26.7661    118.4663
  2076.8000      8.0216      2.4983      0.0258      9.1928     26.5046    114.7797
  2076.9000      8.0216      2.4816     -0.0214     10.2065     25.7765    106.3290
  2077.0000      8.0225      2.4762     -0.0128     10.5312     25.2297     92.1639
  2077.1000      8.0225      2.4734      0.0214     10.7052     25.3278     82.4323
  2077.2000      8.0225      2.4484      0.0254     12.2169     26.1436     83.9420
  2077.3000      8.0213      2.3861     -0.0076     15.9952     27.4916     88.8580
  2077.4000      8.0213      2.2921     -0.0349     21.6912     28.4380     89.3689
  2077.5000      8.0195      2.1907     -0.0759     27.8376     28.7767     88.1521
  2077.6000      8.0195      2.1039     -0.1143     33.0958     29.4267     90.1468
  2077.7000      8.0195      2.0245     -0.0666     37.9067     30.4910     92.6684
  2077.8000      8.0191      1.9275     -0.0825     43.7849     31.3271     88.4920
  2077.9000      8.0191      1.8112     -0.1136     50.8348     31.8887     79.0872
  2078.0000      8.0180      1.7018     -0.1476     57.4697     32.3114     71.8145
  2078.1000      8.0180      1.6151     -0.1167     62.7206     32.7014     68.5668
