~Version Information
 VERS.                      2.0: CWLS Log ASCII Standard - VERSION 2.0
 WRAP.                       NO: One line per depth step
 ~Well Information Block
 STRT.FT               762.3000: 
 STOP.FT              2573.7000: 
 STEP.FT                 0.1000: 
 NULL.                -999.2500: 
 COMP.          Petrogulf Corporation: COMPANY
 WELL.               J&P 12-33V: WELL
 FLD.           Purgatorie River: FIELD
 LOC.           2005' FSL & 1928' FEL: LOCATION
 CNTY.               Las Animas: COUNTY
 SRVC.                         : SERVICE COMPANY
 DATE.          Sat Aug 28 11:34:36 2004: LOG DATE
 UWI.           05 071 08092 00: UNIQUE WELL ID
 STAT.                 Colorado: STATE
 PROV.                         :Province
 ~Curve Information Block
 DEPT.FT            0 000 00 00: Depth
 GR.GAPI                       : Gamma Ray
 DCAL.in                       : CDL Caliper
 DPOR.pu                       : CDL Density Porosity
 NPOR.pu                       : Neutron Porosity
 RHOB.g/cc                     : CDL Bulk Density
 RHOC.g/cc                     : CDL Density Correction
 ~Parameter Information Block
 ~A  Depth        GR         DCAL        DPOR        NPOR        RHOB        RHOC    
# ...
  2567.1000   -999.2500      7.3933     11.5316   -999.2500      2.4597      0.1721
  2567.2000   -999.2500      7.3933     10.8406   -999.2500      2.4711      0.1223
  2567.3000   -999.2500      7.3605      8.3620   -999.2500      2.5120      0.1790
  2567.4000   -999.2500      7.3605      5.0668   -999.2500      2.5664      0.2232
  2567.5000   -999.2500      7.3234      2.5169   -999.2500      2.6085      0.2246
  2567.6000   -999.2500      7.3234      0.6741   -999.2500      2.6389      0.2062
  2567.7000   -999.2500      7.3234     -0.4797   -999.2500      2.6579      0.2747
  2567.8000   -999.2500      7.2944     -0.3336   -999.2500      2.6555      0.2540
  2567.9000   -999.2500      7.2944      0.9532   -999.2500      2.6343      0.2769
  2568.0000   -999.2500      7.2903      2.8968   -999.2500      2.6022      0.2038
  2568.1000   -999.2500      7.2903      4.6288   -999.2500      2.5736      0.1716
  2568.2000   -999.2500      7.2903      5.0910   -999.2500      2.5660      0.1612
  2568.3000   -999.2500      7.2122      4.2858   -999.2500      2.5793      0.1807
  2568.4000   -999.2500      7.2122      2.9352   -999.2500      2.6016      0.1704
  2568.5000   -999.2500      7.1861      1.6811   -999.2500      2.6223      0.2030
  2568.6000   -999.2500      7.1861      0.9426   -999.2500      2.6344      0.1719
  2568.7000   -999.2500      7.1861      0.6494   -999.2500      2.6393      0.1710
  2568.8000   -999.2500      7.2172      0.8964   -999.2500      2.6352      0.1554
  2568.9000   -999.2500      7.2172      2.2584   -999.2500      2.6127      0.1869
  2569.0000   -999.2500      7.3789      4.8388   -999.2500      2.5702      0.1345
  2569.1000   -999.2500      7.3789      7.4652   -999.2500      2.5268      0.1185
  2569.2000   -999.2500      7.3789      8.6807   -999.2500      2.5068      0.0549
  2569.3000   -999.2500      7.3979      8.2637   -999.2500      2.5136      0.0594
  2569.4000   -999.2500      7.3979      7.5776   -999.2500      2.5250      0.1256
  2569.5000   -999.2500      7.4096      7.6818   -999.2500      2.5232      0.1014
  2569.6000   -999.2500      7.4096      8.2424   -999.2500      2.5140      0.1222
  2569.7000   -999.2500      7.4096      8.8316   -999.2500      2.5043      0.1067
  2569.8000   -999.2500      7.4695      9.3317   -999.2500      2.4960      0.0592
  2569.9000   -999.2500      7.4695      9.6250   -999.2500      2.4912      0.1096
  2570.0000   -999.2500      7.4767      9.4437   -999.2500      2.4942      0.0286
  2570.1000   -999.2500      7.4767      8.6381   -999.2500      2.5075      0.0785
  2570.2000   -999.2500      7.4767      7.9565   -999.2500      2.5187      0.1247
  2570.3000   -999.2500      7.4752      8.1171   -999.2500      2.5161      0.1201
  2570.4000   -999.2500      7.4752      8.8916   -999.2500      2.5033      0.1314
  2570.5000   -999.2500      7.4727      9.7224   -999.2500      2.4896      0.1159
  2570.6000   -999.2500      7.4727     10.1060   -999.2500      2.4833      0.0724
  2570.7000   -999.2500      7.4727      9.6828   -999.2500      2.4902      0.0757
  2570.8000   -999.2500      7.4722      8.8274   -999.2500      2.5043      0.1058
  2570.9000   -999.2500      7.4722      8.4040   -999.2500      2.5113      0.1317
  2571.0000   -999.2500      7.4727      8.8722   -999.2500      2.5036      0.1438
  2571.1000   -999.2500      7.4727      9.8433   -999.2500      2.4876      0.1371
  2571.2000   -999.2500      7.4727     10.3157   -999.2500      2.4798      0.0935
  2571.3000   -999.2500      7.4537      9.9887   -999.2500      2.4852      0.1609
  2571.4000   -999.2500      7.4537      9.4576   -999.2500      2.4939      0.0988
  2571.5000   -999.2500      7.4770      8.6847   -999.2500      2.5067      0.0535
  2571.6000   -999.2500      7.4770      7.4735   -999.2500      2.5267      0.0904
  2571.7000   -999.2500      7.4770      6.1347   -999.2500      2.5488      0.1150
  2571.8000   -999.2500      7.5098      4.8123   -999.2500      2.5706      0.1748
  2571.9000   -999.2500      7.5098      3.9404   -999.2500      2.5850      0.2144
  2572.0000   -999.2500      7.4726      4.2248   -999.2500      2.5803      0.2098
  2572.1000   -999.2500      7.4726      5.4561   -999.2500      2.5600      0.1381
  2572.2000   -999.2500      7.4726      6.5264   -999.2500      2.5423      0.1094
  2572.3000   -999.2500      7.3769      6.8692   -999.2500      2.5367      0.0750
  2572.4000   -999.2500      7.3769      7.0702   -999.2500      2.5333      0.1034
  2572.5000   -999.2500      7.3634      7.7892   -999.2500      2.5215      0.1011
  2572.6000   -999.2500      7.3634      8.9768   -999.2500      2.5019      0.0773
  2572.7000   -999.2500      7.3634      8.9883   -999.2500      2.5017      0.1303
  2572.8000   -999.2500      7.3791     -1.2191   -999.2500      2.6701      0.1300
  2572.9000   -999.2500      7.3791    -38.5150   -999.2500      3.2855      0.0997
  2573.0000   -999.2500      7.3342    -89.6659   -999.2500      4.1295      0.5011
  2573.1000   -999.2500      7.3342    -81.8242   -999.2500      4.0001      1.7083
  2573.2000   -999.2500      7.3342     12.3418   -999.2500      2.4464      0.0000
  2573.3000   -999.2500      6.3690    108.5441   -999.2500      0.8590   -999.2500
  2573.4000   -999.2500      6.3690    150.5535   -999.2500      0.1659   -999.2500
  2573.5000   -999.2500      0.8402    159.5608   -999.2500      0.0172   -999.2500
  2573.6000   -999.2500      0.8402    160.5488   -999.2500      0.0009   -999.2500
  2573.7000   -999.2500      0.8402    160.6061   -999.2500      0.0000   -999.2500
