~Version Information
 VERS.                                  2.0 : CWLS LAS VERSION
 WRAP.                                   NO : WRAPING MODE
 SWARE .                 MController 2.5.0E : SOFTWARE VERSION
~Well Information
 WELL.                          Nomad 32-10 : WELL
 COMP.            EVERGREEN OPERATING CORP. : COMPANY
 FLD.                      PURGATOIRE RIVER : FIELD
 LOC.                    SW/NE 26 T32S R66W : LOCATION
 DATE.                              6/11/04 : DATE(S) LOGGED
 SRVC.       BLANCO GEOLOGICAL SERVICES LLC : SERVICE COMPANY
 STAT.                             COLORADO : STATE
 CNTY.                           LAS ANIMAS : COUNTY
 CTRY.                                  USA : COUNTRY
 API.                       05-071-08127-00 : API NUMBER
 STRT.FT                             446.00 : START DEPTH
 STOP.FT                            2455.00 : STOP DEPTH
 STEP.FT                               1.00 : DEPTH INCREMENT
 NULL.                                -9999 : NULL VALUE
~Curve information
 DEPTH.FT                                   :
 ROP.MIN/FT                                 :
 GAS.UNITS                                  :
~ASCII Log data
# ...
      846.00        0.233         40.8 
      847.00        0.167         46.4 
      848.00        0.200         35.0 
      849.00        0.200         35.0 
      850.00        0.200         24.2 
      851.00        0.200         26.8 
      852.00        0.233         30.8 
      853.00        0.200         36.3 
      854.00        0.167         36.3 
      855.00        0.200         37.5 
      856.00        0.233         32.2 
      857.00        0.167         22.6 
      858.00        0.217         19.8 
      859.00        0.233         19.8 
      860.00        0.200         25.0 
      861.00        0.200         37.8 
      862.00        0.167         37.8 
      863.00        0.233         52.6 
      864.00        0.267         66.2 
      865.00        0.367         91.7 
      866.00        4.683        410.0 
      867.00        0.267         38.1 
      868.00        0.183         38.3 
      869.00        0.133         38.3 
      870.00        0.300         38.1 
      871.00        0.267         37.6 
      872.00        0.267         39.0 
      873.00        0.267         40.2 
      874.00        0.267         37.7 
      875.00        0.267         36.4 
      876.00        0.267         38.3 
      877.00        0.267         40.2 
      878.00        0.233         40.6 
      879.00        0.233         39.3 
      880.00        0.233         43.3 
      881.00        0.250         45.7 
      882.00        0.233         46.4 
      883.00        0.233         41.1 
      884.00        0.233         25.2 
      885.00        0.267         29.7 
      886.00        0.200         29.7 
      887.00        0.200         33.5 
      888.00        0.200         31.6 
      889.00        0.133         31.6 
      890.00        0.233         30.1 
      891.00        0.200         26.2 
      892.00        0.200         26.2 
      893.00        0.200         30.5 
      894.00        0.200         42.6 
      895.00        0.233         60.0 
      896.00        4.800        296.3 
      897.00        0.133         73.8 
      898.00        0.267         75.4 
      899.00        0.300         66.4 
      900.00        0.367         56.6 
      901.00        0.233         53.3 
      902.00        0.233         56.5 
      903.00        0.133         59.3 
      904.00        0.200         59.3 
      905.00        0.200         58.0 
      906.00        0.183         56.1 
      907.00        0.133         55.7 
      908.00        0.100         56.5 
      909.00        0.133         56.5 
      910.00        0.167         57.7 
      911.00        0.233         61.2 
      912.00        0.267         66.4 
      913.00        0.300         61.0 
      914.00        0.267         54.0 
      915.00        0.267         41.3 
      916.00        0.233         43.5 
      917.00        0.233         45.3 
      918.00        0.200         51.2 
      919.00        0.233         52.6 
      920.00        0.233         52.6 
      921.00        0.167         45.3 
      922.00        0.217         34.0 
      923.00        0.233         29.7 
      924.00        0.233         31.9 
      925.00        0.167         31.9 
      926.00        6.667       1259.5 
      927.00        0.133         57.6 
      928.00        0.300         59.3 
      929.00        0.167         57.9 
      930.00        0.233         54.7 
      931.00        0.333         61.8 
      932.00        0.300         69.3 
      933.00        0.267         69.1 
      934.00        0.267         60.6 
      935.00        0.333         62.8 
      936.00        0.233         61.9 
      937.00        0.250         59.5 
      938.00        0.200         65.3 
      939.00        0.233         65.3 
      940.00        0.167         71.1 
      941.00        0.133         71.1 
      942.00        0.200         76.8 
      943.00        0.167         98.9 
      944.00        0.333        128.8 
      945.00        0.200        148.4 
      946.00        0.167        164.2 
      947.00        0.200        164.2 
      948.00        0.167        184.6 
      949.00        0.167        173.5 
      950.00        0.167        173.5 
      951.00        0.233        162.0 
      952.00        0.200        103.9 
      953.00        0.200        103.9 
      954.00        0.217        116.1 
      955.00        0.167        161.4 
      956.00        5.983       4511.1 
      957.00        0.267        563.5 
      958.00        0.117        563.5 
      959.00        0.100        546.0 
      960.00        0.233        521.0 
      961.00        0.467        514.3 
      962.00        0.133        503.8 
      963.00        0.100        500.5 
      964.00        0.133        500.5 
      965.00        0.167        493.1 
      966.00        0.300        489.0 
      967.00        0.333        486.7 
      968.00        0.267        503.8 
      969.00        0.233        512.6 
      970.00        0.167        512.6 
      971.00        0.267        532.1 
      972.00        0.200        573.9 
      973.00        0.150        573.9 
      974.00        0.133        507.6 
      975.00        0.233        476.2 
      976.00        0.233        491.0 
      977.00        0.233        489.7 
      978.00        0.233        489.7 
      979.00        0.233        455.7 
      980.00        0.233        440.0 
      981.00        0.233        167.4 
      982.00        0.233        229.4 
      983.00        0.233        229.4 
      984.00        0.200        331.4 
      985.00        0.200        468.1 
      986.00        5.833       5866.5 
      987.00        0.200        202.2 
      988.00        0.467        217.8 
      989.00        0.400        192.1 
      990.00        0.300        223.5 
      991.00        0.217        233.6 
      992.00        0.233        225.1 
      993.00        0.233        212.8 
      994.00        0.233        213.7 
      995.00        0.200        209.6 
      996.00        0.167        209.6 
      997.00        0.167        210.4 
      998.00        0.133        210.4 
      999.00        0.300        248.3 
     1000.00        0.200        248.3 
     1001.00        0.167        244.5 
     1002.00        0.167        223.4 
     1003.00        0.267        180.9 
     1004.00        0.200        174.9 
     1005.00        0.200        174.9 
     1006.00        0.167        172.8 
     1007.00        0.167        187.3 
     1008.00        0.183        187.3 
     1009.00        0.167        184.5 
     1010.00        0.167        162.7 
     1011.00        0.167        162.7 
     1012.00        0.167        149.6 
     1013.00        0.200        146.3 
     1014.00        0.167        145.9 
     1015.00        0.200        145.9 
     1016.00        8.883       2416.8 
     1017.00        0.233        469.8 
     1018.00        0.167        469.8 
     1019.00        0.233        473.2 
     1020.00        0.200        463.4 
     1021.00        0.233        458.7 
     1022.00        0.133        462.1 
     1023.00        0.133        462.1 
     1024.00        0.267        456.3 
     1025.00        0.200        455.3 
     1026.00        0.233        456.0 
     1027.00        0.167        456.0 
     1028.00        0.267        457.4 
     1029.00        0.233        456.7 
     1030.00        0.267        507.9 
     1031.00        0.233        509.6 
     1032.00        0.250        448.6 
     1033.00        0.233        440.0 
     1034.00        0.233        137.7 
     1035.00        0.233        122.4 
     1036.00        0.300        105.1 
     1037.00        0.233         95.8 
     1038.00        0.267        107.7 
     1039.00        0.233        171.4 
     1040.00        0.267        244.0 
     1041.00        0.200        244.0 
     1042.00        0.267        318.5 
     1043.00        0.267       1216.1 
     1044.00        0.167       1513.9 
     1045.00        0.283       1729.9 
