~Version Information
VERS.                      2.0: CWLS Log ASCII Standard - VERSION 2.0
WRAP.                       NO: One line per depth step
~Well Information Block
STRT.FT               250.0000: 
STOP.FT               894.7500: 
STEP.FT                 0.2500: 
NULL.                -999.2500: 
COMP.          Pioneer Natural Resources: COMPANY
WELL.          Santisteven 13-22: WELL
FLD.           Purgatoire River: FIELD
LOC.           1861' FSL & 992' FWL----: LOCATION
PROV.                 Colorado: PROVINCE
CNTY.               Las Animas: COUNTRY
SRVC.                Patterson: SERVICE COMPANY
DATE.          Sat Apr 02 14:49:07 2005: LOG DATE
UWI.           05 071 08337 00: UNIQUE WELL ID
~Curve Information Block
DEPT.FT            0 000 00 00: Depth
SN.Ohm-m                      : IEL Short Normal
SP.mV                         : IEL Spontaneous Potential
DIR.Ohm-m                     : IEL Induction Resistivity
GR.GAPI                       : Gamma Ray
~Parameter Information Block
~A  Depth        SN          SP         DIR          GR     
   250.0000     -4.9659     25.9527      3.2724     74.2124
   250.2500     -4.8472     25.9471      3.2394     74.8444
   250.5000     -4.8014     25.9441      3.2091     75.1584
   250.7500     -4.7991     25.9440      3.1917     74.7194
   251.0000     -4.7934     25.9468      3.1900     73.3488
   251.2500     -4.7407     25.9523      3.1981     72.4919
   251.5000     -4.6116     25.9600      3.2060     72.1550
   251.7500     -4.4100     25.9693      3.2069     72.6510
   252.0000     -4.1869     25.9795      3.2005     73.9200
   252.2500     -4.0186     25.9899      3.1903     74.7275
   252.5000     -3.9579     25.9998      3.1795     75.5195
   252.7500     -4.0022     26.0090      3.1688     75.6479
   253.0000     -4.1124     26.0172      3.1563     75.0890
   253.2500     -4.2565     26.0243      3.1377     74.2732
   253.5000     -4.4193     26.0306      3.1105     72.7691
   253.7500     -4.5325     26.0360      3.0835     71.8327
   254.0000     -4.3517     26.0410      3.0894     70.8797
   254.2500     -2.9187     26.0456      3.1942     70.7258
   254.5000      2.8708     26.0501      3.5098     71.2911
   254.7500     20.5635     26.0547      4.2394     71.9564
   255.0000     62.7609     26.0594      5.8271     72.8041
   255.2500    141.4192     26.0642      9.4433     73.3151
   255.5000    255.9599     26.0686     18.8510     75.0029
   255.7500    386.2400     26.0723     50.5224     77.3077
   256.0000    502.0033     26.0750    274.1053     82.3474
   256.2500    582.3918     26.0765 100000.0000     86.0797
   256.5000    626.0411     26.0769    500.8321     91.0798
   256.7500    644.5860     26.0766     48.7220     93.5798
   257.0000    650.7565     26.0761     15.2949     95.4772
   257.2500    652.3661     26.0760      7.0233     95.2485
   257.5000    652.6957     26.0767      4.1876     92.8747
   257.7500    652.7487     26.0785      3.1214     90.4505
   258.0000    652.7505     26.0810      2.8716     86.2898
   258.2500    652.7505     26.0840      3.2696     83.1797
   258.5000    652.7505     26.0867      4.7596     77.8035
   258.7500    652.7505     26.0888     10.2981     73.9769
   259.0000    652.7505     26.0899   2249.1648     68.9321
   259.2500    652.7505     26.0898 100000.0000     66.5819
   259.5000    652.7505     26.0888 100000.0000     64.7362
   259.7500    652.7505     26.0875 100000.0000     64.3339
   260.0000    652.7505     26.0863 100000.0000     64.3121
   260.2500    652.7505     26.0858 100000.0000     64.3440
   260.5000    652.7505     26.0864 100000.0000     63.9930
   260.7500    652.7505     26.0879     87.5103     63.3373
   261.0000    652.7505     26.0901     35.1168     61.8411
   261.2500    652.7505     26.0925     27.2266     60.8616
   261.5000    652.7505     26.0943     25.8380     60.2786
   261.7500    652.7505     26.0951     26.8518     60.7882
   262.0000    652.7505     26.0945     28.9797     62.5967
   262.2500    652.7505     26.0926     31.3353     63.9110
   262.5000    652.7505     26.0896     32.9807     64.9606
   262.7500    652.7505     26.0861     33.2918     64.7289
   263.0000    652.7505     26.0828     32.6449     63.3055
   263.2500    652.7505     26.0801     32.2356     62.1589
   263.5000    652.7505     26.0786     33.3143     60.7393
   263.7500    652.7505     26.0782     36.8644     59.8905
   264.0000    652.7505     26.0790     43.3952     58.3335
   264.2500    652.7505     26.0806     51.5683     57.2149
   264.5000    652.7505     26.0830     56.1415     56.2576
   264.7500    652.7505     26.0857     52.4363     56.4710
   265.0000    652.7505     26.0889     43.9281     57.9117
   265.2500    652.7505     26.0925     36.1184     59.3106
   265.5000    652.7505     26.0964     30.8018     61.8774
   265.7500    652.7505     26.1006     27.7287     64.0141
   266.0000    652.7505     26.1047     26.3225     68.0250
   266.2500    652.7505     26.1086     26.1045     71.1601
   266.5000    652.7505     26.1117     26.6675     76.1203
   266.7500    652.7505     26.1136     27.6055     79.2233
   267.0000    652.7505     26.1139     28.5297     82.9584
   267.2500    652.7505     26.1128     29.1717     84.6757
   267.5000    652.7505     26.1102     29.4569     86.2777
   267.7500    652.7505     26.1068     29.4648     86.8474
   268.0000    652.7505     26.1031     29.3208     86.6768
   268.2500    652.7505     26.0999     29.1124     85.4157
   268.5000    652.7505     26.0977     28.8602     81.3900
   268.7500    652.7390     26.0969     28.5225     77.7380
   269.0000    652.6479     26.0974     28.0194     72.6073
   269.2500    652.1828     26.0987     27.2689     70.4918
   269.5000    650.2820     26.1003     26.2303     70.3561
   269.7500    644.2465     26.1017     24.9329     72.5544
   270.0000    629.4680     26.1026     23.4718     79.5268
   270.2500    601.9798     26.1029     21.9701     86.5479
   270.5000    564.3530     26.1029     20.5338     99.6525
   270.7500    529.5055     26.1031     19.2256    109.0914
   271.0000    514.6614     26.1039     18.0635    122.4582
   271.2500    527.8541     26.1056     17.0351    129.8721
   271.5000    561.0818     26.1083     16.1147    137.1738
   271.7500    597.8531     26.1117     15.2800    138.8453
   272.0000    625.8015     26.1154     14.5214    137.0694
   272.2500    641.8807     26.1189     13.8450    134.5819
   272.5000    649.1514     26.1219     13.2664    132.3580
   272.7500    651.7764     26.1240     12.8012    133.1179
   273.0000    652.5378     26.1254     12.4569    137.4107
   273.2500    652.7160     26.1262     12.2315    141.4088
   273.5000    652.7452     26.1266     12.1170    147.4802
   273.7500    652.7435     26.1268     12.1040    150.9563
   274.0000    652.7153     26.1268     12.1829    154.4737
   274.2500    652.6111     26.1265     12.3417    155.0833
   274.5000    652.3211     26.1256     12.5633    152.3771
   274.7500    651.7205     26.1238     12.8252    148.0815
   275.0000    650.8261     26.1210     13.1026    139.2681
   275.2500    649.9373     26.1174     13.3723    133.1930
   275.5000    649.4845     26.1130     13.6140    126.0843
   275.7500    649.4665     26.1082     13.8110    123.6934
   276.0000    648.8582     26.1031     13.9513    124.5147
   276.2500    645.4467     26.0980     14.0324    127.7381
   276.5000    636.6185     26.0929     14.0633    134.6883
   276.7500    621.7087     26.0878     14.0601    139.2563
   277.0000    604.8268     26.0827     14.0407    144.1539
   277.2500    594.2164     26.0779     14.0227    145.8277
   277.5000    596.2249     26.0738     14.0260    146.5633
   277.7500    609.3724     26.0709     14.0754    146.2668
   278.0000    625.3945     26.0693     14.1979    144.3578
   278.2500    635.5236     26.0693     14.4184    141.4415
   278.5000    634.5970     26.0706     14.7558    133.8122
   278.7500    621.3724     26.0729     15.2224    126.9103
   279.0000    598.7286     26.0755     15.8243    115.8515
   279.2500    573.9270     26.0781     16.5625    109.4420
   279.5000    554.8363     26.0803     17.4297    102.8283
   279.7500    543.8182     26.0821     18.4061    100.3832
   280.0000    537.7612     26.0835     19.4534     98.3134
   280.2500    535.0496     26.0843     20.5168     97.1201
   280.5000    538.7399     26.0843     21.5364     94.9662
   280.7500    551.2187     26.0833     22.4638     93.4405
   281.0000    569.8525     26.0808     23.2692     91.5847
   281.2500    589.6838     26.0768     23.9371     90.8483
   281.5000    606.3838     26.0712     24.4570     90.2805
   281.7500    614.7634     26.0643     24.8247     89.7545
   282.0000    608.5401     26.0570     25.0487     87.8542
   282.2500    585.7526     26.0500     25.1508     85.8808
   282.5000    554.8741     26.0442     25.1557     83.1034
   282.7500    532.9719     26.0402     25.0796     82.2206
   283.0000    533.9916     26.0384     24.9301     82.8213
   283.2500    557.7306     26.0387     24.7111     84.1525
