~Version Information
 VERS.                                  2.0 : CWLS LAS VERSION
 WRAP.                                   NO : WRAPING MODE
 SWARE .                 MController 2.5.0J : SOFTWARE VERSION
~Well Information
 WELL.                      Robinson 15-12V : WELL
 COMP.                Petrogulf Corporation : COMPANY
 FLD.                      Purgatoire River : FIELD
 LOC.                SW/NW Sec 15 T33S R67W : LOCATION
 DATE.                             09/10/05 : DATE(S) LOGGED
 SRVC.       BLANCO Geological Services LLC : SERVICE COMPANY
 STAT.                                   CO : STATE
 CNTY.                           Las Animas : COUNTY
 CTRY.                                  USA : COUNTRY
 API.                       05-071-08308-00 : API NUMBER
 STRT.FT                              52.00 : START DEPTH
 STOP.FT                            2041.00 : STOP DEPTH
 STEP.FT                               1.00 : DEPTH INCREMENT
 NULL.                                -9999 : NULL VALUE
~Curve information
 DEPTH.FT                                   :
 ROP.MIN/FT                                 :
 GAS.UNITS                                  :
~ASCII Log data
# ...
       452.0         0.37        831.7 
       453.0         0.30        805.0 
       454.0         0.27        790.1 
       455.0         0.28        783.5 
       456.0         0.23        801.5 
       457.0         0.30        817.7 
       458.0         0.23        809.8 
       459.0         0.23        786.9 
       460.0         0.23        766.0 
       461.0         0.27        761.2 
       462.0         0.30        770.1 
       463.0         0.30        782.8 
       464.0         0.33        796.5 
       465.0         0.37        800.6 
       466.0         0.37        807.6 
       467.0         0.35        804.4 
       468.0         0.33        806.9 
       469.0         0.43        832.0 
       470.0         0.33        834.9 
       471.0         0.33        825.3 
       472.0         0.37        816.8 
       473.0         0.33        827.3 
       474.0         0.33        827.9 
       475.0         0.37        826.3 
       476.0         2.35       3852.5 
       477.0         0.37       1520.4 
       478.0         0.27       1139.2 
       479.0         0.33        971.0 
       480.0         0.38        868.8 
       481.0         0.37        814.6 
       482.0         0.33        789.8 
       483.0         0.27        782.5 
       484.0         0.30        778.1 
       485.0         0.23        774.9 
       486.0         0.27        773.0 
       487.0         0.30        772.7 
       488.0         0.30        776.5 
       489.0         0.30        772.3 
       490.0         0.30        779.6 
       491.0         0.30        784.4 
       492.0         0.28        781.2 
       493.0         0.23        768.5 
       494.0         0.27        763.1 
       495.0         0.20        776.2 
       496.0         0.47        866.9 
       497.0         0.47        916.1 
       498.0         0.70        969.8 
       499.0         0.77       1005.0 
       500.0         0.75        995.5 
       501.0         0.37        965.9 
       502.0         0.27        924.4 
       503.0         0.17        903.1 
       504.0         0.20        889.5 
       505.0         0.30        874.2 
       506.0         1.88       4781.5 
       507.0         0.47       2687.4 
       508.0         0.60       1581.7 
       509.0         0.57       1084.3 
       510.0         0.67        925.3 
       511.0         0.52        895.5 
       512.0         0.20        890.4 
       513.0         0.23        890.4 
       514.0         0.20        889.5 
       515.0         0.27        893.3 
       516.0         0.30        888.2 
       517.0         0.33        878.0 
       518.0         0.33        876.1 
       519.0         0.37        877.4 
       520.0         0.30        878.7 
       521.0         0.30        879.0 
       522.0         0.33        879.0 
       523.0         0.32        878.0 
       524.0         0.40        878.0 
       525.0         0.27        947.2 
       526.0         0.20        953.9 
       527.0         0.13        944.4 
       528.0         0.13        923.1 
       529.0         0.10        902.2 
       530.0         0.13        894.5 
       531.0         0.23        918.3 
       532.0         0.23        936.7 
       533.0         0.27        967.5 
       534.0         0.30        973.2 
       535.0         0.17        965.6 
       536.0         1.78       4010.9 
       537.0         0.30       3386.0 
       538.0         0.37       2313.6 
       539.0         0.33       1540.7 
       540.0         0.37       1215.1 
       541.0         0.33       1022.4 
       542.0         0.33        923.7 
       543.0         0.35        887.2 
       544.0         0.30        875.5 
       545.0         0.33        874.2 
       546.0         0.33        891.7 
       547.0         0.33        894.5 
       548.0         0.37        893.6 
       549.0         0.33        887.9 
       550.0         0.37        873.6 
       551.0         0.33        864.1 
       552.0         0.33        859.9 
       553.0         0.42        867.2 
       554.0         0.37        877.7 
       555.0         0.27        878.4 
       556.0         0.20        877.1 
       557.0         0.17        869.1 
       558.0         0.20        865.3 
       559.0         0.20        914.5 
       560.0         0.23        968.2 
       561.0         0.20        972.0 
       562.0         0.27        960.2 
       563.0         0.20        940.9 
       564.0         0.23        927.9 
       565.0         0.33        965.0 
       566.0         4.63       4676.5 
       567.0         0.57       1189.4 
       568.0         0.27       1060.5 
       569.0         0.27       1022.1 
       570.0         0.20       1019.3 
       571.0         0.33       1019.6 
       572.0         0.40       1009.1 
       573.0         0.38        976.4 
       574.0         0.37        941.8 
       575.0         0.40        911.0 
       576.0       665.00       4723.8 
       577.0        33.90          7.4 
       578.0         0.13          6.7 
       579.0         0.67          7.2 
       580.0         0.33          7.0 
       581.0         0.20          6.9 
       582.0         0.23          6.8 
       583.0         0.20          6.6 
       584.0         0.30          7.1 
       585.0         0.27          6.9 
       586.0         0.25          6.9 
       587.0         0.17          6.7 
       588.0         0.17          6.7 
       589.0         0.17          6.6 
       590.0         0.20          6.9 
       591.0         0.13          7.3 
       592.0         0.17          7.1 
       593.0         0.17          7.2 
       594.0         0.20          7.4 
       595.0         0.17          6.8 
       596.0         0.17          7.4 
       597.0         0.23          7.4 
       598.0         0.97        146.8 
       599.0         0.13        146.3 
       600.0         0.17        137.1 
       601.0         0.22        121.0 
       602.0         0.13        102.8 
       603.0         0.17         91.8 
       604.0         0.20         78.9 
       605.0         0.20         66.3 
       606.0         0.20         57.4 
       607.0         0.17         50.2 
       608.0         0.13         46.9 
       609.0         0.17         43.7 
       610.0         0.17         41.8 
       611.0         0.07         40.8 
       612.0         0.17         41.7 
       613.0         0.30         41.9 
       614.0         0.17         41.3 
       615.0         0.20         41.3 
       616.0         0.23         41.4 
       617.0         0.17         40.8 
       618.0         0.17         40.6 
       619.0         0.18         40.1 
       620.0         0.17         39.4 
       621.0         0.13         39.0 
       622.0         0.17         38.7 
       623.0         0.17         38.3 
       624.0         0.17         37.9 
       625.0         0.20         37.9 
       626.0         0.17         38.0 
       627.0         0.23         38.7 
       628.0         1.60        124.7 
       629.0         0.35        119.6 
       630.0         0.17         88.0 
       631.0         0.20         73.5 
       632.0         0.17         60.5 
       633.0         0.23         52.5 
       634.0         0.17         46.2 
       635.0         0.17         43.3 
       636.0         0.20         41.0 
       637.0         0.13         39.0 
       638.0         0.20         37.6 
       639.0         0.13         36.4 
       640.0         0.23         36.0 
       641.0         0.20         35.5 
       642.0         0.23         35.3 
       643.0         0.17         35.6 
       644.0         0.17         35.1 
       645.0         0.20         34.9 
       646.0         0.18         35.1 
       647.0         0.20         35.0 
       648.0         0.17         34.6 
       649.0         0.17         34.5 
       650.0         0.13         34.4 
       651.0         0.13         34.7 
