~Version Information
VERS.                      2.0: CWLS Log ASCII Standard - VERSION 2.0
WRAP.                       NO: One line per depth step
~Well Information Block
STRT.FT                -7.2500: 
STOP.FT              2610.0000: 
STEP.FT                 0.2500: 
NULL.                -999.2500: 
COMP.          Pioneer Natural Resources: COMPANY
WELL.              Wagner 13-9: WELL
FLD.           Purgatorie River: FIELD
LOC.           1819' FSL & 1111' FWL--: LOCATION
PROV.                       CO: PROVINCE
CNTY.               Las Animas: COUNTRY
SRVC.          Patterson Wireline: SERVICE COMPANY
DATE.          Wed May 18 09:08:26 2005: LOG DATE
UWI.           05 071 08302 00: UNIQUE WELL ID
~Curve Information Block
DEPT.FT            0 000 00 00: Depth
CCL.                          : Casing Collar Locator
TT3.usec                      : CBL 3' Travel Time
AMP3.mV                       : CBL 3' Amplitude
GR.GAPI                       : Gamma Ray
~Parameter Information Block
~A  Depth       CCL         TT3         AMP3         GR     
# ...
  2572.2500      0.0000    360.2613      2.7656     86.2193
  2572.5000      0.0000    355.2259      2.7810     80.5027
  2572.7500      0.0000    353.4185      2.7506     75.3836
  2573.0000      0.0000    353.8511      2.7363     72.9672
  2573.2500      0.0000    356.0524      2.7699     73.2468
  2573.5000      0.0000    360.1621      2.8436     74.5299
  2573.7500      0.0000    366.4645      2.9425     75.2255
  2574.0000      0.0000    374.4603      3.0741     74.8886
  2574.2500      0.0000    382.4514      3.2520     74.0813
  2574.5000      0.0000    388.4978      3.4507     73.8890
  2574.7500      0.0000    392.0430      3.6013     75.3880
  2575.0000      0.0000    394.2656      3.6424     78.9412
  2575.2500      0.0000    396.8330      3.5611     83.7810
  2575.5000      0.0000    400.9241      3.3810     88.4180
  2575.7500      0.0000    407.9212      3.1429     91.5683
  2576.0000      0.0000    420.2302      2.9147     92.7595
  2576.2500      0.0000    439.9030      2.7874     92.2179
  2576.5000      0.0000    466.0934      2.8247     90.3575
  2576.7500      0.0000    494.8515      3.0151     87.5477
  2577.0000      0.0000    522.0201      3.2848     84.3443
  2577.2500      0.0000    546.1897      3.5488     81.4489
  2577.5000      0.0000    569.6734      3.7580     78.9872
  2577.7500      0.0000    597.0455      3.9158     76.0814
  2578.0000      0.0000    630.6271      4.0541     71.6347
  2578.2500      0.0000    666.6241      4.1850     65.6079
  2578.5000     -2.0000    696.7345      4.2782     59.3008
  2578.7500     -2.0000    712.8792      4.2862     54.3692
  2579.0000      0.0000    710.8802      4.1865     51.8565
  2579.2500      0.0000    694.0508      4.0029     52.2362
  2579.5000      0.0000    674.3947      3.8010     55.7569
  2579.7500      0.0000    665.5114      3.6545     62.1121
  2580.0000      0.0000    671.7657      3.5910     69.8876
  2580.2500      0.0000    686.1343      3.5727     76.9219
  2580.5000      0.0000    698.4249      3.5448     81.6665
  2580.7500      0.0000    703.6948      3.4918     84.2823
  2581.0000      0.0000    703.5654      3.4359     86.2745
  2581.2500      0.0000    702.2886      3.3942     89.0696
  2581.5000      0.0000    703.1613      3.3552     93.0545
  2581.7500      0.0000    707.3470      3.2933     97.5294
  2582.0000      0.0000    713.8098      3.1911    101.1048
  2582.2500      0.0000    720.4319      3.0534    102.5394
  2582.5000      0.0000    726.6198      2.9198    101.6303
  2582.7500      0.0000    734.4002      2.8567     99.0490
  2583.0000      0.0000    745.6209      2.9092     95.4526
  2583.2500      0.0000    758.4030      3.0601     91.3445
  2583.5000      0.0000    766.9927      3.2517     87.5024
  2583.7500      0.0000    765.4774      3.4373     84.6531
  2584.0000      0.0000    752.7922      3.5975     82.6304
  2584.2500      0.0000    734.4830      3.7197     80.5439
  2584.5000      0.0000    718.5261      3.7854     78.1004
  2584.7500      0.0000    709.1870      3.7785     76.2951
  2585.0000      0.0000    705.4608      3.6980     76.3109
  2585.2500      0.0000    704.4726      3.5707     77.9781
  2585.5000      0.0000    704.6335      3.4560     79.8495
  2585.7500      0.0000    705.5605      3.4157     80.7452
  2586.0000      0.0000    706.8455      3.4638     80.7815
  2586.2500      0.0000    708.4222      3.5581     80.7841
  2586.5000      0.0000    711.9572      3.6455     81.1823
  2586.7500      0.0000    720.4941      3.7035     81.9546
  2587.0000      0.0000    735.9196      3.7361     83.3747
  2587.2500      0.0000    756.7642      3.7567     85.9297
  2587.5000      0.0000    778.5584      3.7821     89.1768
  2587.7500      0.0000    796.4313      3.8188     91.3697
  2588.0000      0.0000    807.4306      3.8397     90.9316
  2588.2500      0.0000    810.1844      3.7982     88.3681
  2588.5000      0.0000    801.9867      3.6785     86.3459
  2588.7500      0.0000    776.7657      3.5266     87.4342
  2589.0000      0.0000    728.4734      3.4225     91.6391
  2589.2500      0.0000    659.9031      3.4263     96.3053
  2589.5000      0.0000    588.9696      3.5409     98.4468
  2589.7500      0.0000    542.9966      3.7108     97.0973
  2590.0000      0.0000    542.3644      3.8591     93.6218
  2590.2500      0.0000    586.2696      3.9330     90.2617
  2590.5000      0.0000    652.3151      3.9246     88.4760
  2590.7500      0.0000    710.6099      3.8655     88.0807
  2591.0000      0.0000    742.0640      3.8142     87.5175
  2591.2500      0.0000    747.6724      3.8247     85.2208
  2591.5000      0.0000    743.1000      3.9029     81.1152
  2591.7500      0.0000    743.8647      3.9920     76.8084
  2592.0000      0.0000    752.6338      4.0149     74.2825
  2592.2500      0.0000    758.2505      3.9367     74.3709
  2592.5000      0.0000    745.6708      3.7982     76.2797
  2592.7500      0.0000    707.1700      3.6879     78.4960
  2593.0000      0.0000    646.8674      3.6672     80.1465
  2593.2500      0.0000    577.9645      3.7145     81.1490
  2593.5000      0.0000    516.2791      3.7485     81.3158
  2593.7500      0.0000    473.6636      3.7072     80.4597
  2594.0000      0.0000    454.5670      3.5995     79.6577
  2594.2500      0.0000    457.4911      3.4846     81.2326
  2594.5000      0.0000    478.8409      3.4196     86.5031
  2594.7500      0.0000    514.1259      3.4288     93.6768
  2595.0000      0.0000    556.0304      3.5073     98.4079
  2595.2500      0.0000    594.4646      3.6408     96.9128
  2595.5000      0.0000    620.9355      3.8130     88.9723
  2595.7500      0.0000    632.7965      3.9982     77.6766
  2596.0000      0.0000    633.1213      4.1631     65.9761
  2596.2500      0.0000    627.4846      4.2762     54.1451
  2596.5000      0.0000    620.8605      4.3095     41.1264
  2596.7500      0.0000    616.1258      4.2364     27.4121
  2597.0000      0.0000    614.1597      4.0512     15.3802
  2597.2500      0.0000    614.8149      3.8055      7.0739
  2597.5000      0.0000    617.6794      3.6060      2.6247
  2597.7500      0.0000    622.1351      3.5483      0.7782
  2598.0000      0.0000    627.2354      3.6419      0.1829
  2598.2500      0.0000    631.9258      3.8047      0.0338
  2598.5000      0.0000    635.5109      3.9334      0.0043
  2598.7500      0.0000    638.0084      3.9802      0.0000
  2599.0000      0.0000    639.8785      3.9747   -999.2500
  2599.2500      0.0000    640.8154      3.9815   -999.2500
  2599.5000      0.0000    638.3432      4.0321   -999.2500
  2599.7500      0.0000    628.0521      4.0974   -999.2500
  2600.0000      0.0000    606.6388      4.1246   -999.2500
  2600.2500      0.0000    576.6031      4.0906   -999.2500
  2600.5000      0.0000    547.7427      4.0070   -999.2500
  2600.7500      0.0000    530.4797      3.8854   -999.2500
  2601.0000      0.0000    523.5746      3.7153   -999.2500
  2601.2500      0.0000    508.3477      3.4693   -999.2500
  2601.5000      0.0000    459.7251      3.1143   -999.2500
  2601.7500      0.0000    368.1705      2.6422   -999.2500
  2602.0000      0.0000    251.5293      2.1108   -999.2500
  2602.2500      0.0000    142.8732      1.6318   -999.2500
  2602.5000      0.0000     66.2870      1.2947   -999.2500
  2602.7500      0.0000     24.8075      1.1108   -999.2500
  2603.0000      0.0000      7.4197      1.0333   -999.2500
  2603.2500      0.0000      1.7600      1.0079   -999.2500
  2603.5000      0.0000      0.3257      1.0015   -999.2500
  2603.7500      0.0000      0.0433      1.0002   -999.2500
  2604.0000      0.0000   -999.2500   -999.2500   -999.2500
  2604.2500      0.0000   -999.2500   -999.2500   -999.2500
  2604.5000      0.0000   -999.2500   -999.2500   -999.2500
  2604.7500      0.0000   -999.2500   -999.2500   -999.2500
  2605.0000      0.0000   -999.2500   -999.2500   -999.2500
  2605.2500      0.0000   -999.2500   -999.2500   -999.2500
  2605.5000      0.0000   -999.2500   -999.2500   -999.2500
