~Version Information
VERS.                      2.0: CWLS Log ASCII Standard - VERSION 2.0
WRAP.                       NO: One line per depth step
~Well Information Block
STRT.FT                -9.7500: 
STOP.FT              2566.5000: 
STEP.FT                 0.2500: 
NULL.                -999.2500: 
COMP.          Petrogulf Corporation: COMPANY
WELL.             Valejo 8-12V: WELL
FLD.           Purgatorie River: FIELD
LOC.           1510' FNL & 1460' FWL: LOCATION
CNTY.               Las Animas: COUNTY
SRVC.                         : SERVICE COMPANY
DATE.          Tue Nov 18 14:36:15 2003: LOG DATE
UWI.                          : UNIQUE WELL ID
STAT.                 Colorado: STATE
~Curve Information Block
DEPT.FT            0 000 00 00: Depth
CCL.                          : Casing Collar Locator
TT3.usec                      : CBL 3' Travel Time
AMP3.mV                       : CBL 3' Amplitude
GR.GAPI                       : Gamma Ray
~Parameter Information Block
~A  Depth       CCL         TT3         AMP3         GR     
# ...
   827.7500      0.0000    898.4841      4.4297     92.3576
   828.0000      0.0000    894.8745      4.4945     91.2699
   828.2500      0.0000    888.9564      4.5687     89.2083
   828.5000      0.0000    879.8868      4.6341     87.1221
   828.7500      0.0000    869.7513      4.7063     86.9301
   829.0000      0.0000    863.1369      4.7774     90.1103
   829.2500      0.0000    863.9182      4.7920     96.3752
   829.5000      0.0000    871.6606      4.7061    103.6044
   829.7500      0.0000    881.1399      4.5490    109.0595
   830.0000      0.0000    885.9584      4.3858    111.0246
   830.2500      0.0000    882.7339      4.2274    109.7251
   830.5000      0.0000    872.0354      4.0351    106.8371
   830.7500      0.0000    856.7952      3.8225    104.0849
   831.0000      0.0000    841.0807      3.6835    102.0795
   831.2500      0.0000    829.4175      3.6771    100.2414
   831.5000      0.0000    824.7916      3.7332     97.8102
   831.7500      0.0000    826.1273      3.7360     95.0000
   832.0000      0.0000    828.5567      3.6798     93.0285
   832.2500      0.0000    826.7819      3.6750     92.9219
   832.5000      0.0000    818.2888      3.7989     94.4579
   832.7500      0.0000    804.3743      4.0040     96.3225
   833.0000      0.0000    789.8494      4.1862     97.1930
   833.2500      0.0000    781.7056      4.2795     96.7313
   833.5000      0.0000    785.7348      4.2597     95.5487
   833.7500      0.0000    802.5118      4.1158     94.1998
   834.0000      0.0000    826.5552      3.8695     92.5586
   834.2500      0.0000    850.0773      3.6034     90.3987
   834.5000      2.0000    867.6074      3.4209     88.0929
   834.7500      2.0000    877.3630      3.3593     86.3616
   835.0000      0.0000    879.6671      3.3592     85.5944
   835.2500      0.0000    875.7911      3.3466     85.6742
   835.5000      0.0000    868.3184      3.3372     86.3319
   835.7500      0.0000    861.4262      3.4148     87.5074
   836.0000      0.0000    859.2892      3.5890     89.1165
   836.2500      0.0000    862.8284      3.7190     90.4412
   836.5000      0.0000    868.2097      3.6335     90.3260
   836.7500      0.0000    870.4461      3.3179     88.5174
   837.0000      0.0000    868.5310      2.9431     86.4605
   837.2500      0.0000    865.2520      2.7059     86.1812
   837.5000      0.0000    862.6418      2.6654     88.3974
   837.7500      0.0000    860.0197      2.7421     91.9907
   838.0000      0.0000    856.3066      2.8432     95.2414
   838.2500      0.0000    852.1315      2.9513     97.2729
   838.5000      0.0000    848.9914      3.0901     98.1255
   838.7500      0.0000    847.5828      3.2472     97.7886
   839.0000      0.0000    847.7302      3.3685     95.9023
   839.2500      0.0000    849.4738      3.4217     92.6925
   839.5000      0.0000    853.1513      3.4321     89.6482
   839.7500      0.0000    857.9006      3.4465     88.7801
   840.0000      0.0000    860.5679      3.4830     91.3638
   840.2500      0.0000    857.5128      3.5325     97.4112
   840.5000      0.0000    848.2731      3.5907    105.8586
   840.7500      0.0000    836.8209      3.6611    114.9670
   841.0000      0.0000    828.1795      3.7291    122.7275
   841.2500      0.0000    824.1843      3.7599    127.2632
   841.5000      0.0000    823.4639      3.7368    127.6303
   841.7500      0.0000    824.7930      3.6918    124.7825
   842.0000      0.0000    828.2448      3.6813    121.2682
   842.2500      0.0000    831.9863      3.7214    119.3611
   842.5000      0.0000    830.0056      3.7567    119.5722
   842.7500      0.0000    816.6693      3.7107    120.8186
   843.0000      0.0000    794.4414      3.5795    121.3428
   843.2500      0.0000    774.4182      3.4591    119.5693
   843.5000      0.0000    767.5968      3.4493    115.0868
   843.7500      0.0000    776.1378      3.5328    109.2268
   844.0000      0.0000    792.6163      3.5892    104.3294
   844.2500      0.0000    806.1251      3.5402    102.1046
   844.5000      0.0000    809.0233      3.4467    102.5749
   844.7500      0.0000    799.9313      3.4292    104.2909
   845.0000      0.0000    782.6205      3.5094    105.3770
   845.2500      0.0000    762.9969      3.5723    104.6686
   845.5000      0.0000    746.5072      3.5031    102.2593
   845.7500      0.0000    736.9574      3.3368     98.9515
   846.0000      0.0000    736.5797      3.2334     95.2761
   846.2500      0.0000    746.7499      3.3006     91.3653
   846.5000      0.0000    768.2694      3.4789     87.6438
   846.7500      0.0000    799.9697      3.6281     85.0807
   847.0000      0.0000    836.3137      3.6987     84.4452
   847.2500      0.0000    867.7332      3.7695     85.4377
   847.5000      0.0000    886.1453      3.9170     86.8254
   847.7500      0.0000    891.2639      4.0961     87.4859
   848.0000      0.0000    890.1906      4.1885     87.2802
   848.2500      0.0000    890.2997      4.1524     87.0798
   848.5000      0.0000    893.7834      4.0802     88.1148
   848.7500      0.0000    898.6804      4.0959     90.9529
   849.0000      0.0000    902.3528      4.2218     94.6718
   849.2500      0.0000    903.1403      4.3669     97.3103
   849.5000      0.0000    900.8193      4.4355     97.6323
   849.7500      0.0000    896.5565      4.4211     96.2393
   850.0000      0.0000    891.6807      4.3877     94.6435
   850.2500      0.0000    886.0330      4.3736     93.6906
   850.5000      0.0000    878.0446      4.3300     93.3379
   850.7500      0.0000    866.9901      4.1663     93.4484
   851.0000      0.0000    855.2462      3.8680     94.0303
   851.2500      0.0000    847.5785      3.5688     94.7933
   851.5000      0.0000    847.2741      3.4710     95.1012
   851.7500      0.0000    853.3495      3.6595     94.3875
   852.0000      0.0000    862.2833      3.9966     92.2910
   852.2500      0.0000    871.9573      4.2332     88.6478
   852.5000      0.0000    882.8712      4.2364     83.9929
   852.7500      0.0000    895.5842      4.0980     80.0910
   853.0000      0.0000    908.1464      4.0197     79.1841
   853.2500      0.0000    917.0347      4.1085     82.1353
   853.5000      0.0000    920.2797      4.2993     87.5236
   853.7500      0.0000    918.7792      4.4528     92.7491
   854.0000      0.0000    914.6807      4.5028     95.8087
   854.2500      0.0000    909.3697      4.5108     96.0980
   854.5000      0.0000    903.2615      4.5959     94.2679
   854.7500      0.0000    896.4987      4.8080     91.8115
   855.0000      0.0000    889.0587      5.0576     90.4173
   855.2500      0.0000    880.7191      5.1869     90.9850
   855.5000      0.0000    871.9440      5.1257     93.0240
   855.7500      0.0000    864.8936      4.9628     95.0882
   856.0000      0.0000    862.6699      4.8501     95.9641
   856.2500      0.0000    866.7958      4.8537     95.7283
   856.5000      0.0000    875.4801      4.9164     95.7958
   856.7500      0.0000    884.6727      4.9401     97.7248
   857.0000      0.0000    890.9006      4.8779    101.8049
   857.2500      0.0000    893.2410      4.7634    106.8091
   857.5000      0.0000    893.1016      4.6851    111.0973
   857.7500      0.0000    892.4631      4.7230    113.7901
   858.0000      0.0000    892.1721      4.8867    114.7721
   858.2500      0.0000    891.7334      5.1209    113.9494
   858.5000      0.0000    890.6935      5.3735    111.2329
   858.7500      0.0000    889.9630      5.6387    107.2263
   859.0000      0.0000    891.5604      5.9317    103.2496
   859.2500      0.0000    897.0225      6.2469    100.4680
   859.5000      0.0000    905.8432      6.5415     99.1963
   859.7500      0.0000    915.1638      6.7371     98.8661
   860.0000      0.0000    921.0555      6.7392     98.4958
   860.2500      0.0000    920.5372      6.4964     97.3503
   860.5000      0.0000    913.0710      6.0732     95.3109
   860.7500      0.0000    901.0208      5.6475     92.6311
   861.0000      0.0000    888.7528      5.3928     89.4520
