~Version Information
VERS.                      2.0: CWLS Log ASCII Standard - VERSION 2.0
WRAP.                       NO: One line per depth step
~Well Information Block
STRT.FT               491.0000: 
STOP.FT              1055.5000: 
STEP.FT                 0.1000: 
NULL.                -999.2500: 
COMP.          Evergreen Operating Corporation: COMPANY
WELL.              Sunset 24-3: WELL
FLD.           Purgatorie River: FIELD
LOC.           467' FSL & 2262' FWL: LOCATION
PROV.                 Colorado: PROVINCE
CNTY.               Las Animas: COUNTRY
SRVC.                         : SERVICE COMPANY
DATE.          Wed Sep 22 14:05:09 2004: LOG DATE
UWI.           05 071 08158 00: UNIQUE WELL ID
~Curve Information Block
DEPT.FT            0 000 00 00: Depth
DCAL.in                       : CDL Caliper
RHOB.g/cc                     : CDL Bulk Density
RHOC.g/cc                     : CDL Density Correction
DPOR.pu                       : CDL Density Porosity
GR.GAPI                       : Gamma Ray
NPOR.pu                       : Neutron Porosity
~Parameter Information Block
~A  Depth       DCAL        RHOB        RHOC        DPOR         GR         NPOR    
# ...
   635.0000      8.0283      2.5232     -0.0266      7.6834    128.3688     29.7396
   635.1000      8.0283      2.5550      0.0311      5.7590    134.5925     28.7833
   635.2000      8.0283      2.5949      0.0877      3.3411    137.4959     27.9861
   635.3000      8.0267      2.6159      0.1129      2.0638    139.1773     27.3332
   635.4000      8.0267      2.6028      0.0897      2.8613    140.3101     26.9924
   635.5000      8.0260      2.5697      0.0364      4.8689    138.5631     26.9888
   635.6000      8.0260      2.5420      0.0333      6.5444    135.5279     27.2475
   635.7000      8.0260      2.5249      0.0260      7.5843    134.3435     27.2552
   635.8000      8.0263      2.5113      0.0136      8.4084    133.7654     26.7727
   635.9000      8.0263      2.5029      0.0177      8.9148    134.8234     26.4578
   636.0000      8.0284      2.5108     -0.0074      8.4336    140.9720     26.6265
   636.1000      8.0284      2.5382      0.0369      6.7735    148.6258     27.1431
   636.2000      8.0284      2.5673      0.0481      5.0146    150.3482     28.0193
   636.3000      8.0266      2.5781      0.0585      4.3587    144.4148     28.9487
   636.4000      8.0266      2.5652      0.0704      5.1371    136.9080     29.5055
   636.5000      8.0259      2.5388      0.0176      6.7396    134.6645     29.6575
   636.6000      8.0259      2.5132      0.0243      8.2930    133.7840     29.3542
   636.7000      8.0259      2.4904      0.0222      9.6735    129.2806     28.8001
   636.8000      8.0254      2.4720      0.0235     10.7875    125.5944     28.5618
   636.9000      8.0254      2.4689      0.0032     10.9746    126.7729     28.9498
   637.0000      8.0271      2.4751      0.0678     10.5976    130.4635     29.5556
   637.1000      8.0271      2.4655      0.0843     11.1807    132.3265     29.6700
   637.2000      8.0271      2.4459     -0.0208     12.3674    131.4196     29.3719
   637.3000      8.0291      2.4470      0.0267     12.3035    130.2702     29.3161
   637.4000      8.0291      2.4649      0.0562     11.2199    132.3348     29.7546
   637.5000      8.0402      2.4773      0.0763     10.4692    135.0170     30.1758
   637.6000      8.0402      2.4825      0.0737     10.1529    133.6599     29.9480
   637.7000      8.0402      2.4839      0.0924     10.0692    130.2474     28.9505
   637.8000      8.0433      2.4809      0.0765     10.2508    128.6472     27.5344
   637.9000      8.0433      2.4824      0.0476     10.1558    130.6217     26.4048
   638.0000      8.0404      2.4963      0.0520      9.3132    135.5310     26.1496
   638.1000      8.0404      2.5142      0.0714      8.2325    139.5271     26.6869
   638.2000      8.0404      2.5238      0.0468      7.6512    142.8640     27.4483
   638.3000      8.0391      2.5261      0.0680      7.5114    146.6115     28.2848
   638.4000      8.0391      2.5239      0.0805      7.6413    148.8423     29.0943
   638.5000      8.0376      2.5086      0.1098      8.5722    147.8849     29.4980
   638.6000      8.0376      2.4834      0.0222     10.0946    145.6472     29.5159
   638.7000      8.0376      2.4762     -0.0114     10.5356    146.0821     29.1157
   638.8000      8.0364      2.4937      0.0418      9.4745    147.5261     28.3747
   638.9000      8.0364      2.5138      0.0595      8.2524    147.1371     28.0005
   639.0000      8.0323      2.5268      0.0468      7.4671    148.0957     28.3004
   639.1000      8.0323      2.5356      0.0592      6.9313    151.1144     28.4947
   639.2000      8.0323      2.5410      0.0723      6.6055    150.4655     28.0193
   639.3000      8.0343      2.5431      0.0902      6.4795    145.3802     27.3419
   639.4000      8.0343      2.5437      0.0694      6.4420    139.7585     27.1349
   639.5000      8.0286      2.5487      0.0684      6.1410    135.6044     27.1766
   639.6000      8.0286      2.5579      0.1083      5.5802    134.4254     26.7010
   639.7000      8.0286      2.5642      0.0539      5.2019    133.9881     26.1863
   639.8000      8.0331      2.5646      0.0974      5.1733    132.8244     26.3280
   639.9000      8.0331      2.5601      0.0661      5.4483    132.3005     26.6878
   640.0000      8.0279      2.5525      0.0581      5.9101    130.9642     26.8185
   640.1000      8.0279      2.5385      0.0435      6.7557    128.1760     26.7930
   640.2000      8.0279      2.5168      0.0326      8.0754    126.9742     26.5843
   640.3000      8.0285      2.5008     -0.0120      9.0401    129.2659     26.1162
   640.4000      8.0285      2.5033      0.0330      8.8927    130.1741     25.7123
   640.5000      8.0264      2.5158      0.0536      8.1342    126.8338     25.8471
   640.6000      8.0264      2.5262      0.0478      7.5034    122.7014     26.6894
   640.7000      8.0264      2.5348      0.0531      6.9838    122.0732     27.4922
   640.8000      8.0271      2.5425      0.0511      6.5150    126.6888     27.7032
   640.9000      8.0271      2.5443      0.0766      6.4068    131.4154     27.8909
   641.0000      8.0268      2.5419      0.0550      6.5495    131.7132     27.8566
   641.1000      8.0268      2.5447      0.0508      6.3836    129.7152     27.0692
   641.2000      8.0268      2.5513      0.0582      5.9800    127.2015     26.4936
   641.3000      8.0262      2.5487      0.0849      6.1392    126.1802     27.0630
   641.4000      8.0262      2.5322      0.0482      7.1396    129.1471     28.1327
   641.5000      8.0270      2.5116      0.0392      8.3874    133.1090     28.8516
   641.6000      8.0270      2.4835      0.0800     10.0929    134.9410     29.0425
   641.7000      8.0270      2.4317      0.0343     13.2293    135.6517     28.6978
   641.8000      8.0323      2.3569     -0.0176     17.7637    135.9584     27.9744
   641.9000      8.0323      2.2667     -0.0088     23.2313    133.6385     27.3586
   642.0000      8.0937      2.1602     -0.0803     29.6875    126.2117     27.3600
   642.1000      8.0937      2.0422     -0.0949     36.8388    115.3478     28.2341
   642.2000      8.0937      1.9220     -0.0930     44.1226    107.9131     29.6904
   642.3000      8.2315      1.8026     -0.1057     51.3576    108.8030     31.1518
   642.4000      8.2315      1.6883     -0.1358     58.2878    113.3890     32.1318
   642.5000      8.2130      1.5891     -0.0930     64.2982    113.0703     32.5913
   642.6000      8.2130      1.5112     -0.0745     69.0155    105.6783     32.8039
   642.7000      8.2130      1.4594     -0.0579     72.1596     94.2611     32.8956
   642.8000      8.2994      1.4418      0.0300     73.2252     83.4961     32.9843
   642.9000      8.2994      1.4635      0.0382     71.9082     77.9191     33.5688
   643.0000      8.3055      1.5294      0.0594     67.9152     77.1377     34.7023
   643.1000      8.3055      1.6407      0.1024     61.1718     78.6458     35.3104
   643.2000      8.3055      1.7817      0.1638     52.6231     81.0019     34.9934
   643.3000      8.3077      1.9274      0.1983     43.7913     81.2498     34.6604
   643.4000      8.3077      2.0626      0.2081     35.6004     78.7420     34.8221
   643.5000      8.2888      2.1809      0.2658     28.4318     77.9573     35.2525
   643.6000      8.2888      2.2765      0.2595     22.6380     81.0337     35.4612
   643.7000      8.2888      2.3463      0.2314     18.4058     86.6645     35.0444
   643.8000      8.2281      2.3903      0.1414     15.7395     91.3219     34.1492
   643.9000      8.2281      2.4070      0.1010     14.7283     92.1413     33.0433
   644.0000      8.1700      2.3893      0.0215     15.7972     91.8701     31.9022
   644.1000      8.1700      2.3359      0.0075     19.0345     95.0171     31.1472
   644.2000      8.1700      2.2590      0.0439     23.6964    101.0237     30.8852
   644.3000      8.1598      2.1630      0.1125     29.5158    103.4520     30.7591
   644.4000      8.1598      2.0422      0.0627     36.8394     99.2837     30.7325
   644.5000      8.1551      1.9072      0.0325     45.0153     95.2436     31.1816
