~Version Information
VERS.                      2.0: CWLS Log ASCII Standard - VERSION 2.0
WRAP.                       NO: One line per depth step
~Well Information Block
STRT.FT               955.2500: 
STOP.FT              2226.0000: 
STEP.FT                 0.2500: 
NULL.                -999.2500: 
COMP.          Petrogulf Corporation: COMPANY
WELL.             Burson 8-13R: WELL
FLD.           Purgatorie River: FIELD
LOC.           1045' FNL & 2189' FEL: LOCATION
CNTY.               Las Animas: COUNTY
SRVC.                         : SERVICE COMPANY
DATE.          Fri Apr 30 04:52:15 2004: LOG DATE
UWI.           05 071 08039 00: UNIQUE WELL ID
STAT.                 Colorado: STATE
~Curve Information Block
DEPT.FT            0 000 00 00: Depth
SP.mV                         : DIL Spontaneous Potential
RILD.Ohm-m                    : DIL Deep Resistivity
RILM.Ohm-m                    : DIL Medium Resistivity
RLL3.Ohm-m                    : DIL Shallow Resistivity
~Parameter Information Block
~A  Depth        SP         RILD        RILM        RLL3    
# ...
  2127.7500    144.8498     17.1059     18.7645     28.0710
  2128.0000    144.8585     17.2670     18.9546     28.9242
  2128.2500    144.8469     17.4823     19.1849     30.2497
  2128.5000    144.8181     17.7706     19.4275     31.6399
  2128.7500    144.7814     18.1091     19.6490     32.5981
  2129.0000    144.7524     18.4145     19.8327     32.8589
  2129.2500    144.7475     18.5689     19.9908     32.4855
  2129.5000    144.7741     18.4873     20.1518     31.7190
  2129.7500    144.8246     18.1699     20.3286     30.7820
  2130.0000    144.8828     17.6837     20.4872     29.8225
  2130.2500    144.9345     17.0992     20.5423     28.9986
  2130.5000    144.9749     16.4504     20.3925     28.5762
  2130.7500    145.0087     15.7417     19.9762     28.9575
  2131.0000    145.0481     14.9778     19.2985     30.6248
  2131.2500    145.1054     14.1848     18.4057     33.9267
  2131.5000    145.1882     13.4103     17.3449     38.6196
  2131.7500    145.3003     12.7037     16.1569     43.3743
  2132.0000    145.4455     12.0949     14.8976     45.9011
  2132.2500    145.6271     11.5826     13.6470     44.1475
  2132.5000    145.8415     11.1410     12.4916     37.8770
  2132.7500    146.0725     10.7370     11.4948     29.0811
  2133.0000    146.2946     10.3484     10.6824     20.6331
  2133.2500    146.4822      9.9699     10.0458     14.4749
  2133.5000    146.6192      9.6093      9.5550     10.9522
  2133.7500    146.7042      9.2777      9.1734      9.3960
  2134.0000    146.7522      8.9846      8.8684      8.9393
  2134.2500    146.7882      8.7370      8.6175      8.9188
  2134.5000    146.8307      8.5406      8.4082      8.9382
  2134.7500    146.8809      8.3991      8.2359      8.8364
  2135.0000    146.9290      8.3139      8.1018      8.6326
  2135.2500    146.9676      8.2833      8.0115      8.4460
  2135.5000    146.9969      8.3035      7.9739      8.4100
  2135.7500    147.0186      8.3694      7.9986      8.6164
  2136.0000    147.0318      8.4764      8.0929      9.0905
  2136.2500    147.0384      8.6206      8.2586      9.7815
  2136.5000    147.0503      8.7987      8.4924     10.5851
  2136.7500    147.0862      9.0078      8.7875     11.4140
  2137.0000    147.1567      9.2450      9.1373     12.2705
  2137.2500    147.2561      9.5075      9.5381     13.2417
  2137.5000    147.3730      9.7929      9.9878     14.4281
  2137.7500    147.5053     10.0982     10.4849     15.8840
  2138.0000    147.6572     10.4173     11.0268     17.5984
  2138.2500    147.8240     10.7396     11.6068     19.4701
  2138.5000    147.9854     11.0531     12.2124     21.2847
  2138.7500    148.1121     11.3513     12.8229     22.7758
  2139.0000    148.1820     11.6396     13.4107     23.7750
  2139.2500    148.1927     11.9316     13.9459     24.2971
  2139.5000    148.1627     12.2373     14.4025     24.4494
  2139.7500    148.1193     12.5519     14.7605     24.2697
  2140.0000    148.0844     12.8535     15.0055     23.7044
  2140.2500    148.0650     13.1106     15.1300     22.7558
  2140.5000    148.0543     13.2937     15.1398     21.6075
  2140.7500    148.0390     13.3847     15.0594     20.5653
  2141.0000    148.0092     13.3821     14.9264     19.8625
  2141.2500    147.9624     13.3048     14.7783     19.5183
  2141.5000    147.8990     13.1919     14.6412     19.3697
  2141.7500    147.8143     13.0930     14.5285     19.2218
  2142.0000    147.6982     13.0523     14.4476     18.9767
  2142.2500    147.5428     13.0909     14.4055     18.6659
  2142.5000    147.3526     13.2031     14.4100     18.4108
  2142.7500    147.1458     13.3655     14.4671     18.3481
  2143.0000    146.9456     13.5541     14.5783     18.5628
  2143.2500    146.7701     13.7548     14.7396     19.0873
  2143.5000    146.6302     13.9612     14.9419     19.9549
  2143.7500    146.5311     14.1698     15.1717     21.2055
  2144.0000    146.4736     14.3766     15.4123     22.7883
  2144.2500    146.4550     14.5800     15.6474     24.4685
  2144.5000    146.4740     14.7832     15.8684     25.8856
  2144.7500    146.5349     14.9930     16.0802     26.7459
  2145.0000    146.6476     15.2144     16.2997     26.9794
  2145.2500    146.8222     15.4463     16.5481     26.7383
  2145.5000    147.0617     15.6803     16.8401     26.2832
  2145.7500    147.3582     15.9042     17.1778     25.8995
  2146.0000    147.6918     16.1041     17.5514     25.8892
  2146.2500    148.0344     16.2638     17.9423     26.5304
  2146.5000    148.3588     16.3658     18.3254     27.9237
  2146.7500    148.6478     16.3958     18.6676     29.8613
  2147.0000    148.8989     16.3510     18.9278     31.9178
  2147.2500    149.1189     16.2426     19.0623     33.7211
  2147.5000    149.3134     16.0908     19.0363     35.0991
  2147.7500    149.4784     15.9162     18.8372     35.9242
  2148.0000    149.6050     15.7368     18.4822     35.8984
  2148.2500    149.6918     15.5690     18.0155     34.6432
  2148.5000    149.7495     15.4268     17.4982     32.0583
  2148.7500    149.7907     15.3170     16.9927     28.5408
  2149.0000    149.8161     15.2330     16.5493     24.8322
  2149.2500    149.8142     15.1563     16.1968     21.6543
  2149.5000    149.7731     15.0654     15.9393     19.4193
  2149.7500    149.6888     14.9478     15.7591     18.1629
  2150.0000    149.5650     14.8049     15.6240     17.6877
  2150.2500    149.4100     14.6465     15.4978     17.7683
  2150.5000    149.2384     14.4835     15.3514     18.2459
  2150.7500    149.0732     14.3242     15.1718     18.9729
  2151.0000    148.9415     14.1773     14.9662     19.7458
  2151.2500    148.8639     14.0549     14.7574     20.3498
  2151.5000    148.8465     13.9711     14.5729     20.6658
  2151.7500    148.8815     13.9360     14.4372     20.7140
  2152.0000    148.9531     13.9502     14.3688     20.6103
  2152.2500    149.0460     14.0032     14.3798     20.5131
  2152.5000    149.1522     14.0779     14.4726     20.5941
  2152.7500    149.2739     14.1572     14.6345     21.0116
  2153.0000    149.4183     14.2300     14.8366     21.8711
  2153.2500    149.5885     14.2899     15.0424     23.1522
  2153.5000    149.7783     14.3316     15.2221     24.5810
  2153.7500    149.9743     14.3478     15.3639     25.6185
  2154.0000    150.1592     14.3307     15.4729     25.8185
  2154.2500    150.3126     14.2774     15.5605     25.3754
  2154.5000    150.4151     14.1944     15.6323     25.1882
  2154.7500    150.4591     14.0978     15.6822     26.1379
  2155.0000    150.4572     14.0097     15.6952     28.2299
  2155.2500    150.4383     13.9524     15.6551     30.4924
  2155.5000    150.4319     13.9398     15.5542     31.6987
  2155.7500    150.4538     13.9707     15.4004     31.1866
  2156.0000    150.5053     14.0284     15.2172     29.1459
  2156.2500    150.5813     14.0911     15.0356     26.3610
  2156.5000    150.6798     14.1469     14.8834     23.7153
  2156.7500    150.8040     14.2005     14.7790     21.7553
  2157.0000    150.9580     14.2641     14.7334     20.5847
  2157.2500    151.1394     14.3449     14.7604     20.1323
  2157.5000    151.3358     14.4415     14.8839     20.4330
  2157.7500    151.5267     14.5504     15.1354     21.5666
  2158.0000    151.6904     14.6735     15.5386     23.4230
  2158.2500    151.8107     14.8194     16.0895     25.7371
  2158.5000    151.8800     14.9973     16.7439     28.4047
  2158.7500    151.8994     15.2106     17.4255     31.5940
  2159.0000    151.8746     15.4558     18.0554     35.3853
  2159.2500    151.8137     15.7254     18.5862     39.3468
  2159.5000    151.7261     16.0113     19.0131     42.6094
  2159.7500    151.6247     16.3050     19.3589     44.3850
  2160.0000    151.5257     16.5918     19.6536     44.3545
  2160.2500    151.4470     16.8471     19.9267     42.6310
  2160.5000    151.4063     17.0435     20.2093     39.5986
  2160.7500    151.4180     17.1658     20.5315     35.9863
  2161.0000    151.4892     17.2186     20.9113     33.0018
