~Version Information
VERS.                      2.0: CWLS Log ASCII Standard - VERSION 2.0
WRAP.                       NO: One line per depth step
~Well Information Block
STRT.FT               765.6000: 
STOP.FT              2431.0000: 
STEP.FT                 0.1000: 
NULL.                -999.2500: 
COMP.          Petrogulf Corporation: COMPANY
WELL.             Norton 9-14V: WELL
FLD.           Purgatorie River: FIELD
LOC.           230' FSL & 225' FWL: LOCATION
CNTY.               Las Animas: COUNTY
SRVC.                         : SERVICE COMPANY
DATE.          Thu Oct 28 06:20:25 2004: LOG DATE
UWI.           05 071 07891 00: UNIQUE WELL ID
STAT.                 Colorado: STATE
~Curve Information Block
DEPT.FT            0 000 00 00: Depth
DCAL.in                       : CDL Caliper
RHOB.g/cc                     : CDL Bulk Density
RHOC.g/cc                     : CDL Density Correction
DPOR.pu                       : CDL Density Porosity
GR.GAPI                       : Gamma Ray
NPOR.pu                       : Neutron Porosity
~Parameter Information Block
~A  Depth       DCAL        RHOB        RHOC        DPOR         GR         NPOR    
# ...
  1869.6000      8.0484      2.5370      0.0119      6.8508    133.8831     26.8918
  1869.7000      8.0484      2.5243      0.0173      7.6176    126.6640     26.1410
  1869.8000      8.0602      2.5213      0.0107      7.8010    119.0142     25.2934
  1869.9000      8.0602      2.5268      0.0270      7.4646    120.4095     24.8432
  1870.0000      8.0556      2.5238      0.0427      7.6461    130.9862     24.8689
  1870.1000      8.0556      2.5079     -0.0234      8.6102    140.3450     24.8314
  1870.2000      8.0556      2.5006     -0.0154      9.0549    142.0982     24.3929
  1870.3000      8.0578      2.5161     -0.0244      8.1126    139.8043     23.5146
  1870.4000      8.0578      2.5359      0.0829      6.9133    136.8615     22.4197
  1870.5000      8.0600      2.5344      0.0245      7.0073    132.7566     21.7426
  1870.6000      8.0600      2.5191      0.0459      7.9354    130.2520     21.7350
  1870.7000      8.0600      2.5079      0.0351      8.6144    133.0243     22.1726
  1870.8000      8.0687      2.5029     -0.0004      8.9179    138.9439     22.5636
  1870.9000      8.0687      2.4941      0.0326      9.4506    143.5605     22.6037
  1871.0000      8.0830      2.4713     -0.0078     10.8285    147.1437     22.7012
  1871.1000      8.0830      2.4393      0.0030     12.7706    148.7421     23.2925
  1871.2000      8.0830      2.4088     -0.0009     14.6169    146.8189     24.1695
  1871.3000      8.0796      2.3898     -0.0270     15.7714    144.3077     24.6321
  1871.4000      8.0796      2.3887     -0.0042     15.8368    141.0869     24.3952
  1871.5000      8.0470      2.4065      0.0077     14.7561    135.1748     23.9317
  1871.6000      8.0470      2.4435      0.0399     12.5134    128.3896     23.8910
  1871.7000      8.0470      2.4950      0.0752      9.3954    124.2613     24.3685
  1871.8000      8.0544      2.5463      0.1482      6.2862    122.9435     24.7392
  1871.9000      8.0544      2.5896      0.1754      3.6629    122.1856     24.3773
  1872.0000      8.0417      2.6251      0.2898      1.5080    122.3231     23.5233
  1872.1000      8.0417      2.6459      0.2745      0.2508    126.9967     23.2336
  1872.2000      8.0417      2.6493      0.2329      0.0413    137.2547     23.9656
  1872.3000      8.0558      2.6442      0.1715      0.3507    144.4184     25.1111
  1872.4000      8.0558      2.6363      0.1306      0.8331    139.9401     25.6835
  1872.5000      8.0596      2.6258      0.1313      1.4650    131.3713     25.3208
  1872.6000      8.0596      2.6125      0.1602      2.2741    129.4926     24.7731
  1872.7000      8.0596      2.5899      0.1151      3.6416    131.8416     24.7755
  1872.8000      8.0404      2.5599      0.0952      5.4628    132.5650     25.0497
  1872.9000      8.0404      2.5345      0.0692      6.9976    132.5206     25.0412
  1873.0000      8.0364      2.5150      0.0616      8.1802    132.4464     24.9353
  1873.1000      8.0364      2.4994     -0.0212      9.1303    132.1949     25.1801
  1873.2000      8.0364      2.4902      0.0248      9.6842    133.8303     25.7276
  1873.3000      8.0380      2.4790      0.0466     10.3633    136.8350     26.1430
  1873.4000      8.0380      2.4661     -0.0117     11.1440    138.9368     26.3618
  1873.5000      8.0441      2.4721      0.0223     10.7795    140.0875     26.4762
  1873.6000      8.0441      2.4958      0.0781      9.3432    140.1494     26.4280
  1873.7000      8.0441      2.5149      0.0995      8.1903    138.5993     26.4854
  1873.8000      8.0393      2.5287      0.0824      7.3540    136.0354     26.8443
  1873.9000      8.0393      2.5475      0.1239      6.2093    132.2313     27.0222
  1874.0000      8.0391      2.5650      0.1046      5.1518    125.0073     26.6216
  1874.1000      8.0391      2.5718      0.1117      4.7373    114.3217     26.0717
  1874.2000      8.0391      2.5654      0.1220      5.1279    107.8121     26.0270
  1874.3000      8.0391      2.5524      0.0876      5.9144    110.4798     26.4818
  1874.4000      8.0391      2.5529      0.0949      5.8834    114.5749     26.7892
  1874.5000      8.0348      2.5707      0.1038      4.8054    113.2568     26.8462
  1874.6000      8.0348      2.5813      0.1278      4.1630    113.6823     26.8726
  1874.7000      8.0348      2.5719      0.0513      4.7334    123.9837     26.4881
  1874.8000      8.0340      2.5631      0.0359      5.2681    138.1551     25.5916
  1874.9000      8.0340      2.5697      0.0955      4.8660    142.7415     25.0855
  1875.0000      8.0326      2.5803      0.0647      4.2250    136.6760     25.5423
  1875.1000      8.0326      2.5848      0.0753      3.9488    130.1120     26.3568
  1875.2000      8.0326      2.5763      0.1318      4.4690    125.8382     26.5919
  1875.3000      8.0328      2.5492      0.0362      6.1068    121.6600     26.0448
  1875.4000      8.0328      2.5138      0.0207      8.2519    119.5956     25.4543
  1875.5000      8.0318      2.4866      0.0137      9.9019    118.7086     25.3467
  1875.6000      8.0318      2.4792      0.0266     10.3534    115.6760     25.3997
  1875.7000      8.0318      2.4905      0.0513      9.6664    114.5012     25.3458
  1875.8000      8.0302      2.5128      0.0617      8.3142    117.9799     25.4702
  1875.9000      8.0302      2.5381      0.0929      6.7788    120.0987     25.9788
  1876.0000      8.0265      2.5546      0.1598      5.7837    118.0932     26.4794
  1876.1000      8.0265      2.5565      0.1142      5.6694    117.5370     26.3830
  1876.2000      8.0265      2.5596      0.0595      5.4786    119.6566     25.6749
  1876.3000      8.0283      2.5725      0.1114      4.6993    122.0784     24.8716
  1876.4000      8.0283      2.5738      0.1402      4.6168    126.0568     24.2858
  1876.5000      8.0267      2.5600      0.0767      5.4572    131.9822     24.0596
  1876.6000      8.0267      2.5593      0.0723      5.4953    137.4080     24.1353
  1876.7000      8.0267      2.5770      0.1399      4.4222    139.6725     24.2668
  1876.8000      8.0196      2.5894      0.0946      3.6715    139.4070     24.5986
  1876.9000      8.0196      2.5858      0.0718      3.8885    140.0126     25.2365
  1877.0000      8.0157      2.5699      0.0852      4.8551    142.5971     25.7272
  1877.1000      8.0157      2.5561      0.0428      5.6910    144.7915     25.5364
  1877.2000      8.0157      2.5668      0.0647      5.0411    142.1819     24.8796
  1877.3000      8.0152      2.5912      0.1220      3.5665    134.1103     24.3583
  1877.4000      8.0152      2.5944      0.0860      3.3680    126.5207     24.0609
  1877.5000      8.0491      2.5755      0.0167      4.5138    123.1407     23.9953
  1877.6000      8.0491      2.5582      0.0321      5.5650    123.8446     24.3529
  1877.7000      8.0491      2.5540     -0.0015      5.8200    126.6053     24.9566
  1877.8000      8.0805      2.5601      0.0260      5.4501    127.6522     25.2757
  1877.9000      8.0805      2.5631      0.0494      5.2693    125.3876     24.9983
  1878.0000      8.0764      2.5586      0.0589      5.5400    123.1035     24.6763
  1878.1000      8.0764      2.5604     -0.0046      5.4319    125.8907     24.9664
  1878.2000      8.0764      2.5670      0.0541      5.0273    130.6489     25.4370
  1878.3000      8.0796      2.5620      0.0058      5.3335    129.1598     25.3957
  1878.4000      8.0796      2.5473      0.0137      6.2240    121.6130     24.8419
  1878.5000      8.1041      2.5350      0.0260      6.9698    117.2159     24.2299
  1878.6000      8.1041      2.5344      0.0040      7.0074    120.3311     23.7780
  1878.7000      8.1041      2.5490      0.0186      6.1221    125.3244     23.4617
  1878.8000      8.1320      2.5678      0.0259      4.9813    127.5459     23.4348
  1878.9000      8.1320      2.5766      0.0657      4.4465    127.8380     23.5890
  1879.0000      8.1442      2.5764      0.0352      4.4584    129.5127     23.5404
  1879.1000      8.1442      2.5730      0.0649      4.6658    133.9086     23.3075
