~Version Information
VERS.                      2.0: CWLS Log ASCII Standard - VERSION 2.0
WRAP.                       NO: One line per depth step
~Well Information Block
STRT.FT                -7.0000: 
STOP.FT              1329.7500: 
STEP.FT                 0.2500: 
NULL.                -999.2500: 
COMP.          Pioneer Natural Resources: COMPANY
WELL.             Raptor 44-26: WELL
FLD.           Purgatorie River: FIELD
LOC.           180' FSL & 812' FEL--: LOCATION
PROV.                       CO: PROVINCE
CNTY.               Las Animas: COUNTRY
SRVC.          Patterson Wireline: SERVICE COMPANY
DATE.          Wed Mar 30 12:38:23 2005: LOG DATE
UWI.           05 071 08187 00: UNIQUE WELL ID
~Curve Information Block
DEPT.FT            0 000 00 00: Depth
CCL.                          : Casing Collar Locator
TT3.usec                      : CBL 3' Travel Time
AMP3.mV                       : CBL 3' Amplitude
GR.GAPI                       : Gamma Ray
~Parameter Information Block
MINATTN.db/ft           0.8000: Minimum Attenuation
~A  Depth       CCL         TT3         AMP3         GR     
# ...
  1199.0000      0.0000    687.1016      5.6227     75.8383
  1199.2500      0.0000    695.0865      5.0633     76.2851
  1199.5000      0.0000    704.0060      4.4618     77.5394
  1199.7500      0.0000    713.2767      3.9868     79.1468
  1200.0000      0.0000    723.1687      3.7686     80.6222
  1200.2500      0.0000    733.1354      3.8223     81.9027
  1200.5000      0.0000    740.5569      4.0435     83.3372
  1200.7500      0.0000    741.8425      4.2797     85.0483
  1201.0000      0.0000    735.4890      4.4169     86.4766
  1201.2500      0.0000    723.7008      4.4212     86.7892
  1201.5000      0.0000    710.6445      4.3286     85.6588
  1201.7500      0.0000    699.8823      4.2076     83.3572
  1202.0000      0.0000    693.8759      4.1167     80.2782
  1202.2500      0.0000    694.7429      4.0825     76.9771
  1202.5000      0.0000    703.6974      4.1229     74.9357
  1202.7500      0.0000    719.1426      4.2819     76.6272
  1203.0000      0.0000    736.2482      4.6103     83.8707
  1203.2500      0.0000    749.4652      5.0928     95.7417
  1203.5000      0.0000    755.3663      5.6147    108.4565
  1203.7500      0.0000    753.3978      6.0166    117.6567
  1204.0000      0.0000    745.4875      6.1868    120.8735
  1204.2500      0.0000    735.3585      6.1172    118.3580
  1204.5000      0.0000    726.7560      5.8988    112.4562
  1204.7500      0.0000    721.4508      5.6696    106.1758
  1205.0000      0.0000    719.0042      5.5429    101.4438
  1205.2500      0.0000    718.1077      5.5606     98.1667
  1205.5000      0.0000    717.7843      5.7002     95.0746
  1205.7500      0.0000    717.7562      5.9159     91.5045
  1206.0000      0.0000    718.4381      6.1623     88.1392
  1206.2500      0.0000    721.0726      6.3811     86.1003
  1206.5000      0.0000    727.7574      6.4909     85.9771
  1206.7500      0.0000    740.5668      6.4253     87.9192
  1207.0000      0.0000    759.5220      6.1969     91.7515
  1207.2500      0.0000    781.1478      5.9143     96.2959
  1207.5000      0.0000    799.8539      5.7182     99.3932
  1207.7500      0.0000    811.3650      5.6892     99.6128
  1208.0000      0.0000    814.9034      5.8169     97.6297
  1208.2500      0.0000    812.7692      6.0393     95.3239
  1208.5000      0.0000    808.6940      6.2739     93.7802
  1208.7500      0.0000    805.6569      6.4143     92.6980
  1209.0000      0.0000    803.1791      6.3614     91.6069
  1209.2500      0.0000    796.7291      6.1115     91.1102
  1209.5000      0.0000    781.7079      5.8063     92.5692
  1209.7500      0.0000    759.0110      5.6487     96.6086
  1210.0000      0.0000    735.8934      5.7303    102.1808
  1210.2500      0.0000    720.7023      5.9392    107.1952
  1210.5000      0.0000    717.1540      6.0622    109.9886
  1210.7500      0.0000    723.1968      5.9936    110.2177
  1211.0000      0.0000    732.9847      5.8385    108.6181
  1211.2500      0.0000    739.4016      5.7961    106.0795
  1211.5000      0.0000    738.2338      5.9449    102.7914
  1211.7500      0.0000    732.3445      6.1704     98.2597
  1212.0000      0.0000    729.8807      6.2973     92.3533
  1212.2500      0.0000    736.2581      6.2385     86.2877
  1212.5000      0.0000    748.6854      6.0031     82.1655
  1212.7500      0.0000    759.3235      5.6411     81.4775
  1213.0000      2.0000    762.4297      5.2426     84.2748
  1213.2500      2.0000    757.5825      4.9524     89.4443
  1213.5000      0.0000    747.4986      4.9117     95.1423
  1213.7500      0.0000    735.1630      5.1594     99.3455
  1214.0000      0.0000    723.6445      5.5915    101.0230
  1214.2500      0.0000    716.5788      6.0220    100.9681
  1214.5000      0.0000    716.8678      6.2946    100.8905
  1214.7500      0.0000    725.3675      6.3587    101.4765
  1215.0000      0.0000    741.2913      6.2590    101.6846
  1215.2500      0.0000    762.4171      6.0701    100.0484
  1215.5000      0.0000    784.2451      5.8706     96.3989
  1215.7500      0.0000    800.6809      5.7618     92.1666
  1216.0000      0.0000    807.5862      5.8331     89.1107
  1216.2500      0.0000    805.8336      6.0645     87.9247
  1216.5000      0.0000    800.2155      6.2957     88.2311
  1216.7500      0.0000    795.5224      6.3416     89.8543
  1217.0000      0.0000    794.2888      6.1493     93.5155
  1217.2500      0.0000    797.3045      5.8362     99.7151
  1217.5000      0.0000    803.9276      5.5857    107.1968
  1217.7500      0.0000    811.2976      5.5194    113.3172
  1218.0000      0.0000    815.0275      5.6468    116.1110
  1218.2500      0.0000    812.1037      5.8779    115.5442
  1218.5000      0.0000    803.5047      6.0677    112.8949
  1218.7500      0.0000    793.9174      6.1040    109.6616
  1219.0000      0.0000    788.5576      6.0040    106.9991
  1219.2500      0.0000    789.6809      5.9095    105.3327
  1219.5000      0.0000    795.4598      5.9541    104.2897
  1219.7500      0.0000    801.7577      6.1344    103.3761
  1220.0000      0.0000    805.1487      6.3210    102.5095
  1220.2500      0.0000    804.6762      6.3824    101.4817
  1220.5000      0.0000    801.4203      6.2840     99.4123
  1220.7500      0.0000    797.1041      6.0931     95.5138
  1221.0000      0.0000    793.1066      5.9236     90.3291
  1221.2500      0.0000    790.1559      5.8558     85.6960
  1221.5000      0.0000    788.5219      5.8707     83.3518
  1221.7500      0.0000    788.2426      5.8800     83.7505
  1222.0000      0.0000    789.1199      5.8444     86.1736
  1222.2500      0.0000    790.9217      5.8265     89.5074
  1222.5000      0.0000    793.6536      5.8885     92.6211
  1222.7500      0.0000    796.8818      5.9848     94.5083
  1223.0000      0.0000    798.8681      6.0208     94.7178
  1223.2500      0.0000    797.4454      5.9976     93.6360
  1223.5000      0.0000    792.0143      6.0223     92.1939
  1223.7500      0.0000    784.3707      6.1638     91.3323
  1224.0000      0.0000    777.4946      6.3514     91.4757
  1224.2500      0.0000    773.5300      6.4482     92.2439
  1224.5000      0.0000    772.8415      6.4003     92.8593
  1224.7500      0.0000    774.5755      6.2860     92.9109
  1225.0000      0.0000    777.4648      6.2147     92.4873
  1225.2500      0.0000    780.0682      6.1965     91.6990
  1225.5000      0.0000    780.9728      6.1411     90.5882
  1225.7500      0.0000    779.4296      5.9777     89.5572
  1226.0000      0.0000    775.9753      5.7328     89.4982
  1226.2500      0.0000    772.4429      5.4807     91.2722
  1226.5000      0.0000    770.9499      5.2704     95.1338
  1226.7500      0.0000    772.1400      5.1273    100.5580
  1227.0000      0.0000    774.1968      5.0856    106.3220
  1227.2500      0.0000    773.9012      5.1711    110.7628
  1227.5000      0.0000    768.8337      5.3517    112.5552
  1227.7500      0.0000    759.0104      5.5344    111.6999
  1228.0000      0.0000    746.9139      5.6353    109.4906
  1228.2500      0.0000    735.9211      5.6410    107.2236
  1228.5000      0.0000    728.2465      5.5829    105.2091
  1228.7500      0.0000    724.1649      5.4771    103.1752
  1229.0000      0.0000    722.9290      5.3351    101.0799
  1229.2500      0.0000    724.1425      5.2126     99.0634
  1229.5000      0.0000    728.1835      5.1829     97.0497
  1229.7500      0.0000    735.2388      5.2550     94.9344
  1230.0000      0.0000    743.6068      5.3594     92.9652
  1230.2500      0.0000    749.2511      5.4303     91.5262
  1230.5000      0.0000    748.4770      5.4724     90.6603
  1230.7500      0.0000    742.2341      5.5283     89.9525
  1231.0000      0.0000    736.6710      5.6114     88.8470
  1231.2500      0.0000    737.5871      5.7008     87.2653
  1231.5000      0.0000    744.8785      5.7842     86.0877
  1231.7500      0.0000    753.9464      5.8808     86.5261
  1232.0000      0.0000    760.8768      6.0221     88.4803
  1232.2500      0.0000    763.3499      6.2052     90.0146
