~Version Information
VERS.                      2.0: CWLS Log ASCII Standard - VERSION 2.0
WRAP.                       NO: One line per depth step
~Well Information Block
STRT.FT               650.0000: 
STOP.FT              1999.0000: 
STEP.FT                 0.2500: 
NULL.                -999.2500: 
COMP.          Pioneer Natural Resources: COMPANY
WELL.           Firehawk 34-26: WELL
FLD.           Purgatoire River: FIELD
LOC.           1196' FSL & 1595' FEL--: LOCATION
STAT.                 Colorado: State
CNTY.               Las Animas: COUNTY
CTRY. USA : Country
SECT. 26 : Section
TOWN. 32S : Township
RANG. 66W : Range
SRVC.                Patterson: SERVICE COMPANY
DATE.          Sun Oct 16 16:57:28 2005: LOG DATE
API.           05 071 08389 00: UNIQUE WELL ID
~Curve Information Block
DEPT.FT            0 000 00 00: Depth
SN.Ohm-m                      : IEL Short Normal
SP.mV                         : IEL Spontaneous Potential
DIR.Ohm-m                     : IEL Induction Resistivity
GR.GAPI                       : Gamma Ray
~Parameter Information Block
~A  Depth        SN          SP         DIR          GR     
# ...
  1856.0000     22.5774    103.6472     19.2414     81.7614
  1856.2500     22.6763    103.4146     19.2807     81.1537
  1856.5000     22.6548    103.1284     19.3076     80.5422
  1856.7500     22.5350    102.8098     19.3007     80.5782
  1857.0000     22.3114    102.4895     19.2405     81.4130
  1857.2500     21.9925    102.1632     19.1142     82.1964
  1857.5000     21.6155    101.7757     18.9172     83.0338
  1857.7500     21.2086    101.2475     18.6545     83.3137
  1858.0000     20.7623    100.5219     18.3395     84.1827
  1858.2500     20.2469     99.6126     17.9905     85.7928
  1858.5000     19.6573     98.6345     17.6266     89.9854
  1858.7500     19.0442     97.7861     17.2635     93.0314
  1859.0000     18.4920     97.2617     16.9121     95.5007
  1859.2500     18.0567     97.1399     16.5763     94.9584
  1859.5000     17.7406     97.3413     16.2525     91.7041
  1859.7500     17.5213     97.6939     15.9314     89.1461
  1860.0000     17.3632     98.0315     15.6052     86.5360
  1860.2500     17.2079     98.2389     15.2750     86.1756
  1860.5000     17.0027     98.2470     14.9540     87.8725
  1860.7500     16.7420     98.0306     14.6635     90.0494
  1861.0000     16.4675     97.6224     14.4252     93.4076
  1861.2500     16.2256     97.1127     14.2534     95.0641
  1861.5000     16.0231     96.6132     14.1520     96.7091
  1861.7500     15.8362     96.2069     14.1141     97.4673
  1862.0000     15.6563     95.9266     14.1265     97.7640
  1862.2500     15.5068     95.7627     14.1760     97.0006
  1862.5000     15.4274     95.6770     14.2562     94.3352
  1862.7500     15.4534     95.6130     14.3704     91.8114
  1863.0000     15.6053     95.5169     14.5285     87.2997
  1863.2500     15.8956     95.3603     14.7415     84.0564
  1863.5000     16.3182     95.1431     15.0151     79.8348
  1863.7500     16.8230     94.8803     15.3478     78.2754
  1864.0000     17.3397     94.5889     15.7319     78.6986
  1864.2500     17.8321     94.2778     16.1571     80.4935
  1864.5000     18.3155     93.9441     16.6124     83.4347
  1864.7500     18.8283     93.5787     17.0887     84.2398
  1865.0000     19.3999     93.1849     17.5799     82.8671
  1865.2500     20.0448     92.7912     18.0850     80.8075
  1865.5000     20.7722     92.4425     18.6106     77.7332
  1865.7500     21.5719     92.1721     19.1683     76.4190
  1866.0000     22.3874     91.9841     19.7687     75.7375
  1866.2500     23.1356     91.8636     20.4112     75.7526
  1866.5000     23.7737     91.7980     21.0737     75.6235
  1866.7500     24.3314     91.7798     21.7071     75.1332
  1867.0000     24.8597     91.7928     22.2369     73.5812
  1867.2500     25.3637     91.8096     22.5742     71.9643
  1867.5000     25.7922     91.8141     22.6362     69.0175
  1867.7500     26.0830     91.8262     22.3707     67.3261
  1868.0000     26.2095     91.8999     21.7796     66.4784
  1868.2500     26.1765     92.0957     20.9277     67.3795
  1868.5000     25.9666     92.4490     19.9248     70.4874
  1868.7500     25.5061     92.9612     18.8883     73.3196
  1869.0000     24.6936     93.6111     17.9074     78.7272
  1869.2500     23.4870     94.3667     17.0297     83.5043
  1869.5000     21.9946     95.1926     16.2674     92.6797
  1869.7500     20.4451     96.0607     15.6121     99.4912
  1870.0000     19.0239     96.9597     15.0460    108.4897
  1870.2500     17.7720     97.8875     14.5465    112.4458
  1870.5000     16.6563     98.8237     14.0866    114.6913
  1870.7500     15.6671     99.7122     13.6380    114.2353
  1871.0000     14.8303    100.4848     13.1773    111.8699
  1871.2500     14.1622    101.1123     12.6958    109.6430
  1871.5000     13.6223    101.6313     12.2043    105.8808
  1871.7500     13.1146    102.1139     11.7307    103.6257
  1872.0000     12.5650    102.6112     11.3095    101.9726
  1872.2500     11.9986    103.1265     10.9698    102.6598
  1872.5000     11.5486    103.6321     10.7281    106.3458
  1872.7500     11.3921    104.0959     10.5877    109.8264
  1873.0000     11.6233    104.4906     10.5421    114.7688
  1873.2500     12.1577    104.7961     10.5794    117.0296
  1873.5000     12.7922    105.0095     10.6842    118.2326
  1873.7500     13.3581    105.1502     10.8368    117.5722
  1874.0000     13.7944    105.2481     11.0128    114.6686
  1874.2500     14.1181    105.3277     11.1852    111.7597
  1874.5000     14.3797    105.4058     11.3299    106.7349
  1874.7500     14.6268    105.4976     11.4311    103.5334
  1875.0000     14.8706    105.6169     11.4842     99.9873
  1875.2500     15.0874    105.7704     11.4923     98.8907
  1875.5000     15.2476    105.9581     11.4621     99.0608
  1875.7500     15.3160    106.1784     11.3986     99.8369
  1876.0000     15.2295    106.4363     11.3042    101.0379
  1876.2500     14.9249    106.7484     11.1797    101.7315
  1876.5000     14.4219    107.1334     11.0268    102.9734
  1876.7500     13.8579    107.5904     10.8488    104.1820
  1877.0000     13.4028    108.0914     10.6508    106.9065
  1877.2500     13.1358    108.6030     10.4398    109.4743
  1877.5000     13.0186    109.1106     10.2247    114.1894
  1877.7500     12.9662    109.6128     10.0153    117.2996
  1878.0000     12.9154    110.0971      9.8215    120.6028
  1878.2500     12.8418    110.5353      9.6534    121.4328
  1878.5000     12.7454    110.9054      9.5200    120.8161
  1878.7500     12.6362    111.2104      9.4288    119.8342
  1879.0000     12.5248    111.4720      9.3845    119.0995
  1879.2500     12.4251    111.7092      9.3878    119.7927
  1879.5000     12.3613    111.9260      9.4357    122.5123
  1879.7500     12.3634    112.1146      9.5233    124.4726
  1880.0000     12.4591    112.2623      9.6466    124.9100
  1880.2500     12.6825    112.3570      9.8064    122.1232
  1880.5000     13.1012    112.3957     10.0104    113.0290
  1880.7500     13.8160    112.3933     10.2740    105.2033
  1881.0000     14.8921    112.3772     10.6181     95.1504
  1881.2500     16.2937    112.3659     11.0658     91.6895
  1881.5000     17.9206    112.3544     11.6398     92.0980
  1881.7500     19.6835    112.3311     12.3577     94.7259
  1882.0000     21.4976    112.3093     13.2268     98.4082
  1882.2500     23.2583    112.3286     14.2360     98.8559
  1882.5000     24.9106    112.4193     15.3485     95.4127
  1882.7500     26.4854    112.5766     16.4978     90.9872
  1883.0000     27.9981    112.7789     17.5934     83.6480
  1883.2500     29.3927    113.0261     18.5399     80.0107
  1883.5000     30.5890    113.3451     19.2637     78.6392
  1883.7500     31.4772    113.7628     19.7339     80.7398
  1884.0000     31.8964    114.2776     19.9654     86.9851
  1884.2500     31.7422    114.8499     20.0037     91.6548
  1884.5000     31.0882    115.4095     19.9038     96.8693
  1884.7500     30.1138    115.8791     19.7164     98.5005
  1885.0000     28.9463    116.2089     19.4791     99.0359
  1885.2500     27.6350    116.4002     19.2108     99.2117
  1885.5000     26.2198    116.4958     18.9099    100.3107
  1885.7500     24.7623    116.5500     18.5605    101.4301
  1886.0000     23.3381    116.6020     18.1473    102.8748
  1886.2500     22.0214    116.6641     17.6692    103.3921
  1886.5000     20.8687    116.7230     17.1427    103.3745
  1886.7500     19.9055    116.7516     16.5939    102.9510
  1887.0000     19.1213    116.7248     16.0488    102.4410
  1887.2500     18.4805    116.6322     15.5298    102.8008
  1887.5000     17.9511    116.4782     15.0575    104.8946
  1887.7500     17.5225    116.2703     14.6521    107.0844
  1888.0000     17.1907    116.0193     14.3313    110.7361
  1888.2500     16.9389    115.7776     14.1052    112.9951
  1888.5000     16.7523    115.6845     13.9730    115.3332
  1888.7500     16.6355    115.9292     13.9236    115.5867
  1889.0000     16.5944    116.6017     13.9416    113.4438
  1889.2500     16.6168    117.5615     14.0140    110.8467
