~Version Information
VERS.                      2.0: CWLS Log ASCII Standard - VERSION 2.0
WRAP.                       NO: One line per depth step
~Well Information Block
STRT.FT               -11.0000: 
STOP.FT              1896.2500: 
STEP.FT                 0.2500: 
NULL.                -999.2500: 
COMP.          Pioneer Natural Resources: COMPANY
WELL.            Summers 21-19: WELL
FLD.           Purgatoire River: FIELD
LOC.           900' FNL & 1950' FWL--: LOCATION
PROV.                 Colorado: PROVINCE
CNTY.               Las Animas: COUNTRY
SRVC.                Patterson: SERVICE COMPANY
DATE.          Thu Oct 20 15:06:00 2005: LOG DATE
UWI.           05 071 08315 00: UNIQUE WELL ID
~Curve Information Block
DEPT.FT            0 000 00 00: Depth
GR.GAPI                       : Gamma Ray
CCL.                          : Casing Collar Locator
TT3.usec                      : CBL 3' Travel Time
AMP3.mV                       : CBL 3' Amplitude
~Parameter Information Block
~A  Depth        GR         CCL         TT3         AMP3    
# ...
  1496.5000    152.7711      0.0000    689.4733      7.2037
  1496.7500    151.9794      0.0000    694.3798      7.2114
  1497.0000    151.2304      0.0000    689.3453      7.2246
  1497.2500    152.2690      0.0000    677.2939      7.2361
  1497.5000    156.0617      0.0000    664.8439      7.2256
  1497.7500    161.9566      0.0000    657.6347      7.1754
  1498.0000    167.9114      0.0000    657.5532      7.0824
  1498.2500    171.4114      0.0000    663.0316      6.9580
  1498.5000    170.6871      0.0000    670.7355      6.8209
  1498.7500    165.8276      0.0000    677.3918      6.6884
  1499.0000    158.8498      0.0000    681.5957      6.5710
  1499.2500    152.3056      0.0000    684.6143      6.4749
  1499.5000    147.6485      0.0000    689.0245      6.4078
  1499.7500    144.9698      0.0000    696.1411      6.3775
  1500.0000    143.9209      0.0000    704.7742      6.3840
  1500.2500    144.3037      0.0000    712.1104      6.4157
  1500.5000    145.7680      0.0000    715.3876      6.4589
  1500.7500    147.3480      0.0000    713.1912      6.5105
  1501.0000    147.4848      0.0000    706.2056      6.5744
  1501.2500    144.4846      0.0000    697.2156      6.6462
  1501.5000    137.1862      0.0000    690.1396      6.7080
  1501.7500    125.6635      0.0000    688.5521      6.7456
  1502.0000    111.5858      0.0000    693.9351      6.7674
  1502.2500     97.7444      0.0000    704.2775      6.7988
  1502.5000     86.8504      0.0000    714.6846      6.8597
  1502.7500     80.3511      0.0000    720.2191      6.9480
  1503.0000     77.9030      0.0000    718.6313      7.0434
  1503.2500     77.6661      0.0000    711.1776      7.1230
  1503.5000     77.3644      0.0000    701.7838      7.1757
  1503.7500     75.6447      0.0000    695.0582      7.2024
  1504.0000     72.6568      0.0000    693.7319      7.2105
  1504.2500     69.3342      0.0000    697.0358      7.2090
  1504.5000     66.4113      0.0000    701.6811      7.2067
  1504.7500     64.3324      0.0000    705.0399      7.2044
  1505.0000     63.6051      0.0000    707.5067      7.1929
  1505.2500     64.6072      0.0000    711.3325      7.1609
  1505.5000     66.9431      0.0000    717.3477      7.1085
  1505.7500     69.2711      0.0000    723.6218      7.0524
  1506.0000     70.0038      0.0000    727.1110      7.0177
  1506.2500     68.1973      0.0000    725.8224      7.0216
  1506.5000     63.8415      0.0000    719.9368      7.0595
  1506.7500     57.7704      0.0000    712.2211      7.1092
  1507.0000     51.5912      0.0000    707.1719      7.1498
  1507.2500     47.2314      0.0000    708.1400      7.1756
  1507.5000     45.8033      0.0000    714.6357      7.1934
  1507.7500     46.7371      0.0000    722.9886      7.2133
  1508.0000     48.3220      0.0000    729.5734      7.2428
  1508.2500     49.3051      0.0000    732.8679      7.2845
  1508.5000     49.9958      0.0000    732.8480      7.3360
  1508.7500     51.8628      0.0000    729.5695      7.3911
  1509.0000     56.2451      0.0000    723.0095      7.4438
  1509.2500     63.4965      0.0000    714.2721      7.4923
  1509.5000     73.0310      0.0000    706.4258      7.5432
  1509.7500     83.5536      0.0000    703.2435      7.6105
  1510.0000     92.9454      0.0000    706.4249      7.7030
  1510.2500     98.4958      0.0000    714.0891      7.8111
  1510.5000     98.2339      0.0000    722.1740      7.9096
  1510.7500     92.4579      0.0000    727.1144      7.9754
  1511.0000     83.6843      0.0000    727.2880      8.0083
  1511.2500     74.9370      0.0000    722.9989      8.0355
  1511.5000     68.1689      0.0000    716.1971      8.0941
  1511.7500     64.0839      0.0000    709.8062      8.2021
  1512.0000     62.8312      0.0000    705.8706      8.3460
  1512.2500     64.4818      0.0000    703.8842      8.4973
  1512.5000     68.9156      0.0000    701.6106      8.6340
  1512.7500     75.4831      0.0000    697.6851      8.7425
  1513.0000     83.1059      0.0000    692.7847      8.8062
  1513.2500     91.0238      0.0000    688.3887      8.8071
  1513.5000     99.2368      0.0000    685.1614      8.7385
  1513.7500    107.6485      0.0000    682.5594      8.6082
  1514.0000    115.0730      0.0000    679.2291      8.4243
  1514.2500    120.0606      0.0000    673.4970      8.1782
  1514.5000    122.6417      0.0000    664.2788      7.8422
  1514.7500    124.2932      0.0000    652.2022      7.4062
  1515.0000    126.1648      0.0000    639.7135      6.9302
  1515.2500    128.1112      0.0000    629.4667      6.5286
  1515.5000    129.2638      0.0000    622.5144      6.2544
  1515.7500    128.7205      0.0000    618.4926      6.0280
  1516.0000    125.8420      0.0000    617.9609      5.7463
  1516.2500    120.8293      0.0000    624.1680      5.4379
  1516.5000    115.1788      0.0000    640.8087      5.2406
  1516.7500    110.9299      0.0000    666.9115      5.2396
  1517.0000    109.2379      0.0000    695.1274      5.3868
  1517.2500    109.7613      0.0000    716.2106      5.5706
  1517.5000    111.0504      0.0000    724.8425      5.7338
  1517.7500    111.3328      0.0000    721.4058      5.9279
  1518.0000    109.4846      0.0000    710.0948      6.2583
  1518.2500    105.8370      0.0000    696.6368      6.7585
  1518.5000    102.0583      0.0000    686.2462      7.3387
  1518.7500    100.0730      0.0000    681.2369      7.8915
  1519.0000    100.8663      0.0000    680.2089      8.4093
  1519.2500    103.8756      0.0000    680.1050      8.9445
  1519.5000    107.1182      0.0000    679.0623      9.4923
  1519.7500    108.0383      0.0000    677.4149      9.9717
  1520.0000    104.9708      0.0000    676.6103     10.3066
  1520.2500     98.4533      0.0000    677.5225     10.4903
  1520.5000     91.0565      0.0000    679.6978     10.5749
  1520.7500     85.4391      0.0000    681.9857     10.6209
  1521.0000     82.3217      0.0000    683.6056     10.6625
  1521.2500     80.4213      0.0000    684.4929     10.7078
  1521.5000     78.2390      0.0000    684.9547     10.7591
  1521.7500     75.5262      0.0000    685.2785     10.8261
  1522.0000     72.9874      0.0000    685.6052     10.9226
  1522.2500     71.1366      0.0000    685.9603     11.0525
  1522.5000     69.8047      0.0000    686.2981     11.2048
  1522.7500     68.5057      0.0000    686.5449     11.3615
  1523.0000     66.9310      0.0000    686.6577     11.5051
  1523.2500     65.0287      0.0000    686.7068     11.6191
  1523.5000     62.7752      0.0000    686.9265     11.6893
  1523.7500     60.0933      0.0000    687.6995     11.7106
  1524.0000     57.0875      0.0000    689.3891     11.6906
  1524.2500     54.2391      0.0000    691.9444     11.6420
  1524.5000     52.2678      0.0000    694.5554     11.5752
  1524.7500     51.7369      0.0000    695.9940     11.4956
  1525.0000     52.7348      0.0000    695.6539     11.4051
  1525.2500     54.9909      0.0000    694.1482     11.3059
  1525.5000     58.3116      0.0000    692.6622     11.2029
  1525.7500     62.8146      0.0000    691.9354     11.1019
  1526.0000     68.8588      0.0000    692.0573     11.0044
  1526.2500     76.8993      0.0000    692.9874     10.9056
  1526.5000     86.8515      0.0000    694.9230     10.8031
  1526.7500     96.9862      0.0000    698.1018     10.7076
  1527.0000    103.8747      0.0000    702.3224     10.6431
  1527.2500    104.3561      0.0000    706.7009     10.6276
  1527.5000     97.9423      0.0000    709.8688     10.6543
  1527.7500     87.2532      0.0000    710.4880     10.6974
  1528.0000     76.1846      0.0000    708.0158     10.7355
  1528.2500     67.5826      0.0000    703.4323     10.7617
  1528.5000     62.3270      0.0000    699.0718     10.7704
  1528.7500     60.2206      0.0000    697.2918     10.7511
  1529.0000     61.2671      0.0000    698.9352     10.7043
  1529.2500     65.6631      0.0000    702.6711     10.6511
  1529.5000     72.6118      0.0000    705.7005     10.6151
  1529.7500     79.7108      0.0000    705.6467     10.6001
