~Version Information
VERS.                      2.0: CWLS Log ASCII Standard - VERSION 2.0
WRAP.                       NO: One line per depth step
~Well Information Block
STRT.FT               780.0000: 
STOP.FT              2866.2000: 
STEP.FT                 0.1000: 
NULL.                -999.2500: 
COMP.          Pioneer Natural Resources: COMPANY
WELL.            Sebring 42-29: WELL
FLD.           Purgatoire River: FIELD
LOC.           1751' FNL & 584' FEL--: LOCATION
PROV.                 Colorado: PROVINCE
CNTY.               Las Animas: COUNTRY
SRVC.                Patterson: SERVICE COMPANY
DATE.          Mon Aug 15 07:11:37 2005: LOG DATE
UWI.           05 071 08293 00: UNIQUE WELL ID
~Curve Information Block
DEPT.FT            0 000 00 00: Depth
DCAL.in                       : CDL Caliper
RHOB.g/cc                     : CDL Bulk Density
RHOC.g/cc                     : CDL Density Correction
DPOR.pu                       : CDL Density Porosity
NPOR.pu                       : Neutron Porosity
GR.GAPI                       : Gamma Ray
~Parameter Information Block
~A  Depth       DCAL        RHOB        RHOC        DPOR        NPOR         GR     
# ...
  2556.0000      8.0757      2.6243      0.0905      1.5593     23.0747     94.6309
  2556.1000      8.0757      2.6107      0.0275      2.3815     23.8010     98.7188
  2556.2000      8.0757      2.5892      0.0395      3.6873     24.1746    104.3077
  2556.3000      8.0772      2.5809      0.0117      4.1881     24.6433    108.6645
  2556.4000      8.0772      2.5919      0.0599      3.5183     25.1752    109.5460
  2556.5000      8.0782      2.6107      0.0508      2.3801     25.0711    108.3101
  2556.6000      8.0782      2.6222      0.0829      1.6852     24.1637    102.6406
  2556.7000      8.0782      2.6309      0.0368      1.1594     23.0373     94.5313
  2556.8000      8.0782      2.6504      0.0876     -0.0264     22.1738     93.0818
  2556.9000      8.0782      2.6718      0.0624     -1.3200     21.6830    101.8489
  2557.0000      8.0768      2.6750      0.0858     -1.5149     21.5175    112.3036
  2557.1000      8.0768      2.6573      0.0610     -0.4432     21.6744    111.6671
  2557.2000      8.0768      2.6375      0.0230      0.7604     21.9659     99.8944
  2557.3000      8.0768      2.6266      0.0993      1.4212     21.9706     89.3068
  2557.4000      8.0768      2.6154      0.0653      2.0960     21.7763     85.0276
  2557.5000      8.0781      2.6065      0.0205      2.6359     22.0243     83.9873
  2557.6000      8.0781      2.6005      0.0371      2.9997     22.8278     83.4650
  2557.7000      8.0781      2.5827     -0.0045      4.0777     23.4064     82.5878
  2557.8000      8.0788      2.5646     -0.1328      5.1785     23.1459     86.7911
  2557.9000      8.0788      2.5737     -0.1118      4.6265     22.4926     96.6728
  2558.0000      8.0787      2.5960      0.0236      3.2758     22.0299     97.3977
  2558.1000      8.0787      2.5956      0.0249      3.2955     21.9094     87.8154
  2558.2000      8.0787      2.5710      0.0250      4.7864     22.0234     88.3856
  2558.3000      8.0780      2.5434      0.0002      6.4591     22.0178    101.9211
  2558.4000      8.0780      2.5285      0.0253      7.3660     22.0009    109.1462
  2558.5000      8.0758      2.5283      0.0283      7.3729     22.2787    104.4212
  2558.6000      8.0758      2.5369      0.0242      6.8563     22.7041    103.1746
  2558.7000      8.0758      2.5478      0.0334      6.1943     23.1030    113.6103
  2558.8000      8.0724      2.5507      0.0779      6.0155     23.5190    124.1465
  2558.9000      8.0724      2.5376      0.0650      6.8111     24.1760    122.3867
  2559.0000      8.0715      2.5188      0.0252      7.9514     25.1307    112.5961
  2559.1000      8.0715      2.5084     -0.0057      8.5794     25.9015    104.8969
  2559.2000      8.0715      2.5078     -0.0135      8.6154     26.2692    103.8107
  2559.3000      8.0722      2.5080      0.0246      8.6081     26.3697    107.3508
  2559.4000      8.0722      2.4958      0.0351      9.3435     26.2684    109.1489
  2559.5000      8.0718      2.4761     -0.0222     10.5409     26.0087    108.7896
  2559.6000      8.0718      2.4672      0.0276     11.0794     25.9218    108.4235
  2559.7000      8.0718      2.4716      0.0048     10.8134     26.4009    105.7901
  2559.8000      8.0720      2.4811      0.0405     10.2334     27.0190    103.4020
  2559.9000      8.0720      2.4911      0.0724      9.6301     26.9736    104.9231
  2560.0000      8.0733      2.5008      0.0445      9.0415     26.2653    106.2683
  2560.1000      8.0733      2.5112      0.0396      8.4122     25.8083    103.4086
  2560.2000      8.0733      2.5238      0.0674      7.6495     25.7859    101.7525
  2560.3000      8.0744      2.5396      0.0581      6.6936     25.6163    105.7263
  2560.4000      8.0744      2.5533      0.0512      5.8589     25.3236    110.2581
  2560.5000      8.0729      2.5565      0.0554      5.6683     25.0071    111.9797
  2560.6000      8.0729      2.5469      0.0383      6.2468     24.6003    112.2351
  2560.7000      8.0729      2.5354     -0.0014      6.9430     24.4618    112.1544
  2560.8000      8.0699      2.5336      0.0321      7.0562     24.7225    112.1969
  2560.9000      8.0699      2.5404      0.0207      6.6441     25.0214    113.1722
  2561.0000      8.0693      2.5474      0.0630      6.2212     25.2843    114.4123
  2561.1000      8.0693      2.5421      0.0689      6.5384     25.6059    115.1197
  2561.2000      8.0693      2.5213      0.0653      7.8023     25.8385    115.9965
  2561.3000      8.0710      2.4991      0.0184      9.1439     25.9447    116.3987
  2561.4000      8.0710      2.4866      0.0648      9.9054     25.9466    115.1985
  2561.5000      8.0731      2.4781      0.0328     10.4206     26.0094    115.0000
  2561.6000      8.0731      2.4692      0.0416     10.9565     26.2167    115.1557
  2561.7000      8.0731      2.4577      0.0398     11.6530     26.1314    110.7074
  2561.8000      8.0744      2.4412      0.0082     12.6544     25.4828    102.7912
  2561.9000      8.0744      2.4268     -0.0324     13.5295     24.5468     97.4809
  2562.0000      8.0754      2.4227      0.0300     13.7752     23.8624     98.8026
  2562.1000      8.0754      2.4244      0.0205     13.6721     23.7237    105.3842
  2562.2000      8.0754      2.4264      0.0310     13.5509     23.9964    111.0508
  2562.3000      8.0759      2.4303      0.0068     13.3130     24.6871    112.6979
  2562.4000      8.0759      2.4350      0.0206     13.0305     25.2908    110.7807
  2562.5000      8.0761      2.4344      0.0244     13.0683     24.9339    104.4283
  2562.6000      8.0761      2.4352     -0.0002     13.0190     24.0590     97.1451
  2562.7000      8.0761      2.4516      0.0531     12.0239     24.0680     94.6242
  2562.8000      8.0756      2.4718      0.0964     10.8000     25.1102     97.5900
  2562.9000      8.0756      2.4737      0.0577     10.6871     25.8093    102.0436
  2563.0000      8.0747      2.4633      0.0519     11.3131     25.4512    102.6243
  2563.1000      8.0747      2.4535      0.0686     11.9068     24.8378     99.2679
  2563.2000      8.0747      2.4413      0.0438     12.6510     24.5683     98.0349
  2563.3000      8.0750      2.4332      0.0035     13.1394     24.2632    101.0414
  2563.4000      8.0750      2.4424      0.0497     12.5809     23.6419    104.9836
  2563.5000      8.0760      2.4598      0.0456     11.5257     22.8504    106.6474
  2563.6000      8.0760      2.4691      0.0256     10.9666     22.1155    106.7436
  2563.7000      8.0760      2.4743      0.0245     10.6511     21.5677    107.0134
  2563.8000      8.0759      2.4905      0.0356      9.6683     21.2304    106.1087
  2563.9000      8.0759      2.5147      0.0488      8.2019     21.3084    103.6926
  2564.0000      8.0755      2.5325      0.0435      7.1198     21.8519    102.9021
  2564.1000      8.0755      2.5375      0.0565      6.8171     22.3341    104.6810
  2564.2000      8.0755      2.5304      0.0577      7.2510     22.2983    107.3574
  2564.3000      8.0754      2.5190      0.0310      7.9403     21.7150    106.9481
  2564.4000      8.0754      2.5081      0.0595      8.6005     20.7364    100.5847
  2564.5000      8.0759      2.4974      0.0092      9.2512     19.9019     92.3343
  2564.6000      8.0759      2.4934      0.0039      9.4921     19.8296     86.3476
  2564.7000      8.0759      2.5024      0.0012      8.9478     20.1805     84.8838
  2564.8000      8.0771      2.5259      0.0172      7.5212     20.2296     88.0413
  2564.9000      8.0771      2.5534      0.0659      5.8544     20.0559     89.8719
  2565.0000      8.0769      2.5642      0.0500      5.2020     19.8106     85.3663
  2565.1000      8.0769      2.5485      0.0611      6.1489     19.4226     78.3479
  2565.2000      8.0769      2.5146     -0.0011      8.2078     18.9579     75.1780
  2565.3000      8.0759      2.4861      0.0037      9.9340     18.6200     75.7719
  2565.4000      8.0759      2.4862     -0.0257      9.9281     18.5911     75.5788
  2565.5000      8.0753      2.5165      0.0420      8.0890     18.8165     73.8028
