~Version Information
VERS.                      2.0: CWLS Log ASCII Standard - VERSION 2.0
WRAP.                       NO: One line per depth step
~Well Information Block
STRT.FT               840.0000: 
STOP.FT              2020.0000: 
STEP.FT                 0.1000: 
NULL.                -999.2500: 
COMP.          Petrogulf Corporation: COMPANY
WELL.           Lavedure 7-44R: WELL
FLD.           Purgatorie River: FIELD
LOC.           946' FSL & 521' FEL: LOCATION
PROV.                 Colorado: PROVINCE
CNTY.               Las Animas: COUNTRY
SRVC.                Patterson: SERVICE COMPANY
DATE.          Mon Sep 26 08:30:48 2005: LOG DATE
UWI.                          : UNIQUE WELL ID
~Curve Information Block
DEPT.FT            0 000 00 00: Depth
DCAL.in                       : CDL Caliper
RHOB.g/cc                     : CDL Bulk Density
RHOC.g/cc                     : CDL Density Correction
DPOR.pu                       : CDL Density Porosity
GR.GAPI                       : Gamma Ray
NPOR.pu                       : Neutron Porosity
~Parameter Information Block
~A  Depth       DCAL        RHOB        RHOC        DPOR         GR         NPOR    
# ...
   916.8000      8.2951      1.4939     -0.0596     70.0640     79.3032     31.6687
   916.9000      8.2951      1.4079     -0.1019     75.2763     74.4210     31.8366
   917.0000      8.3029      1.3456     -0.0515     79.0523     67.9948     32.2157
   917.1000      8.3029      1.3107     -0.0215     81.1685     63.2525     32.4692
   917.2000      8.3029      1.2921     -0.0458     82.2949     60.8936     32.4186
   917.3000      8.2952      1.2852     -0.0180     82.7176     58.3748     32.2215
   917.4000      8.2952      1.2895     -0.0303     82.4557     55.1468     32.1426
   917.5000      8.2952      1.3041     -0.0197     81.5713     53.2124     32.3049
   917.6000      8.2952      1.3172      0.0414     80.7738     53.3441     32.4344
   917.7000      8.2952      1.3149      0.0060     80.9172     53.4729     32.4174
   917.8000      8.3103      1.3069     -0.0405     81.3978     52.3848     32.5789
   917.9000      8.3103      1.3131      0.0029     81.0241     50.6658     32.9719
   918.0000      8.3230      1.3365      0.0310     79.6038     49.0775     33.3562
   918.1000      8.3230      1.3728      0.0221     77.4047     48.9087     33.5870
   918.2000      8.3230      1.4135      0.0643     74.9414     50.5269     33.4598
   918.3000      8.4109      1.4435      0.0316     73.1204     53.6378     32.9597
   918.4000      8.4109      1.4574      0.0408     72.2813     57.7807     32.5696
   918.5000      8.3832      1.4640      0.0165     71.8815     61.4388     32.6022
   918.6000      8.3832      1.4772      0.0377     71.0782     63.0063     32.7061
   918.7000      8.3832      1.5027      0.0242     69.5338     61.8402     32.5694
   918.8000      8.4013      1.5309      0.0818     67.8257     61.6861     32.5368
   918.9000      8.4013      1.5541      0.0118     66.4184     66.6607     32.8566
   919.0000      8.3595      1.5852      0.0276     64.5329     74.1804     33.1244
   919.1000      8.3595      1.6349      0.0484     61.5201     79.2757     33.0037
   919.2000      8.3595      1.6953      0.0649     57.8594     82.5820     32.6049
   919.3000      8.3378      1.7554      0.0847     54.2166     88.2851     32.1186
   919.4000      8.3378      1.8090      0.0904     50.9697     95.6741     31.7832
   919.5000      8.3509      1.8542      0.0525     48.2286    101.5088     31.8590
   919.6000      8.3509      1.8974      0.0755     45.6136    106.1109     32.3526
   919.7000      8.3509      1.9462      0.0889     42.6576    109.3442     32.9171
   919.8000      8.3756      1.9921      0.1412     39.8734    110.6946     33.0217
   919.9000      8.3756      2.0162      0.1059     38.4135    111.8263     32.6304
   920.0000      8.3827      2.0172      0.0377     38.3495    112.7421     32.1435
   920.1000      8.3827      2.0066      0.0347     38.9929    112.8438     31.8841
   920.2000      8.3827      1.9840      0.0421     40.3643    112.5277     31.9347
   920.3000      8.3992      1.9453      0.0050     42.7111    111.5864     32.0626
   920.4000      8.3992      1.8948     -0.0069     45.7682    109.2093     32.0178
   920.5000      8.4113      1.8369      0.0123     49.2759    105.1387     31.8960
   920.6000      8.4113      1.7735     -0.0422     53.1222    101.8996     31.9094
   920.7000      8.4113      1.7072     -0.0337     57.1401     99.9772     32.0451
   920.8000      8.3922      1.6373     -0.0270     61.3752     94.6308     32.1981
   920.9000      8.3922      1.5642     -0.0661     65.8075     84.7589     32.2514
   921.0000      8.3580      1.4943     -0.0684     70.0428     75.0197     32.2032
   921.1000      8.3580      1.4346     -0.0726     73.6607     69.4514     32.2170
   921.2000      8.3580      1.3885     -0.0109     76.4532     68.6449     32.1975
   921.3000      8.3458      1.3553     -0.0153     78.4648     69.2565     31.9500
   921.4000      8.3458      1.3330      0.0010     79.8181     66.9408     31.7379
   921.5000      8.3410      1.3214     -0.0174     80.5186     61.3317     31.8500
   921.6000      8.3410      1.3241     -0.0123     80.3565     56.1503     32.1276
   921.7000      8.3410      1.3366      0.0428     79.6006     54.4940     32.3721
   921.8000      8.3491      1.3451      0.0378     79.0829     54.5047     32.5131
   921.9000      8.3491      1.3479      0.0017     78.9129     52.8982     32.4581
   922.0000      8.3393      1.3540      0.0264     78.5442     50.0107     32.3008
   922.1000      8.3393      1.3618      0.0521     78.0736     46.9882     32.3226
   922.2000      8.3393      1.3611      0.0382     78.1161     43.9031     32.4878
   922.3000      8.3378      1.3474      0.0050     78.9445     41.1924     32.5748
   922.4000      8.3378      1.3217      0.0096     80.5023     38.7111     32.6162
   922.5000      8.3269      1.2909     -0.0290     82.3693     37.0502     32.6715
   922.6000      8.3269      1.2714     -0.0399     83.5500     38.0219     32.6618
   922.7000      8.3269      1.2806     -0.0580     82.9938     41.0804     32.6659
   922.8000      8.3055      1.3175      0.0108     80.7568     43.5578     32.9085
   922.9000      8.3055      1.3568      0.0482     78.3748     45.3008     33.1728
   923.0000      8.3562      1.3772      0.0262     77.1366     48.5237     33.1274
   923.1000      8.3562      1.3798      0.0379     76.9798     52.8810     33.0618
   923.2000      8.3562      1.3765      0.0113     77.1834     56.7187     33.2325
   923.3000      8.3695      1.3803      0.0154     76.9489     60.2413     33.2910
   923.4000      8.3695      1.3935      0.0579     76.1536     64.3561     33.0999
   923.5000      8.4173      1.4055      0.0502     75.4227     69.1424     32.9879
   923.6000      8.4173      1.4171     -0.0141     74.7208     73.3487     33.1357
   923.7000      8.4173      1.4422      0.0238     73.2029     75.7563     33.2700
   923.8000      8.3396      1.4920     -0.0016     70.1848     78.2670     33.1842
   923.9000      8.3396      1.5711      0.0405     65.3906     83.5088     33.0838
   924.0000      8.2906      1.6785      0.0393     58.8786     89.5714     33.0989
   924.1000      8.2906      1.8095      0.1484     50.9417     95.3106     33.0800
   924.2000      8.2906      1.9507      0.1532     42.3838    104.3963     33.0444
   924.3000      8.2766      2.0912      0.1754     33.8653    116.9636     33.1563
   924.4000      8.2766      2.2272      0.2464     25.6241    129.1604     33.2673
   924.5000      8.2536      2.3476      0.2160     18.3267    138.0551     33.0977
   924.6000      8.2536      2.4283      0.2119     13.4381    142.6616     32.6271
   924.7000      8.2536      2.4534      0.1434     11.9138    145.8708     32.1690
   924.8000      8.2302      2.4457      0.0247     12.3827    149.5474     31.8325
   924.9000      8.2302      2.4385      0.0736     12.8179    152.1967     31.2826
   925.0000      8.2078      2.4412      0.0492     12.6555    153.8358     30.4575
   925.1000      8.2078      2.4565      0.0202     11.7288    157.0294     29.6837
   925.2000      8.2078      2.4805      0.0695     10.2724    162.7649     29.1215
   925.3000      8.1734      2.5009      0.0706      9.0378    168.1613     28.9079
   925.4000      8.1734      2.5221      0.0392      7.7526    169.3796     29.0050
   925.5000      8.1648      2.5535      0.0928      5.8495    164.0553     29.0585
   925.6000      8.1648      2.5829      0.1210      4.0638    154.7000     28.9335
   925.7000      8.1648      2.5972      0.0615      3.2007    149.2239     28.7619
   925.8000      8.1489      2.5983      0.0451      3.1319    149.8248     28.6972
   925.9000      8.1489      2.5910      0.0156      3.5779    151.2833     28.5409
   926.0000      8.1456      2.5798      0.0144      4.2536    151.1006     27.8138
   926.1000      8.1456      2.5732      0.0153      4.6518    149.9477     26.6544
   926.2000      8.1456      2.5774      0.0305      4.4001    148.9693     25.6938
   926.3000      8.1449      2.5895      0.0585      3.6682    148.6388     25.0254
