~Version Information
VERS.                      2.0: CWLS Log ASCII Standard - VERSION 2.0
WRAP.                       NO: One line per depth step
~Well Information Block
STRT.FT               548.0000: 
STOP.FT              1916.0000: 
STEP.FT                 0.2500: 
NULL.                -999.2500: 
COMP.          Pioneer Natural Resources: COMPANY
WELL.          Blackjack 32-11 Tr: WELL
FLD.           Purgatorie River: FIELD
LOC.           2066' FNL & 1453' FEL: LOCATION
PROV.                 Colorado: PROVINCE
CNTY.               Las Animas: COUNTRY
SRVC.                Patterson: SERVICE COMPANY
DATE.          Tue Aug 16 12:08:23 2005: LOG DATE
UWI.                          : UNIQUE WELL ID
~Curve Information Block
DEPT.FT            0 000 00 00: Depth
SN.Ohm-m                      : IEL Short Normal
SP.mV                         : IEL Spontaneous Potential
DIR.Ohm-m                     : IEL Induction Resistivity
GR.GAPI                       : Gamma Ray
~Parameter Information Block
~A  Depth        SN          SP         DIR          GR     
# ...
  1251.5000     64.6788    -73.2479     43.5001     61.7080
  1251.7500     65.6853    -73.4092     38.7975     67.0690
  1252.0000     62.6626    -72.9464     45.5134     65.4818
  1252.2500     61.0053    -72.6156     47.8511     71.0345
  1252.5000     60.5629    -73.3428     48.1711     78.0047
  1252.7500     56.3954    -74.1989     43.9368     76.9397
  1253.0000     55.9135    -74.5275     49.8159     86.8109
  1253.2500     52.2205    -72.6373     44.0897     89.1979
  1253.5000     51.6498    -70.8897     47.5265     93.7866
  1253.7500     50.8185    -70.7315     41.9331     96.6917
  1254.0000     49.7146    -70.2450     32.3768     84.3665
  1254.2500     48.1479    -70.0455     40.3744     81.6864
  1254.5000     48.9510    -69.6257     37.3853     82.5088
  1254.7500     48.2164    -69.1932     39.8706     81.0556
  1255.0000     48.0131    -69.5771     40.0952     76.4127
  1255.2500     47.4766    -68.8299     40.3916     76.6019
  1255.5000     47.0106    -68.7769     38.2161     90.3193
  1255.7500     47.3439    -69.5626     37.9621     86.0806
  1256.0000     47.3176    -69.9346     40.9802     90.4540
  1256.2500     45.6682    -71.1567     39.5638     98.6869
  1256.5000     45.9348    -71.4347     42.2077    113.3306
  1256.7500     46.4407    -71.3253     42.5757    100.6801
  1257.0000     47.3285    -70.7174     30.9163    100.1630
  1257.2500     48.6468    -69.8555     41.5356    100.6663
  1257.5000     48.5097    -68.8768     41.9240     97.1976
  1257.7500     48.0772    -68.8551     40.6288     92.2686
  1258.0000     48.9564    -69.2579     41.2060     86.9901
  1258.2500     49.0203    -68.8870     42.5247     86.0479
  1258.5000     49.2224    -68.3268     42.7806     74.7824
  1258.7500     49.2009    -66.6040     43.9341     75.2987
  1259.0000     49.9954    -66.3212     40.4934     74.4905
  1259.2500     50.4834    -65.5920     46.8032     72.3705
  1259.5000     50.9719    -65.0285     46.6136     72.8293
  1259.7500     52.6730    -64.2932     44.0406     72.9194
  1260.0000     52.9048    -64.1220     29.9212     72.9422
  1260.2500     52.2094    -65.8542     35.5742     65.0827
  1260.5000     53.7329    -67.2421     50.4263     57.8297
  1260.7500     52.8669    -64.5362     43.3532     66.1763
  1261.0000     54.9982    -58.6258     49.8936     70.5229
  1261.2500     53.9991    -56.6136     50.8591     70.9433
  1261.5000     54.5229    -53.2677     57.5888     63.7450
  1261.7500     55.6651    -51.9552     49.7552     67.3211
  1262.0000     55.7781    -55.1523     40.9641     68.9134
  1262.2500     55.3620    -55.0757     46.6789     62.6479
  1262.5000     55.0348    -56.9337     34.4759     67.5233
  1262.7500     55.2121    -56.6724     51.0107     63.2830
  1263.0000     53.7578    -56.8509     53.7627     62.3324
  1263.2500     53.6785    -57.3561     48.9333     68.3667
  1263.5000     52.3360    -58.6087     55.8395     74.2163
  1263.7500     52.0167    -59.0125     56.1526     81.1750
  1264.0000     52.4372    -59.3269     48.2821     82.2065
  1264.2500     52.5334    -59.6643     47.9522     85.4319
  1264.5000     52.9967    -59.4559     35.8175     83.2942
  1264.7500     52.4240    -59.2182     43.2156     81.0358
  1265.0000     52.1297    -58.9372     47.5514     84.3196
  1265.2500     52.4795    -58.8027     46.6727     78.4854
  1265.5000     51.9722    -58.4064     31.6768     87.8587
  1265.7500     52.3628    -57.7923     36.3558     82.3712
  1266.0000     52.7525    -57.3361     44.0321     81.8101
  1266.2500     53.0682    -56.7028     42.7302     74.4079
  1266.5000     54.3462    -55.9642     47.5276     81.7625
  1266.7500     55.5729    -55.8424     43.1306     79.3112
  1267.0000     57.0279    -55.5615     36.9686     75.3216
  1267.2500     56.7216    -55.6496     36.7126     72.1504
  1267.5000     55.4803    -55.8420     45.8260     70.0751
  1267.7500     56.1026    -56.5856     41.3224     67.4017
  1268.0000     55.7413    -57.7105     47.1836     62.5574
  1268.2500     56.7611    -58.2809     47.5922     68.6499
  1268.5000     56.8339    -59.1735     32.6520     77.9300
  1268.7500     56.1329    -60.1531     43.8220     81.3018
  1269.0000     55.8012    -60.2887     42.0300     91.7358
  1269.2500     53.4499    -59.5494     37.3111     87.2476
  1269.5000     50.1944    -59.5366     33.6218     81.0037
  1269.7500     45.4890    -58.4776     30.6541     79.4487
  1270.0000     42.6735    -57.7676     30.9466     93.1956
  1270.2500     38.7805    -57.9657     29.2737    105.3591
  1270.5000     36.4625    -58.5253     26.9257    126.3769
  1270.7500     34.4652    -59.8016     26.9451    144.0096
  1271.0000     31.9360    -60.1369     23.9968    149.6212
  1271.2500     30.4969    -60.4399     23.7572    147.5715
  1271.5000     29.7353    -59.9903     21.7448    155.1074
  1271.7500     29.5224    -59.4586     24.8543    149.3316
  1272.0000     30.0639    -58.9284     25.5256    157.7685
  1272.2500     30.8549    -58.9728     21.5334    159.1898
  1272.5000     31.0330    -58.0646     25.3043    154.6774
  1272.7500     30.7027    -58.4715     28.4426    155.2886
  1273.0000     31.2241    -59.0167     28.6936    147.2435
  1273.2500     32.4701    -59.6700     29.1500    144.3303
  1273.5000     36.3120    -59.4621     30.7067    128.3616
  1273.7500     42.6905    -59.1016     34.9743    117.1052
  1274.0000     51.5126    -58.8716     34.5879     83.5910
  1274.2500     64.8076    -57.5333     36.8771     69.7246
  1274.5000     80.2440    -57.5365     37.2220     57.3399
  1274.7500     98.3500    -57.0372     33.2571     57.1658
  1275.0000    104.9974    -56.9052     45.3760     49.5692
  1275.2500    110.2835    -57.2936     49.9242     44.8704
  1275.5000    110.6364    -57.4522     49.1423     38.5037
  1275.7500    105.6534    -57.6560     44.7233     40.1167
  1276.0000     90.0100    -57.6335     47.6272     48.1879
  1276.2500     76.3461    -58.3234     40.6938     53.6461
  1276.5000     63.4576    -59.0603     38.2282     77.9450
  1276.7500     55.9202    -58.9278     39.2155     96.3662
  1277.0000     48.8642    -59.3682     35.3774    107.9121
  1277.2500     43.4224    -60.1856     30.8534    119.1951
  1277.5000     39.1147    -60.8902     31.5914    112.0623
  1277.7500     36.1725    -61.3987     29.6267    120.6146
  1278.0000     33.4138    -61.2262     29.3118    130.0955
  1278.2500     31.7572    -61.4481     28.9017    133.7244
  1278.5000     31.3483    -61.5707     26.1475    133.6028
  1278.7500     30.0517    -61.2286     22.6551    136.4239
  1279.0000     29.4816    -60.8919     23.7883    143.3597
  1279.2500     29.0736    -60.5215     22.3081    132.0575
  1279.5000     28.9702    -60.2825     23.3825    126.5625
  1279.7500     28.8413    -59.8723     22.2224    127.7041
  1280.0000     28.7993    -59.7539     20.5612    125.4018
  1280.2500     28.8950    -59.5260     21.8185    113.3404
  1280.5000     28.9334    -58.9578     19.8353    105.8957
  1280.7500     29.0153    -59.4945     21.0316    109.4290
  1281.0000     29.2574    -59.0807     22.7210    121.1607
  1281.2500     28.8935    -58.9231     23.6633    123.9215
  1281.5000     29.0062    -58.6399     22.6367    111.5545
  1281.7500     28.7007    -58.2896     20.8108    113.7688
  1282.0000     28.6370    -57.7912     22.3291    115.1066
  1282.2500     28.5655    -57.5230     18.7716    126.9755
  1282.5000     28.9723    -57.6543     22.6442    122.5759
  1282.7500     28.5308    -57.7071     22.7361    113.2754
  1283.0000     28.3196    -57.4323     23.5157    112.5167
  1283.2500     28.1280    -57.1938     23.2579    116.6895
  1283.5000     28.2935    -56.9465     22.6778    124.4232
  1283.7500     28.5735    -56.4022     24.3011    129.9342
  1284.0000     28.7183    -56.1395     25.7054    118.5126
  1284.2500     29.3370    -55.5333     26.6922    116.9702
  1284.5000     29.0312    -55.9458     21.2598    127.4816
  1284.7500     28.9505    -56.4454     23.4206    117.1324
