~Version Information
VERS.                      2.0: CWLS Log ASCII Standard - VERSION 2.0
WRAP.                       NO: One line per depth step
~Well Information Block
STRT.FT                -7.2500: 
STOP.FT               862.2500: 
STEP.FT                 0.2500: 
NULL.                -999.2500: 
COMP.          Pioneer Natural Resources: COMPANY
WELL.          Santisteven 13-22: WELL
FLD.           Purgatorie River: FIELD
LOC.           1861' FSL & 992' FWL--: LOCATION
PROV.                       CO: PROVINCE
CNTY.               Las Animas: COUNTRY
SRVC.          Patterson Wireline: SERVICE COMPANY
DATE.          Thu Apr 07 09:08:11 2005: LOG DATE
UWI.           05 071 08337 00: UNIQUE WELL ID
~Curve Information Block
DEPT.FT            0 000 00 00: Depth
CCL.                          : Casing Collar Locator
TT3.usec                      : CBL 3' Travel Time
AMP3.mV                       : CBL 3' Amplitude
GR.GAPI                       : Gamma Ray
~Parameter Information Block
~A  Depth       CCL         TT3         AMP3         GR     
# ...
   495.2500      0.0000    803.3063      5.6268     86.6732
   495.5000      0.0000    808.5216      5.5487     85.7640
   495.7500      0.0000    810.1830      5.5347     85.7600
   496.0000      0.0000    807.5898      5.5728     86.0933
   496.2500      0.0000    801.9229      5.6254     86.2055
   496.5000      0.0000    795.0933      5.6622     86.0753
   496.7500      0.0000    788.1028      5.6755     86.1138
   497.0000      0.0000    780.5917      5.6712     86.5477
   497.2500      0.0000    772.0275      5.6479     86.8536
   497.5000      0.0000    763.0548      5.5897     86.0384
   497.7500      0.0000    755.3808      5.4882     83.6950
   498.0000      0.0000    750.5434      5.3642     80.5736
   498.2500      0.0000    748.9899      5.2590     77.8749
   498.5000      0.0000    750.0112      5.2016     76.1304
   498.7500      0.0000    752.1038      5.1903     74.9962
   499.0000      0.0000    753.7646      5.2044     74.0050
   499.2500      0.0000    754.5951      5.2234     73.1903
   499.5000      0.0000    755.5991      5.2372     72.8013
   499.7500      0.0000    758.0811      5.2510     72.5716
   500.0000      0.0000    762.4594      5.2793     71.7377
   500.2500      0.0000    768.3041      5.3324     70.1506
   500.5000      0.0000    775.0508      5.4097     69.0210
   500.7500      0.0000    782.3799      5.5060     69.8823
   501.0000      0.0000    790.0967      5.6182     72.7749
   501.2500      0.0000    797.7617      5.7424     75.9316
   501.5000      0.0000    804.5748      5.8705     77.3050
   501.7500      0.0000    809.9503      5.9931     76.0641
   502.0000      0.0000    814.0859      6.1027     72.6517
   502.2500      0.0000    817.4194      6.1925     67.9954
   502.5000      0.0000    819.6311      6.2561     63.0925
   502.7500      0.0000    819.7466      6.2898     59.0826
   503.0000      0.0000    817.2209      6.2910     57.0476
   503.2500      0.0000    812.4999      6.2555     57.3611
   503.5000      0.0000    806.6479      6.1755     59.2896
   503.7500      0.0000    800.9144      6.0429     61.4004
   504.0000      0.0000    796.6558      5.8603     62.4019
   504.2500      0.0000    795.1075      5.6507     61.7192
   504.5000      0.0000    796.7260      5.4526     59.6114
   504.7500      0.0000    800.6033      5.2987     56.8806
   505.0000      0.0000    804.6581      5.2024     54.1924
   505.2500      0.0000    806.7634      5.1641     51.5843
   505.5000      0.0000    805.9463      5.1797     48.9257
   505.7500      0.0000    802.6882      5.2357     46.7644
   506.0000      0.0000    798.4125      5.3076     46.1757
   506.2500      0.0000    794.8168      5.3671     47.6237
   506.5000      0.0000    793.2458      5.3942     50.2590
   506.7500      0.0000    794.1347      5.3901     52.4962
   507.0000      0.0000    796.7859      5.3737     53.3003
   507.2500      0.0000    799.6887      5.3605     52.9839
   507.5000      0.0000    801.2866      5.3480     52.8595
   507.7500      0.0000    800.7683      5.3236     54.2544
   508.0000      0.0000    798.4022      5.2830     57.8115
   508.2500      0.0000    795.2288      5.2390     63.1770
   508.5000      0.0000    792.3417      5.2140     68.8016
   508.7500      0.0000    790.3499      5.2240     72.4009
   509.0000      0.0000    789.4112      5.2617     72.4523
   509.2500      0.0000    789.6477      5.2976     69.3694
   509.5000      0.0000    791.4106      5.3034     64.8504
   509.7500      0.0000    795.0178      5.2720     60.2930
   510.0000      0.0000    800.1205      5.2148     56.2868
   510.2500      0.0000    805.5062      5.1497     53.2383
   510.5000      0.0000    809.8212      5.0925     51.6768
   510.7500      0.0000    812.4691      5.0503     51.8205
   511.0000      0.0000    813.6649      5.0168     53.1553
   511.2500      0.0000    813.9000      4.9810     54.6263
   511.5000      0.0000    813.5632      4.9464     55.3712
   511.7500      0.0000    812.7321      4.9321     55.3616
   512.0000      0.0000    811.1370      4.9554     55.2446
   512.2500      0.0000    808.5358      5.0157     55.4707
   512.5000      0.0000    805.2288      5.0955     55.7523
   512.7500      0.0000    802.1499      5.1729     55.4994
   513.0000      0.0000    800.3381      5.2337     54.5956
   513.2500      0.0000    800.1923      5.2733     53.5982
   513.5000      0.0000    801.3821      5.2926     53.2773
   513.7500      0.0000    803.5136      5.2925     53.9640
   514.0000      0.0000    806.4465      5.2714     55.2110
   514.2500      0.0000    809.8934      5.2260     56.0399
   514.5000      0.0000    813.3682      5.1585     55.6163
   514.7500      0.0000    816.7017      5.0850     53.8578
   515.0000      0.0000    820.0038      5.0328     51.5051
   515.2500      0.0000    823.0187      5.0195     49.5286
   515.5000      0.0000    825.0018      5.0378     48.3720
   515.7500      0.0000    825.3318      5.0663     47.9513
   516.0000      0.0000    824.1338      5.0866     48.5237
   516.2500      0.0000    822.4059      5.0882     51.2515
   516.5000      0.0000    821.4871      5.0685     57.5329
   516.7500      0.0000    822.0874      5.0312     67.6732
   517.0000      0.0000    823.7867      4.9832     80.1115
   517.2500      0.0000    825.5752      4.9328     91.7790
   517.5000      0.0000    826.7407      4.8898     99.4570
   517.7500      0.0000    827.1464      4.8668    101.4197
   518.0000      0.0000    826.9169      4.8741     98.1696
   518.2500      0.0000    826.0773      4.9074     91.7038
   518.5000      0.0000    824.5114      4.9499     84.2003
   518.7500      0.0000    822.3185      4.9925     77.2398
   519.0000      0.0000    820.2327      5.0378     71.5986
   519.2500      0.0000    819.4089      5.0856     67.2279
   519.5000      0.0000    820.4562      5.1298     63.5859
   519.7500      0.0000    822.7977      5.1655     60.3999
   520.0000      0.0000    825.2076      5.1887     58.1401
   520.2500      0.0000    826.8331      5.1943     57.6377
   520.5000      0.0000    827.5728      5.1784     59.4661
   520.7500      0.0000    827.7592      5.1399     63.7545
   521.0000      0.0000    827.7607      5.0818     70.1398
   521.2500      0.0000    827.8004      5.0118     77.6363
   521.5000      0.0000    827.9317      4.9413     84.9157
   521.7500      0.0000    828.0926      4.8827     91.0984
   522.0000      0.0000    828.2051      4.8494     96.2252
   522.2500      0.0000    828.2914      4.8529    100.9197
   522.5000      0.0000    828.5856      4.8866    105.7438
   522.7500      0.0000    829.5458      4.9177    110.8320
   523.0000      0.0000    831.5460      4.9095    115.7400
   523.2500      0.0000    834.0731      4.8592    119.3725
   523.5000      0.0000    834.7902      4.7959    120.3579
   523.7500      0.0000    830.0268      4.7367    118.0840
   524.0000      0.0000    818.1660      4.6579    113.4122
   524.2500      0.0000    804.1137      4.5302    107.9109
   524.5000      0.0000    798.8909      4.3755    102.4221
   524.7500      0.0000    811.0710      4.2701     96.8107
   525.0000      0.0000    837.0811      4.2847     90.9207
   525.2500      0.0000    862.4996      4.4280     85.1003
   525.5000      0.0000    875.3669      4.6541     79.7302
   525.7500      0.0000    877.2529      4.9145     74.9649
   526.0000     -2.0000    879.9331      5.1999     71.2781
   526.2500      0.0000    892.4403      5.5350     69.7548
   526.5000      0.0000    912.6943      5.9568     71.4101
   526.7500      0.0000    930.7869      6.5052     76.3202
   527.0000      0.0000    938.4929      7.2032     83.3755
   527.2500      0.0000    934.8365      8.0068     90.6851
   527.5000      0.0000    923.9172      8.7790     96.4665
   527.7500      0.0000    910.2285      9.3562     99.9726
   528.0000      0.0000    896.8788      9.6502    101.6144
   528.2500      0.0000    885.8981      9.6734    102.2570
   528.5000      0.0000    877.9238      9.4876    102.6436
