~Version Information
VERS.                      2.0: CWLS Log ASCII Standard - VERSION 2.0
WRAP.                       NO: One line per depth step
~Well Information Block
STRT.FT               -16.5000: 
STOP.FT              1244.7500: 
STEP.FT                 0.2500: 
NULL.                -999.2500: 
COMP.          Pioneer Natural Resources: COMPANY
WELL.          Bouncer41-27 Tr: WELL
FLD.           Purgatorie River: FIELD
LOC.           292' FNL & 222' FEL--------: LOCATION
PROV.                       CO: PROVINCE
CNTY.               Las Animas: COUNTRY
SRVC.                         : SERVICE COMPANY
DATE.          Fri Feb 11 15:34:51 2005: LOG DATE
UWI.                071-08291 : UNIQUE WELL ID
~Curve Information Block
DEPT.FT            0 000 00 00: Depth
CCL.                          : Casing Collar Locator
TT3.usec                      : CBL 3' Travel Time
AMP3.mV                       : CBL 3' Amplitude
GR.GAPI                       : Gamma Ray
~Parameter Information Block
~A  Depth       CCL         TT3         AMP3         GR     
# ...
    50.5000      0.0000    741.9785      5.1813    104.9735
    50.7500      0.0000    742.0959      5.1895    104.7140
    51.0000      0.0000    743.3952      5.2602    102.0873
    51.2500      0.0000    746.4991      5.3687     97.0743
    51.5000      0.0000    751.4730      5.4798     90.4681
    51.7500      0.0000    757.3138      5.5648     83.6310
    52.0000      0.0000    762.3224      5.6054     77.7349
    52.2500      0.0000    765.3290      5.5906     73.0970
    52.5000      0.0000    766.6152      5.5172     69.3790
    52.7500      0.0000    767.6887      5.3951     66.6477
    53.0000      0.0000    770.2222      5.2538     66.2210
    53.2500      0.0000    774.8727      5.1404     69.9891
    53.5000      0.0000    780.6203      5.1021     78.2971
    53.7500      0.0000    785.3006      5.1555     88.5552
    54.0000      0.0000    787.2594      5.2698     96.6790
    54.2500      0.0000    786.6818      5.3878    100.3429
    54.5000      0.0000    785.1112      5.4679    100.5319
    54.7500      0.0000    783.5679      5.5104     99.7633
    55.0000      0.0000    781.3961      5.5462     99.3269
    55.2500      0.0000    777.1473      5.6048     98.5617
    55.5000      0.0000    770.5352      5.6914     96.3934
    55.7500      0.0000    763.2243      5.7915     93.0400
    56.0000      0.0000    757.4095      5.8904     90.0401
    56.2500      0.0000    753.6174      5.9831     88.8259
    56.5000      0.0000    750.4114      6.0629     89.6934
    56.7500      0.0000    746.4258      6.1077     92.1540
    57.0000      0.0000    742.0247      6.0846     95.6067
    57.2500      0.0000    738.6022      5.9729     99.2890
    57.5000      0.0000    736.9254      5.7849    102.0340
    57.7500      0.0000    736.7029      5.5666    102.6867
    58.0000      0.0000    737.3517      5.3811    100.8177
    58.2500      0.0000    738.7209      5.2831     96.8057
    58.5000      0.0000    741.1597      5.2980     91.4916
    58.7500      0.0000    744.9126      5.4149     86.0190
    59.0000      0.0000    749.2129      5.5957     81.6098
    59.2500      0.0000    752.0934      5.7959     78.9425
    59.5000      0.0000    751.7287      5.9827     77.8485
    59.7500      0.0000    748.1644      6.1366     77.8741
    60.0000      0.0000    743.3570      6.2447     78.9207
    60.2500      0.0000    739.4489      6.3025     81.0047
    60.5000      0.0000    737.3174      6.3227     83.7413
    60.7500      0.0000    736.6254      6.3311     86.5944
    61.0000      0.0000    736.6730      6.3479     89.3680
    61.2500      0.0000    736.9974      6.3690     91.9385
    61.5000      0.0000    737.4668      6.3656     93.8155
    61.7500      0.0000    738.1230      6.3050     94.5493
    62.0000      0.0000    739.0038      6.1744     94.2252
    62.2500      0.0000    740.0578      5.9897     92.9620
    62.5000      0.0000    741.1580      5.7826     90.2619
    62.7500      0.0000    742.1658      5.5780     85.5488
    63.0000      0.0000    742.9987      5.3841     79.3070
    63.2500      0.0000    743.6602      5.2001     73.1036
    63.5000      0.0000    744.1982      5.0290     68.3350
    63.7500      0.0000    744.6593      4.8782     65.3289
    64.0000      0.0000    745.1436      4.7544     63.8033
    64.2500      0.0000    745.9850      4.6640     63.8718
    64.5000      0.0000    747.8137      4.6141     66.2716
    64.7500      0.0000    751.2756      4.6075     71.4911
    65.0000      0.0000    756.5765      4.6374     78.6686
    65.2500      0.0000    763.2710      4.6879     85.5009
    65.5000      0.0000    770.3040      4.7376     89.5892
    65.7500      0.0000    776.0952      4.7651     90.1149
    66.0000      0.0000    779.0958      4.7578     88.0674
    66.2500      0.0000    779.0309      4.7146     84.9353
    66.5000      0.0000    777.3934      4.6388     81.6735
    66.7500      0.0000    775.9423      4.5358     78.9749
    67.0000      0.0000    774.8453      4.4220     77.7809
    67.2500      0.0000    773.1027      4.3214     78.9575
    67.5000      2.0000    770.5334      4.2516     82.4358
    67.7500      0.0000    768.2330      4.2187     86.8798
    68.0000      0.0000    767.1122      4.2265     90.4079
    68.2500      0.0000    767.2148      4.2821     91.7056
    68.5000      0.0000    768.7065      4.3915     90.5336
    68.7500      0.0000    772.3425      4.5509     87.6121
    69.0000      0.0000    778.2899      4.7386     84.3613
    69.2500      0.0000    785.2153      4.9145     82.4447
    69.5000      0.0000    791.1591      5.0391     82.9102
    69.7500      0.0000    795.0169      5.0999     85.5630
    70.0000      0.0000    796.9266      5.1152     89.3272
    70.2500      0.0000    797.5703      5.1156     93.2191
    70.5000      0.0000    797.3789      5.1328     96.8011
    70.7500      0.0000    796.1586      5.1959     99.8608
    71.0000      0.0000    793.1647      5.3169    102.1133
    71.2500      0.0000    787.7104      5.4721    103.3261
    71.5000      0.0000    780.1722      5.6085    103.3475
    71.7500      0.0000    772.4357      5.6773    101.9376
    72.0000      0.0000    766.7604      5.6615     98.9763
    72.2500      0.0000    763.8246      5.5756     95.0183
    72.5000      0.0000    762.2227      5.4460     91.4112
    72.7500      0.0000    760.1554      5.2968     89.5875
    73.0000      0.0000    757.2195      5.1488     90.0424
    73.2500      0.0000    754.3083      5.0222     91.9694
    73.5000      0.0000    752.2813      4.9324     93.9888
    73.7500      0.0000    751.1437      4.8823     95.1257
    74.0000      0.0000    750.1903      4.8601     94.8126
    74.2500      0.0000    748.5311      4.8463     92.3024
    74.5000      0.0000    745.7005      4.8256     87.0633
    74.7500      0.0000    742.2623      4.7968     80.0675
    75.0000      0.0000    739.8309      4.7699     73.8374
    75.2500      0.0000    739.9449      4.7576     70.6299
    75.5000      0.0000    742.6343      4.7694     70.7941
    75.7500      0.0000    746.3340      4.8100     72.9293
    76.0000      0.0000    749.2843      4.8766     75.2221
    76.2500      0.0000    750.7712      4.9589     76.5476
    76.5000      0.0000    751.1070      5.0457     76.7656
    76.7500      0.0000    750.9021      5.1310     76.4427
    77.0000      0.0000    750.5649      5.2111     76.3693
    77.2500      0.0000    750.2606      5.2777     77.2469
    77.5000      0.0000    750.0450      5.3191     79.7402
    77.7500      0.0000    749.9305      5.3307     84.4689
    78.0000      0.0000    749.8680      5.3190     91.4070
    78.2500      0.0000    749.7581      5.2920     99.1946
    78.5000      0.0000    749.5368      5.2520    105.4638
    78.7500      0.0000    749.2455      5.1973    108.3242
    79.0000      0.0000    748.9938      5.1300    107.6090
    79.2500      0.0000    748.8447      5.0595    104.5397
    79.5000      0.0000    748.7490      5.0009    100.3786
    79.7500      0.0000    748.5922      4.9668     95.7665
    80.0000      0.0000    748.2962      4.9554     91.1937
    80.2500      0.0000    747.8865      4.9478     87.5872
    80.5000      0.0000    747.4802      4.9211     86.0589
    80.7500      0.0000    747.1990      4.8645     87.0235
    81.0000      0.0000    747.0716      4.7822     89.7725
    81.2500      0.0000    747.0135      4.6847     93.1682
    81.5000      0.0000    746.9080      4.5835     96.5112
    81.7500      0.0000    746.6702      4.4915     99.1918
    82.0000      0.0000    746.2053      4.4199     99.7439
    82.2500      0.0000    745.3078      4.3739     96.4862
    82.5000      0.0000    743.7181      4.3525     89.7427
    82.7500      0.0000    741.4995      4.3490     82.6489
    83.0000      0.0000    739.4271      4.3523     78.8770
    83.2500      0.0000    738.6813      4.3531     79.5886
    83.5000      0.0000    739.8102      4.3508     82.8368
    83.7500      0.0000    742.1235      4.3517     85.6322
