~Version Information
VERS.                      2.0: CWLS Log ASCII Standard - VERSION 2.0
WRAP.                       NO: One line per depth step
~Well Information Block
STRT.FT                 3.7500: 
STOP.FT               979.7500: 
STEP.FT                 0.2500: 
NULL.                -999.2500: 
COMP.          Pioneer Natural Resources: COMPANY
WELL.          Rising Star 22-11: WELL
FLD.           Purgatoire River: FIELD
LOC.           2152' FNL & 2105' FWL: LOCATION
PROV.                 Colorado: PROVINCE
CNTY.               Las Animas: COUNTRY
SRVC.                Patterson: SERVICE COMPANY
DATE.          Sat Apr 16 09:17:01 2005: LOG DATE
UWI.           05 071 08354 00: UNIQUE WELL ID
~Curve Information Block
DEPT.FT            0 000 00 00: Depth
GR.GAPI                       : Gamma Ray
CCL.                          : Casing Collar Locator
TT3.usec                      : CBL 3' Travel Time
AMP3.mV                       : CBL 3' Amplitude
~Parameter Information Block
~A  Depth        GR         CCL         TT3         AMP3    
# ...
   204.7500     84.8788      0.0000    795.8263      7.4471
   205.0000     83.9150      0.0000    800.8206      7.3485
   205.2500     82.1223      0.0000    805.0676      7.2619
   205.5000     80.0885      0.0000    806.9911      7.1911
   205.7500     77.9758      0.0000    801.5201      7.1326
   206.0000     75.8870      0.0000    783.6985      7.0824
   206.2500     74.4838      0.0000    754.8093      7.0387
   206.5000     74.6501      0.0000    723.4050      7.0002
   206.7500     76.5613      0.0000    699.0878      6.9644
   207.0000     79.4909      0.0000    686.4528      6.9287
   207.2500     82.5095      0.0000    685.4303      6.8948
   207.5000     84.8984      0.0000    694.5226      6.8684
   207.7500     85.8795      0.0000    710.7493      6.8541
   208.0000     84.5083      0.0000    727.1617      6.8495
   208.2500     80.3178      0.0000    734.8246      6.8472
   208.5000     74.1304      0.0000    730.8001      6.8417
   208.7500     68.1065      0.0000    723.5688      6.8339
   209.0000     64.6773      0.0000    728.4095      6.8265
   209.2500     65.0797      0.0000    756.9005      6.8170
   209.5000     68.6700      0.0000    810.3867      6.7976
   209.7500     73.5590      0.0000    881.5264      6.7635
   210.0000     78.1086      0.0000    958.9326      6.7197
   210.2500     82.1481      0.0000   1028.2792      6.6766
   210.5000     86.9127      0.0000   1074.0448      6.6407
   210.7500     93.6548      0.0000   1090.0126      6.6146
   211.0000    102.0834      0.0000   1087.1792      6.6012
   211.2500    110.0654      0.0000   1081.0740      6.6014
   211.5000    114.9943      0.0000   1072.2161      6.6062
   211.7500    115.6961      0.0000   1051.8483      6.5994
   212.0000    113.1435      0.0000   1027.1613      6.5730
   212.2500    109.4312      0.0000   1025.9058      6.5371
   212.5000    106.1649      0.0000   1069.2413      6.5096
   212.7500    103.7902      0.0000   1148.0229      6.4970
   213.0000    102.1300      0.0000   1230.8097      6.4895
   213.2500    101.1981      0.0000   1289.8185      6.4759
   213.5000    101.2549      0.0000   1314.8210      6.4614
   213.7500    102.1716      0.0000   1308.2643      6.4643
   214.0000    103.1740      0.0000   1276.7283      6.4956
   214.2500    103.5432      0.0000   1227.8105      6.5408
   214.5000    103.4644      0.0000   1167.6819      6.5648
   214.7500    103.8641      0.0000   1098.8643      6.5371
   215.0000    105.3738      0.0000   1027.2958      6.4561
   215.2500    107.5472      0.0000    973.6108      6.3496
   215.5000    108.9032      0.0000    966.0453      6.2491
   215.7500    107.6038      0.0000   1013.1202      6.1670
   216.0000    102.5413      0.0000   1088.2733      6.0976
   216.2500     94.4319      0.0000   1150.0227      6.0345
   216.5000     85.9326      0.0000   1178.0397      5.9776
   216.7500     80.2052      0.0000   1186.3302      5.9262
   217.0000     78.9189      0.0000   1202.0327      5.8725
   217.2500     81.4639      0.0000   1236.6195      5.8109
   217.5000     85.7827      0.0000   1279.7705      5.7485
   217.7500     89.7335      0.0000   1315.4044      5.7005
   218.0000     92.0023      0.0000   1336.5037      5.6716
   218.2500     92.4615      0.0000   1345.7003      5.6480
   218.5000     92.1346      0.0000   1348.1749      5.6132
   218.7500     92.6638      0.0000   1346.4998      5.5656
   219.0000     95.1812      0.0000   1339.6219      5.5195
   219.2500     99.2050      0.0000   1324.3754      5.4876
   219.5000    102.6908      0.0000   1299.0043      5.4692
   219.7500    103.5313      0.0000   1266.1835      5.4548
   220.0000    101.2260      0.0000   1231.9504      5.4393
   220.2500     97.1776      0.0000   1202.7157      5.4285
   220.5000     93.3955      0.0000   1186.0542      5.4318
   220.7500     90.9118      0.0000   1191.1764      5.4482
   221.0000     89.3589      0.0000   1221.0737      5.4631
   221.2500     87.8345      0.0000   1264.9926      5.4612
   221.5000     85.8448      0.0000   1305.1240      5.4430
   221.7500     83.5758      0.0000   1329.8984      5.4256
   222.0000     81.8435      0.0000   1336.9695      5.4260
   222.2500     81.8383      0.0000   1325.2864      5.4487
   222.5000     84.3933      0.0000   1289.0975      5.4914
   222.7500     89.2347      0.0000   1222.8019      5.5571
   223.0000     94.9462      0.0000   1133.3612      5.6527
   223.2500     99.6396      0.0000   1046.8102      5.7737
   223.5000    101.8951      0.0000    997.8478      5.8904
   223.7500    101.3959      0.0000   1008.3608      5.9577
   224.0000     98.7632      0.0000   1073.0149      5.9496
   224.2500     94.9010      0.0000   1163.3173      5.8838
   224.5000     90.7429      0.0000   1246.3473      5.8060
   224.7500     87.4782      0.0000   1303.0437      5.7514
   225.0000     86.3998      0.0000   1332.6375      5.7306
   225.2500     88.1387      0.0000   1343.8892      5.7466
   225.5000     92.1616      0.0000   1344.2640      5.8081
   225.7500     97.2180      0.0000   1334.4786      5.9188
   226.0000    102.1765      0.0000   1308.8901      6.0566
   226.2500    106.2703      0.0000   1260.7253      6.1690
   226.5000    108.9056      0.0000   1190.4957      6.2011
   226.7500    109.9847      0.0000   1110.5780      6.1389
   227.0000    110.6245      0.0000   1039.3860      6.0234
   227.2500    112.7587      0.0000    990.1450      5.9126
   227.5000    117.3847      0.0000    966.7525      5.8393
   227.7500    123.4369      0.0000    968.7119      5.8083
   228.0000    128.6957      0.0000    993.0951      5.8197
   228.2500    131.5217      0.0000   1027.5771      5.8763
   228.5000    131.5489      0.0000   1048.2076      5.9704
   228.7500    129.1108      0.0000   1037.0098      6.0734
   229.0000    124.5251      0.0000   1005.7893      6.1482
   229.2500    118.2587      0.0000    992.8202      6.1740
   229.5000    111.6200      0.0000   1027.2942      6.1568
   229.7500    106.4995      0.0000   1098.9087      6.1159
   230.0000    103.8843      0.0000   1167.4465      6.0670
   230.2500    102.9735      0.0000   1200.9095      6.0207
   230.5000    102.2969      0.0000   1201.0571      5.9863
   230.7500    101.6567      0.0000   1192.1180      5.9720
   231.0000    102.6811      0.0000   1189.7621      5.9797
   231.2500    107.3499      0.0000   1187.3516      6.0042
   231.5000    115.9866      0.0000   1172.8492      6.0284
   231.7500    126.5144      0.0000   1150.6050      6.0076
   232.0000    135.2507      0.0000   1140.4818      5.8630
   232.2500    138.4218      0.0000   1158.8650      5.5291
   232.5000    133.9503      0.0000   1203.4729      5.0381
   232.7500    122.8920      0.0000   1254.8517      4.5353
   233.0000    109.1252      0.0000   1290.3617      4.1745
   233.2500     97.0189      0.0000   1297.7340      4.0039
   233.5000     88.8654     -2.6025   1280.3708      3.9690
   233.7500     84.1189     -2.3828   1254.5594      4.0036
   234.0000     80.8391      0.0000   1238.7765      4.1100
   234.2500     77.9214      0.0000   1237.7859      4.3729
   234.5000     76.1278      0.0000   1236.4092      4.8822
   234.7500     77.0313      0.0000   1214.4683      5.6046
   235.0000     81.1023      0.0000   1168.9353      6.3411
   235.2500     87.0030      0.0000   1117.1210      6.8672
   235.5000     92.5554      0.0000   1077.5538      7.1094
   235.7500     96.1029      0.0000   1052.9855      7.1560
   236.0000     97.2437      0.0000   1035.6953      7.1283
   236.2500     96.8218      0.0000   1025.3763      7.0915
   236.5000     96.1900      0.0000   1035.5707      7.0563
   236.7500     96.1301      0.0000   1079.8856      7.0116
   237.0000     96.5244      0.0000   1153.4171      6.9439
   237.2500     97.0743      0.0000   1232.4176      6.8474
   237.5000     97.8121      0.0000   1293.2617      6.7301
   237.7500     98.8395      0.0000   1328.1533      6.6090
   238.0000    100.2180      0.0000   1343.3322      6.4978
