~Version Information
VERS.                      2.0: CWLS Log ASCII Standard - VERSION 2.0
WRAP.                       NO: One line per depth step
~Well Information Block
STRT.FT               920.0000: 
STOP.FT              3300.2000: 
STEP.FT                 0.1000: 
NULL.                -999.2500: 
COMP.          Pioneer Natural Resources: COMPANY
WELL.              Vespar 43-7: WELL
FLD.           Purgatoire River: FIELD
LOC.           2338' FSL & 1141' FEL: LOCATION
PROV.                 Colorado: PROVINCE
CNTY.               Las Animas: COUNTRY
SRVC.                Patterson: SERVICE COMPANY
DATE.          Wed Jan 26 13:38:02 2005: LOG DATE
UWI.           05 071 07955 00: UNIQUE WELL ID
~Curve Information Block
DEPT.FT            0 000 00 00: Depth
DCAL.in                       : CDL Caliper
RHOB.g/cc                     : CDL Bulk Density
RHOC.g/cc                     : CDL Density Correction
DPOR.pu                       : CDL Density Porosity
NPOR.pu                       : Neutron Porosity
GR.GAPI                       : Gamma Ray
~Parameter Information Block
~A  Depth       DCAL        RHOB        RHOC        DPOR        NPOR         GR     
# ...
  1073.6000      8.0463      2.4353      0.0278     13.0115     17.6929     82.0474
  1073.7000      8.0463      2.4304      0.0652     13.3098     17.2743     75.6630
  1073.8000      8.0377      2.4364      0.0486     12.9436     16.9782     68.0467
  1073.9000      8.0377      2.4462      0.0875     12.3520     16.5299     62.5660
  1074.0000      8.0298      2.4503      0.0945     12.1043     16.0784     59.4123
  1074.1000      8.0298      2.4426      0.1092     12.5689     15.8634     57.6514
  1074.2000      8.0298      2.4239      0.1014     13.7008     15.6571     57.0617
  1074.3000      8.0272      2.4031      0.0570     14.9630     15.1717     54.9803
  1074.4000      8.0272      2.3930      0.0461     15.5762     14.6021     48.9047
  1074.5000      8.0286      2.3909      0.0992     15.7023     14.1987     42.8497
  1074.6000      8.0286      2.3804      0.0884     16.3402     13.9250     43.7394
  1074.7000      8.0286      2.3637      0.0379     17.3526     13.6344     51.5413
  1074.8000      8.0296      2.3625      0.0482     17.4242     13.2457     60.0325
  1074.9000      8.0296      2.3812      0.0497     16.2892     12.9263     64.3357
  1075.0000      8.0302      2.3989      0.1201     15.2171     12.7454     62.8415
  1075.1000      8.0302      2.4032      0.0549     14.9586     12.5132     59.0915
  1075.2000      8.0302      2.4059      0.0760     14.7969     12.2620     57.9866
  1075.3000      8.0295      2.4100      0.0810     14.5462     12.0450     58.3199
  1075.4000      8.0295      2.4039      0.1155     14.9168     11.7573     59.0665
  1075.5000      8.0248      2.3890      0.0433     15.8188     11.4563     61.2271
  1075.6000      8.0248      2.3835      0.0595     16.1507     11.2763     62.2201
  1075.7000      8.0248      2.3960      0.0862     15.3956     11.4708     60.0814
  1075.8000      8.0235      2.4153      0.1229     14.2226     12.0822     55.6077
  1075.9000      8.0235      2.4291      0.1011     13.3866     12.6118     51.7296
  1076.0000      8.0254      2.4316      0.1044     13.2389     12.8100     51.8257
  1076.1000      8.0254      2.4244      0.0699     13.6722     12.9355     54.9580
  1076.2000      8.0254      2.4184      0.0836     14.0349     13.3327     58.3370
  1076.3000      8.0263      2.4161      0.1112     14.1779     13.9061     60.3384
  1076.4000      8.0263      2.4108      0.0777     14.4948     14.2962     60.0706
  1076.5000      8.0249      2.4034      0.0638     14.9463     14.6296     59.5710
  1076.6000      8.0249      2.3975      0.0594     15.3028     15.1394     59.1099
  1076.7000      8.0249      2.3902      0.0485     15.7438     15.6564     56.6456
  1076.8000      8.0264      2.3805      0.0350     16.3347     15.9819     53.7692
  1076.9000      8.0264      2.3799     -0.0010     16.3707     16.1634     51.3372
  1077.0000      8.0341      2.3953      0.0109     15.4335     16.3015     48.2831
  1077.1000      8.0341      2.4092      0.0909     14.5918     16.3547     46.8050
  1077.2000      8.0341      2.4129      0.0115     14.3697     16.0418     50.0761
  1077.3000      8.0423      2.4281      0.0239     13.4481     15.2700     55.4450
  1077.4000      8.0423      2.4572      0.0927     11.6875     14.6071     57.4755
  1077.5000      8.0484      2.4602      0.1788     11.5011     14.4765     56.7364
  1077.6000      8.0484      2.4181      0.0298     14.0575     14.6548     57.1397
  1077.7000      8.0484      2.3723     -0.0232     16.8328     14.6755     58.1213
  1077.8000      8.0524      2.3615      0.0083     17.4837     14.4346     56.5788
  1077.9000      8.0524      2.3697      0.0719     16.9850     14.1668     53.5612
  1078.0000      8.0552      2.3672      0.0431     17.1367     13.9613     53.4382
  1078.1000      8.0552      2.3595     -0.0049     17.6062     13.9264     56.3952
  1078.2000      8.0552      2.3690     -0.0111     17.0289     14.2109     58.9915
  1078.3000      8.0595      2.4026      0.0490     14.9920     14.6412     60.4085
  1078.4000      8.0595      2.4461      0.1159     12.3598     14.7740     61.6751
  1078.5000      8.0644      2.4766      0.1214     10.5087     14.5349     61.6672
  1078.6000      8.0644      2.4829      0.1139     10.1263     14.3120     59.1744
  1078.7000      8.0644      2.4706      0.1165     10.8706     14.3638     57.7072
  1078.8000      8.0646      2.4550      0.0410     11.8203     14.6995     59.6484
  1078.9000      8.0646      2.4450      0.0569     12.4258     15.0706     65.6291
  1079.0000      8.0627      2.4331      0.0117     13.1480     15.4671     74.5291
  1079.1000      8.0627      2.4139      0.0375     14.3079     15.9121     79.4463
  1079.2000      8.0627      2.3950      0.0221     15.4547     16.0101     76.2289
  1079.3000      8.0610      2.3885      0.0094     15.8476     15.8183     69.1065
  1079.4000      8.0610      2.3936      0.0445     15.5405     15.7159     63.0529
  1079.5000      8.0622      2.3954      0.0560     15.4306     15.6608     61.1063
  1079.6000      8.0622      2.3952      0.0413     15.4453     15.5314     62.7106
  1079.7000      8.0622      2.4020      0.0791     15.0312     15.4356     65.7303
  1079.8000      8.0643      2.4150      0.0091     14.2400     15.4886     69.9152
  1079.9000      8.0643      2.4325      0.0924     13.1815     15.5617     72.2987
  1080.0000      8.0674      2.4500      0.0468     12.1213     15.3210     71.2605
  1080.1000      8.0674      2.4602      0.0880     11.5059     14.7027     70.4122
  1080.2000      8.0674      2.4555      0.0847     11.7871     14.2355     71.5248
  1080.3000      8.0725      2.4398      0.0728     12.7418     14.3779     72.8671
  1080.4000      8.0725      2.4275      0.0669     13.4859     14.6749     72.7392
  1080.5000      8.0757      2.4304      0.0528     13.3114     14.4345     71.4678
  1080.6000      8.0757      2.4461      0.0552     12.3547     13.9286     68.6414
  1080.7000      8.0757      2.4559      0.1154     11.7665     13.8852     63.9262
  1080.8000      8.0764      2.4496      0.0522     12.1482     14.2614     59.3065
  1080.9000      8.0764      2.4452      0.0661     12.4093     14.5820     55.6895
  1081.0000      8.0774      2.4510      0.0917     12.0584     14.9571     54.4239
  1081.1000      8.0774      2.4438      0.1074     12.4971     15.6422     57.4121
  1081.2000      8.0774      2.4101      0.0694     14.5384     16.2999     62.9995
  1081.3000      8.0789      2.3820     -0.0242     16.2433     16.4211     66.3190
  1081.4000      8.0789      2.3920      0.0516     15.6346     16.1014     66.2284
  1081.5000      8.0796      2.4203      0.0497     13.9194     15.9583     66.7263
  1081.6000      8.0796      2.4252      0.0607     13.6235     15.9459     68.5857
  1081.7000      8.0796      2.3972     -0.0111     15.3234     15.5612     68.7225
  1081.8000      8.0785      2.3658     -0.0010     17.2261     15.1924     65.3186
  1081.9000      8.0785      2.3555      0.0295     17.8491     15.2781     59.8659
  1082.0000      8.0783      2.3696     -0.0314     16.9944     15.3282     56.2872
  1082.1000      8.0783      2.4011      0.0688     15.0858     14.8787     56.7616
  1082.2000      8.0783      2.4295      0.0713     13.3612     14.0465     59.2510
  1082.3000      8.0795      2.4359      0.0906     12.9778     13.0931     60.4847
  1082.4000      8.0795      2.4192      0.0643     13.9888     12.3983     60.4054
  1082.5000      8.0803      2.3980      0.0143     15.2733     12.3622     60.2286
  1082.6000      8.0803      2.3860      0.0694     15.9985     12.7870     60.7141
  1082.7000      8.0803      2.3811      0.0353     16.2983     12.9776     62.9137
  1082.8000      8.0808      2.3840      0.0476     16.1197     12.8173     65.1079
  1082.9000      8.0808      2.3903      0.1046     15.7393     12.7250     63.8198
  1083.0000      8.0822      2.3889      0.0651     15.8228     12.8045     60.1233
  1083.1000      8.0822      2.3863      0.0361     15.9788     12.9091     58.1106
