~Version Information
 VERS.                      2.0: CWLS Log ASCII Standard - VERSION 2.0
 WRAP.                       NO: One line per depth step
 ~Well Information Block
 STRT.FT               462.4000: 
 STOP.FT              2260.5000: 
 STEP.FT                 0.1000: 
 NULL.                -999.2500: 
 COMP.          Petrogulf Corporation: COMPANY
 WELL.             McLeod 9-42V: WELL
 FLD.           Purgatorie River: FIELD
 LOC.           1658' FNL & 415' FEL: LOCATION
 CNTY.               Las Animas: COUNTY
 SRVC.                         : SERVICE COMPANY
 DATE.          Fri Nov 12 10:12:24 2004: LOG DATE
 UWI.           05 071 08071 00: UNIQUE WELL ID
 STAT.                 Colorado: STATE
 PROV.                         :Province
 ~Curve Information Block
 DEPT.FT            0 000 00 00: Depth
 DCAL.in                       : CDL Caliper
 RHOB.g/cc                     : CDL Bulk Density
 RHOC.g/cc                     : CDL Density Correction
 DPOR.pu                       : CDL Density Porosity
 GR.GAPI                       : Gamma Ray
 NPOR.pu                       : Neutron Porosity
 ~Parameter Information Block
 ~A  Depth       DCAL        RHOB        RHOC        DPOR         GR         NPOR    
# ...
  1652.8000      7.9355      2.5889      0.1830      3.7007    100.3595     26.7900
  1652.9000      7.9355      2.5854      0.1276      3.9165    100.4651     26.3969
  1653.0000      7.9323      2.5796      0.1568      4.2685    101.1125     26.1610
  1653.1000      7.9323      2.5740      0.1805      4.6090    100.7008     25.9244
  1653.2000      7.9323      2.5631      0.1689      5.2665     98.8798     25.8091
  1653.3000      7.9394      2.5440      0.1130      6.4242     98.2451     26.1018
  1653.4000      7.9394      2.5293      0.0430      7.3134     99.0451     26.5221
  1653.5000      7.9426      2.5370      0.0990      6.8479    100.0291     26.6208
  1653.6000      7.9426      2.5644      0.0820      5.1863    101.2745     26.4248
  1653.7000      7.9426      2.5884      0.1492      3.7313    102.2300     26.0242
  1653.8000      7.9416      2.5893      0.1140      3.6761    101.7518     25.5487
  1653.9000      7.9416      2.5716      0.0868      4.7496    100.9152     25.2606
  1654.0000      7.9320      2.5502      0.0923      6.0490    100.7446     25.1914
  1654.1000      7.9320      2.5381      0.0510      6.7798    100.3930     25.1166
  1654.2000      7.9320      2.5357      0.1133      6.9274     99.7996     24.9785
  1654.3000      7.9304      2.5284      0.0372      7.3698     99.2512     24.8965
  1654.4000      7.9304      2.5179      0.0162      8.0065     99.5145     24.9773
  1654.5000      7.9294      2.5211     -0.0001      7.8095    100.9347     25.3029
  1654.6000      7.9294      2.5364      0.0639      6.8833    103.4300     25.9653
  1654.7000      7.9294      2.5454      0.0368      6.3389    105.1138     26.8275
  1654.8000      7.9382      2.5437      0.0591      6.4415    103.7062     27.2172
  1654.9000      7.9382      2.5438      0.0268      6.4366    102.0603     26.9507
  1655.0000      7.9431      2.5599      0.0610      5.4620    103.5136     26.6087
  1655.1000      7.9431      2.5883      0.0827      3.7374    106.6637     26.3753
  1655.2000      7.9431      2.6047      0.0794      2.7447    109.1175     26.2312
  1655.3000      7.9418      2.5920      0.0127      3.5150    110.5281     26.3363
  1655.4000      7.9418      2.5611     -0.0174      5.3892    112.5126     26.6103
  1655.5000      7.9602      2.5333      0.0242      7.0753    114.1922     27.0248
  1655.6000      7.9602      2.5177     -0.0106      8.0181    113.0292     27.4092
  1655.7000      7.9602      2.5164     -0.0120      8.0953    110.7803     27.0199
  1655.8000      7.9762      2.5235      0.0236      7.6656    109.3997     25.8241
  1655.9000      7.9762      2.5292      0.0070      7.3183    109.7635     25.0920
  1656.0000      8.0348      2.5270      0.0241      7.4555    112.6846     25.5401
  1656.1000      8.0348      2.5088      0.0258      8.5553    114.7634     26.3229
  1656.2000      8.0348      2.4794      0.0055     10.3391    114.4780     26.4213
  1656.3000      8.0629      2.4636     -0.0419     11.2956    114.3937     25.7836
  1656.4000      8.0629      2.4791     -0.0011     10.3561    114.5555     25.1168
  1656.5000      7.9654      2.5137      0.0532      8.2597    115.1659     25.0150
  1656.6000      7.9654      2.5447      0.0569      6.3790    117.3682     25.4880
  1656.7000      7.9654      2.5578      0.1107      5.5864    120.8386     26.4540
  1656.8000      7.9125      2.5491      0.0891      6.1134    125.2690     27.6092
  1656.9000      7.9125      2.5295      0.1095      7.3058    128.4521     28.4317
  1657.0000      7.9134      2.5063      0.0858      8.7114    129.4415     28.6912
  1657.1000      7.9134      2.4790      0.0484     10.3658    131.2488     28.4848
  1657.2000      7.9134      2.4556      0.0185     11.7831    134.6539     28.1204
  1657.3000      7.9404      2.4486      0.0035     12.2089    137.4668     27.7393
  1657.4000      7.9404      2.4602      0.0087     11.5050    137.3058     27.0502
  1657.5000      8.0116      2.4801     -0.0084     10.2973    133.4787     25.8768
  1657.6000      8.0116      2.4949     -0.0090      9.4007    129.4645     24.6962
  1657.7000      8.0116      2.5039      0.0177      8.8563    125.9195     23.8366
  1657.8000      7.9582      2.5155      0.0152      8.1509    120.2269     23.0264
  1657.9000      7.9582      2.5233      0.0769      7.6772    113.1371     22.1675
  1658.0000      7.9401      2.5188      0.0503      7.9489    106.1463     21.6590
  1658.1000      7.9401      2.5186      0.0199      7.9667    100.6403     21.8235
  1658.2000      7.9401      2.5320      0.0822      7.1495     96.9514     22.6200
  1658.3000      7.9374      2.5429      0.0800      6.4889     95.3557     23.6872
  1658.4000      7.9374      2.5362      0.0871      6.8969     96.3550     24.4228
  1658.5000      7.9270      2.5090      0.0814      8.5471     97.8245     24.4123
  1658.6000      7.9270      2.4806     -0.0007     10.2693    110.0392     23.9467
  1658.7000      7.9270      2.4816      0.0139     10.2056    108.1044     23.7139
  1658.8000      7.9290      2.5075      0.0678      8.6341    105.4730     23.9023
  1658.9000      7.9290      2.5247      0.0608      7.5937    104.3834     24.0536
  1659.0000      7.9374      2.5279      0.0885      7.4016    105.5834     23.8557
  1659.1000      7.9374      2.5452      0.0288      6.3501    107.7323     23.5611
  1659.2000      7.9374      2.5832      0.0961      4.0472    109.0046     23.5504
  1659.3000      7.9285      2.6084      0.1307      2.5212    107.2230     23.7854
  1659.4000      7.9285      2.6015      0.0737      2.9405    102.3880     23.9711
  1659.5000      7.9313      2.5867      0.0460      3.8388     97.5235     24.0599
  1659.6000      7.9313      2.5924      0.0318      3.4890    103.7569     24.1689
  1659.7000      7.9313      2.6133      0.1112      2.2212     98.4879     24.1699
  1659.8000      7.9416      2.6227      0.0765      1.6546     93.8703     23.9414
  1659.9000      7.9416      2.6123      0.0220      2.2838     91.9192     23.7831
  1660.0000      7.9699      2.5945      0.0248      3.3666     92.7376     23.8299
  1660.1000      7.9699      2.5813      0.0003      4.1666     94.1615     23.8633
  1660.2000      7.9699      2.5820      0.0106      4.1234     92.4947     23.5940
  1660.3000      8.0419      2.5929      0.0630      3.4592     89.1533     23.0142
  1660.4000      8.0419      2.5984      0.0454      3.1255     87.4323     22.5938
  1660.5000      8.0611      2.5987     -0.0287      3.1076     86.2627     22.5056
  1660.6000      8.0611      2.5987      0.0429      3.1093     92.1680     22.5077
  1660.7000      8.0611      2.5851     -0.0043      3.9308     87.3737     22.5400
  1660.8000      8.0409      2.5594     -0.0397      5.4896     80.7145     22.4654
  1660.9000      8.0409      2.5397     -0.0244      6.6861     74.0023     22.2823
  1661.0000      7.9699      2.5310     -0.0107      7.2095     68.4448     22.3199
  1661.1000      7.9699      2.5250     -0.0072      7.5769     64.7022     22.5673
  1661.2000      7.9699      2.5145      0.0190      8.2139     63.4564     22.4732
  1661.3000      7.9430      2.5030     -0.0100      8.9087     62.5798     22.0010
  1661.4000      7.9430      2.4971      0.0082      9.2689     59.7910     21.8605
  1661.5000      7.9346      2.4912      0.0414      9.6234     56.4804     21.9525
  1661.6000      7.9346      2.4764      0.0215     10.5208     58.8081     21.6368
  1661.7000      7.9346      2.4570      0.0314     11.6982     56.0563     21.0984
  1661.8000      7.9355      2.4443      0.0161     12.4639     53.9042     20.5358
  1661.9000      7.9355      2.4401      0.0384     12.7183     51.6752     19.7866
  1662.0000      7.9338      2.4361      0.0066     12.9622     47.4148     18.9540
  1662.1000      7.9338      2.4273      0.0431     13.4999     43.3836     18.2933
  1662.2000      7.9338      2.4197      0.0356     13.9596     42.7035     18.0397
  1662.3000      7.9340      2.4172      0.0566     14.1081     43.5210     18.0445
