~Version Information
VERS.                      2.0: CWLS Log ASCII Standard - VERSION 2.0
WRAP.                       NO: One line per depth step
~Well Information Block
STRT.FT               472.0000: 
STOP.FT              2430.5000: 
STEP.FT                 0.2500: 
NULL.                -999.2500: 
COMP.          Pioneer Natural Resources: COMPANY
WELL.          Flying Horse 12-11: WELL
FLD.           Purgatoire River: FIELD
LOC.           2428' FNL & 308' FWL: LOCATION
PROV.                 Colorado: PROVINCE
CNTY.               Las Animas: COUNTRY
SRVC.                Patterson: SERVICE COMPANY
DATE.          Sun May 29 11:58:35 2005: LOG DATE
UWI.           05 071 08378 00: UNIQUE WELL ID
~Curve Information Block
DEPT.FT            0 000 00 00: Depth
SN.Ohm-m                      : IEL Short Normal
SP.mV                         : IEL Spontaneous Potential
DIR.Ohm-m                     : IEL Induction Resistivity
GR.GAPI                       : Gamma Ray
~Parameter Information Block
~A  Depth        SN          SP         DIR          GR     
# ...
   840.5000   2000.0000   2000.0000     39.6615     80.3600
   840.7500   2000.0000   2000.0000     41.9778     77.6050
   841.0000   2000.0000   2000.0000     44.0895     73.8367
   841.2500   2000.0000   2000.0000     46.0597     71.8150
   841.5000   2000.0000   2000.0000     48.0218     69.7060
   841.7500   2000.0000   2000.0000     50.0941     68.8301
   842.0000   2000.0000   2000.0000     52.3371     67.8859
   842.2500   2000.0000   2000.0000     54.7427     67.2259
   842.5000   2000.0000   2000.0000     57.1825     66.0025
   842.7500   2000.0000   2000.0000     59.3302     65.1570
   843.0000   2000.0000   2000.0000     60.6789     64.1749
   843.2500   2000.0000   2000.0000     60.7580     63.8146
   843.5000   2000.0000   2000.0000     59.4098     63.8756
   843.7500   2000.0000   2000.0000     56.8722     64.5529
   844.0000   2000.0000   2000.0000     53.6167     67.0941
   844.2500   2000.0000   2000.0000     50.1351     70.1088
   844.5000   2000.0000   2000.0000     46.8135     77.0329
   844.7500   2000.0000   2000.0000     43.8932     83.2990
   845.0000   2000.0000   2000.0000     41.4684     94.3038
   845.2500   2000.0000   2000.0000     39.5102    101.6295
   845.5000   2000.0000   2000.0000     37.9006    110.8116
   845.7500   2000.0000   2000.0000     36.4872    115.3193
   846.0000   2000.0000   2000.0000     35.1474    120.0754
   846.2500   2000.0000   2000.0000     33.8337    122.4291
   846.5000   2000.0000   2000.0000     32.5695    125.4379
   846.7500   2000.0000   2000.0000     31.4025    127.1452
   847.0000   2000.0000   2000.0000     30.3599    128.5624
   847.2500   2000.0000   2000.0000     29.4351    128.1759
   847.5000   2000.0000   2000.0000     28.5983    125.5037
   847.7500   2000.0000   2000.0000     27.8153    123.1640
   848.0000   2000.0000   2000.0000     27.0617    121.1443
   848.2500   2000.0000   2000.0000     26.3355    121.8570
   848.5000   2000.0000   2000.0000     25.6611    126.2824
   848.7500   2000.0000   2000.0000     25.0838    130.8212
   849.0000   2000.0000   2000.0000     24.6521    138.5504
   849.2500   2000.0000   2000.0000     24.3983    143.6068
   849.5000   2000.0000   2000.0000     24.3208    149.7848
   849.7500   2000.0000   2000.0000     24.3777    151.9933
   850.0000   2000.0000   2000.0000     24.4969    150.9815
   850.2500   2000.0000   2000.0000     24.6034    147.3157
   850.5000   2000.0000   2000.0000     24.6519    138.7226
   850.7500   2000.0000   2000.0000     24.6417    132.1239
   851.0000   2000.0000   2000.0000     24.6028    122.3599
   851.2500   2000.0000   2000.0000     24.5706    116.2755
   851.5000   2000.0000   2000.0000     24.5733    108.1678
   851.7500   2000.0000   2000.0000     24.6387    103.8456
   852.0000   2000.0000   2000.0000     24.8046     99.6336
   852.2500   2000.0000   2000.0000     25.1099     98.2984
   852.5000   2000.0000   2000.0000     25.5589     97.7484
   852.7500   2000.0000   2000.0000     26.0839     97.9966
   853.0000   2000.0000   2000.0000     26.5332     99.4276
   853.2500   2000.0000   2000.0000     26.7222    101.2925
   853.5000   2000.0000   2000.0000     26.5291    105.0713
   853.7500   2000.0000   2000.0000     25.9612    107.6274
   854.0000   2000.0000   2000.0000     25.1315    110.8973
   854.2500   2000.0000   2000.0000     24.1875    112.9506
   854.5000   2000.0000   2000.0000     23.2642    116.6674
   854.7500   2000.0000   2000.0000     22.4711    119.7368
   855.0000   2000.0000   2000.0000     21.8800    124.7672
   855.2500   2000.0000   2000.0000     21.5049    127.9269
   855.5000   2000.0000   2000.0000     21.2967    131.5844
   855.7500   2000.0000   2000.0000     21.1677    132.8877
   856.0000   2000.0000   2000.0000     21.0352    132.4107
   856.2500   2000.0000   2000.0000     20.8542    130.0691
   856.5000   2000.0000   2000.0000     20.6180    123.5168
   856.7500   2000.0000   2000.0000     20.3436    117.9555
   857.0000   2000.0000   2000.0000     20.0590    110.5446
   857.2500   2000.0000   2000.0000     19.8013    107.7634
   857.5000   2000.0000   2000.0000     19.6139    107.6777
   857.7500   2000.0000   2000.0000     19.5359    109.5798
   858.0000   2000.0000   2000.0000     19.5884    113.0249
   858.2500   2000.0000   2000.0000     19.7680    114.4637
   858.5000   2000.0000   2000.0000     20.0499    114.0121
   858.7500   2000.0000   2000.0000     20.4005    111.7862
   859.0000   2000.0000   2000.0000     20.7882    106.3374
   859.2500   2000.0000   2000.0000     21.1844    102.2187
   859.5000   2000.0000   2000.0000     21.5579     96.8987
   859.7500   2000.0000   2000.0000     21.8770     94.5191
   860.0000   2000.0000   2000.0000     22.1216     93.0359
   860.2500   2000.0000   2000.0000     22.2960     93.3013
   860.5000   2000.0000   2000.0000     22.4279     95.0041
   860.7500   2000.0000   2000.0000     22.5513     96.7415
   861.0000   2000.0000   2000.0000     22.6914    100.3087
   861.2500   2000.0000   2000.0000     22.8626    103.5285
   861.5000   2000.0000   2000.0000     23.0761    109.6164
   861.7500   2000.0000   2000.0000     23.3399    114.2078
   862.0000   2000.0000   2000.0000     23.6517    121.3112
   862.2500   2000.0000   2000.0000     23.9853    125.9718
   862.5000   2000.0000   2000.0000     24.2842    132.1880
   862.7500   2000.0000   2000.0000     24.4786    135.0078
   863.0000   2000.0000   2000.0000     24.5310    135.8698
   863.2500   2000.0000   2000.0000     24.4841    134.1234
   863.5000   2000.0000   2000.0000     24.4581    129.4470
   863.7500   2000.0000   2000.0000     24.5868    126.0782
   864.0000   2000.0000   2000.0000     24.9441    121.7365
   864.2500   2000.0000   2000.0000     25.5143    119.2839
   864.5000   2000.0000   2000.0000     26.2250    115.7204
   864.7500   2000.0000   2000.0000     27.0124    113.2533
   865.0000   2000.0000   2000.0000     27.8667    109.5418
   865.2500   2000.0000   2000.0000     28.8202    107.2203
   865.5000   2000.0000   2000.0000     29.8919    104.3044
   865.7500   2000.0000   2000.0000     31.0349    103.0739
   866.0000   2000.0000   2000.0000     32.1185    102.8384
   866.2500   2000.0000   2000.0000     32.9571    103.6091
   866.5000   2000.0000   2000.0000     33.3770    104.8168
   866.7500   2000.0000   2000.0000     33.2903    104.8202
   867.0000   2000.0000   2000.0000     32.7408    103.6235
   867.2500   2000.0000   2000.0000     31.8866    103.0034
   867.5000   2000.0000   2000.0000     30.9330    104.3593
   867.7500   2000.0000   2000.0000     30.0603    107.3864
   868.0000   2000.0000   2000.0000     29.3818    114.7261
   868.2500   2000.0000   2000.0000     28.9340    120.5728
   868.5000   2000.0000   2000.0000     28.6840    128.4837
   868.7500   2000.0000   2000.0000     28.5512    131.8879
   869.0000   2000.0000   2000.0000     28.4424    132.9917
   869.2500   2000.0000   2000.0000     28.2930    131.1663
   869.5000   2000.0000   2000.0000     28.0888    125.8612
   869.7500   2000.0000   2000.0000     27.8530    121.6419
   870.0000   2000.0000   2000.0000     27.6127    115.7158
   870.2500   2000.0000   2000.0000     27.3795    112.3382
   870.5000   2000.0000   2000.0000     27.1579    107.9143
   870.7500   2000.0000   2000.0000     26.9697    105.2790
   871.0000   2000.0000   2000.0000     26.8658    102.2888
   871.2500   2000.0000   2000.0000     26.9139    101.5882
   871.5000   2000.0000   2000.0000     27.1738    103.4574
   871.7500   2000.0000   2000.0000     27.6780    106.6563
   872.0000   2000.0000   2000.0000     28.4269    113.0911
   872.2500   2000.0000   2000.0000     29.3948    117.2618
   872.5000   2000.0000   2000.0000     30.5402    121.5885
   872.7500   2000.0000   2000.0000     31.8170    122.7112
   873.0000   2000.0000   2000.0000     33.1801    121.5486
   873.2500   2000.0000   2000.0000     34.5839    118.7831
   873.5000   2000.0000   2000.0000     35.9869    111.7253
   873.7500   2000.0000   2000.0000     37.3684    105.6462
