~Version Information
VERS.                      2.0: CWLS Log ASCII Standard - VERSION 2.0
WRAP.                       NO: One line per depth step
~Well Information Block
STRT.FT               506.1000: 
STOP.FT              2140.0000: 
STEP.FT                 0.1000: 
NULL.                -999.2500: 
COMP.          Petrogulf Corporation: COMPANY
WELL.            Montoya 1-44R: WELL
FLD.           Purgatorie River: FIELD
LOC.           658' FSL & 1052' FWL: LOCATION
CNTY.               Las Animas: COUNTY
SRVC.                         : SERVICE COMPANY
DATE.          Tue Nov 16 04:33:40 2004: LOG DATE
UWI.           05 071 08239 00: UNIQUE WELL ID
STAT.                 Colorado: STATE
~Curve Information Block
DEPT.FT            0 000 00 00: Depth
DCAL.in                       : CDL Caliper
RHOB.g/cc                     : CDL Bulk Density
RHOC.g/cc                     : CDL Density Correction
DPOR.pu                       : CDL Density Porosity
GR.GAPI                       : Gamma Ray
NPOR.pu                       : Neutron Porosity
~Parameter Information Block
~A  Depth       DCAL        RHOB        RHOC        DPOR         GR         NPOR    
# ...
   986.1000      8.0643      2.5346      0.1166      6.9917    116.8940     25.7819
   986.2000      8.0643      2.5312      0.0946      7.2024    115.9592     24.3593
   986.3000      8.0530      2.5217      0.0555      7.7783    112.6075     23.0492
   986.4000      8.0530      2.5270      0.0509      7.4553    106.4760     22.4979
   986.5000      8.0368      2.5433      0.1137      6.4655    102.1116     22.8556
   986.6000      8.0368      2.5499      0.0862      6.0694     99.0427     23.5070
   986.7000      8.0368      2.5443      0.0463      6.4074     95.8455     23.5663
   986.8000      8.0316      2.5382      0.0809      6.7765     96.3133     23.1516
   986.9000      8.0316      2.5346      0.0499      6.9916     99.1073     23.1646
   987.0000      8.0377      2.5379      0.0389      6.7942     99.8064     23.6050
   987.1000      8.0377      2.5455      0.0981      6.3315     99.5207     23.5682
   987.2000      8.0377      2.5415      0.0773      6.5779    101.2347     23.3332
   987.3000      8.0373      2.5245      0.0379      7.6062    104.8904     23.9409
   987.4000      8.0373      2.5146      0.0897      8.2051    109.2599     25.1012
   987.5000      8.0296      2.5324      0.0583      7.1293    113.8171     25.6395
   987.6000      8.0296      2.5846      0.0682      3.9614    117.4347     25.1810
   987.7000      8.0296      2.6625      0.0792     -0.7583    117.9928     24.3394
   987.8000      8.0222      2.7448      0.1140     -5.7431    114.0265     23.9442
   987.9000      8.0222      2.8049      0.1674     -9.3859    107.8630     24.1531
   988.0000      8.0246      2.8386      0.1336    -11.4291    103.2213     24.6379
   988.1000      8.0246      2.8654      0.1052    -13.0552    101.3150     25.1534
   988.2000      8.0246      2.8855      0.1253    -14.2701     99.3445     25.7539
   988.3000      8.0303      2.8815      0.1025    -14.0304     95.0638     26.2942
   988.4000      8.0303      2.8556      0.0657    -12.4623     90.9046     26.3155
   988.5000      8.0345      2.8199      0.0210    -10.2952     89.5806     26.0817
   988.6000      8.0345      2.7730      0.0326     -7.4519     90.3465     25.9796
   988.7000      8.0345      2.7108      0.0394     -3.6839     92.3929     26.0922
   988.8000      8.0473      2.6507     -0.0156     -0.0423     95.1106     26.6225
   988.9000      8.0473      2.6204     -0.0062      1.7922     96.8354     27.2453
   989.0000      8.0723      2.6198     -0.0282      1.8281     99.2395     27.2014
   989.1000      8.0723      2.6216      0.0289      1.7187    115.2693     26.6949
   989.2000      8.0723      2.6119     -0.0044      2.3118    122.2499     26.8595
   989.3000      8.1105      2.6012      0.0083      2.9599    124.6994     27.9267
   989.4000      8.1105      2.5940      0.0027      3.3929    123.6184     28.7373
   989.5000      8.1514      2.5862      0.0149      3.8681    125.2411     28.2696
   989.6000      8.1514      2.5810      0.0321      4.1796    131.8511     27.2553
   989.7000      8.1514      2.5788      0.0452      4.3176    139.0243     26.7164
   989.8000      8.1739      2.5743      0.0291      4.5899    143.8563     26.0687
   989.9000      8.1739      2.5695      0.0695      4.8780    145.5845     24.9979
   990.0000      8.1698      2.5650      0.0426      5.1493    141.6293     24.6591
   990.1000      8.1698      2.5569      0.0394      5.6453    147.7574     25.7250
   990.2000      8.1698      2.5421      0.0109      6.5368    145.8324     27.0383
   990.3000      8.1563      2.5207      0.0229      7.8344    146.4640     27.4432
   990.4000      8.1563      2.5000     -0.0434      9.0935    147.4634     27.2543
   990.5000      8.1523      2.4909     -0.0244      9.6439    150.4112     26.7368
   990.6000      8.1523      2.4919     -0.0020      9.5820    151.3147     25.9908
   990.7000      8.1523      2.4904      0.0675      9.6700    151.0676     25.9785
   990.8000      8.1609      2.4797      0.0672     10.3194    155.7374     27.4137
   990.9000      8.1609      2.4642      0.0727     11.2620    164.3553     29.3470
   991.0000      8.1736      2.4523      0.0635     11.9794    172.3444     30.1106
   991.1000      8.1736      2.4531      0.0482     11.9342    175.7095     29.5590
   991.2000      8.1736      2.4657      0.1095     11.1698    172.7117     28.9726
   991.3000      8.1767      2.4808      0.0691     10.2569    167.1311     29.4727
   991.4000      8.1767      2.4942      0.0956      9.4395    162.9410     30.7525
   991.5000      8.1709      2.5072      0.0493      8.6545    162.3784     30.9814
   991.6000      8.1709      2.5272      0.0659      7.4432    164.8432     29.4304
   991.7000      8.1709      2.5518      0.1802      5.9543    166.2820     27.9448
   991.8000      8.1730      2.5590      0.1992      5.5181    166.7225     27.6684
   991.9000      8.1730      2.5314      0.1842      7.1876    167.0379     27.7896
   992.0000      8.1850      2.4746      0.0855     10.6304    167.1982     27.7791
   992.1000      8.1850      2.4009      0.0580     15.0997    169.8269     27.3473
   992.2000      8.1850      2.3066      0.0126     20.8136    171.4780     26.2679
   992.3000      8.2109      2.1936     -0.0366     27.6628    161.6150     25.7859
   992.4000      8.2109      2.0849     -0.0685     34.2459    142.9036     26.9608
   992.5000      8.2561      1.9914     -0.0858     39.9131    130.1305     28.7944
   992.6000      8.2561      1.8867     -0.0656     46.2580    127.1656     30.1996
   992.7000      8.2561      1.7479     -0.1183     54.6733    126.1148     31.1847
   992.8000      8.3059      1.6059     -0.1384     63.2814    121.8564     31.8555
   992.9000      8.3059      1.5104     -0.1021     69.0655    115.3140     32.4327
   993.0000      8.3727      1.4646     -0.0537     71.8443    105.8436     33.0500
   993.1000      8.3727      1.4330     -0.0091     73.7576     93.3254     33.5786
   993.2000      8.3727      1.3987     -0.0356     75.8373     83.6221     34.0439
   993.3000      8.4812      1.3740      0.0325     77.3337     77.6422     34.2756
   993.4000      8.4812      1.3629      0.0370     78.0040     69.9579     34.3145
   993.5000      8.6232      1.3564      0.0334     78.3980     61.1355     34.2564
   993.6000      8.6232      1.3543      0.0135     78.5263     56.3625     34.2764
   993.7000      8.6232      1.3600      0.0477     78.1796     55.2284     34.8773
   993.8000      8.8134      1.3659      0.0312     77.8252     53.7338     35.7409
   993.9000      8.8134      1.3672     -0.0003     77.7445     53.6488     36.1955
   994.0000      9.0467      1.3775     -0.0404     77.1222     56.5330     36.2419
   994.1000      9.0467      1.4125      0.0693     75.0028     58.0970     36.1748
   994.2000      9.0467      1.4758      0.0702     71.1658     58.9115     36.4583
   994.3000      9.2041      1.5672      0.0912     65.6260     63.9668     36.8957
   994.4000      9.2041      1.6755      0.1325     59.0606     72.6689     36.6100
   994.5000      9.1060      1.7847      0.1344     52.4439     79.4860     35.8443
   994.6000      9.1060      1.8977      0.1167     45.5943     80.9156     35.4294
   994.7000      9.1060      2.0203      0.1958     38.1624     80.2291     35.1343
   994.8000      8.8156      2.1407      0.1956     30.8670     81.7272     34.1787
   994.9000      8.8156      2.2525      0.1851     24.0924     85.8125     32.5757
   995.0000      8.5392      2.3631      0.2000     17.3909     93.6222     31.4192
   995.1000      8.5392      2.4632      0.2254     11.3209    106.8655     31.1823
   995.2000      8.5392      2.5224      0.1877      7.7341    122.3509     31.1858
   995.3000      8.3620      2.5372      0.0755      6.8373    135.1625     31.1363
   995.4000      8.3620      2.5441      0.0632      6.4156    142.2704     30.8988
   995.5000      8.2870      2.5621      0.0532      5.3267    141.8902     29.9327
   995.6000      8.2870      2.5750      0.0951      4.5438    138.1131     28.5789
