~Version Information
VERS.                      2.0: CWLS Log ASCII Standard - VERSION 2.0
WRAP.                       NO: One line per depth step
~Well Information Block
STRT.FT                -6.7500: 
STOP.FT              1766.5000: 
STEP.FT                 0.2500: 
NULL.                -999.2500: 
COMP.          Pioneer Natural Resources: COMPANY
WELL.            Hill 33-22 Tr: WELL
FLD.           Purgatorie River: FIELD
LOC.           1573' FSL & 1585' FEL: LOCATION
PROV.                 Colorado: PROVINCE
CNTY.               Las Animas: COUNTRY
SRVC.          Patterson Wireline: SERVICE COMPANY
DATE.          Tue Apr 19 09:26:19 2005: LOG DATE
UWI.           05-071-08316-00: UNIQUE WELL ID
~Curve Information Block
DEPT.FT            0 000 00 00: Depth
CCL.                          : Casing Collar Locator
TT3.usec                      : CBL 3' Travel Time
AMP3.mV                       : CBL 3' Amplitude
GR.GAPI                       : Gamma Ray
~Parameter Information Block
~A  Depth       CCL         TT3         AMP3         GR     
# ...
   562.7500      0.0000    866.2731      8.3527     56.1582
   563.0000      0.0000    831.1689      8.3847     60.3772
   563.2500      0.0000    802.0288      8.3704     64.8104
   563.5000      0.0000    781.8177      8.3064     68.7820
   563.7500      0.0000    770.5826      8.1955     72.9146
   564.0000      0.0000    765.7902      8.0582     78.0234
   564.2500      0.0000    764.5052      7.9305     83.7018
   564.5000      0.0000    765.2070      7.8465     88.2355
   564.7500      0.0000    768.2396      7.8245     89.7821
   565.0000      0.0000    775.1550      7.8639     87.8332
   565.2500      0.0000    787.2455      7.9454     83.9150
   565.5000      0.0000    804.2111      8.0342     80.6608
   565.7500      0.0000    824.4427      8.0927     79.7355
   566.0000      0.0000    845.8394      8.1024     80.5177
   566.2500      0.0000    864.8278      8.0737     80.7030
   566.5000      0.0000    876.3030      8.0327     78.1510
   566.7500      0.0000    878.4102      7.9990     72.4850
   567.0000      0.0000    876.6692      7.9791     65.3485
   567.2500      0.0000    878.7443      7.9736     59.2246
   567.5000      0.0000    885.0064      7.9838     55.8347
   567.7500      0.0000    888.0943      8.0105     55.3650
   568.0000      0.0000    882.6266      8.0470     56.8312
   568.2500      0.0000    873.1080      8.0741     58.9877
   568.5000      0.0000    870.1312      8.0639     61.0864
   568.7500      0.0000    877.7875      7.9980     63.0043
   569.0000      0.0000    886.4523      7.8872     64.6485
   569.2500      0.0000    881.2562      7.7730     65.3324
   569.5000      0.0000    857.4662      7.7021     64.1323
   569.7500      0.0000    824.7723      7.6934     60.9715
   570.0000      0.0000    797.6232      7.7280     56.9067
   570.2500      0.0000    785.1931      7.7736     53.1366
   570.5000      0.0000    789.8806      7.8121     50.1895
   570.7500      0.0000    809.1645      7.8440     48.2702
   571.0000      0.0000    834.9174      7.8735     47.8556
   571.2500      0.0000    853.9227      7.9002     49.4460
   571.5000      0.0000    855.6297      7.9224     52.8506
   571.7500      0.0000    841.8649      7.9391     57.1380
   572.0000      0.0000    826.8604      7.9449     61.4754
   572.2500      0.0000    826.4133      7.9307     65.7675
   572.5000      0.0000    846.9191      7.8901     70.0063
   572.7500      0.0000    882.5508      7.8214     73.2375
   573.0000      0.0000    920.8348      7.7245     74.0250
   573.2500      0.0000    953.1891      7.6052     72.0919
   573.5000      0.0000    981.8391      7.4854     68.9044
   573.7500      0.0000   1013.2646      7.3971     66.5270
   574.0000      0.0000   1042.8776      7.3558     66.1441
   574.2500      0.0000   1051.9108      7.3438     67.4754
   574.5000      0.0000   1025.3510      7.3228     69.3239
   574.7500      0.0000    970.8034      7.2603     70.8123
   575.0000      0.0000    915.8784      7.1451     72.1662
   575.2500      0.0000    887.7903      6.9874     74.1031
   575.5000      0.0000    895.1887      6.8117     76.6173
   575.7500      0.0000    925.1412      6.6472     78.8434
   576.0000      0.0000    954.9207      6.5169     79.8900
   576.2500      0.0000    968.5663      6.4262     79.1837
   576.5000      0.0000    964.8821      6.3626     76.3265
   576.7500      0.0000    951.0284      6.3119     71.5706
   577.0000      0.0000    930.8454      6.2759     66.2739
   577.2500      0.0000    902.5544      6.2680     62.1929
   577.5000      0.0000    866.7228      6.2883     60.3986
   577.7500      0.0000    831.2617      6.3099     60.8994
   578.0000      0.0000    806.7945      6.2942     62.6922
   578.2500      0.0000    799.4797      6.2217     64.2467
   578.5000      0.0000    807.6135      6.1171     64.6923
   578.7500      0.0000    822.2324      6.0505     64.5409
   579.0000      0.0000    833.0803      6.1034     64.8708
   579.2500      0.0000    840.4189      6.2924     66.1726
   579.5000      0.0000    862.5151      6.4947     68.2609
   579.7500      0.0000    925.1224      6.4850     70.7338
   580.0000      0.0000   1036.9807      6.1253     73.1580
   580.2500      0.0000   1175.6244      5.5237     75.1118
   580.5000      0.0000   1300.9155      4.9548     76.2437
   580.7500      0.0000   1382.5675      4.6212     76.3440
   581.0000      0.0000   1414.5436      4.5303     75.6605
   581.2500      0.0000   1409.8328      4.5797     75.2914
   581.5000     -5.0000   1388.2729      4.7011     76.7859
   581.7500      0.0000   1364.2555      4.9361     80.6864
   582.0000      0.0000   1336.1027      5.4153     85.4705
   582.2500      0.0000   1287.8568      6.2413     88.6061
   582.5000      0.0000   1208.9045      7.3251     88.8779
   582.7500      0.0000   1112.7532      8.3535     87.3133
   583.0000      0.0000   1031.1226      8.9941     85.9265
   583.2500      0.0000    987.7787      9.1419     86.0449
   583.5000      0.0000    979.6041      8.9394     87.6522
   583.7500      0.0000    982.6514      8.6045     89.6102
   584.0000      0.0000    973.7684      8.2889     90.3280
   584.2500      0.0000    945.0924      8.0550     88.6525
   584.5000      0.0000    902.4871      7.9086     84.5075
   584.7500      0.0000    857.8246      7.8276     78.7825
   585.0000      0.0000    823.9100      7.7787     72.6554
   585.2500      0.0000    810.5640      7.7323     67.1141
   585.5000      0.0000    820.3023      7.6732     63.0228
   585.7500      0.0000    846.0407      7.6003     61.1394
   586.0000      0.0000    873.6056      7.5134     61.6671
   586.2500      0.0000    889.0504      7.4045     63.9079
   586.5000      0.0000    885.6535      7.2656     66.7471
   586.7500      0.0000    865.4301      7.1030     69.5794
   587.0000      0.0000    836.0303      6.9355     72.5035
   587.2500      0.0000    806.7824      6.7774     75.5120
   587.5000      0.0000    784.7122      6.6267     77.8800
   587.7500      0.0000    771.8431      6.4733     78.6414
   588.0000      0.0000    765.9904      6.3149     77.4864
   588.2500      0.0000    763.8329      6.1606     74.9796
   588.5000      0.0000    763.0874      6.0215     71.9966
   588.7500      0.0000    762.7622      5.9045     69.0189
   589.0000      0.0000    762.5819      5.8155     65.9756
   589.2500      0.0000    762.5360      5.7628     62.7865
   589.5000      0.0000    762.6362      5.7577     59.9581
   589.7500      0.0000    762.8521      5.8082     58.4436
   590.0000      0.0000    763.0967      5.9068     58.8751
   590.2500      0.0000    763.3006      6.0254     60.9857
   590.5000      0.0000    763.4697      6.1317     63.6465
   590.7500      0.0000    763.6426      6.2116     65.3544
   591.0000      0.0000    763.8027      6.2751     65.1182
   591.2500      0.0000    763.8651      6.3422     63.3753
   591.5000      0.0000    763.7546      6.4272     61.9021
   591.7500      0.0000    763.4868      6.5378     62.4072
   592.0000      0.0000    763.1732      6.6804     65.1535
   592.2500      0.0000    762.9556      6.8583     68.9893
   592.5000      0.0000    762.9275      7.0630     72.3601
   592.7500      0.0000    763.0896      7.2740     74.1094
   593.0000      0.0000    763.3503      7.4706     73.8721
   593.2500      0.0000    763.5738      7.6424     72.2174
   593.5000      0.0000    763.6630      7.7917     70.1951
   593.7500      0.0000    763.6249      7.9299     68.3691
   594.0000      0.0000    763.5602      8.0707     66.3097
   594.2500      0.0000    763.6165      8.2197     63.1531
   594.5000      0.0000    764.0154      8.3660     58.6294
   594.7500      0.0000    765.2051      8.4888     53.4899
   595.0000      0.0000    767.9534      8.5748     48.9924
   595.2500      0.0000    773.0389      8.6327     46.1155
   595.5000      0.0000    780.4958      8.6858     45.3095
   595.7500      0.0000    789.1583      8.7514     46.6862
   596.0000      0.0000    797.3126      8.8262     49.9717
