~Version Information
VERS.                      2.0: CWLS Log ASCII Standard - VERSION 2.0
WRAP.                       NO: One line per depth step
~Well Information Block
STRT.FT                -2.2500: 
STOP.FT              1676.7500: 
STEP.FT                 0.2500: 
NULL.                -999.2500: 
COMP.          Pioneer Natural Resources: COMPANY
WELL.              Patten 22-2: WELL
FLD.           Purgatoire River: FIELD
LOC.           2157' FNL & 1528' FWL: LOCATION
PROV.                 Colorado: PROVINCE
CNTY.               Las Animas: COUNTRY
SRVC.                Patterson: SERVICE COMPANY
DATE.          Tue Dec 14 11:45:47 2004: LOG DATE
UWI.           05 071 08168 00: UNIQUE WELL ID
~Curve Information Block
DEPT.FT            0 000 00 00: Depth
GR.GAPI                       : Gamma Ray
CCL.                          : Casing Collar Locator
TT3.usec                      : CBL 3' Travel Time
AMP3.mV                       : CBL 3' Amplitude
~Parameter Information Block
~A  Depth        GR         CCL         TT3         AMP3    
# ...
  1304.2500    124.9055      0.0000    706.2054      6.5409
  1304.5000    124.9472      0.0000    702.0699      6.6195
  1304.7500    124.3800      0.0000    700.5626      6.7006
  1305.0000    123.0501      0.0000    700.1907      6.7666
  1305.2500    121.4150      0.0000    698.3804      6.7989
  1305.5000    120.1269      0.0000    694.2480      6.7894
  1305.7500    119.5759      0.0000    689.1688      6.7527
  1306.0000    119.7323      0.0000    685.0582      6.7238
  1306.2500    120.2918      0.0000    682.7646      6.7351
  1306.5000    120.9278      0.0000    681.9921      6.7930
  1306.7500    121.4512      0.0000    682.0688      6.8762
  1307.0000    121.8677      0.0000    682.4984      6.9527
  1307.2500    122.3678      0.0000    683.1039      7.0007
  1307.5000    123.1598      0.0000    684.0637      7.0220
  1307.7500    123.9991      0.0000    685.8400      7.0378
  1308.0000    123.8472      0.0000    688.7947      7.0683
  1308.2500    121.4253      0.0000    692.5902      7.1148
  1308.5000    116.3970      0.0000    695.9921      7.1589
  1308.7500    109.7617      0.0000    697.5332      7.1788
  1309.0000    102.9726      0.0000    696.5905      7.1690
  1309.2500     97.0480      0.0000    693.9897      7.1424
  1309.5000     92.7071      0.0000    691.6115      7.1166
  1309.7500     90.7343      0.0000    691.2393      7.1012
  1310.0000     91.5934      0.0000    693.5914      7.0973
  1310.2500     94.7309      0.0000    698.3415      7.1013
  1310.5000     98.6713      0.0000    704.8256      7.1059
  1310.7500    102.1007      0.0000    712.3317      7.1039
  1311.0000    104.8872      0.0000    719.6201      7.0948
  1311.2500    107.8212      0.0000    724.3646      7.0884
  1311.5000    111.3085      0.0000    723.4554      7.0957
  1311.7500    114.6591      0.0000    714.0546      7.1177
  1312.0000    116.7728      0.0000    694.7790      7.1429
  1312.2500    117.1851      0.0000    666.4873      7.1554
  1312.5000    116.3534      0.0000    632.2751      7.1436
  1312.7500    115.2597      0.0000    596.3344      7.1061
  1313.0000    114.9247      0.0000    562.7311      7.0506
  1313.2500    116.0902      0.0000    536.1229      6.9828
  1313.5000    118.9781      0.0000    522.9241      6.8905
  1313.7500    122.9910      0.0000    529.0051      6.7436
  1314.0000    126.6313      0.0000    554.6829      6.5240
  1314.2500    128.2347      0.0000    592.9011      6.2660
  1314.5000    127.2487      0.0000    633.4117      6.0550
  1314.7500    124.5513      0.0000    668.6610      5.9660
  1315.0000    121.3020      0.0000    695.6219      6.0069
  1315.2500    117.8353      0.0000    713.3386      6.1339
  1315.5000    113.8389      0.0000    720.7114      6.3028
  1315.7500    109.1755      0.0000    717.7870      6.4807
  1316.0000    104.1705      2.0000    708.7913      6.6314
  1316.2500     99.3732     -2.0000    701.8241      6.7215
  1316.5000     95.3768     -2.0000    703.2624      6.7367
  1316.7500     92.7879      0.0000    712.2457      6.6873
  1317.0000     92.1579      0.0000    722.1767      6.6082
  1317.2500     93.8502      0.0000    727.5457      6.5495
  1317.5000     97.8291      0.0000    727.4214      6.5440
  1317.7500    103.4797      0.0000    723.1274      6.5796
  1318.0000    109.7226      0.0000    715.7166      6.6199
  1318.2500    115.3955      0.0000    706.3502      6.6453
  1318.5000    119.5185      0.0000    696.9730      6.6594
  1318.7500    121.4447      0.0000    689.5005      6.6662
  1319.0000    121.3175      0.0000    684.7765      6.6614
  1319.2500    120.4174      0.0000    682.5058      6.6423
  1319.5000    120.4648      0.0000    681.8437      6.6154
  1319.7500    122.1743      0.0000    681.9821      6.5937
  1320.0000    124.7086      0.0000    682.3738      6.5879
  1320.2500    126.7227      0.0000    682.7150      6.6016
  1320.5000    127.4819      0.0000    682.8904      6.6298
  1320.7500    126.6775      0.0000    683.0042      6.6610
  1321.0000    123.8514      0.0000    683.4691      6.6823
  1321.2500    118.9033      0.0000    684.9824      6.6858
  1321.5000    112.9632      0.0000    688.0878      6.6720
  1321.7500    108.0120      0.0000    692.2582      6.6439
  1322.0000    105.4600      0.0000    695.0262      6.6034
  1322.2500    105.2177      0.0000    692.1090      6.5559
  1322.5000    105.8054      0.0000    678.8558      6.5164
  1322.7500    105.1949      0.0000    652.2437      6.5032
  1323.0000    102.2400      0.0000    612.4589      6.5247
  1323.2500     97.7731      0.0000    563.8860      6.5736
  1323.5000     94.0034      0.0000    514.8264      6.6320
  1323.7500     92.5291      0.0000    474.3825      6.6771
  1324.0000     92.9658      0.0000    447.6865      6.6890
  1324.2500     93.4996      0.0000    433.8645      6.6589
  1324.5000     92.7620      0.0000    428.4391      6.5961
  1324.7500     91.2774      0.0000    426.9883      6.5251
  1325.0000     90.9963      0.0000    426.9070      6.4742
  1325.2500     93.2788      0.0000    427.3710      6.4641
  1325.5000     97.4427      0.0000    429.1060      6.4984
  1325.7500    101.4485      0.0000    434.7175      6.5601
  1326.0000    103.5994      0.0000    448.8326      6.6149
  1326.2500    103.2014      0.0000    476.2669      6.6249
  1326.5000    100.2112      0.0000    517.7631      6.5682
  1326.7500     95.2720      0.0000    566.8452      6.4543
  1327.0000     90.0289      0.0000    612.3732      6.3217
  1327.2500     86.4204      0.0000    645.5472      6.2147
  1327.5000     85.1767      0.0000    664.5336      6.1521
  1327.7500     85.2972      0.0000    673.0118      6.1128
  1328.0000     85.1743      0.0000    675.7773      6.0511
  1328.2500     83.9599      0.0000    675.8635      5.9334
  1328.5000     81.7419      0.0000    674.1260      5.7707
  1328.7500     78.8869      0.0000    670.1788      5.6211
  1329.0000     75.7333      0.0000    663.8469      5.5480
  1329.2500     72.7697      0.0000    656.3887      5.5586
  1329.5000     70.4131      0.0000    650.2441      5.5978
  1329.7500     68.4089      0.0000    647.2297      5.6191
  1330.0000     65.9705      0.0000    647.3615      5.6399
  1330.2500     62.8796      0.0000    649.8298      5.7048
  1330.5000     60.1290      2.0000    654.5147      5.8165
  1330.7500     59.1794     -2.0000    661.8200      5.9272
  1331.0000     60.7103      0.0000    671.3099      5.9821
  1331.2500     64.2532      0.0000    681.1314      5.9595
  1331.5000     68.7824      0.0000    688.9147      5.8799
  1331.7500     73.2577      0.0000    693.5121      5.7831
  1332.0000     76.6450      0.0000    696.1259      5.6867
  1332.2500     77.9903      0.0000    699.1072      5.5748
  1332.5000     76.8787      0.0000    703.0076      5.4422
  1332.7500     73.7582      0.0000    705.5250      5.3269
  1333.0000     69.6696      0.0000    704.1482      5.2665
  1333.2500     65.6845      0.0000    699.4185      5.2393
  1333.5000     62.5077      0.0000    694.9448      5.1781
  1333.7500     60.2625      0.0000    694.5355      5.0341
  1334.0000     58.4772      0.0000    699.5487      4.8122
  1334.2500     56.5382      0.0000    708.2980      4.5536
  1334.5000     54.3166      0.0000    717.6074      4.3040
  1334.7500     52.1226      0.0000    725.2479      4.0935
  1335.0000     50.0539      0.0000    730.9473      3.9295
  1335.2500     47.8665      0.0000    734.9120      3.8005
  1335.5000     45.5439      0.0000    735.9208      3.6887
  1335.7500     43.4646      0.0000    731.5087      3.5826
  1336.0000     41.8634      0.0000    719.9410      3.4812
  1336.2500     40.5772      0.0000    702.0333      3.3887
  1336.5000     39.5225      0.0000    681.5445      3.3116
  1336.7500     39.1823      0.0000    663.9199      3.2588
  1337.0000     40.4431      0.0000    654.2324      3.2389
  1337.2500     43.8819      0.0000    655.5806      3.2541
  1337.5000     49.1235      0.0000    668.1659      3.2976
