~Version Information
VERS.                      2.0: CWLS Log ASCII Standard - VERSION 2.0
WRAP.                       NO: One line per depth step
~Well Information Block
STRT.FT                -7.2500: 
STOP.FT              2610.0000: 
STEP.FT                 0.2500: 
NULL.                -999.2500: 
COMP.          Pioneer Natural Resources: COMPANY
WELL.              Wagner 13-9: WELL
FLD.           Purgatorie River: FIELD
LOC.           1819' FSL & 1111' FWL--: LOCATION
PROV.                       CO: PROVINCE
CNTY.               Las Animas: COUNTRY
SRVC.          Patterson Wireline: SERVICE COMPANY
DATE.          Wed May 18 09:08:26 2005: LOG DATE
UWI.           05 071 08302 00: UNIQUE WELL ID
~Curve Information Block
DEPT.FT            0 000 00 00: Depth
CCL.                          : Casing Collar Locator
TT3.usec                      : CBL 3' Travel Time
AMP3.mV                       : CBL 3' Amplitude
GR.GAPI                       : Gamma Ray
~Parameter Information Block
~A  Depth       CCL         TT3         AMP3         GR     
# ...
   495.2500      0.0000    744.8107     11.1431     68.4078
   495.5000      0.0000    742.9434     11.0426     63.7384
   495.7500      0.0000    741.7667     10.9465     58.6835
   496.0000      0.0000    740.6400     10.9113     54.2002
   496.2500      0.0000    737.8987     10.9932     51.1224
   496.5000      0.0000    730.1273     11.1860     49.8932
   496.7500      0.0000    712.3513     11.4062     50.3426
   497.0000      0.0000    680.8878     11.5568     51.7032
   497.2500      0.0000    637.7792     11.6002     52.9811
   497.5000      0.0000    592.6389     11.5507     53.5945
   497.7500      0.0000    559.7238     11.4058     53.8453
   498.0000      0.0000    551.6400     11.1182     54.6323
   498.2500      0.0000    571.7346     10.6552     56.5618
   498.5000      0.0000    610.4061     10.0790     59.3482
   498.7500      0.0000    652.2899      9.5443     61.9420
   499.0000      0.0000    688.4655      9.1956     63.0269
   499.2500      0.0000    718.6083      9.0638     61.7570
   499.5000      2.0000    743.3842      9.0681     58.7538
   499.7500     -2.0000    760.8922      9.1172     56.4161
   500.0000     -2.0000    768.4151      9.2146     57.4172
   500.2500      0.0000    760.5627      9.4867     62.5079
   500.5000      0.0000    727.3511     10.0885     70.1341
   500.7500      0.0000    663.5707     11.0228     78.1693
   501.0000      0.0000    583.3846     12.0380     85.3771
   501.2500      0.0000    519.4720     12.7634     91.0715
   501.5000      0.0000    501.6593     12.9873     94.2853
   501.7500      0.0000    535.1843     12.7870     94.3766
   502.0000      0.0000    599.1126     12.4020     92.3496
   502.2500      0.0000    664.0403     12.0380     90.4487
   502.5000      0.0000    711.1764     11.7850     90.0780
   502.7500      0.0000    737.8813     11.6473     90.9373
   503.0000      0.0000    750.8143     11.5959     92.4698
   503.2500      0.0000    757.5714     11.5956     95.1759
   503.5000      0.0000    762.9227     11.6093     99.8963
   503.7500      0.0000    768.7344     11.6022    106.3970
   504.0000      0.0000    775.5121     11.5519    113.1957
   504.2500      0.0000    784.2101     11.4525    118.4909
   504.5000      0.0000    796.4278     11.3072    121.0658
   504.7500      0.0000    812.6101     11.1349    120.7252
   505.0000      0.0000    830.7346     10.9798    118.1873
   505.2500      0.0000    847.3334     10.8983    114.5123
   505.5000      0.0000    859.7549     10.9278    110.5510
   505.7500      0.0000    867.4045     11.0724    106.7672
   506.0000      0.0000    871.2636     11.3115    103.3118
   506.2500      0.0000    872.6432     11.6050    100.4728
   506.5000      0.0000    872.2897     11.8910     99.2614
   506.7500      0.0000    870.2289     12.0983    101.0781
   507.0000      0.0000    866.1049     12.1821    106.2632
   507.2500      0.0000    859.5270     12.1512    113.0440
   507.5000      0.0000    850.0475     12.0589    118.2484
   507.7500      0.0000    837.1080     11.9643    119.3039
   508.0000      0.0000    820.6529     11.9058    115.8532
   508.2500      0.0000    802.1162     11.9006    109.6461
   508.5000      0.0000    784.5341     11.9551    102.8991
   508.7500      0.0000    771.3530     12.0671     96.8554
   509.0000      0.0000    764.6952     12.2238     91.7414
   509.2500      0.0000    764.0826     12.4001     87.4954
   509.5000      0.0000    766.5499     12.5514     84.1969
   509.7500      0.0000    768.5515     12.6101     81.9639
   510.0000      0.0000    768.4333     12.5085     80.5906
   510.2500      0.0000    767.1414     12.2294     79.3965
   510.5000      0.0000    766.4181     11.8366     77.5454
   510.7500      0.0000    766.8378     11.4424     74.6166
   511.0000      0.0000    768.2625     11.1325     71.0064
   511.2500      0.0000    771.6448     10.9156     67.9085
   511.5000      0.0000    778.8524     10.7358     66.6647
   511.7500      0.0000    790.2240     10.5364     67.7383
   512.0000      0.0000    803.2744     10.3131     70.1461
   512.2500      0.0000    814.4549     10.1082     71.8357
   512.5000      0.0000    821.7842      9.9535     70.8396
   512.7500      0.0000    825.5611      9.8262     66.6378
   513.0000      0.0000    827.1948      9.6649     60.7798
   513.2500      0.0000    827.9180      9.4239     56.1039
   513.5000      0.0000    828.3521      9.1141     55.0796
   513.7500      0.0000    828.6612      8.8059     58.6153
   514.0000      0.0000    828.8081      8.5978     66.1913
   514.2500      0.0000    828.7372      8.5614     76.8423
   514.5000      0.0000    828.4852      8.6900     89.7810
   514.7500      0.0000    828.1937      8.8958    104.0443
   515.0000      0.0000    828.0239      9.0716    117.7574
   515.2500      0.0000    828.0782      9.1594    128.2832
   515.5000      0.0000    828.4441      9.1624    133.7775
   515.7500      0.0000    829.3398      9.1069    134.7091
   516.0000      0.0000    831.1307      9.0107    133.5303
   516.2500      0.0000    833.9772      8.8873    132.6898
   516.5000      0.0000    837.4020      8.7619    132.9017
   516.7500      0.0000    840.4772      8.6647    132.9924
   517.0000      0.0000    842.6234      8.6064    131.2105
   517.2500      0.0000    844.0735      8.5733    127.0829
   517.5000      0.0000    845.6240      8.5490    122.2637
   517.7500      0.0000    848.2372      8.5308    119.2122
   518.0000      0.0000    852.5590      8.5238    118.8861
   518.2500      0.0000    858.2330      8.5223    120.0734
   518.5000      0.0000    863.8748      8.5099    121.0792
   518.7500      0.0000    868.1223      8.4821    121.6072
   519.0000      0.0000    870.5815      8.4547    122.6839
   519.2500      0.0000    871.6628      8.4471    125.0996
   519.5000      0.0000    871.8265      8.4684    128.2992
   519.7500      0.0000    871.1512      8.5141    130.7731
   520.0000      0.0000    869.4864      8.5622    131.5224
   520.2500      0.0000    866.9886      8.5830    130.9097
   520.5000      0.0000    864.5616      8.5718    129.8311
   520.7500      0.0000    863.4895      8.5604    128.4734
   521.0000      0.0000    864.2872      8.5846    126.3821
   521.2500      0.0000    866.0034      8.6495    123.5368
   521.5000      0.0000    866.9755      8.7317    121.0440
   521.7500      0.0000    866.3556      8.7988    120.6149
   522.0000      0.0000    864.8876      8.8251    123.2167
   522.2500      0.0000    864.2005      8.8098    128.4301
   522.5000      0.0000    865.2810      8.7816    135.1691
   522.7500      0.0000    867.6696      8.7677    142.2406
   523.0000      0.0000    870.1390      8.7625    147.8228
   523.2500      0.0000    871.8552      8.7449    149.5186
   523.5000      0.0000    872.7430      8.7138    146.0989
   523.7500      0.0000    873.0859      8.6868    138.9855
   524.0000      0.0000    873.1416      8.6783    131.4187
   524.2500      0.0000    873.0803      8.7036    126.3324
   524.5000      0.0000    873.0379      8.7839    124.9746
   524.7500      0.0000    873.0985      8.9240    126.7980
   525.0000      0.0000    873.2557      9.0922    130.2262
   525.2500      0.0000    873.4326      9.2358    133.7935
   525.5000      0.0000    873.5521      9.3109    136.9427
   525.7500      0.0000    873.5737      9.2974    139.8869
   526.0000      0.0000    873.4791      9.1933    142.6960
   526.2500      0.0000    873.2677      9.0057    144.4308
   526.5000      0.0000    872.9698      8.7534    143.6158
   526.7500      0.0000    872.6334      8.4860    140.0120
   527.0000      0.0000    872.1930      8.2870    135.4038
   527.2500      0.0000    871.2611      8.2330    132.0379
   527.5000      0.0000    868.9615      8.3343    130.6215
   527.7500      0.0000    864.2739      8.5209    130.2009
   528.0000      0.0000    857.2990      8.6975    129.4698
   528.2500      0.0000    850.5087      8.8134    127.6686
   528.5000      0.0000    847.7661      8.8788    124.6402
