~Version Information
VERS.                      2.0: CWLS Log ASCII Standard - VERSION 2.0
WRAP.                       NO: One line per depth step
~Well Information Block
STRT.FT               840.0000: 
STOP.FT              2448.5000: 
STEP.FT                 0.2500: 
NULL.                -999.2500: 
COMP.          Petrogulf Corporation: COMPANY
WELL.             Leier 17-42V: WELL
FLD.           Purgatorie River: FIELD
LOC.           2309' FNL & 1062' FEL SENE 17 33S 67W: LOCATION
PROV.                 Colorado: PROVINCE
CNTY.               Las Animas: COUNTRY
SRVC.                Patterson: SERVICE COMPANY
DATE.          Thu Sep 22 09:40:29 2005: LOG DATE
UWI.                 071 08409: UNIQUE WELL ID
~Curve Information Block
DEPT.FT            0 000 00 00: Depth
SP.mV                         : DIL Spontaneous Potential
RILD.Ohm-m                    : DIL Deep Resistivity
RILM.Ohm-m                    : DIL Medium Resistivity
RLL3.Ohm-m                    : DIL Shallow Resistivity
GR.GAPI                       : Gamma Ray
~Parameter Information Block
~A  Depth        SP         RILD        RILM        RLL3         GR     
# ...
  1988.0000    186.8449     18.9524     27.7050     90.6413     67.8922
  1988.2500    188.1678     17.4777     22.4054     77.6149     49.9972
  1988.5000    189.4256     16.2419     18.6473     39.6584     48.4098
  1988.7500    190.6580     15.0940     15.5307     17.1872     53.0289
  1989.0000    191.5866     14.1403     13.5404     10.8308     74.6629
  1989.2500    192.2352     13.3698     11.8329      9.6387     92.2411
  1989.5000    192.8426     12.7486     10.8685      9.2469    106.2247
  1989.7500    193.2764     12.2723     10.2946      9.1636    105.1001
  1990.0000    193.5894     11.7046      9.7429      8.8874    102.1781
  1990.2500    193.6874     11.1815      9.3271      9.0659    106.1646
  1990.5000    193.6770     10.6557      9.0121      9.0358    121.0076
  1990.7500    193.6204     10.1518      8.7998      9.1564    105.6507
  1991.0000    193.4543      9.7543      8.5493      9.3393    105.1107
  1991.2500    193.2382      9.3894      8.3587      9.7909     82.8344
  1991.5000    193.0675      9.2539      8.2171     10.2010    114.2907
  1991.7500    192.8913      9.1209      8.1364     10.0714    105.7339
  1992.0000    192.5760      9.0021      8.1036     10.0757     96.5269
  1992.2500    192.2563      9.0602      8.1078      9.7768     88.2846
  1992.5000    191.8358      9.1026      8.1747     10.0511     95.2654
  1992.7500    191.3855      9.1882      8.3360     10.5285     99.3939
  1993.0000    191.0220      9.3632      8.5119     10.9876     84.3060
  1993.2500    190.6525      9.5326      8.6718     10.9975     97.8702
  1993.5000    190.2977      9.6898      8.9105     11.5594    102.6131
  1993.7500    189.9112      9.6936      9.0860     12.2394     86.7039
  1994.0000    189.4551      9.9104      9.3097     12.5915     93.1634
  1994.2500    188.8197     10.0947      9.4542     12.6145     98.1383
  1994.5000    188.0730     10.2481      9.6334     12.2461     78.9634
  1994.7500    187.0773     10.4412      9.8314     12.2815     97.1288
  1995.0000    185.9633     10.6637      9.9330     12.3998     94.6842
  1995.2500    184.7516     10.8484     10.0658     12.6562     86.3525
  1995.5000    183.3063     11.1063     10.2412     12.7767     83.1806
  1995.7500    181.7715     11.2693     10.3794     12.6211     88.5216
  1996.0000    180.2918     11.3888     10.5855     12.7540     91.3231
  1996.2500    178.6809     11.7046     10.7368     12.8132     99.2292
  1996.5000    177.1550     12.0485     10.9707     12.8497     89.5252
  1996.7500    175.5770     12.3683     11.2475     13.1219     88.3140
  1997.0000    173.9863     12.6286     11.6515     13.5020    106.7815
  1997.2500    172.5271     13.0533     12.0081     13.8927     99.8151
  1997.5000    171.1362     13.3763     12.4612     14.3147     98.9568
  1997.7500    169.9118     14.0441     12.9808     15.0087    109.5484
  1998.0000    169.0991     14.3025     13.6347     16.0570     92.1765
  1998.2500    168.3493     14.9219     14.2928     17.3555     93.9638
  1998.5000    167.6374     15.6872     15.2663     19.2462    108.4981
  1998.7500    167.0773     16.2973     16.1480     20.2043    104.0423
  1999.0000    166.4060     17.2461     17.2284     19.9852     91.0978
  1999.2500    165.5784     18.0377     18.6947     21.8453     68.4698
  1999.5000    164.6927     18.9690     20.1687     25.4978     76.1042
  1999.7500    163.7356     19.5823     21.8312     30.1211     79.3202
  2000.0000    162.8610     20.5116     23.6640     33.3731     79.9720
  2000.2500    162.0426     21.5523     25.6038     35.6713     68.8935
  2000.5000    161.2016     22.0617     27.1001     43.2580     63.3091
  2000.7500    160.4742     22.2269     28.0255     53.9979     69.2146
  2001.0000    159.9372     22.0482     28.5214     57.4910     63.8521
  2001.2500    159.7463     21.9925     28.9997     52.8163     56.3409
  2001.5000    159.8526     21.8201     27.6242     49.4354     58.6013
  2001.7500    160.1556     21.7519     26.0788     46.5606     63.5097
  2002.0000    160.6363     21.4714     24.3585     39.8868     68.5327
  2002.2500    161.2056     21.9009     22.7514     30.7294     56.0110
  2002.5000    161.9288     21.7048     21.5701     24.5510     64.0676
  2002.7500    162.7895     22.0955     20.4354     22.3446     79.4989
  2003.0000    163.6231     22.2275     19.9099     19.8851     79.1137
  2003.2500    164.6408     22.2307     19.9797     17.1794     80.0403
  2003.5000    165.6155     22.0064     20.3399     16.7662     65.4570
  2003.7500    166.5044     21.9306     21.2099     17.6463     78.1134
  2004.0000    167.5037     21.9371     22.7747     21.5674     82.1983
  2004.2500    168.5762     22.4262     23.0936     29.4772    104.5782
  2004.5000    169.6711     22.1042     23.7410     36.6337    114.1517
  2004.7500    170.8556     22.3255     24.7146     34.3266     90.4154
  2005.0000    171.9178     22.1542     25.7303     33.6415     67.8792
  2005.2500    172.9557     22.3118     26.3778     38.3450     63.1042
  2005.5000    173.9474     22.4948     28.3903     48.7019     57.7920
  2005.7500    174.9341     23.2020     28.9714     61.5393     63.7459
  2006.0000    176.0591     24.4993     29.6897     61.7244     69.5913
  2006.2500    177.0294     25.1779     29.0456     55.5629     74.1856
  2006.5000    177.9970     26.0544     29.1809     42.0706     59.5784
  2006.7500    178.9801     27.4825     28.9857     30.4281     59.5312
  2007.0000    180.0540     28.1897     29.7354     29.6119     66.3589
  2007.2500    181.1326     29.4659     30.3141     35.3585     59.9860
  2007.5000    182.2964     30.8612     31.8180     39.7805     63.8272
  2007.7500    183.3801     30.9508     32.6622     35.3692     70.0194
  2008.0000    184.3955     32.2317     34.1417     32.1223     73.2816
  2008.2500    184.9722     32.6541     37.6246     36.5237     73.2713
  2008.5000    185.2904     31.3257     38.1912     43.3752     71.5935
  2008.7500    185.6331     31.2320     38.7830     51.7332     83.7447
  2009.0000    186.0595     31.8568     41.2401     57.1749     87.6928
  2009.2500    186.5428     32.8225     43.6169     60.3122     69.0020
  2009.5000    187.0852     32.2720     44.7154     63.2884     50.2985
  2009.7500    187.8213     30.7417     45.0680     62.5712     48.0539
  2010.0000    188.6831     30.1050     43.6518     61.6238     50.0060
  2010.2500    189.7747     29.7157     40.5824     64.5303     54.8994
  2010.5000    190.9536     29.7066     39.7749     59.4645     36.7653
  2010.7500    192.3535     28.1633     37.4928     43.6915     43.9992
  2011.0000    193.7791     27.3891     34.5122     36.6720     54.3410
  2011.2500    195.1421     26.4795     31.5295     36.5135     59.9079
  2011.5000    196.5881     25.2793     29.0010     34.2509     65.4175
  2011.7500    197.8776     24.1005     26.1244     28.2664     52.3556
  2012.0000    199.0380     23.2716     24.7308     23.6327     64.6308
  2012.2500    200.1079     21.8980     23.5427     21.3934     71.3751
  2012.5000    200.9473     20.1970     23.2997     21.1132     94.8348
  2012.7500    201.5394     18.7045     23.0678     21.5680     91.9026
  2013.0000    202.0770     17.5277     22.6415     23.9219     69.4665
  2013.2500    202.7095     16.2209     20.9307     29.2711     87.0322
  2013.5000    203.5634     15.1092     18.7541     34.8313     86.6180
  2013.7500    204.8848     14.0746     17.1518     30.6723     82.3379
  2014.0000    206.2970     12.7946     15.5950     19.8826     77.0419
  2014.2500    207.5364     12.0183     14.1549     14.8376     61.1903
  2014.5000    208.8532     11.3296     12.9133     15.2356     69.4948
  2014.7500    210.1914     10.8728     11.8613     17.4915     67.1845
  2015.0000    211.3987     10.5515     10.7556     16.7481     82.7252
  2015.2500    212.3298     10.2218      9.7428     11.4707     95.4658
  2015.5000    213.0728      9.9420      8.9328      8.1437    108.9788
  2015.7500    213.5972      9.6548      8.4009      7.1183    103.0765
