~Version Information
VERS.                      2.0: CWLS Log ASCII Standard - VERSION 2.0
WRAP.                       NO: One line per depth step
~Well Information Block
STRT.FT               425.0000: 
STOP.FT              2461.0000: 
STEP.FT                 0.1000: 
NULL.                -999.2500: 
COMP.          Evergreen Operating Corporation: COMPANY
WELL.              Nomad 32-10: WELL
FLD.           Purgatorie River: FIELD
LOC.           2281' FNL & 1585' FEL: LOCATION
PROV.                 Colorado: PROVINCE
CNTY.               Las Animas: COUNTRY
SRVC.                Patterson: SERVICE COMPANY
DATE.          Thu Aug 12 11:13:52 2004: LOG DATE
UWI.           05 071 08127 00: UNIQUE WELL ID
~Curve Information Block
DEPT.FT            0 000 00 00: Depth
DCAL.in                       : CDL Caliper
RHOB.g/cc                     : CDL Bulk Density
RHOC.g/cc                     : CDL Density Correction
DPOR.pu                       : CDL Density Porosity
NPOR.pu                       : Neutron Porosity
GR.GAPI                       : Gamma Ray
~Parameter Information Block
~A  Depth       DCAL        RHOB        RHOC        DPOR        NPOR         GR     
# ...
  1087.4000      8.5191      2.1223      0.0270     31.9826     25.2289    137.9207
  1087.5000      8.6579      2.1869      0.1044     28.0658     24.4141    128.4515
  1087.6000      8.6579      2.2558      0.2045     23.8921     24.1674    126.2799
  1087.7000      8.6579      2.3081      0.2519     20.7228     24.2344    122.5899
  1087.8000      8.6072      2.3370      0.1870     18.9700     24.7214    114.2169
  1087.9000      8.6072      2.3587      0.1102     17.6555     25.3989    111.3938
  1088.0000      8.5648      2.3875      0.1061     15.9067     25.9762    115.0373
  1088.1000      8.5648      2.4143      0.1325     14.2825     26.5523    121.2137
  1088.2000      8.5648      2.4284      0.0843     13.4307     27.0570    131.3705
  1088.3000      8.6650      2.4285      0.1047     13.4239     27.0886    144.0966
  1088.4000      8.6650      2.4131      0.0554     14.3566     26.5605    151.7633
  1088.5000      8.6010      2.3821      0.0615     16.2345     26.1882    149.1995
  1088.6000      8.6010      2.3401      0.0335     18.7809     26.5939    142.1571
  1088.7000      8.6010      2.2984      0.0132     21.3107     27.5807    138.8765
  1088.8000      8.6189      2.2600     -0.0244     23.6347     28.4807    138.2884
  1088.9000      8.6189      2.2096      0.0144     26.6895     28.6938    134.6280
  1089.0000      8.5816      2.1300      0.0058     31.5170     28.4873    128.0644
  1089.1000      8.5816      2.0214     -0.0390     38.0950     28.8171    124.6594
  1089.2000      8.5816      1.9054     -0.0853     45.1270     29.7927    128.6981
  1089.3000      8.5109      1.8114     -0.1085     50.8255     30.5931    140.2506
  1089.4000      8.5109      1.7571     -0.0530     54.1146     30.8149    149.9622
  1089.5000      8.5268      1.7420     -0.0223     55.0286     30.7433    146.7317
  1089.6000      8.5268      1.7595      0.0272     53.9671     30.7440    135.1955
  1089.7000      8.5268      1.8078      0.0715     51.0446     30.5865    127.6437
  1089.8000      8.6771      1.8841      0.1230     46.4197     30.0751    126.2492
  1089.9000      8.6771      1.9740      0.2199     40.9711     29.5053    126.7512
  1090.0000      8.6687      2.0603      0.2428     35.7396     28.9965    127.2712
  1090.1000      8.6687      2.1405      0.2524     30.8783     28.1062    126.6018
  1090.2000      8.6687      2.2140      0.2510     26.4256     26.9042    123.5622
  1090.3000      8.7540      2.2707      0.1826     22.9849     26.4596    119.6145
  1090.4000      8.7540      2.3111      0.0894     20.5396     26.8426    117.6537
  1090.5000      8.5334      2.3508      0.0250     18.1312     27.1744    119.7049
  1090.6000      8.5334      2.3946      0.0440     15.4780     27.3727    125.3107
  1090.7000      8.5334      2.4282      0.0688     13.4405     27.6501    130.6680
  1090.8000      8.4863      2.4407      0.0746     12.6858     27.4039    133.4033
  1090.9000      8.4863      2.4302      0.0908     13.3207     26.5005    137.1230
  1091.0000      8.5270      2.4044      0.1218     14.8831     25.8909    141.8085
  1091.1000      8.5270      2.3873      0.0290     15.9221     25.6772    143.9036
  1091.2000      8.5270      2.3995      0.0501     15.1825     25.1183    144.6331
  1091.3000      8.4235      2.4311      0.0903     13.2669     24.0032    143.6407
  1091.4000      8.4235      2.4502      0.1469     12.1072     22.7930    137.2291
  1091.5000      8.4138      2.4434      0.1185     12.5221     22.0768    128.6530
  1091.6000      8.4138      2.4379      0.0516     12.8530     22.0502    124.7788
  1091.7000      8.4138      2.4569      0.0733     11.7016     22.5485    125.7634
  1091.8000      8.3837      2.4790      0.1144     10.3653     23.1311    128.3286
  1091.9000      8.3837      2.4833      0.0447     10.1008     23.4285    129.1523
  1092.0000      8.3570      2.4835      0.0398     10.0904     23.5988    126.6957
  1092.1000      8.3570      2.4853      0.0737      9.9792     23.5152    123.2876
  1092.2000      8.3570      2.4745      0.0442     10.6375     22.7915    122.8081
  1092.3000      8.3588      2.4520      0.0189     12.0001     22.1111    123.1806
  1092.4000      8.3588      2.4326      0.0146     13.1784     22.4184    119.8366
  1092.5000      8.3618      2.4177      0.0114     14.0796     23.4350    115.8244
  1092.6000      8.3618      2.3987      0.0541     15.2273     24.3934    115.7429
  1092.7000      8.3618      2.3816     -0.0119     16.2651     24.8994    119.7702
  1092.8000      8.3664      2.3812      0.0214     16.2921     24.6385    125.6611
  1092.9000      8.3664      2.3863      0.0521     15.9844     23.7114    127.5249
  1093.0000      8.3733      2.3801      0.0182     16.3556     22.7547    123.8366
  1093.1000      8.3733      2.3756      0.0040     16.6322     22.1778    121.4737
  1093.2000      8.3733      2.3897      0.0666     15.7760     22.0088    121.6151
  1093.3000      8.3878      2.4161      0.0734     14.1737     22.1989    120.6815
  1093.4000      8.3878      2.4381      0.1173     12.8439     22.6031    119.0214
  1093.5000      8.3958      2.4477      0.1219     12.2619     23.1364    116.9889
  1093.6000      8.3958      2.4508      0.1335     12.0727     23.6285    113.9210
  1093.7000      8.3958      2.4550      0.1003     11.8209     23.8202    109.6249
  1093.8000      8.3555      2.4634      0.0501     11.3110     23.7685    110.5173
  1093.9000      8.3555      2.4794      0.0386     10.3374     23.7163    124.5176
  1094.0000      8.3594      2.5008      0.0573      9.0431     23.8915    142.8200
  1094.1000      8.3594      2.5180      0.0772      8.0017     24.2520    147.6656
  1094.2000      8.3594      2.5228      0.0687      7.7116     24.3477    137.4251
  1094.3000      8.3648      2.5098      0.0884      8.4979     24.0760    129.2282
  1094.4000      8.3648      2.4770      0.0550     10.4834     23.8501    132.6070
  1094.5000      8.3758      2.4392      0.0145     12.7775     23.7665    136.7671
  1094.6000      8.3758      2.4204      0.0390     13.9157     23.8045    136.9736
  1094.7000      8.3758      2.4258      0.0560     13.5858     23.9758    138.6171
  1094.8000      8.3807      2.4385      0.1248     12.8210     23.8892    139.2350
  1094.9000      8.3807      2.4432      0.0712     12.5331     23.6141    134.2465
  1095.0000      8.3387      2.4391      0.1048     12.7829     23.6139    126.5123
  1095.1000      8.3387      2.4262      0.0710     13.5640     23.7138    122.0408
  1095.2000      8.3387      2.4094      0.0233     14.5811     23.7267    124.3276
  1095.3000      8.3330      2.3996      0.0011     15.1773     23.9846    129.1405
  1095.4000      8.3330      2.3962      0.0567     15.3832     24.6011    132.6816
  1095.5000      8.3336      2.3940     -0.0008     15.5129     24.8091    135.0425
  1095.6000      8.3336      2.4051     -0.0238     14.8453     24.4232    131.8724
  1095.7000      8.3336      2.4363      0.0477     12.9525     23.9509    122.0818
  1095.8000      8.3309      2.4666      0.0620     11.1159     23.0474    114.0860
  1095.9000      8.3309      2.4792      0.0529     10.3519     21.4185    113.2240
  1096.0000      8.3241      2.4854      0.0491      9.9769     19.9780    116.5812
  1096.1000      8.3241      2.4948      0.0666      9.4044     19.3103    117.2811
  1096.2000      8.3241      2.5044      0.0275      8.8247     18.7103    110.6474
  1096.3000      8.3276      2.5127      0.0846      8.3213     17.9997    100.5538
  1096.4000      8.3276      2.5172      0.0782      8.0514     17.5759     94.3437
  1096.5000      8.3063      2.5181      0.0425      7.9919     16.9918     92.1259
  1096.6000      8.3063      2.5208      0.0585      7.8317     16.2471     90.9314
  1096.7000      8.3063      2.5265      0.0308      7.4868     15.9284     91.6373
  1096.8000      8.3052      2.5371      0.0490      6.8429     15.8736     94.4179
  1096.9000      8.3052      2.5565      0.0386      5.6687     15.9391     95.7177
