~Version Information
VERS.                      2.0: CWLS Log ASCII Standard - VERSION 2.0
WRAP.                       NO: One line per depth step
~Well Information Block
STRT.FT               590.0000: 
STOP.FT              1563.5000: 
STEP.FT                 0.2500: 
NULL.                -999.2500: 
COMP.          Petrogulf Corporation: COMPANY
WELL.             State 16-43R: WELL
FLD.           Purgatorie River: FIELD
LOC.           2538' FSL & 716' FEL: LOCATION
PROV.                 Colorado: PROVINCE
CNTY.               Las Animas: COUNTRY
SRVC.                Patterson: SERVICE COMPANY
DATE.          Tue Aug 09 14:21:37 2005: LOG DATE
UWI.                          : UNIQUE WELL ID
~Curve Information Block
DEPT.FT            0 000 00 00: Depth
RILD.Ohm-m                    : DIL Deep Resistivity
RILM.Ohm-m                    : DIL Medium Resistivity
GR.GAPI                       : Gamma Ray
~Parameter Information Block
~A  Depth       RILD        RILM         GR     
# ...
  1258.0000     11.8386     12.0750    119.5828
  1258.2500     11.9513     12.9886    117.7470
  1258.5000     12.1071     13.8208    113.1046
  1258.7500     12.1606     14.1740    111.3286
  1259.0000     12.1008     15.2442    114.6517
  1259.2500     12.5756     15.3506    120.4101
  1259.5000     12.5217     15.2560    118.8492
  1259.7500     12.9231     15.2870    122.2035
  1260.0000     13.1566     14.3662    148.1421
  1260.2500     13.6212     14.0627    142.9200
  1260.5000     13.8405     13.7383    145.8444
  1260.7500     14.0020     13.6239    147.6390
  1261.0000     13.9882     13.6002    143.2148
  1261.2500     13.6891     13.9550    139.0982
  1261.5000     13.4743     14.3518    122.8074
  1261.7500     12.6155     14.5828    107.9296
  1262.0000     11.9250     14.5560    106.5843
  1262.2500     11.3295     14.4140    107.9316
  1262.5000     10.7191     13.7354    112.8023
  1262.7500     10.3633     12.9094    125.9590
  1263.0000     10.1644     11.6080    139.1580
  1263.2500      9.8257     10.9827    154.2061
  1263.5000      9.7696     10.0983    167.9497
  1263.7500      9.8747      9.5328    165.4177
  1264.0000      9.8090      9.0073    173.2487
  1264.2500      9.6707      8.7889    179.9229
  1264.5000      9.7985      8.6740    168.3530
  1264.7500      9.9448      8.6345    166.9270
  1265.0000      9.5442      8.6764    165.0782
  1265.2500      9.4082      8.8100    157.4958
  1265.5000      9.3142      9.2229    141.9390
  1265.7500      9.0076      9.5629    141.0499
  1266.0000      8.8685      9.6725    143.1902
  1266.2500      8.8886      9.8061    139.0435
  1266.5000      8.7432      9.8135    145.1652
  1266.7500      8.8269      9.4489    148.7060
  1267.0000      8.7790      9.5354    157.4145
  1267.2500      9.0970      9.4512    166.7840
  1267.5000      9.2221      9.3091    172.4260
  1267.7500      9.4008      9.5338    170.2526
  1268.0000      9.6406      9.5502    177.1851
  1268.2500      9.5890      9.5432    160.3659
  1268.5000      9.4020      9.5274    154.2982
  1268.7500      9.3962      9.6101    157.9499
  1269.0000      9.4348      9.5187    158.5218
  1269.2500      9.3168      9.5106    149.7959
  1269.5000      9.0701      9.6015    143.3482
  1269.7500      9.0512      9.7174    147.7635
  1270.0000      9.1632      9.7641    137.7725
  1270.2500      9.1233      9.7758    146.5089
  1270.5000      9.1892      9.7501    153.4016
  1270.7500      9.2509      9.9783    145.5014
  1271.0000      9.3049      9.7627    141.8847
  1271.2500      9.5532      9.7416    146.4415
  1271.5000      9.3579      9.9175    137.8746
  1271.7500      9.5875      9.8732    134.3913
  1272.0000      9.5690      9.9786    128.3313
  1272.2500      9.6447     10.3070    142.4789
  1272.5000      9.8636     10.3279    140.0836
  1272.7500     10.3615     10.2082    139.5383
  1273.0000     10.1146     10.1316    127.4804
  1273.2500      9.9275     10.1212    137.2807
  1273.5000     10.4128     10.1281    153.6162
  1273.7500     11.0234     10.3208    155.9911
  1274.0000     11.5015     10.7231    143.9474
  1274.2500     12.0027     11.4009    145.3755
  1274.5000     12.5914     11.9669    126.8185
  1274.7500     13.3254     13.1209    121.2896
  1275.0000     13.7045     15.3241    113.1135
  1275.2500     14.3959     15.7696    104.5171
  1275.5000     14.6658     17.1267     87.5613
  1275.7500     15.5491     18.8293     86.3052
  1276.0000     16.1171     20.7632     81.4652
  1276.2500     17.0179     22.5274     81.4998
  1276.5000     17.6929     26.9276     84.0057
  1276.7500     18.7961     26.4111     83.7051
  1277.0000     18.4113     26.7595     88.6794
  1277.2500     19.0611     26.5424     94.7880
  1277.5000     19.2205     25.5116    109.7928
  1277.7500     18.7255     23.7762    126.4762
  1278.0000     18.7446     22.1933    142.8020
  1278.2500     18.4286     20.4405    146.6931
  1278.5000     17.5884     18.1943    162.8587
  1278.7500     16.9196     17.6459    159.4350
  1279.0000     16.2370     17.0790    158.9678
  1279.2500     15.2980     16.5247    158.7534
  1279.5000     13.9020     16.0066    156.3497
  1279.7500     14.2372     15.3775    148.6880
  1280.0000     13.3901     15.0698    146.2288
  1280.2500     12.5539     14.1059    142.3366
  1280.5000     12.6030     13.0725    162.6030
  1280.7500     12.3666     12.7936    154.9804
  1281.0000     12.0432     12.1293    156.7999
  1281.2500     11.9536     11.8894    159.3147
  1281.5000     11.8546     12.0102    150.8314
  1281.7500     11.3556     11.8495    152.5688
  1282.0000     11.3393     11.7494    146.4718
  1282.2500     10.9445     11.6094    148.5411
  1282.5000     10.4518     11.4985    160.9724
  1282.7500     10.3749     10.9849    167.2774
  1283.0000     10.2476     10.8613    168.6453
  1283.2500      9.7770     10.8748    170.4498
  1283.5000      9.6377     10.1376    176.6422
  1283.7500      9.5996     10.0680    173.6792
  1284.0000      9.2753      9.8011    163.6243
  1284.2500      9.3398      9.6180    167.3112
  1284.5000      9.1810      9.3705    170.1813
  1284.7500      9.0184      9.0766    165.5697
  1285.0000      9.1169      9.0532    164.5218
  1285.2500      8.9702      9.0055    169.9290
  1285.5000      8.9197      8.8702    174.5073
  1285.7500      9.0297      8.7674    167.3729
  1286.0000      8.9581      8.7466    166.0213
  1286.2500      9.2317      8.8910    172.1221
  1286.5000      9.4383      8.9213    169.6111
  1286.7500      9.7928      9.0509    162.9500
  1287.0000      9.7939      9.6815    142.4039
  1287.2500      9.9481     10.3631    134.2329
  1287.5000     10.5379     10.8998    129.0432
  1287.7500     10.8791     12.3364    135.4523
  1288.0000     10.8103     12.3915    141.0970
  1288.2500     11.6187     12.5965    131.6766
  1288.5000     12.1811     12.7993    136.3515
  1288.7500     12.6687     13.0584    142.3415
  1289.0000     13.0016     13.9051    137.7338
  1289.2500     13.3981     14.9505    126.4867
  1289.5000     14.0667     15.9207    115.2675
  1289.7500     14.4339     16.9099    116.0866
  1290.0000     14.2911     17.4313    124.9704
  1290.2500     13.7719     17.3506    131.3592
  1290.5000     14.5190     16.0766    145.2600
  1290.7500     14.5343     15.5505    148.3276
  1291.0000     14.1763     15.6966    152.6154
  1291.2500     14.3238     15.0861    149.5489
  1291.5000     14.0446     15.2049    143.9535
  1291.7500     14.0928     15.4918    147.9437
  1292.0000     13.2945     14.8932    145.6740
  1292.2500     12.7755     14.1462    147.6092
  1292.5000     13.1717     13.6461    157.1999
  1292.7500     12.2098     13.5261    157.6385
  1293.0000     11.9448     13.3740    156.4754
  1293.2500     11.5797     13.1118    155.3992
  1293.5000     10.9895     12.9213    156.9803
  1293.7500     10.6007     12.5505    160.1711
  1294.0000     10.3356     12.3936    172.3017
  1294.2500      9.8547     10.9964    168.4446
  1294.5000      9.8270     10.3600    171.1893
  1294.7500      9.5776      9.6900    170.3660
  1295.0000      9.2106      9.3953    175.6575
  1295.2500      9.1580      8.8554    178.2575
  1295.5000      8.9193      8.5929    177.2113
  1295.7500      8.8174      8.3674    178.1698
  1296.0000      8.7257      8.2091    181.6452
  1296.2500      8.6873      8.3384    181.4718
  1296.5000      8.6558      7.8867    177.7964
  1296.7500      8.6405      7.6934    176.9798
  1297.0000      9.0045      7.6902    175.2166
  1297.2500      9.1319      7.9380    184.0409
  1297.5000      9.5591      8.2925    162.4022
  1297.7500      9.7742      8.6518    158.7379
  1298.0000      9.8520      9.4716    149.8722
  1298.2500     10.1903     10.0278    136.0749
  1298.5000     10.6823     11.0333    126.7292
  1298.7500     11.4899     12.1324    122.2792
  1299.0000     11.8083     12.9270    113.6655
  1299.2500     12.5311     14.2716    121.8125
  1299.5000     13.3478     15.2908    119.4457
