~Version Information
 VERS.                                  2.0 : CWLS LAS VERSION
 WRAP.                                   NO : WRAPING MODE
 SWARE .                 MController 2.5.0J : SOFTWARE VERSION
~Well Information
 WELL.                         State 16-43R : WELL
 COMP.                Petrogulf Corporation : COMPANY
 FLD.                      Purgatoire River : FIELD
 LOC.                NE/SE Sec 16 T33S R67W : LOCATION
 DATE.                             08/09/05 : DATE(S) LOGGED
 SRVC.       BLANCO Geological Services LLC : SERVICE COMPANY
 STAT.                                   CO : STATE
 CNTY.                           Las Animas : COUNTY
 CTRY.                                  USA : COUNTRY
 API.                       05-071-08338-00 : API NUMBER
 STRT.FT                               0.00 : START DEPTH
 STOP.FT                            1565.00 : STOP DEPTH
 STEP.FT                               1.00 : DEPTH INCREMENT
 NULL.                                -9999 : NULL VALUE
~Curve information
 DEPTH.FT                                   :
 ROP.MIN/FT                                 :
 GAS.UNITS                                  :
~ASCII Log data
# ...
      1400.0         0.23         40.0 
      1401.0         0.20         36.2 
      1402.0         0.17         32.6 
      1403.0         0.10         30.3 
      1404.0         0.13         29.2 
      1405.0         0.13         27.9 
      1406.0         0.17         28.7 
      1407.0         0.17         30.4 
      1408.0         0.20         36.2 
      1409.0         0.32         55.5 
      1410.0         1.07        137.1 
      1411.0         0.27        130.0 
      1412.0         0.20        107.7 
      1413.0         0.20         90.7 
      1414.0         0.20         77.2 
      1415.0         0.27         67.1 
      1416.0         0.17         57.9 
      1417.0         0.23         54.0 
      1418.0         0.17         50.1 
      1419.0         0.20         48.4 
      1420.0         0.22         47.2 
      1421.0         0.30         45.4 
      1422.0         0.27         44.1 
      1423.0         0.40         44.2 
      1424.0         0.30         52.5 
      1425.0         0.23         52.7 
      1426.0         0.33         51.3 
      1427.0         0.37         48.1 
      1428.0         0.23         44.4 
      1429.0         0.20         42.8 
      1430.0         0.15         41.6 
      1431.0         0.13         41.4 
      1432.0         0.13         41.4 
      1433.0         0.17         41.0 
      1434.0         0.23         40.4 
      1435.0         0.23         40.6 
      1436.0         0.27         40.1 
      1437.0         0.27         37.6 
      1438.0         0.23         34.0 
      1439.0         0.23         30.8 
      1440.0         2.68        116.2 
      1441.0         0.37         78.1 
      1442.0         0.30         62.1 
      1443.0         0.27         54.1 
      1444.0         0.23         49.9 
      1445.0         0.23         48.0 
      1446.0         0.25         46.4 
      1447.0         0.33         44.2 
      1448.0         0.33         41.0 
      1449.0         0.20         38.5 
      1450.0         0.13         37.9 
      1451.0         0.33         37.7 
      1452.0         0.20         36.7 
      1453.0         0.23         37.0 
      1454.0         0.37         36.1 
      1455.0         0.23         36.0 
      1456.0         0.23         35.4 
      1457.0         0.13         35.7 
      1458.0         0.17         36.3 
      1459.0         0.20         36.0 
      1460.0         0.18         36.2 
      1461.0         0.20         35.9 
      1462.0         0.17         36.2 
      1463.0         0.10         35.6 
      1464.0         0.13         35.4 
      1465.0         0.20         34.9 
      1466.0         0.27         33.8 
      1467.0         0.37         31.7 
      1468.0         0.30         30.2 
      1469.0         0.33         29.2 
      1470.0         2.85         44.8 
      1471.0         0.37         47.3 
      1472.0         0.33         47.8 
      1473.0         0.33         47.0 
      1474.0         0.20         44.3 
      1475.0         0.28         41.8 
      1476.0         0.23         40.1 
      1477.0         0.20         38.8 
      1478.0         0.27         38.4 
      1479.0         0.30         38.6 
      1480.0         0.30         38.7 
      1481.0         0.37         38.1 
      1482.0         0.27         37.8 
      1483.0         0.30         37.5 
      1484.0         0.27         37.1 
      1485.0         0.27         36.5 
      1486.0         0.27         36.3 
      1487.0         0.25         36.6 
      1488.0         0.23         36.6 
      1489.0         0.20         36.5 
      1490.0         0.23         36.0 
      1491.0         0.23         35.6 
      1492.0         0.30         35.3 
      1493.0         0.23         37.9 
      1494.0         0.23         36.7 
      1495.0         0.27         31.8 
      1496.0         0.23         28.5 
      1497.0         0.23         26.2 
      1498.0         0.23         20.9 
      1499.0         0.20         14.2 
      1500.0         2.28         12.4 
      1501.0         0.40          3.0 
      1502.0         0.27          2.9 
      1503.0         0.27          3.0 
      1504.0         0.32          2.8 
      1505.0         0.30          3.1 
      1506.0         0.27          3.0 
      1507.0         0.33          3.3 
      1508.0         0.37          3.2 
      1509.0         0.30          3.2 
      1510.0         0.27          3.7 
      1511.0         0.23          3.5 
      1512.0         0.27          3.6 
      1513.0         0.27          3.5 
      1514.0         0.30          3.7 
      1515.0         0.23          3.5 
      1516.0         0.25          8.4 
      1517.0         0.23         14.5 
      1518.0         0.23         13.9 
      1519.0         0.23         10.6 
      1520.0         0.20          8.6 
      1521.0         0.20          7.1 
      1522.0         0.20          6.2 
      1523.0         0.23          5.6 
      1524.0         0.23          5.0 
      1525.0         0.17          4.4 
      1526.0         0.23          4.0 
      1527.0         0.27          3.9 
      1528.0         0.23          3.9 
      1529.0         0.23          3.6 
      1530.0         2.82          4.2 
      1531.0         0.27          3.9 
      1532.0         0.30          4.1 
      1533.0         0.28          4.0 
      1534.0         0.30          4.1 
      1535.0         0.30          4.2 
      1536.0         0.23          3.9 
      1537.0         0.30          4.0 
      1538.0         0.27          4.2 
      1539.0         0.27          4.2 
      1540.0         0.20          4.1 
      1541.0         0.20          4.2 
      1542.0         0.17          4.4 
      1543.0         0.37          4.1 
      1544.0         0.40          4.4 
      1545.0         0.25          4.1 
      1546.0         0.40          4.4 
      1547.0         0.37          4.4 
      1548.0         0.40          4.8 
      1549.0         0.33          4.6 
      1550.0         0.33          4.6 
      1551.0         0.30          4.4 
      1552.0         0.30          4.7 
      1553.0         0.30          4.6 
      1554.0         0.32          4.2 
      1555.0         0.30          4.6 
      1556.0         0.30          4.4 
      1557.0         0.30          4.3 
      1558.0         0.30          4.2 
      1559.0         0.27          4.5 
      1560.0         2.55          4.8 
      1561.0         0.30          4.5 
      1562.0         0.30          4.5 
      1563.0         0.30          4.4 
      1564.0         0.37          4.6 
      1565.0         0.27          4.4 
