~Version Information
VERS.                      2.0: CWLS Log ASCII Standard - VERSION 2.0
WRAP.                       NO: One line per depth step
~Well Information Block
STRT.FT               380.0000: 
STOP.FT               899.2000: 
STEP.FT                 0.1000: 
NULL.                -999.2500: 
COMP.          Pioneer Natural Resources: COMPANY
WELL.          Prospector 12-19: WELL
FLD.           Purgatoire River: FIELD
LOC.           2262' FNL & 634' FWL: LOCATION
PROV.                 Colorado: PROVINCE
CNTY.               Las Animas: COUNTRY
SRVC.                Patterson: SERVICE COMPANY
DATE.          Mon Apr 25 09:33:09 2005: LOG DATE
UWI.           05 071 08191 00: UNIQUE WELL ID
~Curve Information Block
DEPT.FT            0 000 00 00: Depth
DCAL.in                       : CDL Caliper
RHOB.g/cc                     : CDL Bulk Density
RHOC.g/cc                     : CDL Density Correction
DPOR.pu                       : CDL Density Porosity
GR.GAPI                       : Gamma Ray
NPOR.pu                       : Neutron Porosity
~Parameter Information Block
~A  Depth       DCAL        RHOB        RHOC        DPOR         GR         NPOR    
# ...
   552.8000      8.0156      2.4788      0.0159     10.3761     63.1821     18.1996
   552.9000      8.0156      2.4619     -0.0152     11.3976     65.6361     18.6140
   553.0000      8.0103      2.4661      0.0122     11.1467     67.2478     19.3661
   553.1000      8.0103      2.4869     -0.0079      9.8847     66.6833     19.9816
   553.2000      8.0103      2.5044      0.0599      8.8264     62.3367     20.4296
   553.3000      8.0073      2.5104      0.0336      8.4624     58.1922     20.7013
   553.4000      8.0073      2.5211      0.0382      7.8122     57.9561     20.6559
   553.5000      8.0196      2.5397      0.1142      6.6831     58.0941     20.3694
   553.6000      8.0196      2.5476      0.0930      6.2044     56.2362     19.7747
   553.7000      8.0196      2.5487      0.0444      6.1420     54.8398     19.0607
   553.8000      8.0205      2.5672      0.0521      5.0161     54.0230     18.5845
   553.9000      8.0205      2.5969      0.1049      3.2194     51.9411     18.2675
   554.0000      8.0129      2.6054      0.1088      2.7006     49.7494     18.1700
   554.1000      8.0129      2.5901      0.0473      3.6280     49.8674     18.1730
   554.2000      8.0129      2.5659      0.0535      5.0996     54.0777     18.0548
   554.3000      8.0182      2.5324      0.0532      7.1271     60.8974     18.1264
   554.4000      8.0182      2.4990      0.0128      9.1538     66.2485     18.1827
   554.5000      7.9738      2.4899     -0.0228      9.7056     67.8491     17.9618
   554.6000      7.9738      2.5239     -0.0035      7.6452     66.5119     18.0713
   554.7000      7.9738      2.5914      0.0781      3.5488     64.1854     19.0160
   554.8000      7.9599      2.6491      0.1766      0.0570     62.9669     20.2317
   554.9000      7.9599      2.6662      0.1259     -0.9834     64.3666     21.1329
   555.0000      7.9519      2.6554      0.1403     -0.3274     67.3554     21.9145
   555.1000      7.9519      2.6413      0.0982      0.5259     68.1161     22.4120
   555.2000      7.9519      2.6375      0.0787      0.7549     66.1819     22.3568
   555.3000      7.8900      2.6399      0.0674      0.6112     65.3860     22.3227
   555.4000      7.8900      2.6317      0.0692      1.1062     67.9863     22.6704
   555.5000      7.9056      2.6059     -0.0291      2.6719     71.3531     22.4859
   555.6000      7.9056      2.5703     -0.0355      4.8329     71.7350     21.4811
   555.7000      7.9056      2.5321      0.0502      7.1443     70.9550     21.2648
   555.8000      7.9519      2.4990      0.0390      9.1545     72.8455     22.2079
   555.9000      7.9519      2.4802      0.0116     10.2902     75.3632     22.7638
   556.0000      7.9784      2.4770      0.0402     10.4865     75.2913     22.5268
   556.1000      7.9784      2.4852      0.0734      9.9849     72.4584     22.0021
   556.2000      7.9784      2.5111      0.0315      8.4161     67.3746     21.2102
   556.3000      7.9852      2.5551      0.1740      5.7504     63.1216     20.3930
   556.4000      7.9852      2.5988      0.1459      3.1023     62.2515     19.8556
   556.5000      7.8741      2.6334      0.1251      1.0046     63.5980     19.2349
   556.6000      7.8741      2.6563      0.1515     -0.3804     66.4878     18.4202
   556.7000      7.8741      2.6541      0.1840     -0.2492     70.9029     18.0040
   556.8000      7.8552      2.6213      0.1514      1.7411     74.6976     18.1353
   556.9000      7.8552      2.5751      0.0740      4.5418     74.6297     18.2959
   557.0000      7.8490      2.5397      0.0374      6.6878     70.2727     18.5091
   557.1000      7.8490      2.5227      0.0665      7.7130     65.0411     19.0976
   557.2000      7.8490      2.5151      0.0752      8.1777     61.3468     19.7582
   557.3000      7.8892      2.5097      0.0692      8.5056     60.5138     20.0244
   557.4000      7.8892      2.5157      0.0057      8.1365     63.9810     19.9891
   557.5000      7.8728      2.5386      0.0486      6.7542     69.1977     20.1671
   557.6000      7.8728      2.5589      0.1134      5.5204     70.8838     20.4597
   557.7000      7.8728      2.5641      0.0768      5.2072     70.0426     20.4596
   557.8000      7.9275      2.5647      0.0896      5.1684     72.8587     20.4167
   557.9000      7.9275      2.5679      0.1194      4.9773     76.1707     20.1932
   558.0000      7.9310      2.5758      0.1078      4.4945     73.9626     19.3984
   558.1000      7.9310      2.5989      0.1345      3.0992     69.5919     18.6283
   558.2000      7.9310      2.6233      0.1749      1.6185     65.7726     18.4665
   558.3000      7.8881      2.6119      0.1346      2.3061     60.8549     18.8316
   558.4000      7.8881      2.5632      0.0736      5.2633     54.6965     19.7155
   558.5000      7.8599      2.5168      0.0269      8.0724     49.4372     20.5096
   558.6000      7.8599      2.5070      0.0195      8.6683     47.8526     20.3141
   558.7000      7.8599      2.5364      0.0932      6.8868     49.7116     19.3176
   558.8000      7.8909      2.5818      0.1329      4.1325     51.7640     18.8525
   558.9000      7.8909      2.6186      0.1211      1.9059     53.1015     19.1521
   559.0000      7.9050      2.6311      0.1490      1.1439     54.2657     19.0010
   559.1000      7.9050      2.6167      0.1283      2.0166     53.9029     18.2411
   559.2000      7.9050      2.5962      0.0702      3.2590     52.9878     18.1312
   559.3000      7.8599      2.5949      0.0677      3.3377     54.4470     19.0964
   559.4000      7.8599      2.6123      0.0626      2.2831     56.6330     19.7771
   559.5000      7.8961      2.6321      0.0565      1.0849     54.9009     19.3535
   559.6000      7.8961      2.6483      0.0925      0.1014     48.2453     18.5244
   559.7000      7.8961      2.6571      0.0884     -0.4274     40.3523     17.6668
   559.8000      7.9131      2.6485      0.0959      0.0890     36.2549     16.7054
   559.9000      7.9131      2.6342      0.0128      0.9603     36.8955     16.0763
   560.0000      7.9069      2.6408      0.0505      0.5581     40.1969     15.8676
   560.1000      7.9069      2.6691      0.0360     -1.1573     43.2928     15.7938
   560.2000      7.9069      2.6982      0.0777     -2.9233     42.9804     16.1270
   560.3000      7.8954      2.7134      0.0853     -3.8402     39.4498     16.8316
   560.4000      7.8954      2.7120      0.0941     -3.7574     36.4700     17.2217
   560.5000      7.9116      2.6982      0.0691     -2.9208     37.4038     16.9364
   560.6000      7.9116      2.6751      0.0624     -1.5205     41.6522     16.4123
   560.7000      7.9116      2.6482      0.0429      0.1091     44.4175     16.2049
   560.8000      7.9149      2.6338      0.0419      0.9803     45.9317     15.9853
   560.9000      7.9149      2.6388      0.0968      0.6797     50.1300     15.1651
   561.0000      7.9167      2.6459      0.0124      0.2482     54.4964     14.5869
   561.1000      7.9167      2.6443      0.0463      0.3481     56.2141     15.2376
   561.2000      7.9167      2.6432      0.0671      0.4098     58.4474     16.4577
   561.3000      7.9519      2.6460      0.1026      0.2441     62.3032     17.1165
   561.4000      7.9519      2.6378      0.1510      0.7388     65.4126     17.3511
   561.5000      7.8991      2.6144      0.0721      2.1551     67.1126     17.8191
   561.6000      7.8991      2.5991      0.0268      3.0865     67.4483     18.6018
   561.7000      7.8991      2.6090      0.0338      2.4865     66.6183     19.6206
   561.8000      7.8702      2.6247      0.0135      1.5318     65.5222     20.2999
   561.9000      7.8702      2.6127      0.0880      2.2623     67.1141     19.8928
   562.0000      7.9321      2.5674      0.0138      5.0089     72.1304     19.0345
   562.1000      7.9321      2.5194      0.0022      7.9140     76.7741     19.1813
   562.2000      7.9321      2.4936      0.0157      9.4783     78.9558     20.5723
   562.3000      7.9192      2.4814      0.0187     10.2165     81.9366     21.7531
