~Version Information
VERS.                      2.0: CWLS Log ASCII Standard - VERSION 2.0
WRAP.                       NO: One line per depth step
~Well Information Block
STRT.FT               480.0000: 
STOP.FT              1994.2500: 
STEP.FT                 0.2500: 
NULL.                -999.2500: 
COMP.          Evergreen Operating Corporation: COMPANY
WELL.          McCullough 34-32 Tr: WELL
FLD.           Purgatoire River: FIELD
LOC.           394' FSL & 2077' FEL: LOCATION
PROV.                 Colorado: PROVINCE
CNTY.               Las Animas: COUNTRY
SRVC.                Patterson: SERVICE COMPANY
DATE.          Sun Sep 19 05:48:59 2004: LOG DATE
UWI.           05 071 08157 00: UNIQUE WELL ID
~Curve Information Block
DEPT.FT            0 000 00 00: Depth
SN.Ohm-m                      : IEL Short Normal
SP.mV                         : IEL Spontaneous Potential
DIR.Ohm-m                     : IEL Induction Resistivity
GR.GAPI                       : Gamma Ray
~Parameter Information Block
~A  Depth        SN          SP         DIR          GR     
   480.0000   2000.0000   2000.0000      1.4401    145.3604
   480.2500   2000.0000   2000.0000      1.4497    144.3682
   480.5000   2000.0000   2000.0000      1.4544    143.6252
   480.7500   2000.0000   2000.0000      1.4548    143.9534
   481.0000   2000.0000   2000.0000      1.4534    145.1084
   481.2500   2000.0000   2000.0000      1.4539    145.4808
   481.5000   2000.0000   2000.0000      1.4595    144.4386
   481.7500   2000.0000   2000.0000      1.4717    142.9441
   482.0000   2000.0000   2000.0000      1.4895    141.0067
   482.2500   2000.0000   2000.0000      1.5110    140.5782
   482.5000   2000.0000   2000.0000      1.5335    141.0606
   482.7500   2000.0000   2000.0000      1.5553    141.6077
   483.0000   2000.0000   2000.0000      1.5753    142.3416
   483.2500   2000.0000   2000.0000      1.5915    142.9596
   483.5000   2000.0000   2000.0000      1.6001    144.3441
   483.7500   2000.0000   2000.0000      1.5960    145.3279
   484.0000   2000.0000   2000.0000      1.5756    146.1642
   484.2500   2000.0000   2000.0000      1.5416    146.1579
   484.5000   2000.0000   2000.0000      1.5027    145.8411
   484.7500   2000.0000   2000.0000      1.4690    145.8719
   485.0000   2000.0000   2000.0000      1.4467    146.4375
   485.2500   2000.0000   2000.0000      1.4362    146.6947
   485.5000   2000.0000   2000.0000      1.4336    145.6809
   485.7500   2000.0000   2000.0000      1.4342    143.7727
   486.0000   2000.0000   2000.0000      1.4345    139.7625
   486.2500   2000.0000   2000.0000      1.4340    136.8652
   486.5000   2000.0000   2000.0000      1.4334    132.2148
   486.7500   2000.0000   2000.0000      1.4336    128.7271
   487.0000   2000.0000   2000.0000      1.4344    123.5710
   487.2500   2000.0000   2000.0000      1.4350    121.0747
   487.5000   2000.0000   2000.0000      1.4349    119.7374
   487.7500   2000.0000   2000.0000      1.4340    120.2504
   488.0000   2000.0000   2000.0000      1.4319    121.9457
   488.2500   2000.0000   2000.0000      1.4278    123.1911
   488.5000   2000.0000   2000.0000      1.4201    125.4389
   488.7500   2000.0000   2000.0000      1.4073    127.6675
   489.0000   2000.0000   2000.0000      1.3901    132.2335
   489.2500   2000.0000   2000.0000      1.3707    135.3328
   489.5000   2000.0000   2000.0000      1.3518    138.0640
   489.7500   2000.0000   2000.0000      1.3356    138.0412
   490.0000   2000.0000   2000.0000      1.3235    136.3747
   490.2500   2000.0000   2000.0000      1.3173    135.5366
   490.5000   2000.0000   2000.0000      1.3189    136.2136
   490.7500   2000.0000   2000.0000      1.3289    137.8846
   491.0000   2000.0000   2000.0000      1.3452    141.1650
   491.2500   2000.0000   2000.0000      1.3635    143.2596
   491.5000   2000.0000   2000.0000      1.3798    145.7363
   491.7500   2000.0000   2000.0000      1.3931    147.0001
   492.0000   2000.0000   2000.0000      1.4047    148.8782
   492.2500   2000.0000   2000.0000      1.4163    150.4358
   492.5000   2000.0000   2000.0000      1.4274    153.4277
   492.7500   2000.0000   2000.0000      1.4356    155.8038
   493.0000   2000.0000   2000.0000      1.4384    159.4865
   493.2500   2000.0000   2000.0000      1.4350    107.6710
   493.5000   2000.0000   2000.0000      1.4279    108.7665
   493.7500   2000.0000   2000.0000      1.4270    108.8395
   494.0000   2000.0000   2000.0000      1.4529    107.9797
   494.2500   2000.0000   2000.0000      1.5423    106.6106
   494.5000   2000.0000   2000.0000      1.7587    103.4266
   494.7500   2000.0000   2000.0000      2.2303    101.2234
   495.0000   2000.0000   2000.0000      3.2866     99.7391
   495.2500   2000.0000   2000.0000      6.1291    100.8800
   495.5000   2000.0000   2000.0000     21.0713    106.0618
   495.7500   2000.0000   2000.0000 100000.0000    111.1946
   496.0000   2000.0000   2000.0000 100000.0000    119.3636
   496.2500   2000.0000   2000.0000 100000.0000    123.7749
   496.5000   2000.0000   2000.0000 100000.0000    127.3515
   496.7500   2000.0000   2000.0000 100000.0000    127.7974
   497.0000   2000.0000   2000.0000 100000.0000    127.0891
   497.2500   2000.0000   2000.0000     47.8173    126.7022
   497.5000   2000.0000   2000.0000      5.3093    127.2044
   497.7500   2000.0000   2000.0000      2.7701    128.3797
   498.0000   2000.0000   2000.0000      2.1147    131.0805
   498.2500   2000.0000   2000.0000      2.0622    132.9517
   498.5000   2000.0000   2000.0000      2.4636    134.3392
   498.7500   2000.0000   2000.0000      3.5996    133.4806
   499.0000   2000.0000   2000.0000      6.8363    129.1945
   499.2500   2000.0000   2000.0000     23.4430    125.0042
   499.5000   2000.0000   2000.0000 100000.0000    118.5465
   499.7500   2000.0000   2000.0000 100000.0000    114.9303
   500.0000   2000.0000   2000.0000 100000.0000    110.9730
   500.2500   2000.0000   2000.0000 100000.0000    109.1733
   500.5000   2000.0000   2000.0000    185.5754    107.0940
   500.7500   2000.0000   2000.0000     33.3494    105.5959
   501.0000   2000.0000   2000.0000     21.0067    102.4584
   501.2500   2000.0000   2000.0000     17.4642     99.8035
   501.5000   2000.0000   2000.0000     16.5464     96.0972
   501.7500   2000.0000   2000.0000     16.8690     94.8338
   502.0000   2000.0000   2000.0000     17.9218     95.9004
   502.2500   2000.0000   2000.0000     19.3227     98.2288
   502.5000   2000.0000   2000.0000     20.5926    101.7638
   502.7500   2000.0000   2000.0000     21.3432    102.6061
   503.0000   2000.0000   2000.0000     21.7224    100.6915
   503.2500   2000.0000   2000.0000     22.4830     98.1347
   503.5000   2000.0000   2000.0000     24.7207     94.9786
   503.7500   2000.0000   2000.0000     29.9911     94.4953
   504.0000   2000.0000   2000.0000     41.1714     96.5987
   504.2500   2000.0000   2000.0000     63.8103     99.4272
   504.5000   2000.0000   2000.0000    102.0096    104.8725
   504.7500   2000.0000   2000.0000    128.1868    108.9155
   505.0000   2000.0000   2000.0000    106.8997    115.0220
   505.2500   2000.0000   2000.0000     75.7125    118.8633
   505.5000   2000.0000   2000.0000     56.1503    124.2915
   505.7500   2000.0000   2000.0000     45.8618    127.7509
   506.0000   2000.0000   2000.0000     41.1113    131.9970
   506.2500   2000.0000   2000.0000     39.8272    133.3345
   506.5000   2000.0000   2000.0000     40.8925    132.1307
   506.7500   2000.0000   2000.0000     43.5225    129.4340
   507.0000   2000.0000   2000.0000     46.9387    123.9249
   507.2500   2000.0000   2000.0000     50.3014    120.0548
   507.5000   2000.0000   2000.0000     52.8387    114.6701
   507.7500   2000.0000   2000.0000     54.0471    111.5381
   508.0000   2000.0000   2000.0000     53.7880    108.1372
   508.2500   2000.0000   2000.0000     52.2392    107.5069
   508.5000   2000.0000   2000.0000     49.7513    110.5736
   508.7500   2000.0000   2000.0000     46.6991    115.6904
   509.0000   2000.0000   2000.0000     43.3966    126.8375
   509.2500   2000.0000   2000.0000     40.0892    134.8999
   509.5000   2000.0000   2000.0000     36.9734    144.6185
   509.7500   2000.0000   2000.0000     34.2101    148.2847
   510.0000   2000.0000   2000.0000     31.9096    149.5940
   510.2500   2000.0000   2000.0000     30.1096    148.6385
   510.5000   2000.0000   2000.0000     28.7691    146.4567
   510.7500   2000.0000   2000.0000     27.7805    145.3097
   511.0000   2000.0000   2000.0000     27.0033    144.5115
   511.2500   2000.0000   2000.0000     26.3073    144.4849
   511.5000   2000.0000   2000.0000     25.6089    144.8570
   511.7500   2000.0000   2000.0000     24.8844    145.2365
   512.0000   2000.0000   2000.0000     24.1575    145.8239
   512.2500   2000.0000   2000.0000     23.4793    146.0858
   512.5000   2000.0000   2000.0000     22.9055    145.9314
   512.7500   2000.0000   2000.0000     22.4700    145.2298
   513.0000   2000.0000   2000.0000     22.1640    143.0253
   513.2500   2000.0000   2000.0000     21.9355    140.8172
