~Version Information
VERS.                      2.0: CWLS Log ASCII Standard - VERSION 2.0
WRAP.                       NO: One line per depth step
~Well Information Block
STRT.FT                 0.0000: 
STOP.FT              2025.0000: 
STEP.FT                 0.2500: 
NULL.                -999.2500: 
COMP.          Petrogulf Corporation: COMPANY
WELL.          Robinson 15-12V: WELL
FLD.           Purgatorie River: FIELD
LOC.           1788' FNL & 466' FWL: LOCATION
PROV.                 Colorado: PROVINCE
CNTY.               Las Animas: COUNTRY
SRVC.                Patterson: SERVICE COMPANY
DATE.          Tue Oct 04 11:57:31 2005: LOG DATE
UWI.                          : UNIQUE WELL ID
~Curve Information Block
DEPT.FT            0 000 00 00: Depth
GR.GAPI                       : Gamma Ray
CCL.                          : Casing Collar Locator
TT3.usec                      : CBL 3' Travel Time
AMP3.mV                       : CBL 3' Amplitude
~Parameter Information Block
~A  Depth        GR         CCL         TT3         AMP3    
# ...
  1440.5000     50.3507      0.0000    767.9754      2.9520
  1440.7500     57.3537      0.0000    765.1879      2.9548
  1441.0000     70.2215      0.0000    760.4000      2.9774
  1441.2500     87.2615      0.0000    747.0721      3.0289
  1441.5000    105.0857      0.0000    723.5437      3.1033
  1441.7500    119.8802      0.0000    702.4671      3.1964
  1442.0000    129.2602      0.0000    694.1658      3.2977
  1442.2500    133.0703      0.0000    696.0515      3.3992
  1442.5000    132.6519      0.0000    699.0713      3.5151
  1442.7500    129.5903      0.0000    697.5969      3.6628
  1443.0000    125.2516      0.0000    693.1793      3.8237
  1443.2500    121.3036      0.0000    689.8248      3.9500
  1443.5000    119.9449      0.0000    689.2762      4.0179
  1443.7500    122.8968      0.0000    691.8508      4.0622
  1444.0000    129.9166      0.0000    698.2941      4.1365
  1444.2500    138.4597      0.0000    708.6326      4.2524
  1444.5000    145.2822      0.0000    719.3939      4.3795
  1444.7500    148.7211      0.0000    724.6134      4.4906
  1445.0000    149.3570      0.0000    721.4026      4.5974
  1445.2500    148.6383      0.0000    712.9168      4.7403
  1445.5000    147.4290      0.0000    704.6394      4.9349
  1445.7500    145.9274      0.0000    699.2942      5.1450
  1446.0000    144.1713      0.0000    697.9765      5.3188
  1446.2500    142.1237      0.0000    703.6553      5.4462
  1446.5000    139.8048      0.0000    716.5891      5.5603
  1446.7500    137.7295      0.0000    729.3344      5.6789
  1447.0000    136.7281      0.0000    735.5456      5.7742
  1447.2500    136.8711      0.0000    737.6517      5.8195
  1447.5000    136.9755      0.0000    740.1052      5.8326
  1447.7500    135.7596      0.0000    745.2953      5.8525
  1448.0000    133.2841      0.0000    757.8784      5.9161
  1448.2500    130.8354      0.0000    785.1500      6.0542
  1448.5000    129.5750      0.0000    831.0203      6.2151
  1448.7500    129.5028      0.0000    888.9522      6.2166
  1449.0000    129.4584      0.0000    939.4944      5.9960
  1449.2500    128.0764      0.0000    964.5041      5.8244
  1449.5000    125.0574      0.0000    968.1271      5.9915
  1449.7500    121.5570      0.0000    966.6916      6.4618
  1450.0000    119.2514      2.0000    962.6145      6.9943
  1450.2500    119.1244      0.0000    945.8553      7.4002
  1450.5000    120.9794      0.0000    910.2487      7.6057
  1450.7500    123.5975      0.0000    862.7719      7.6338
  1451.0000    125.3546      0.0000    821.0858      7.6414
  1451.2500    125.1836      0.0000    798.1514      7.7320
  1451.5000    123.3593      0.0000    792.0771      7.7041
  1451.7500    121.3139      0.0000    791.9689      7.4467
  1452.0000    120.2545      0.0000    788.0026      7.2891
  1452.2500    119.8174      0.0000    773.9933      7.4393
  1452.5000    118.5790      0.0000    747.7282      7.6616
  1452.7500    116.1760      0.0000    715.8083      7.7289
  1453.0000    114.3281      0.0000    690.7208      7.6654
  1453.2500    115.3111      0.0000    678.2581      7.5616
  1453.5000    119.8438      0.0000    675.2226      7.4538
  1453.7500    126.8213      0.0000    678.8627      7.3583
  1454.0000    134.4768      0.0000    691.9960      7.2970
  1454.2500    141.2154      0.0000    717.4288      7.2812
  1454.5000    145.8512      0.0000    748.8623      7.2942
  1454.7500    147.8899      0.0000    773.6459      7.3070
  1455.0000    147.6178      0.0000    785.9392      7.3071
  1455.2500    145.5203      0.0000    789.7056      7.2941
  1455.5000    141.7313      0.0000    790.6318      7.2704
  1455.7500    136.3925      0.0000    791.6567      7.2558
  1456.0000    130.2997      0.0000    793.5018      7.2758
  1456.2500    124.7375      0.0000    793.9084      7.3211
  1456.5000    120.7013      0.0000    786.9019      7.3539
  1456.7500    118.4574      0.0000    767.7441      7.3603
  1457.0000    117.7156      0.0000    739.4712      7.3587
  1457.2500    117.9526      0.0000    713.0142      7.3630
  1457.5000    118.5232      0.0000    700.6079      7.3718
  1457.7500    118.7749      0.0000    706.1813      7.3771
  1458.0000    118.4422      0.0000    721.7457      7.3625
  1458.2500    118.0396      0.0000    735.8388      7.3124
  1458.5000    118.6861      0.0000    744.5208      7.2398
  1458.7500    121.2952      0.0000    752.0599      7.1916
  1459.0000    125.6994      0.0000    763.7054      7.2032
  1459.2500    130.6188      0.0000    780.1032      7.2600
  1459.5000    134.5612      0.0000    797.0502      7.3228
  1459.7500    136.6574      0.0000    808.3947      7.3731
  1460.0000    136.8094      0.0000    810.0554      7.4221
  1460.2500    135.4318      0.0000    804.0172      7.4881
  1460.5000    133.0517      0.0000    796.1711      7.5673
  1460.7500    129.9939      0.0000    788.5319      7.6367
  1461.0000    126.5483      0.0000    777.0878      7.6868
  1461.2500    123.2376      0.0000    759.4518      7.7226
  1461.5000    120.4791      0.0000    741.1675      7.7425
  1461.7500    118.1895      0.0000    727.4991      7.7351
  1462.0000    116.1975      0.0000    714.6772      7.6949
  1462.2500    114.7260      0.0000    699.6760      7.6388
  1462.5000    114.0166      0.0000    688.6772      7.6062
  1462.7500    113.9006      0.0000    689.1948      7.6262
  1463.0000    114.1421      0.0000    701.9752      7.6839
  1463.2500    114.7776      0.0000    720.3461      7.7425
  1463.5000    115.6931      0.0000    735.2901      7.7862
  1463.7500    116.3108      0.0000    743.0050      7.8310
  1464.0000    116.2736      0.0000    745.7517      7.9026
  1464.2500    116.3273      0.0000    746.7941      8.0132
  1464.5000    117.9610      0.0000    747.8684      8.1549
  1464.7500    122.0127      0.0000    750.0106      8.3053
  1465.0000    127.7820      0.0000    754.1189      8.4310
  1465.2500    133.3969      0.0000    759.2397      8.5081
  1465.5000    136.9047      0.0000    761.4893      8.5447
  1465.7500    137.3864      0.0000    758.5000      8.5711
  1466.0000    135.6168      0.0000    753.4625      8.6041
  1466.2500    133.7050      0.0000    751.3470      8.6275
  1466.5000    133.6081      0.0000    754.6161      8.6087
  1466.7500    135.6077      0.0000    762.6237      8.5344
  1467.0000    138.2095      0.0000    770.9691      8.4402
  1467.2500    139.6003      0.0000    774.3397      8.3887
  1467.5000    139.0705      0.0000    771.9086      8.4094
  1467.7500    137.0455      0.0000    765.9951      8.4802
  1468.0000    134.2119      0.0000    758.5086      8.5562
  1468.2500    130.8955      0.0000    751.8339      8.5932
  1468.5000    126.9957      0.0000    747.9576      8.5678
  1468.7500    122.5082      0.0000    746.5821      8.5040
  1469.0000    118.3040      0.0000    746.6388      8.4470
  1469.2500    116.0765      0.0000    748.1224      8.4088
  1469.5000    116.9271      0.0000    751.9946      8.3637
  1469.7500    120.0226      0.0000    758.2208      8.2855
  1470.0000    123.1444      0.0000    764.1786      8.1874
  1470.2500    124.6042      0.0000    766.9955      8.1204
  1470.5000    124.2481      0.0000    766.3805      8.1224
  1470.7500    122.6959      0.0000    764.3593      8.1965
  1471.0000    120.3535      0.0000    763.0078      8.3284
  1471.2500    117.5442      0.0000    761.1558      8.4871
  1471.5000    115.0111      0.0000    756.5010      8.6300
  1471.7500    113.5898      0.0000    750.7487      8.7337
  1472.0000    113.4251      0.0000    747.7810      8.7998
  1472.2500    113.8969      0.0000    749.5497      8.8293
  1472.5000    114.3548      0.0000    755.2758      8.8192
  1472.7500    114.8225      0.0000    762.1110      8.7823
  1473.0000    115.9077      0.0000    767.1492      8.7353
  1473.2500    117.9078      0.0000    766.8990      8.6633
  1473.5000    119.9776      0.0000    755.6388      8.5352
  1473.7500    120.5202      0.0000    732.5306      8.3534
