~Version Information
VERS.                      2.0: CWLS Log ASCII Standard - VERSION 2.0
WRAP.                       NO: One line per depth step
~Well Information Block
STRT.FT                -5.7500: 
STOP.FT              1965.7500: 
STEP.FT                 0.2500: 
NULL.                -999.2500: 
COMP.          Pioneer Natural Resources: COMPANY
WELL.          Easton 12-30 Tr: WELL
FLD.           Purgatorie River: FIELD
LOC.           549' FWL & 2416' FNL--: LOCATION
PROV.                       CO: PROVINCE
CNTY.               Las Animas: COUNTRY
SRVC.          Patterson Wireline: SERVICE COMPANY
DATE.          Mon Jun 06 16:13:03 2005: LOG DATE
UWI.           05 071 08379 00: UNIQUE WELL ID
~Curve Information Block
DEPT.FT            0 000 00 00: Depth
CCL.                          : Casing Collar Locator
TT3.usec                      : CBL 3' Travel Time
AMP3.mV                       : CBL 3' Amplitude
GR.GAPI                       : Gamma Ray
~Parameter Information Block
~A  Depth       CCL         TT3         AMP3         GR     
    -5.7500   -999.2500   -999.2500   -999.2500     59.5171
    -5.5000   -999.2500   -999.2500   -999.2500     62.5498
    -5.2500   -999.2500   -999.2500   -999.2500     65.7408
    -5.0000   -999.2500   -999.2500   -999.2500     67.6181
    -4.7500   -999.2500   -999.2500   -999.2500     67.6888
    -4.5000   -999.2500   -999.2500   -999.2500     66.5659
    -4.2500   -999.2500   -999.2500   -999.2500     65.5525
    -4.0000   -999.2500   -999.2500   -999.2500     65.6457
    -3.7500   -999.2500   -999.2500   -999.2500     66.5213
    -3.5000   -999.2500   -999.2500   -999.2500     66.7629
    -3.2500   -999.2500   -999.2500   -999.2500     65.3681
    -3.0000   -999.2500   -999.2500   -999.2500     62.7303
    -2.7500   -999.2500   -999.2500   -999.2500     60.0284
    -2.5000   -999.2500   -999.2500   -999.2500     58.0690
    -2.2500   -999.2500   -999.2500   -999.2500     56.9633
    -2.0000   -999.2500   -999.2500   -999.2500     56.6713
    -1.7500   -999.2500   -999.2500   -999.2500     57.4183
    -1.5000   -999.2500   -999.2500   -999.2500     59.2803
    -1.2500   -999.2500   -999.2500   -999.2500     61.5798
    -1.0000   -999.2500   -999.2500   -999.2500     63.3312
    -0.7500   -999.2500   1164.0000      0.5379     64.3945
    -0.5000   -999.2500   1164.0000      0.5717     65.4618
    -0.2500   -999.2500   1164.0000      0.6013     66.5119
     0.0000   -999.2500   1164.0000      0.5922     63.9435
     0.2500   -999.2500   1164.0000      0.5850     59.2907
     0.5000   -999.2500   1164.0000      0.5923     54.2732
     0.7500   -999.2500   1164.0000      0.6144     50.0884
     1.0000   -999.2500   1164.0000      0.6406     46.4522
     1.2500   -999.2500   1164.0000      0.6593     42.4327
     1.5000   -999.2500   1164.0000      0.6646     37.6894
     1.7500   -999.2500   1164.0000      0.6555     32.7111
     2.0000   -999.2500   1164.0000      0.6325     28.2190
     2.2500   -999.2500   1164.0000      0.5976     24.6336
     2.5000   -999.2500   1164.0000      0.5573     22.0217
     2.7500   -999.2500   1164.0000      0.5219     20.4862
     3.0000   -999.2500   1164.0000      0.5008     20.6685
     3.2500   -999.2500   1164.0000      0.4997     23.6006
     3.5000   -999.2500   1164.0000      0.5196     29.5710
     3.7500   -999.2500   1164.0000      0.5550     37.1370
     4.0000   -999.2500   1164.0000      0.5932     43.8035
     4.2500   -999.2500   1164.0000      0.6194     47.9647
     4.5000      0.0000   1164.0000      0.6286     49.9286
     4.7500      0.0000   1164.0000      0.6287     50.8892
     5.0000      0.0000   1164.0000      0.6320     51.2691
     5.2500      0.0000   1164.0000      0.6447     50.4900
     5.5000      0.0000   1164.0000      0.6632     48.2254
     5.7500      0.0000   1164.0000      0.6796     45.2969
     6.0000      0.0000   1164.0000      0.6868     43.1703
     6.2500      0.0000   1164.0000      0.6825     43.0101
     6.5000      0.0000   1164.0000      0.6684     45.3994
     6.7500      0.0000   1164.0000      0.6460     50.3794
     7.0000      2.0000   1164.0000      0.6144     57.1354
     7.2500      2.0000   1164.0000      0.5736     63.8191
     7.5000      0.0000   1164.0000      0.5303     68.3701
     7.7500      0.0000   1164.0000      0.4971     69.8800
     8.0000      0.0000   1164.0000      0.4865     69.0277
     8.2500      0.0000   1164.0000      0.5042     67.1180
     8.5000      0.0000   1164.0000      0.5452     64.9727
     8.7500      0.0000   1164.0000      0.5948     62.8462
     9.0000      0.0000   1163.9717      0.6361     60.9416
     9.2500      0.0000   1163.7961      0.6602     59.4581
     9.5000      0.0000   1162.9182      0.6733     58.1218
     9.7500      0.0000   1159.5101      0.7009     56.1465
    10.0000      0.0000   1149.2716      0.7999     53.1355
    10.2500      0.0000   1125.4913      1.0751     49.9466
    10.5000      0.0000   1082.8857      1.6611     48.1172
    10.7500      0.0000   1024.1759      2.6352     48.2137
    11.0000      0.0000    962.1872      3.9094     49.2069
    11.2500      0.0000    912.3182      5.2299     49.7122
    11.5000      0.0000    882.0443      6.3280     49.4372
    11.7500      0.0000    868.4650      7.0857     49.1618
    12.0000      0.0000    864.2310      7.5554     49.6888
    12.2500      0.0000    863.6177      7.8523     51.1443
    12.5000      0.0000    863.9564      8.0571     53.0563
    12.7500      0.0000    864.1101      8.1999     54.7403
    13.0000      0.0000    863.3318      8.2881     55.6258
    13.2500      0.0000    861.4834      8.3287     55.3952
    13.5000      0.0000    858.9886      8.3327     53.9987
    13.7500      0.0000    855.7627      8.3125     51.8128
    14.0000      0.0000    850.6649      8.2794     49.8364
    14.2500      0.0000    842.4367      8.2423     49.3562
    14.5000      0.0000    830.9188      8.2081     51.0373
    14.7500      0.0000    817.2171      8.1795     54.4386
    15.0000      0.0000    802.1860      8.1543     58.6129
    15.2500      0.0000    783.4249      8.1290     63.0194
    15.5000      0.0000    753.6640      8.1066     67.5460
    15.7500      0.0000    704.5603      8.0988     71.8174
    16.0000      0.0000    635.1609      8.1188     75.1117
    16.2500      0.0000    556.9167      8.1750     77.0867
    16.5000      0.0000    487.8083      8.2680     78.0130
    16.7500      0.0000    440.1794      8.3921     78.2081
    17.0000      0.0000    414.5792      8.5338     77.9674
    17.2500      0.0000    403.8375      8.6743     78.1982
    17.5000      0.0000    400.3066      8.7960     80.3117
    17.7500      0.0000    399.3874      8.8895     85.0249
    18.0000      0.0000    399.1916      8.9559     91.4671
    18.2500      0.0000    399.1703      9.0025     97.5735
    18.5000      0.0000    399.2361      9.0368    101.3452
    18.7500      0.0000    399.6319      9.0611    101.9935
    19.0000      0.0000    401.3347      9.0705     99.9818
    19.2500      0.0000    406.8681      9.0576     96.0955
    19.5000      0.0000    420.7389      9.0185     90.9208
    19.7500      0.0000    448.4219      8.9579     85.3615
    20.0000      0.0000    494.6223      8.8838     80.8158
    20.2500      0.0000    562.9499      8.7853     78.0876
    20.5000      0.0000    655.0570      8.6248     76.4549
    20.7500      0.0000    765.2821      8.3825     74.4462
    21.0000      0.0000    876.5185      8.1103     71.4120
    21.2500      0.0000    967.3488      7.9019     68.0323
    21.5000      0.0000   1025.4677      7.8040     65.6231
    21.7500      0.0000   1052.3401      7.7855     65.2644
    22.0000      2.0000   1057.4213      7.7905     67.1720
    22.2500      0.0000   1051.0225      7.7888     70.4010
    22.5000      0.0000   1039.0505      7.7808     73.1990
    22.7500      0.0000   1019.5197      7.7849     73.8802
    23.0000      0.0000    984.5401      7.8327     71.6590
    23.2500      0.0000    928.0906      7.9598     67.1392
    23.5000      0.0000    852.2436      8.1903     62.0962
    23.7500      0.0000    766.0100      8.5318     58.4112
    24.0000      0.0000    679.5281      8.9655     57.0705
    24.2500      0.0000    599.5817      9.4279     58.0867
    24.5000      0.0000    529.0643      9.8278     60.6827
    24.7500      0.0000    470.1871     10.1061     63.3084
    25.0000      0.0000    427.8652     10.2665     64.3116
    25.2500      0.0000    408.8634     10.3481     63.2266
    25.5000      0.0000    417.6111     10.3866     61.1946
    25.7500      0.0000    451.6653     10.4068     59.9387
    26.0000      0.0000    498.1612     10.4323     60.3440
    26.2500      0.0000    536.6379     10.4822     61.8544
    26.5000      0.0000    552.2980     10.5553     63.1254
    26.7500      0.0000    548.0355     10.6263     63.2897
    27.0000      0.0000    538.4071     10.6678     62.5084
    27.2500      0.0000    531.7965     10.6752     61.4211
    27.5000      0.0000    524.2767     10.6655     60.4880
