~Version Information
VERS.                      2.0: CWLS Log ASCII Standard - VERSION 2.0
WRAP.                       NO: One line per depth step
~Well Information Block
STRT.FT               -11.0000: 
STOP.FT              2634.5000: 
STEP.FT                 0.2500: 
NULL.                -999.2500: 
COMP.          Evergreen Operating Corporation: COMPANY
WELL.          Sand PebbleS 13-33: WELL
FLD.           Purgatorie River: FIELD
LOC.           1883' FSL & 63' FWL--: LOCATION
PROV.                 Colorado: PROVINCE
CNTY.               Las Animas: COUNTRY
SRVC.          Patterson Wireline: SERVICE COMPANY
DATE.          Fri Mar 18 09:37:20 2005: LOG DATE
UWI.          005 071 08224 : UNIQUE WELL ID
~Curve Information Block
DEPT.FT            0 000 00 00: Depth
CCL.                          : Casing Collar Locator
TT3.usec                      : CBL 3' Travel Time
AMP3.mV                       : CBL 3' Amplitude
GR.GAPI                       : Gamma Ray
~Parameter Information Block
~A  Depth       CCL         TT3         AMP3         GR     
# ...
  2434.5000      0.0000    517.8481      5.0326     87.5477
  2434.7500      0.0000    481.7447      5.0432     97.1680
  2435.0000      0.0000    442.0828      5.0284    105.7169
  2435.2500      0.0000    412.8250      5.0191    111.2534
  2435.5000      0.0000    397.5475      4.9976    113.5748
  2435.7500      0.0000    391.7249      4.9327    114.4292
  2436.0000      0.0000    389.5688      4.8269    115.6888
  2436.2500      0.0000    387.8643      4.7129    117.7901
  2436.5000      0.0000    385.8648      4.6186    120.0531
  2436.7500      0.0000    383.8335      4.5587    121.5813
  2437.0000      0.0000    382.0791      4.5465    121.5136
  2437.2500      0.0000    380.6685      4.5877    119.3883
  2437.5000      0.0000    379.5205      4.6651    115.9543
  2437.7500      0.0000    378.5276      4.7484    113.0727
  2438.0000      0.0000    377.6263      4.8171    112.2139
  2438.2500      0.0000    376.8086      4.8629    113.2248
  2438.5000      0.0000    376.1218      4.8705    114.8105
  2438.7500      0.0000    375.6665      4.8154    115.8678
  2439.0000      0.0000    375.6143      4.6925    116.0352
  2439.2500      0.0000    376.3311      4.5436    115.4310
  2439.5000      0.0000    378.5315      4.4397    114.4797
  2439.7500      0.0000    383.0590      4.4252    113.6663
  2440.0000      0.0000    390.3318      4.4830    112.6739
  2440.2500      0.0000    400.3817      4.5626    109.8965
  2440.5000      0.0000    414.4050      4.6312    103.6313
  2440.7500      0.0000    436.1269      4.6845     94.0685
  2441.0000      0.0000    469.4691      4.7160     83.7418
  2441.2500      0.0000    512.3134      4.7041     75.7091
  2441.5000      0.0000    553.3704      4.6363     71.2931
  2441.7500      0.0000    578.7632      4.5341     69.5921
  2442.0000      0.0000    582.7916      4.4458     68.8686
  2442.2500      0.0000    569.7170      4.4203     68.1718
  2442.5000      0.0000    545.1430      4.4823     67.8589
  2442.7500      0.0000    510.4009      4.6185     68.9538
  2443.0000      0.0000    467.1725      4.7836     72.1182
  2443.2500      0.0000    422.9212      4.9208     77.0770
  2443.5000      0.0000    387.7552      4.9846     82.7695
  2443.7500      0.0000    367.2136      4.9552     88.0285
  2444.0000      0.0000    360.1956      4.8480     92.3631
  2444.2500      0.0000    363.0485      4.7019     96.2359
  2444.5000      0.0000    374.5793      4.5505    100.5500
  2444.7500      0.0000    397.5813      4.4034    105.7661
  2445.0000      0.0000    435.7054      4.2625    111.2769
  2445.2500      0.0000    487.5170      4.1505    115.4705
  2445.5000      0.0000    543.6155      4.1077    116.6531
  2445.7500      0.0000    591.6719      4.1513    114.1138
  2446.0000      0.0000    625.3953      4.2487    108.3493
  2446.2500      0.0000    647.4775      4.3400    100.6428
  2446.5000      0.0000    663.8573      4.3874     92.7908
  2446.7500      0.0000    677.0281      4.3935     86.8163
  2447.0000      0.0000    685.1028      4.3825     84.2479
  2447.2500      0.0000    685.0790      4.3807     85.4328
  2447.5000      0.0000    675.6870      4.4129     89.5586
  2447.7500      0.0000    658.3510      4.4898     95.2195
  2448.0000      0.0000    636.6071      4.5861    100.8453
  2448.2500      0.0000    613.6981      4.6489    104.9185
  2448.5000      0.0000    589.6017      4.6399    106.4168
  2448.7500      0.0000    561.4364      4.5665    105.3767
  2449.0000      0.0000    528.8052      4.4710    102.9911
  2449.2500      0.0000    498.7787      4.3906    100.8576
  2449.5000      0.0000    483.9303      4.3187     99.6709
  2449.7500      0.0000    493.9335      4.2047     98.3985
  2450.0000      0.0000    527.1876      4.0186     94.9959
  2450.2500      0.0000    569.1511      3.8233     88.2902
  2450.5000      0.0000    600.6721      3.7444     79.1883
  2450.7500      0.0000    611.2663      3.8385     69.9387
  2451.0000      0.0000    604.3883      4.0270     62.4209
  2451.2500      0.0000    588.6983      4.1866     57.3544
  2451.5000      0.0000    567.0363      4.2717     54.7185
  2451.7500      0.0000    537.6133      4.3194     54.1547
  2452.0000      0.0000    503.1815      4.3810     54.9788
  2452.2500      0.0000    472.8013      4.4822     56.5279
  2452.5000      0.0000    453.9019      4.6109     58.8615
  2452.7500      0.0000    446.5764      4.7119     62.9440
  2453.0000      0.0000    446.5177      4.7125     69.9307
  2453.2500      0.0000    450.9602      4.5810     79.9495
  2453.5000      0.0000    460.7039      4.3618     91.2704
  2453.7500      0.0000    477.5954      4.1433    100.7868
  2454.0000      0.0000    500.5187      3.9962    105.7511
  2454.2500      0.0000    523.5241      3.9441    105.2661
  2454.5000      0.0000    538.4217      3.9782    100.2951
  2454.7500      0.0000    540.3545      4.0763     92.8221
  2455.0000      0.0000    531.5825      4.2123     85.1280
  2455.2500      0.0000    520.2974      4.3705     79.0133
  2455.5000      0.0000    515.5227      4.5481     75.0158
  2455.7500      0.0000    521.6477      4.7384     72.5612
  2456.0000      0.0000    536.0198      4.9246     70.9366
  2456.2500      0.0000    551.1508      5.0990     69.7614
  2456.5000      0.0000    560.2554      5.2657     68.6616
  2456.7500      0.0000    562.5328      5.4197     67.2083
  2457.0000      0.0000    563.8636      5.5458     65.4694
  2457.2500      0.0000    571.4725      5.6399     64.2992
  2457.5000      0.0000    586.3643      5.7122     64.7323
  2457.7500      0.0000    600.4543      5.7663     67.0666
  2458.0000      0.0000    602.2669      5.7856     70.7604
  2458.2500      0.0000    587.1655      5.7387     75.1454
  2458.5000      0.0000    561.9046      5.5995     79.8109
  2458.7500      0.0000    537.8667      5.3770     84.2521
  2459.0000      0.0000    520.3776      5.1303     87.7017
  2459.2500      0.0000    506.0478      4.9347     89.6719
  2459.5000      0.0000    489.4884      4.8158     90.5283
  2459.7500      0.0000    470.2365      4.7310     91.3005
  2460.0000      0.0000    452.8185      4.6351     92.7718
  2460.2500      0.0000    442.0029      4.5513     94.7811
  2460.5000      0.0000    439.6583      4.5437     96.5326
  2460.7500      0.0000    445.9707      4.6241     97.4740
  2461.0000      0.0000    461.9798      4.7187     97.6393
  2461.2500      0.0000    489.3813      4.7463     97.4947
  2461.5000      0.0000    527.3140      4.7156     97.9801
  2461.7500      0.0000    570.1699      4.7336    100.3138
  2462.0000      0.0000    609.7086      4.9189    104.8297
  2462.2500      0.0000    639.2065      5.2997    109.9905
  2462.5000      0.0000    655.0854      5.7818    113.1184
  2462.7500      0.0000    656.0373      6.1919    112.2899
  2463.0000      0.0000    643.7191      6.3536    107.6326
  2463.2500      0.0000    624.9791      6.1725    101.0369
  2463.5000      0.0000    609.7125      5.7143     94.7280
  2463.7500      0.0000    602.7861      5.2012     90.0123
  2464.0000      0.0000    599.8682      4.8759     87.2131
  2464.2500      0.0000    595.1440      4.8289     86.3918
  2464.5000      0.0000    591.0860      4.9609     87.5231
  2464.7500      0.0000    595.8121      5.0892     89.8195
  2465.0000      0.0000    612.3670      5.0693     91.5415
  2465.2500      0.0000    635.6492      4.8521     91.0627
  2465.5000     -2.0000    658.7341      4.4930     87.9034
  2465.7500     -2.0000    677.4260      4.1264     82.5022
  2466.0000      0.0000    688.9518      3.9024     75.5047
  2466.2500      0.0000    690.4784      3.9081     67.8805
  2466.5000      0.0000    680.0126      4.1119     61.3290
  2466.7500      0.0000    657.4929      4.3711     57.5603
  2467.0000      0.0000    625.4799      4.5260     56.7658
  2467.2500      0.0000    590.4351      4.5114     57.2421
  2467.5000      0.0000    562.8932      4.3701     56.9153
  2467.7500      0.0000    553.4996      4.1730     55.0266
