~Version Information
VERS.                      2.0: CWLS Log ASCII Standard - VERSION 2.0
WRAP.                       NO: One line per depth step
~Well Information Block
STRT.FT               553.0000: 
STOP.FT              1576.5000: 
STEP.FT                 0.2500: 
NULL.                -999.2500: 
COMP.          Pioneer Natural Resources: COMPANY
WELL.           Telna 24-22 Tr: WELL
FLD.           Purgatoire River: FIELD
LOC.           748' FSL & 1931' FWL: LOCATION
PROV.                 Colorado: PROVINCE
CNTY.               Las Animas: COUNTRY
SRVC.                Patterson: SERVICE COMPANY
DATE.          Mon May 02 07:15:29 2005: LOG DATE
UWI.           05 071 08304 00: UNIQUE WELL ID
~Curve Information Block
DEPT.FT            0 000 00 00: Depth
DCAL.in                       : CDL Caliper
RHOB.g/cc                     : CDL Bulk Density
RHOC.g/cc                     : CDL Density Correction
DPOR.pu                       : CDL Density Porosity
GR.GAPI                       : Gamma Ray
NPOR.pu                       : Neutron Porosity
~Parameter Information Block
~A  Depth       DCAL        RHOB        RHOC        DPOR         GR         NPOR    
# ...
   817.0000      7.8510      2.5161      0.1075      8.1177    115.5825     18.6550
   817.2500      7.8502      2.5096      0.1200      8.5074    113.4146     15.6953
   817.5000      7.8547      2.4816      0.0429     10.2044    128.1749     12.7658
   817.7500      7.8584      2.4821      0.0723     10.1737    133.4093     19.1231
   818.0000      7.8602      2.4799      0.0213     10.3096    146.9968     43.2784
   818.2500      7.8634      2.4739      0.0651     10.6717    150.0798     54.7355
   818.5000      7.8650      2.4330      0.0263     13.1537    138.7733     13.7951
   818.7500      7.8662      2.4379      0.0189     12.8560    146.3959     19.1430
   819.0000      7.8685      2.4647      0.0324     11.2322    136.3066     23.0582
   819.2500      7.8689      2.4487      0.0197     12.1974    130.4291     19.6145
   819.5000      7.8695      2.4786      0.0553     10.3852    130.8658     20.2692
   819.7500      7.8747      2.4636      0.0640     11.2981    137.4707     21.3965
   820.0000      7.8822      2.4316      0.0482     13.2341    143.7849     21.6671
   820.2500      7.8830      2.4659      0.0617     11.1605    142.5057     23.2605
   820.5000      7.8792      2.4354      0.0088     13.0083    136.6160     21.6731
   820.7500      7.8768      2.4110     -0.0160     14.4827    128.1444     23.9408
   821.0000      7.8757      2.4328      0.0400     13.1640    141.1956     23.4991
   821.2500      7.8765      2.3803     -0.0228     16.3466    144.1347     22.0015
   821.5000      7.8785      2.3819      0.0291     16.2481    153.9273     23.3470
   821.7500      7.8795      2.3360      0.0431     19.0293    146.3335     23.0431
   822.0000      7.8805      2.1226     -0.0597     31.9634    138.6718     25.3048
   822.2500      7.8847      2.0425     -0.1115     36.8212    139.6876     27.1076
   822.5000      7.8886      1.8736      0.0029     47.0549    150.8349     29.2068
   822.7500      7.8983      1.6864      0.0133     58.4012    126.0729     30.6494
   823.0000      7.9381      1.4419     -0.1001     73.2156     96.8059     32.9842
   823.2500      8.0064      1.3671     -0.0484     77.7544     90.5077     33.8283
   823.5000      8.0340      1.4101      0.0871     75.1458     81.5704     31.2651
   823.7500      7.9858      1.4934      0.1174     70.0953     92.3443     33.1365
   824.0000      7.9385      1.5159      0.0431     68.7335     90.8895     32.0619
   824.2500      7.9469      1.4807      0.0544     70.8695     82.3576     34.0866
   824.5000      7.9672      1.4025     -0.0422     75.6087     89.0820     33.4769
   824.7500      7.9712      1.4117      0.0403     75.0506     93.8288     33.3378
   825.0000      7.9548      1.5771      0.0191     65.0232    104.8379     32.0300
   825.2500      7.9085      1.8664      0.1965     47.4896    125.1262     33.6838
   825.5000      7.8522      2.2206      0.1608     26.0260    136.9438     33.3001
   825.7500      7.8224      2.3997      0.1697     15.1688    161.2162     31.0041
   826.0000      7.8161      2.4747      0.0791     10.6262    160.4255     25.7544
   826.2500      7.8157      2.4402      0.0289     12.7149    158.3791     25.9726
   826.5000      7.8161      2.4019      0.0356     15.0392    168.7142     25.3246
   826.7500      7.8171      2.3750      0.0127     16.6681    160.5449     26.8676
   827.0000      7.8186      2.3884      0.0569     15.8572    164.7291     26.8881
   827.2500      7.8190      2.3739      0.0603     16.7332    156.6114     26.6117
   827.5000      7.8180      2.1814      0.1115     28.4030    154.1505     28.5250
   827.7500      7.8155      1.9957     -0.0020     39.6534    154.3486     31.0731
   828.0000      7.8068      1.8759      0.0025     46.9163    142.9692     33.0742
   828.2500      7.7893      1.9493      0.1387     42.4676    142.0753     32.3373
   828.5000      7.7733      2.2700      0.2375     23.0294    128.0391     32.9623
   828.7500      7.7730      2.5216      0.2637      7.7808    118.8589     30.4853
   829.0000      7.7858      2.5744      0.1503      4.5838    107.1857     27.4521
   829.2500      7.7942      2.5423      0.0319      6.5276    101.1948     22.5751
   829.5000      7.7952      2.5659      0.0330      5.0982    103.9169     19.6097
   829.7500      7.7929      2.5857      0.1401      3.8948     98.6994     19.6951
   830.0000      7.7892      2.5482      0.0571      6.1698     93.0391     20.4439
   830.2500      7.7921      2.5258      0.0503      7.5267     96.5778     20.6732
   830.5000      7.8032      2.5106      0.0516      8.4457    111.8994     20.0164
   830.7500      7.8113      2.4681      0.0563     11.0250    122.0592     24.1885
   831.0000      7.8139      2.3280     -0.0182     19.5157    129.6404     27.4045
   831.2500      7.8149      2.1723     -0.0625     28.9491    133.9808     29.3276
   831.5000      7.8163      1.9357     -0.0987     43.2891    128.0307     28.4057
   831.7500      7.8194      1.8660     -0.0787     47.5147    123.5638     30.5435
   832.0000      7.8221      1.8629      0.0856     47.7039    116.6132     31.7112
   832.2500      7.8213      1.9535      0.1637     42.2138    127.1352     31.6600
   832.5000      7.8190      1.9825     -0.0455     40.4545    129.7234     31.1524
   832.7500      7.8176      2.0587      0.1053     35.8353    140.0832     28.3817
   833.0000      7.8167      2.1530      0.0488     30.1182    156.9074     30.8251
   833.2500      7.8156      2.1964      0.0569     27.4904    158.6711     32.0222
   833.5000      7.8146      2.3828      0.0352     16.1928    150.4342     29.4853
   833.7500      7.8142      2.5038      0.1565      8.8621    159.2832     29.1421
   834.0000      7.8140      2.5727      0.2557      4.6824    158.5175     27.8460
   834.2500      7.8137      2.5617      0.1634      5.3501    153.6536     28.4598
   834.5000      7.8125      2.5705      0.1034      4.8185    145.8773     26.9366
   834.7500      7.8093      2.5416      0.0544      6.5701    141.5570     23.1497
   835.0000      7.8569      2.4908      0.0137      9.6461    137.3468     24.8999
   835.2500      7.8719      2.4691     -0.0089     10.9607    146.6963     25.5476
   835.5000      7.8911      2.4937      0.0676      9.4720    143.5344     28.6679
   835.7500      7.9011      2.4961      0.0796      9.3300    151.0132     28.0951
   836.0000      7.9042      2.5018      0.0657      8.9807    157.1123     24.4603
   836.2500      7.9074      2.5031      0.0410      8.9011    141.3272     23.6851
   836.5000      7.9095      2.4537      0.0282     11.8946    142.3096     23.5515
   836.7500      7.9056      2.4270      0.0003     13.5167    154.0032     23.4608
   837.0000      7.9027      2.5124      0.0646      8.3371    157.1353     25.4458
   837.2500      7.9062      2.5038      0.0739      8.8627    164.3183     27.1110
   837.5000      7.9097      2.4205      0.0155     13.9076    146.7803     30.4750
   837.7500      7.9115      2.4591      0.0177     11.5713    142.4101     28.1388
   838.0000      7.9140      2.4928      0.0826      9.5252    135.0688     26.8765
   838.2500      7.9157      2.4702      0.1193     10.8998    125.7804     29.4626
   838.5000      7.9144      2.3764     -0.0168     16.5817    142.7674     29.5432
   838.7500      7.9139      2.3731     -0.0261     16.7810    145.8324     28.4907
   839.0000      7.9151      2.4325      0.1181     13.1798    152.4339     30.7341
   839.2500      7.9156      2.4885      0.2489      9.7888    158.9081     30.1166
   839.5000      7.9172      2.5026      0.1867      8.9351    150.6644     27.9811
   839.7500      7.9233      2.4614      0.1925     11.4289    148.6827     29.0319
   840.0000      7.9337      2.3965      0.0486     15.3612    145.5186     29.2975
   840.2500      7.9404      2.3846      0.0696     16.0827    133.9988     28.7506
   840.5000      7.9404      2.3545      0.1468     17.9113    143.2602     27.1273
   840.7500      7.9252      2.3124      0.0599     20.4584    145.9534     28.2369
