~Version Information
 VERS.                                  2.0 : CWLS LAS VERSION
 WRAP.                                   NO : WRAPING MODE
 SWARE .                 MController 2.5.0J : SOFTWARE VERSION
~Well Information
 WELL.                      Robinson 15-12V : WELL
 COMP.                Petrogulf Corporation : COMPANY
 FLD.                      Purgatoire River : FIELD
 LOC.                SW/NW Sec 15 T33S R67W : LOCATION
 DATE.                             09/10/05 : DATE(S) LOGGED
 SRVC.       BLANCO Geological Services LLC : SERVICE COMPANY
 STAT.                                   CO : STATE
 CNTY.                           Las Animas : COUNTY
 CTRY.                                  USA : COUNTRY
 API.                       05-071-08308-00 : API NUMBER
 STRT.FT                              52.00 : START DEPTH
 STOP.FT                            2041.00 : STOP DEPTH
 STEP.FT                               1.00 : DEPTH INCREMENT
 NULL.                                -9999 : NULL VALUE
~Curve information
 DEPTH.FT                                   :
 ROP.MIN/FT                                 :
 GAS.UNITS                                  :
~ASCII Log data
# ...
       652.0         0.17         34.7 
       653.0         0.10         36.4 
       654.0         0.07         39.3 
       655.0         0.10         47.4 
       656.0         0.13         57.5 
       657.0         0.17         64.4 
       658.0         1.17        254.9 
       659.0         0.25        254.9 
       660.0         0.23        226.9 
       661.0         0.20        175.1 
       662.0         0.20        139.5 
       663.0         0.17        115.0 
       664.0         0.23        100.5 
       665.0         0.20         86.7 
       666.0         0.27         78.8 
       667.0         0.23         72.2 
       668.0         0.23         68.4 
       669.0         0.23         66.4 
       670.0         0.23         64.5 
       671.0         0.20         63.4 
       672.0         0.17         62.5 
       673.0         0.13         62.6 
       674.0         0.07         64.7 
       675.0         0.10         73.6 
       676.0         0.08         82.3 
       677.0         0.17        103.7 
       678.0         0.13        117.2 
       679.0         0.17        125.4 
       680.0         0.17        127.5 
       681.0         0.23        127.4 
       682.0         0.17        125.1 
       683.0         0.20        122.7 
       684.0         0.23        119.0 
       685.0         0.23        115.2 
       686.0         0.23        111.9 
       687.0         0.27        108.4 
       688.0         1.48        337.0 
       689.0         0.27        279.7 
       690.0         0.27        219.9 
       691.0         0.20        178.9 
       692.0         0.23        155.5 
       693.0         0.20        137.8 
       694.0         0.17        126.2 
       695.0         0.20        117.1 
       696.0         0.17        108.4 
       697.0         0.17        105.0 
       698.0         0.17        104.0 
       699.0         0.22        103.4 
       700.0         0.23        102.0 
       701.0         0.17        100.4 
       702.0         0.17         98.4 
       703.0         0.17         95.9 
       704.0         0.17         93.1 
       705.0         0.27         94.0 
       706.0         0.20         95.7 
       707.0         0.27         96.1 
       708.0         0.23         95.9 
       709.0         0.23         94.8 
       710.0         0.27         92.7 
       711.0         0.28         92.2 
       712.0         0.23         92.0 
       713.0         0.20         91.2 
       714.0         0.13         90.4 
       715.0         0.17         90.0 
       716.0         0.23         90.1 
       717.0         0.17         89.9 
       718.0         1.30        280.6 
       719.0         0.30        272.6 
       720.0         0.25        212.0 
       721.0         0.17        182.4 
       722.0         0.20        164.0 
       723.0         0.23        144.8 
       724.0         0.20        127.3 
       725.0         0.23        115.5 
       726.0         0.20        105.5 
       727.0         0.23         99.2 
       728.0         0.33         93.7 
       729.0         0.33         88.2 
       730.0         0.27         89.1 
       731.0         0.20         93.6 
       732.0         0.23         94.3 
       733.0         0.20         93.2 
       734.0         0.22         91.5 
       735.0         0.17         89.4 
       736.0         0.20         88.1 
       737.0         0.23         88.0 
       738.0         0.20         87.5 
       739.0         0.20         86.8 
       740.0         0.13         84.0 
       741.0         0.10         82.4 
       742.0         0.10         84.8 
       743.0         0.07         89.3 
       744.0         0.17        111.9 
       745.0         0.20        140.2 
       746.0         0.20        153.8 
       747.0         0.23        156.6 
       748.0         1.58        446.8 
       749.0         0.33        425.7 
       750.0         0.27        318.7 
       751.0         0.13        251.3 
       752.0         0.13        222.1 
       753.0         0.10        198.4 
       754.0         0.13        186.2 
       755.0         0.17        175.9 
       756.0         0.10        167.8 
       757.0         0.10        166.4 
       758.0         0.17        174.9 
       759.0         0.20        185.1 
       760.0         0.20        188.2 
       761.0         0.17        188.2 
       762.0         0.23        185.8 
       763.0         0.17        180.4 
       764.0         0.25        176.8 
       765.0         0.23        173.0 
       766.0         0.23        169.7 
       767.0         0.17        165.5 
       768.0         0.23        163.1 
       769.0         0.17        160.4 
       770.0         0.20        158.8 
       771.0         0.20        157.4 
       772.0         0.20        156.7 
       773.0         0.23        156.6 
       774.0         0.23        158.5 
       775.0         0.17        158.2 
       776.0         0.17        154.9 
       777.0         0.17        146.0 
       778.0         1.38       1607.7 
       779.0         0.33       1575.6 
       780.0         0.27       1264.6 
       781.0         0.20       1079.9 
       782.0         0.17        978.3 
       783.0         0.20        918.7 
       784.0         0.20        870.1 
       785.0         0.27        835.5 
       786.0         0.23        801.5 
       787.0         0.30        781.2 
       788.0         0.48        763.1 
       789.0         0.33        739.0 
       790.0         0.23        741.6 
       791.0         0.20        746.0 
       792.0         0.23        746.3 
       793.0         0.27        740.6 
       794.0         0.23        728.5 
       795.0         0.17        718.1 
       796.0         0.17        726.6 
       797.0         0.13        739.0 
       798.0         0.10        747.3 
       799.0         0.10        751.4 
       800.0         0.10        759.0 
       801.0         0.10        764.4 
       802.0         0.07        769.5 
       803.0         0.10        779.6 
       804.0         0.07        793.0 
       805.0         0.10        822.8 
       806.0         0.13        863.1 
       807.0         0.17        898.3 
       808.0         2.12       1653.4 
       809.0         0.30       1246.5 
       810.0         0.20       1078.0 
       811.0         0.23       1009.7 
       812.0         0.23        951.3 
       813.0         0.25        912.6 
       814.0         0.23        886.9 
       815.0         0.17        869.1 
       816.0         0.23        862.8 
       817.0         0.30        851.1 
       818.0         0.20        841.5 
       819.0         0.17        837.4 
       820.0         0.17        836.5 
       821.0         0.13        835.2 
       822.0         0.13        834.6 
       823.0         0.17        833.0 
       824.0         0.20        831.1 
       825.0         0.17        829.5 
       826.0         0.17        829.2 
       827.0         0.20        827.3 
       828.0         0.20        827.3 
       829.0         0.17        828.2 
       830.0         0.28        832.0 
       831.0         0.17        832.6 
       832.0         0.13        831.4 
       833.0         0.17        831.4 
       834.0         0.13        828.2 
       835.0         0.13        824.1 
       836.0         0.10        821.2 
       837.0         0.23        820.0 
       838.0         1.00       1228.1 
       839.0         0.20       1539.1 
       840.0         0.20       1602.9 
       841.0         0.23       1576.3 
       842.0         0.17       1405.2 
       843.0         0.13       1275.4 
       844.0         0.10       1185.9 
       845.0         0.10       1131.3 
       846.0         0.12       1086.6 
       847.0         0.13       1045.6 
       848.0         0.10       1016.1 
       849.0         0.10       1006.9 
       850.0         0.13       1006.9 
       851.0         0.10       1012.6 
