~Version Information
VERS.                      2.0: CWLS Log ASCII Standard - VERSION 2.0
WRAP.                       NO: One line per depth step
~Well Information Block
STRT.FT               420.0000: 
STOP.FT              1528.5000: 
STEP.FT                 0.2500: 
NULL.                -999.2500: 
COMP.          Evergreen Operating Corporation: COMPANY
WELL.              Chase 21-10: WELL
FLD.           Purgatoire River: FIELD
LOC.           1122' FNL & 1544' FWL: LOCATION
PROV.                       CO: PROVINCE
CNTY.               Las Animas: COUNTRY
SRVC.                         : SERVICE COMPANY
DATE.          Sun May 23 21:20:45 2004: LOG DATE
UWI.           05 071 08006 00: UNIQUE WELL ID
~Curve Information Block
DEPT.FT            0 000 00 00: Depth
SN.Ohm-m                      : IEL Short Normal
SP.mV                         : IEL Spontaneous Potential
DIR.Ohm-m                     : IEL Induction Resistivity
GR.GAPI                       : Gamma Ray
~Parameter Information Block
~A  Depth        SN          SP         DIR          GR     
# ...
   922.5000     10.0663    109.8910      9.2306    127.6935
   922.7500      9.9512    109.8762      9.1982    128.0981
   923.0000      9.8016    109.8773      9.0998    128.0425
   923.2500      9.6283    109.8912      8.9541    127.3998
   923.5000      9.4437    109.9148      8.7861    125.8188
   923.7500      9.2596    109.9454      8.6207    125.0527
   924.0000      9.0834    109.9807      8.4765    125.9909
   924.2500      8.9169    110.0192      8.3622    128.5244
   924.5000      8.7584    110.0604      8.2759    134.3631
   924.7500      8.6081    110.1044      8.2080    138.4081
   925.0000      8.4710    110.1527      8.1468    142.8791
   925.2500      8.3547    110.2073      8.0829    144.4772
   925.5000      8.2643    110.2708      8.0122    145.5158
   925.7500      8.1990    110.3459      7.9366    145.9313
   926.0000      8.1543    110.4345      7.8617    146.5930
   926.2500      8.1271    110.5378      7.7951    146.8404
   926.5000      8.1184    110.6555      7.7443    146.3387
   926.7500      8.1305    110.7855      7.7153    145.4070
   927.0000      8.1613    110.9247      7.7120    143.9461
   927.2500      8.2017    111.0683      7.7351    143.5793
   927.5000      8.2378    111.2107      7.7820    144.2098
   927.7500      8.2573    111.3456      7.8468    144.8411
   928.0000      8.2556    111.4665      7.9213    144.7400
   928.2500      8.2379    111.5670      7.9964    143.6625
   928.5000      8.2164    111.6419      8.0642    141.2786
   928.7500      8.2049    111.6878      8.1183    140.0008
   929.0000      8.2137    111.7034      8.1547    139.4408
   929.2500      8.2468    111.6906      8.1702    139.7632
   929.5000      8.2997    111.6536      8.1624    139.9477
   929.7500      8.3599    111.5990      8.1303    139.1258
   930.0000      8.4080    111.5346      8.0761    136.3129
   930.2500      8.4237    111.4685      8.0066    133.9701
   930.5000      8.3934    111.4077      7.9316    130.8710
   930.7500      8.3185    111.3577      7.8620    129.2393
   931.0000      8.2165    111.3220      7.8067    127.0949
   931.2500      8.1167    111.3021      7.7718    125.8388
   931.5000      8.0492    111.2975      7.7610    124.8065
   931.7500      8.0339    111.3067      7.7764    125.0754
   932.0000      8.0721    111.3272      7.8175    127.0170
   932.2500      8.1444    111.3566      7.8800    128.9432
   932.5000      8.2141    111.3921      7.9560    131.4241
   932.7500      8.2375    111.4314      8.0360    131.8614
   933.0000      8.1800    111.4726      8.1143    129.6699
   933.2500      8.0366    111.5145      8.1925    126.4247
   933.5000      7.8527    111.5565      8.2806    120.4063
   933.7500      7.7281    111.5988      8.3936    117.1137
   934.0000      7.7952    111.6427      8.5479    115.9134
   934.2500      8.1716    111.6902      8.7578    118.4193
   934.5000      8.9087    111.7441      9.0351    126.3903
   934.7500      9.9648    111.8070      9.3893    133.1502
   935.0000     11.2216    111.8811      9.8267    142.7800
   935.2500     12.5356    111.9678     10.3485    147.6512
   935.5000     13.7958    112.0676     10.9491    151.7549
   935.7500     14.9534    112.1793     11.6170    152.4777
   936.0000     16.0184    112.3009     12.3401    151.1363
   936.2500     17.0341    112.4294     13.1121    149.0018
   936.5000     18.0544    112.5605     13.9368    144.8481
   936.7500     19.1317    112.6897     14.8270    141.9944
   937.0000     20.3118    112.8116     15.7990    137.5679
   937.2500     21.6274    112.9207     16.8670    133.7516
   937.5000     23.0908    113.0120     18.0374    125.3875
   937.7500     24.6886    113.0812     19.3046    118.2237
   938.0000     26.3860    113.1255     20.6443    107.3019
   938.2500     28.1366    113.1442     22.0022    101.3485
   938.5000     29.8884    113.1390     23.2844     95.0099
   938.7500     31.5783    113.1139     24.3646     91.5278
   939.0000     33.1165    113.0744     25.1208     85.2465
   939.2500     34.3736    113.0274     25.4872     80.0631
   939.5000     35.1839    112.9798     25.4808     72.4176
   939.7500     35.3743    112.9377     25.1770     68.6551
   940.0000     34.8165    112.9061     24.6583     65.9416
   940.2500     33.4857    112.8881     23.9820     65.9495
   940.5000     31.4939    112.8850     23.1796     68.3765
   940.7500     29.0708    112.8963     22.2727     71.7428
   941.0000     26.4939    112.9200     21.2820     79.9901
   941.2500     24.0069    112.9529     20.2261     87.7159
   941.5000     21.7695    112.9913     19.1197    101.5646
   941.7500     19.8547    113.0316     17.9785    111.0238
   942.0000     18.2731    113.0705     16.8273    123.6962
   942.2500     16.9961    113.1061     15.7026    130.7993
   942.5000     15.9695    113.1382     14.6453    139.3782
   942.7500     15.1257    113.1681     13.6903    143.3492
   943.0000     14.3987    113.1992     12.8579    145.9084
   943.2500     13.7397    113.2361     12.1534    145.5147
   943.5000     13.1248    113.2838     11.5704    143.2968
   943.7500     12.5515    113.3470     11.0959    141.7222
   944.0000     12.0301    113.4288     10.7140    140.1097
   944.2500     11.5743    113.5303     10.4076    139.6212
   944.5000     11.1950    113.6501     10.1585    139.8580
   944.7500     10.8977    113.7845      9.9488    140.8333
   945.0000     10.6813    113.9275      9.7636    143.6655
   945.2500     10.5391    114.0720      9.5951    146.2706
   945.5000     10.4595    114.2100      9.4443    150.4893
   945.7500     10.4281    114.3338      9.3201    152.9117
   946.0000     10.4297    114.4363      9.2363    154.9856
   946.2500     10.4522    114.5116      9.2081    155.1459
   946.5000     10.4908    114.5553      9.2505    154.3358
   946.7500     10.5518    114.5650      9.3763    153.8730
   947.0000     10.6540    114.5402      9.5946    153.9124
   947.2500     10.8269    114.4827      9.9109    154.0775
   947.5000     11.1053    114.3961     10.3276    153.5973
   947.7500     11.5252    114.2861     10.8451    152.6784
   948.0000     12.1213    114.1596     11.4622    150.8271
   948.2500     12.9284    114.0247     12.1752    149.3960
   948.5000     13.9891    113.8894     12.9782    146.6385
   948.7500     15.3649    113.7615     13.8651    144.0825
   949.0000     17.1477    113.6480     14.8315    138.6745
   949.2500     19.4550    113.5543     15.8770    133.8628
   949.5000     22.3972    113.4844     17.0039    124.8819
   949.7500     26.0147    113.4400     18.2166    117.7987
   950.0000     30.2080    113.4216     19.5192    105.7336
   950.2500     34.7031    113.4274     20.9139     97.2607
   950.5000     39.0817    113.4547     22.3959     85.9239
   950.7500     42.8752    113.4995     23.9460     80.6130
   951.0000     45.6787    113.5571     25.5222     77.1999
   951.2500     47.2340    113.6231     27.0554     77.7373
   951.5000     47.4625    113.6934     28.4513     81.3002
   951.7500     46.4611    113.7651     29.5990     84.4695
   952.0000     44.4809    113.8365     30.3804     89.0987
   952.2500     41.8852    113.9074     30.6827     91.9207
   952.5000     39.0715    113.9789     30.4174     96.3121
   952.7500     36.3704    114.0526     29.5491     99.7230
   953.0000     33.9654    114.1306     28.1229    105.5530
   953.2500     31.8799    114.2145     26.2719    109.4665
   953.5000     30.0319    114.3051     24.1896    114.1601
   953.7500     28.3123    114.4019     22.0788    115.6733
   954.0000     26.6378    114.5033     20.1026    114.1836
   954.2500     24.9631    114.6062     18.3601    110.4253
   954.5000     23.2714    114.7066     16.8887    102.3028
   954.7500     21.5674    114.7998     15.6804     97.4809
   955.0000     19.8787    114.8805     14.7015     95.1196
   955.2500     18.2549    114.9439     13.9076     97.7464
   955.5000     16.7543    114.9859     13.2519    106.8301
   955.7500     15.4237    115.0038     12.6910    114.9125
