~Version Information
VERS.                      2.0: CWLS Log ASCII Standard - VERSION 2.0
WRAP.                       NO: One line per depth step
~Well Information Block
STRT.FT                -2.0000: 
STOP.FT              1016.0000: 
STEP.FT                 0.2500: 
NULL.                -999.2500: 
COMP.          Evergreen Operating Corp.: COMPANY
WELL.              Sunset 24-3: WELL
FLD.           Purgatorie River: FIELD
LOC.           467' FSL & 2262' FWL--: LOCATION
PROV.                       CO: PROVINCE
CNTY.               Las Animas: COUNTRY
SRVC.                         : SERVICE COMPANY
DATE.          Mon Sep 27 13:40:22 2004: LOG DATE
UWI.           005 071 08158  : UNIQUE WELL ID
~Curve Information Block
DEPT.FT            0 000 00 00: Depth
GR.GAPI                       : Gamma Ray
CCL.                          : Casing Collar Locator
TT3.usec                      : CBL 3' Travel Time
AMP3.mV                       : CBL 3' Amplitude
~Parameter Information Block
~A  Depth        GR         CCL         TT3         AMP3    
# ...
   835.5000    100.0482      0.0000    753.0457      5.1050
   835.7500     97.8957      0.0000    752.8847      4.9847
   836.0000     94.0058      0.0000    752.7758      4.8795
   836.2500     89.3550      0.0000    752.7130      4.7726
   836.5000     83.7165      0.0000    752.7248      4.6579
   836.7500     76.0407      0.0000    753.0209      4.5519
   837.0000     66.3497      0.0000    754.0368      4.4779
   837.2500     56.5759      0.0000    756.1895      4.4414
   837.5000     49.1956      0.0000    759.3286      4.4273
   837.7500     45.4584      0.0000    762.3607      4.4250
   838.0000     45.1388      0.0000    763.7737      4.4482
   838.2500     47.5919      0.0000    762.8982      4.5192
   838.5000     52.8142      0.0000    760.5206      4.6377
   838.7500     61.5041      0.0000    758.0432      4.7748
   839.0000     73.9661      0.0000    756.2564      4.8991
   839.2500     88.8073      0.0000    755.0482      5.0022
   839.5000    102.8397      0.0000    753.9257      5.0995
   839.7500    112.5688      0.0000    752.4342      5.2080
   840.0000    116.2059      0.0000    750.2534      5.3219
   840.2500    114.7261      0.0000    747.3925      5.4065
   840.5000    111.1809      0.0000    744.5106      5.4170
   840.7500    108.6105      0.0000    742.6923      5.3263
   841.0000    108.1153      0.0000    742.5293      5.1337
   841.2500    108.7031      0.0000    743.6218      4.8554
   841.5000    108.8969      0.0000    745.5283      4.5178
   841.7500    108.2190      0.0000    749.6034      4.1617
   842.0000    107.1154      0.0000    759.7795      3.8342
   842.2500    105.9984      0.0000    780.4254      3.5597
   842.5000    104.7739      0.0000    811.9069      3.3274
   842.7500    102.9714      0.0000    848.0958      3.1273
   843.0000    100.1283      0.0000    879.4875      2.9985
   843.2500     96.3890      0.0000    899.2242      3.0113
   843.5000     92.7749      0.0000    906.1912      3.1855
   843.7500     90.5072      0.0000    903.8741      3.4465
   844.0000     90.2098      0.0000    897.8416      3.6792
   844.2500     91.8946      0.0000    893.0242      3.8153
   844.5000     95.1827      0.0000    890.9402      3.8704
   844.7500     99.3502      0.0000    889.3406      3.9175
   845.0000    103.7375      0.0000    885.1558      4.0124
   845.2500    108.0498      0.0000    876.7574      4.1197
   845.5000    111.6162      0.0000    863.1115      4.1329
   845.7500    112.9555      0.0000    843.4094      4.0072
   846.0000    111.2342      0.0000    819.1802      3.8400
   846.2500    107.7838      0.0000    794.9556      3.7737
   846.5000    105.2552      0.0000    775.2981      3.8486
   846.7500    105.4345      0.0000    761.7311      3.9915
   847.0000    108.1829      0.0000    752.5872      4.1127
   847.2500    111.9654      0.0000    744.6732      4.1746
   847.5000    115.0345      0.0000    735.2346      4.1806
   847.7500    116.5049      0.0000    723.9860      4.1375
   848.0000    116.7461      0.0000    714.2371      4.0444
   848.2500    116.7554      0.0000    710.9604      3.9103
   848.5000    117.1463      0.0000    716.3618      3.7718
   848.7500    117.6830      0.0000    727.5083      3.6881
   849.0000    117.6639      0.0000    738.8835      3.7129
   849.2500    116.7173      0.0000    746.7572      3.8643
   849.5000    115.0860      0.0000    750.7599      4.1121
   849.7500    112.9733      0.0000    752.3864      4.3944
   850.0000    109.7607      0.0000    753.1008      4.6513
   850.2500    104.4179      0.0000    753.6133      4.8500
   850.5000     97.0058      0.0000    754.0616      4.9862
   850.7500     89.4289      0.0000    754.3884      5.0718
   851.0000     84.2914      0.0000    754.5546      5.1170
   851.2500     83.1541      0.0000    754.5547      5.1187
   851.5000     85.9250      0.0000    754.3807      5.0636
   851.7500     91.4006      0.0000    753.9916      4.9469
   852.0000     98.1705      0.0000    753.2466      4.7841
   852.2500    105.1122      0.0000    751.7768      4.6039
   852.5000    111.0909      0.0000    748.9256      4.4306
   852.7500    114.6285      0.0000    744.0425      4.2758
   853.0000    114.7221      0.0000    737.2040      4.1436
   853.2500    112.0255      0.0000    729.7033      4.0357
   853.5000    108.4815      0.0000    723.3855      3.9532
   853.7500    105.6437      0.0000    718.7717      3.8951
   854.0000    103.8419      0.0000    713.6663      3.8562
   854.2500    102.9294      0.0000    704.4982      3.8252
   854.5000    103.1915      0.0000    690.5078      3.7952
   854.7500    105.2327      0.0000    676.7958      3.7798
   855.0000    109.1676      0.0000    671.6714      3.8091
   855.2500    114.0095      0.0000    679.6154      3.9027
   855.5000    117.8339      0.0000    697.0112      4.0509
   855.7500    118.9643      0.0000    715.2673      4.2256
   856.0000    117.4547      0.0000    727.8079      4.4010
   856.2500    115.1228      0.0000    733.8257      4.5580
   856.5000    113.5947      0.0000    736.4313      4.6753
   856.7500    112.5212      0.0000    738.7673      4.7296
   857.0000    110.2392      0.0000    741.9326      4.7127
   857.2500    105.8956      0.0000    745.3206      4.6435
   857.5000    100.3189      0.0000    747.9865      4.5587
   857.7500     94.9862      0.0000    749.5954      4.4929
   858.0000     90.6931      0.0000    750.4535      4.4604
   858.2500     87.2770      0.0000    751.0071      4.4493
   858.5000     84.3190      0.0000    751.4965      4.4312
   858.7500     81.7777      0.0000    751.9430      4.3811
   859.0000     79.8306      0.0000    752.2971      4.2901
   859.2500     78.4292      0.0000    752.5440      4.1683
   859.5000     77.3659      0.0000    752.7209      4.0464
   859.7500     76.6576      0.0000    752.8677      3.9658
   860.0000     76.5194      0.0000    752.9933      3.9509
   860.2500     76.9019      0.0000    753.0964      3.9888
   860.5000     77.2839      0.0000    753.2065      4.0371
   860.7500     77.0159      0.0000    753.3741      4.0493
   861.0000     75.8933      0.0000    753.6139      3.9990
   861.2500     74.5889      0.0000    753.8691      3.8929
   861.5000     74.4823      0.0000    754.0489      3.7658
   861.7500     76.6296      0.0000    754.1008      3.6597
   862.0000     80.6954      0.0000    754.0431      3.6043
   862.2500     85.1192      0.0000    753.9255      3.6075
   862.5000     88.4044      0.0000    753.7767      3.6543
   862.7500     90.0529      0.0000    753.6072      3.7122
   863.0000     90.3045      0.0000    753.4501      3.7477
   863.2500     89.3387      0.0000    753.3537      3.7508
   863.5000     86.9940      0.0000    753.3201      3.7407
   863.7500     83.2842      0.0000    753.2816      3.7458
   864.0000     78.9743      0.0000    753.1737      3.7774
   864.2500     75.3985      0.0000    753.0215      3.8291
   864.5000     73.6754      0.0000    752.9158      3.8936
   864.7500     74.1044      0.0000    752.8926      3.9677
   865.0000     76.2006      0.0000    752.8720      4.0397
   865.2500     79.0942      0.0000    752.7455      4.0805
   865.5000     81.7286      0.0000    752.5065      4.0562
   865.7500     82.8556      0.0000    752.2667      3.9580
   866.0000     81.4516      0.0000    752.1577      3.8189
   866.2500     77.4120      0.0000    752.2349      3.6944
   866.5000     71.6162      0.0000    752.4620      3.6236
   866.7500     65.3219      0.0000    752.7680      3.6119
   867.0000     59.7745      0.0000    753.1329      3.6541
   867.2500     56.1817      0.0000    753.6379      3.7561
   867.5000     55.5133      0.0000    754.5021      3.9211
   867.7500     58.0833      0.0000    756.2559      4.1224
   868.0000     63.3051      0.0000    760.1655      4.3035
   868.2500     69.8131      0.0000    768.4923      4.4104
   868.5000     75.8701      0.0000    783.6075      4.4202
   868.7500     79.9068      0.0000    805.7135      4.3495
