~Version Information
VERS.                      2.0: CWLS Log ASCII Standard - VERSION 2.0
WRAP.                       NO: One line per depth step
~Well Information Block
STRT.FT               554.0000: 
STOP.FT              1002.0000: 
STEP.FT                 0.1000: 
NULL.                -999.2500: 
COMP.          Pioneer Natural Resources: COMPANY
WELL.          Rising Star 22-11: WELL
FLD.           Purgatoire River: FIELD
LOC.           2152' FNL & 2105' FWL: LOCATION
PROV.                 Colorado: PROVINCE
CNTY.               Las Animas: COUNTRY
SRVC.                Patterson: SERVICE COMPANY
DATE.          Mon Apr 11 16:46:53 2005: LOG DATE
UWI.           05 071 08354 00: UNIQUE WELL ID
~Curve Information Block
DEPT.FT            0 000 00 00: Depth
DCAL.in                       : CDL Caliper
RHOB.g/cc                     : CDL Bulk Density
RHOC.g/cc                     : CDL Density Correction
DPOR.pu                       : CDL Density Porosity
GR.GAPI                       : Gamma Ray
NPOR.pu                       : Neutron Porosity
~Parameter Information Block
~A  Depth       DCAL        RHOB        RHOC        DPOR         GR         NPOR    
# ...
   957.2000      7.7655      2.6704      0.0923     -1.2366     63.6726     18.8684
   957.3000      7.7767      2.6525      0.0749     -0.1525     63.0481     19.0145
   957.4000      7.7767      2.6319      0.1375      1.0976     65.3543     19.0421
   957.5000      7.7845      2.5988      0.0362      3.1005     67.7918     19.2492
   957.6000      7.7845      2.5672      0.0254      5.0178     68.7211     19.7601
   957.7000      7.7845      2.5400      0.0670      6.6692     71.3566     20.1438
   957.8000      7.8517      2.5048     -0.0609      8.7992     75.2176     20.3862
   957.9000      7.8517      2.4719     -0.0600     10.7913     77.8336     21.0939
   958.0000      7.8506      2.4557     -0.0478     11.7767     80.6715     22.2754
   958.1000      7.8506      2.4467      0.0293     12.3197     85.3347     23.0713
   958.2000      7.8506      2.4302      0.0008     13.3192     89.5575     23.4996
   958.3000      7.8556      2.4196     -0.0653     13.9625     90.7832     24.0312
   958.4000      7.8556      2.4355      0.0130     12.9970     89.3183     24.5264
   958.5000      7.8582      2.4689      0.0064     10.9730     86.6566     25.2975
   958.6000      7.8582      2.5010      0.0722      9.0275     86.3560     26.0157
   958.7000      7.8582      2.5228      0.0881      7.7065     90.4773     25.9488
   958.8000      7.8776      2.5322      0.0569      7.1375     92.4053     25.5963
   958.9000      7.8776      2.5252      0.0693      7.5623     87.0424     25.3206
   959.0000      7.8809      2.5017      0.0291      8.9867     83.6659     25.0096
   959.1000      7.8809      2.4836     -0.0134     10.0841     89.7154     24.7379
   959.2000      7.8809      2.4823      0.0490     10.1627     97.2305     24.9158
   959.3000      7.8921      2.4734      0.0312     10.7054     99.0772     25.7551
   959.4000      7.8921      2.4448      0.0034     12.4335     97.5378     26.2101
   959.5000      7.8940      2.4202     -0.0848     13.9294     96.1696     25.6816
   959.6000      7.8940      2.4170      0.0070     14.1216     95.4126     25.2525
   959.7000      7.8940      2.4246     -0.0153     13.6580     95.2884     25.3172
   959.8000      7.8908      2.4370      0.0137     12.9079     96.6330     25.5359
   959.9000      7.8908      2.4590      0.0194     11.5742     99.7900     25.7577
   960.0000      7.8732      2.4829      0.0446     10.1263    103.1439     25.8183
   960.1000      7.8732      2.4980      0.0315      9.2121    106.1994     25.8399
   960.2000      7.8732      2.5028      0.0183      8.9209    109.4215     25.7567
   960.3000      7.8679      2.4957      0.0546      9.3494    108.0660     25.6739
   960.4000      7.8679      2.4782      0.0410     10.4103    102.2727     25.8951
   960.5000      7.8752      2.4601     -0.0007     11.5102     99.3426     25.9164
   960.6000      7.8752      2.4544     -0.0361     11.8573     99.5036     25.0917
   960.7000      7.8752      2.4687      0.0008     10.9909     99.6854     23.9791
   960.8000      7.8736      2.4874      0.0724      9.8546     97.9479     23.8522
   960.9000      7.8736      2.4873      0.0207      9.8627     92.9834     24.5264
   961.0000      7.8803      2.4705      0.0455     10.8810     89.4989     24.5527
   961.1000      7.8803      2.4519      0.0224     12.0058     92.6171     23.9229
   961.2000      7.8803      2.4383      0.0226     12.8297    100.1961     23.7973
   961.3000      7.8830      2.4337     -0.0107     13.1097    106.2327     24.3744
   961.4000      7.8830      2.4448     -0.0038     12.4347    105.3410     24.9229
   961.5000      7.8817      2.4726      0.0098     10.7515     98.5675     25.0500
   961.6000      7.8817      2.5040      0.0869      8.8503     93.5603     25.2610
   961.7000      7.8817      2.5144      0.0812      8.2187     93.0116     25.9783
   961.8000      7.8762      2.4946      0.0782      9.4163     92.1797     26.2585
   961.9000      7.8762      2.4623      0.0146     11.3759     89.3001     25.5981
   962.0000      7.8727      2.4382      0.0104     12.8343     88.8358     25.3193
   962.1000      7.8727      2.4300     -0.0025     13.3362     93.5066     26.1337
   962.2000      7.8727      2.4369      0.0408     12.9131    100.0704     26.7242
   962.3000      7.8642      2.4591      0.0145     11.5704    101.7934     25.9522
   962.4000      7.8642      2.4959      0.0645      9.3424     96.2739     24.8396
   962.5000      7.8771      2.5271      0.0820      7.4512     90.5197     24.6042
   962.6000      7.8771      2.5225      0.0871      7.7247     90.2149     25.2256
   962.7000      7.8771      2.4834      0.0151     10.0964     92.6368     25.7954
   962.8000      7.8976      2.4478     -0.0202     12.2520     93.9643     25.4745
   962.9000      7.8976      2.4473     -0.0156     12.2828     92.1158     24.9168
   963.0000      7.8775      2.4669      0.0568     11.0972     87.3031     24.9228
   963.1000      7.8775      2.4687      0.0405     10.9871     84.1922     25.2915
   963.2000      7.8775      2.4485      0.0016     12.2148     86.8938     25.5178
   963.3000      7.8739      2.4375     -0.0570     12.8769     93.1711     25.4807
   963.4000      7.8739      2.4570      0.0256     11.6985     98.7779     25.4555
   963.5000      7.8732      2.4917      0.0322      9.5925    104.7042     25.4742
   963.6000      7.8732      2.5190     -0.0119      7.9385    113.4658     25.6008
   963.7000      7.8732      2.5338      0.0606      7.0416    119.7909     26.1702
   963.8000      7.8717      2.5472      0.0290      6.2304    117.8754     27.1389
   963.9000      7.8717      2.5721      0.0646      4.7223    113.7859     28.0763
   964.0000      7.8702      2.5965      0.0997      3.2427    115.2081     28.3647
   964.1000      7.8702      2.5921      0.1060      3.5114    120.5457     27.9447
   964.2000      7.8702      2.5533      0.0409      5.8616    125.0063     27.3414
   964.3000      7.8557      2.5072     -0.0219      8.6561    124.7505     26.7178
   964.4000      7.8557      2.4880     -0.0335      9.8189    117.5295     26.3112
   964.5000      7.8469      2.4958      0.0777      9.3457    108.5996     26.2357
   964.6000      7.8469      2.5049     -0.0181      8.7936    105.1364     25.8241
   964.7000      7.8469      2.5150     -0.0483      8.1807    104.8682     24.8392
   964.8000      7.8785      2.5338      0.0167      7.0411    103.8873     24.6237
   964.9000      7.8785      2.5443      0.0623      6.4044    102.8074     25.5924
   965.0000      7.8907      2.5336      0.0530      7.0551    101.4155     26.2239
   965.1000      7.8907      2.5174     -0.0166      8.0377     99.2349     26.0891
   965.2000      7.8907      2.5060      0.0358      8.7253     96.6177     26.0828
   965.3000      7.8839      2.4820      0.0510     10.1829     94.5644     26.1630
   965.4000      7.8839      2.4443     -0.0298     12.4649     93.7103     25.8625
   965.5000      7.8857      2.4191     -0.0481     13.9970     92.7023     25.5819
   965.6000      7.8857      2.4123     -0.0382     14.4061     90.5058     25.9310
   965.7000      7.8857      2.4071     -0.0213     14.7225     88.1724     26.4719
   965.8000      7.9068      2.4029     -0.0544     14.9752     89.1315     26.3842
   965.9000      7.9068      2.4129     -0.0182     14.3685     92.7300     25.7743
   966.0000      7.8828      2.4347      0.0353     13.0499     92.4627     25.2306
   966.1000      7.8828      2.4629     -0.0028     11.3421     86.7547     24.9519
   966.2000      7.8828      2.5012      0.0643      9.0205     81.9590     24.9332
   966.3000      7.8734      2.5441      0.0540      6.4189     82.2969     25.3850
   966.4000      7.8734      2.5783      0.0805      4.3479     86.8079     26.1937
   966.5000      7.8689      2.5953      0.0821      3.3152     94.6484     26.8120
   966.6000      7.8689      2.5985      0.0704      3.1235    104.7784     27.1823
   966.7000      7.8689      2.5991      0.0512      3.0862    112.8900     27.3627
