~Version Information
VERS.                      2.0: CWLS Log ASCII Standard - VERSION 2.0
WRAP.                       NO: One line per depth step
~Well Information Block
STRT.FT               350.0000: 
STOP.FT              2531.5000: 
STEP.FT                 0.1000: 
NULL.                -999.2500: 
COMP.          Pioneer Natural Resources: COMPANY
WELL.          Cock-a-doodle-doo: WELL
FLD.           Purgatoire River: FIELD
LOC.           163' FSL & 54' FEL: LOCATION
PROV.                 Colorado: PROVINCE
CNTY.               Las Animas: COUNTRY
SRVC.                Patterson: SERVICE COMPANY
DATE.          Fri Jul 01 09:34:59 2005: LOG DATE
UWI.           05 071 08429 00: UNIQUE WELL ID
~Curve Information Block
DEPT.FT            0 000 00 00: Depth
DCAL.in                       : CDL Caliper
RHOB.g/cc                     : CDL Bulk Density
RHOC.g/cc                     : CDL Density Correction
DPOR.pu                       : CDL Density Porosity
GR.GAPI                       : Gamma Ray
NPOR.pu                       : Neutron Porosity
~Parameter Information Block
~A  Depth       DCAL        RHOB        RHOC        DPOR         GR         NPOR    
# ...
  1070.0000      8.0455      2.7640     -0.0153     -6.9086     72.8063     26.2534
  1070.1000      8.0455      2.7757      0.0120     -7.6161     71.7503     25.6479
  1070.2000      8.0455      2.7829      0.0068     -8.0571     68.1389     25.3165
  1070.3000      8.0209      2.7743      0.0309     -7.5351     64.6255     25.2716
  1070.4000      8.0209      2.7561     -0.0409     -6.4300     66.5196     25.4122
  1070.5000      8.0146      2.7498     -0.0535     -6.0476     69.0563     25.7160
  1070.6000      8.0146      2.7533      0.0330     -6.2585     68.8943     26.3345
  1070.7000      8.0146      2.7619     -0.0175     -6.7818     69.8975     27.1435
  1070.8000      7.9873      2.7878      0.0390     -8.3524     73.5730     27.3786
  1070.9000      7.9873      2.8229      0.0543    -10.4767     78.6060     26.7029
  1071.0000      7.9702      2.8414      0.0425    -11.6022     81.0377     25.8698
  1071.1000      7.9702      2.8354      0.0268    -11.2375     77.3529     25.5082
  1071.2000      7.9702      2.8221      0.0055    -10.4278     69.1903     25.5127
  1071.3000      7.9563      2.8230     -0.0066    -10.4859     63.9901     25.6483
  1071.4000      7.9563      2.8280      0.1050    -10.7876     67.5598     25.7827
  1071.5000      7.9682      2.8084      0.0203     -9.6022     76.8636     25.8433
  1071.6000      7.9682      2.7764     -0.0033     -7.6592     83.2289     25.7532
  1071.7000      7.9682      2.7676     -0.0088     -7.1297     83.3770     25.4311
  1071.8000      7.9782      2.7790      0.0239     -7.8196     85.5849     24.7896
  1071.9000      7.9782      2.7719      0.0357     -7.3897     96.5957     23.7871
  1072.0000      7.9765      2.7306      0.0188     -4.8877    108.6760     22.6764
  1072.1000      7.9765      2.6777      0.0111     -1.6780    114.2189     21.6797
  1072.2000      7.9765      2.6365      0.0003      0.8152    117.2350     20.6592
  1072.3000      7.9625      2.6053     -0.0221      2.7088    122.1576     19.6322
  1072.4000      7.9625      2.5720     -0.0232      4.7290    128.7896     19.0779
  1072.5000      7.9616      2.5382     -0.0548      6.7769    134.8472     19.1953
  1072.6000      7.9616      2.5110      0.0090      8.4229    135.9070     19.5252
  1072.7000      7.9616      2.4938     -0.0032      9.4687    132.3084     19.6112
  1072.8000      7.9565      2.4819      0.0437     10.1888    130.1232     19.5274
  1072.9000      7.9565      2.4612      0.0432     11.4441    131.2920     19.6866
  1073.0000      7.9667      2.4311      0.0567     13.2647    133.0718     20.1928
  1073.1000      7.9667      2.4085      0.0905     14.6379    133.5874     20.7146
  1073.2000      7.9667      2.4156      0.1386     14.2072    132.8636     21.1809
  1073.3000      7.9508      2.4616      0.2588     11.4187    133.0302     21.5845
  1073.4000      7.9508      2.5227      0.3007      7.7167    135.2865     21.6777
  1073.5000      7.8941      2.5725      0.2891      4.6959    138.7946     21.6791
  1073.6000      7.8941      2.6090      0.2549      2.4840    140.7758     21.8313
  1073.7000      7.8941      2.6431      0.2402      0.4202    140.5295     22.1031
  1073.8000      7.8650      2.6779      0.2860     -1.6899    140.7524     22.4634
  1073.9000      7.8650      2.6959      0.3324     -2.7810    143.0575     22.8909
  1074.0000      7.9855      2.6815      0.2841     -1.9114    143.9202     23.4549
  1074.1000      7.9855      2.6345      0.2552      0.9391    139.5633     23.9601
  1074.2000      7.9855      2.5659      0.1404      5.0975    136.0814     24.0751
  1074.3000      8.0856      2.5001      0.1325      9.0878    140.8940     23.9554
  1074.4000      8.0856      2.4574      0.0818     11.6708    149.5906     23.9774
  1074.5000      8.1795      2.4417      0.0622     12.6262    151.2876     24.3884
  1074.6000      8.1795      2.4517      0.0567     12.0210    144.9594     25.0412
  1074.7000      8.1795      2.4950      0.1311      9.3964    139.9961     25.3766
  1074.8000      8.1552      2.5663      0.2275      5.0713    140.9311     25.1983
  1074.9000      8.1552      2.6403      0.2564      0.5901    144.5382     24.9161
  1075.0000      8.1847      2.6971      0.3549     -2.8560    144.7229     25.0109
  1075.1000      8.1847      2.7262      0.3576     -4.6156    140.4297     25.5144
  1075.2000      8.1847      2.7216      0.3060     -4.3374    136.2719     25.9159
  1075.3000      8.2051      2.6786      0.2711     -1.7310    136.2603     25.9573
  1075.4000      8.2051      2.6003      0.1577      3.0109    140.3819     25.9587
  1075.5000      8.2013      2.5046      0.1422      8.8115    141.6809     26.0352
  1075.6000      8.2013      2.4001      0.0606     15.1476    136.2701     25.9145
  1075.7000      8.2013      2.2830     -0.0127     22.2395    130.3819     25.6425
  1075.8000      8.3116      2.1618     -0.1019     29.5905    129.5015     25.4708
  1075.9000      8.3116      2.0641     -0.1386     35.5073    131.3940     25.2910
  1076.0000      8.2022      2.0253     -0.0678     37.8600    132.7656     24.8563
  1076.1000      8.2022      2.0724      0.0377     35.0073    135.6970     24.1558
  1076.2000      8.2022      2.2142      0.2133     26.4120    140.5358     23.5234
  1076.3000      8.1537      2.4263      0.4052     13.5598    143.0928     23.5302
  1076.4000      8.1537      2.6446      0.5540      0.3255    141.7508     24.3437
  1076.5000      8.2078      2.8007      0.6826     -9.1356    138.0998     25.3935
  1076.6000      8.2078      2.8756      0.6739    -13.6706    134.2159     26.0298
  1076.7000      8.2078      2.8944      0.6504    -14.8126    130.2831     26.2192
  1076.8000      8.1937      2.8669      0.5708    -13.1452    125.9398     26.1953
  1076.9000      8.1937      2.7931      0.4041     -8.6748    122.6236     26.1071
  1077.0000      8.0982      2.6987      0.2895     -2.9514    122.6890     26.2031
  1077.1000      8.0982      2.6144      0.1539      2.1558    125.2633     26.6901
  1077.2000      8.0982      2.5535      0.1067      5.8489    127.0839     27.4525
  1077.3000      8.0727      2.5193      0.0389      7.9217    123.7987     28.0671
  1077.4000      8.0727      2.5109      0.0288      8.4331    113.5437     28.0895
  1077.5000      8.0453      2.5145      0.0383      8.2118    102.2405     27.9564
  1077.6000      8.0453      2.5248      0.0103      7.5894     95.9928     28.2450
  1077.7000      8.0453      2.5540      0.0304      5.8169     94.6654     28.6290
  1077.8000      8.0377      2.5954      0.0721      3.3095     96.6011     28.7462
  1077.9000      8.0377      2.6199      0.1347      1.8241    100.1350     28.8397
  1078.0000      8.0172      2.6220      0.0845      1.6941    100.4927     29.1775
  1078.1000      8.0172      2.6295      0.0973      1.2408     97.5503     29.8323
  1078.2000      8.0172      2.6489      0.1439      0.0657     99.8248     30.6699
  1078.3000      7.9889      2.6511      0.1266     -0.0648    108.5545     31.1879
  1078.4000      7.9889      2.6205      0.0924      1.7866    116.1569     31.0327
  1078.5000      7.9807      2.5819      0.0219      4.1280    121.9215     30.5568
  1078.6000      7.9807      2.5719     -0.0330      4.7354    128.0154     30.1487
  1078.7000      7.9807      2.5945      0.0109      3.3616    130.2520     29.8290
  1078.8000      8.0088      2.6190      0.0828      1.8810    125.1550     29.4787
  1078.9000      8.0088      2.6242      0.0240      1.5638    118.3995     28.9275
  1079.0000      8.0285      2.6209      0.0396      1.7639    118.3935     28.2759
  1079.1000      8.0285      2.6132      0.0554      2.2308    122.5749     27.7748
  1079.2000      8.0285      2.5872      0.0447      3.8058    123.4189     27.2291
  1079.3000      8.0326      2.5500     -0.0239      6.0601    119.8748     26.4673
  1079.4000      8.0326      2.5284     -0.0351      7.3674    115.7348     25.6572
  1079.5000      7.9923      2.5333     -0.0374      7.0721    115.2889     24.9366
