~Version Information
VERS.                      2.0: CWLS Log ASCII Standard - VERSION 2.0
WRAP.                       NO: One line per depth step
~Well Information Block
STRT.FT               238.0000: 
STOP.FT              1377.0000: 
STEP.FT                 0.1000: 
NULL.                -999.2500: 
COMP.          Pioneer Natural Resources: COMPANY
WELL.             Raptor 44-26: WELL
FLD.           Purgatoire River: FIELD
LOC.           180' FSL & 812' FEL: LOCATION
PROV.                 Colorado: PROVINCE
CNTY.               Las Animas: COUNTRY
SRVC.                Patterson: SERVICE COMPANY
DATE.          Tue Mar 22 15:28:33 2005: LOG DATE
UWI.           05 071 08187 00: UNIQUE WELL ID
~Curve Information Block
DEPT.FT            0 000 00 00: Depth
DCAL.in                       : CDL Caliper
RHOB.g/cc                     : CDL Bulk Density
RHOC.g/cc                     : CDL Density Correction
DPOR.pu                       : CDL Density Porosity
GR.GAPI                       : Gamma Ray
NPOR.pu                       : Neutron Porosity
~Parameter Information Block
~A  Depth       DCAL        RHOB        RHOC        DPOR         GR         NPOR    
# ...
  1284.4000      7.8064      2.4964      0.0315      9.3099    122.0028     20.1164
  1284.5000      7.8238      2.5027      0.0319      8.9244    117.0895     19.6438
  1284.6000      7.8238      2.5224      0.1067      7.7343    117.2141     19.5081
  1284.7000      7.8238      2.5284      0.0740      7.3716    119.1020     19.5892
  1284.8000      7.8323      2.5151      0.0488      8.1735    118.4615     19.5616
  1284.9000      7.8323      2.5078      0.0210      8.6202    115.9791     19.3416
  1285.0000      7.8465      2.5227      0.0459      7.7154    114.2318     19.1249
  1285.1000      7.8465      2.5452      0.0473      6.3507    114.3196     19.1212
  1285.2000      7.8465      2.5537      0.0575      5.8347    114.6394     19.2555
  1285.3000      7.8372      2.5475      0.0579      6.2094    113.2731     19.2448
  1285.4000      7.8372      2.5345      0.0573      6.9971    111.4206     19.1681
  1285.5000      7.8472      2.5126      0.0853      8.3259    111.5189     19.5017
  1285.6000      7.8472      2.4856      0.0367      9.9642    111.5911     19.9417
  1285.7000      7.8472      2.4628      0.0455     11.3442    110.9866     19.8428
  1285.8000      7.8484      2.4425     -0.0042     12.5783    113.4522     19.2601
  1285.9000      7.8484      2.4270     -0.0093     13.5174    119.1635     18.7448
  1286.0000      7.8333      2.4273     -0.0051     13.4970    121.6135     19.0554
  1286.1000      7.8333      2.4419      0.0898     12.6144    115.0108     20.2996
  1286.2000      7.8333      2.4599      0.0349     11.5239    103.2585     21.5417
  1286.3000      7.8445      2.4769      0.0522     10.4911     97.1404     22.1563
  1286.4000      7.8445      2.4882      0.0565      9.8047    101.9769     22.1838
  1286.5000      7.8361      2.4905      0.0442      9.6667    112.9714     21.7807
  1286.6000      7.8361      2.4886     -0.0180      9.7819    120.4656     21.3827
  1286.7000      7.8361      2.4839      0.0600     10.0675    119.3975     21.2987
  1286.8000      7.8302      2.4718      0.0295     10.8027    114.0045     21.3480
  1286.9000      7.8302      2.4628     -0.0118     11.3442    111.8060     20.8641
  1287.0000      7.8130      2.4677      0.0375     11.0459    111.5831     19.8535
  1287.1000      7.8130      2.4816      0.0099     10.2054    109.0706     19.6263
  1287.2000      7.8130      2.4970      0.0605      9.2706    107.3318     20.4554
  1287.3000      7.8038      2.5068      0.0422      8.6782    108.1864     21.1900
  1287.4000      7.8038      2.5080      0.0456      8.6073    108.7101     21.3924
  1287.5000      7.8008      2.5073      0.0225      8.6475    108.9085     21.3977
  1287.6000      7.8008      2.5116      0.0332      8.3890    107.9749     21.1572
  1287.7000      7.8008      2.5164      0.0704      8.0957    102.6758     20.6349
  1287.8000      7.8061      2.5211      0.0262      7.8144     96.4034     20.2427
  1287.9000      7.8061      2.5296      0.0076      7.2978     94.3368     20.1798
  1288.0000      7.8022      2.5358      0.0096      6.9226     96.4142     19.9017
  1288.1000      7.8022      2.5375      0.0092      6.8207    100.1640     19.1899
  1288.2000      7.8022      2.5389      0.0487      6.7359    101.5274     18.6906
  1288.3000      7.7941      2.5395      0.0368      6.6968     98.6942     18.6255
  1288.4000      7.7941      2.5365      0.0071      6.8794     95.1577     18.4352
  1288.5000      7.7898      2.5267      0.0339      7.4713     93.2184     17.9979
  1288.6000      7.7898      2.5145     -0.0367      8.2119     91.7178     17.7499
  1288.7000      7.7898      2.5077      0.0296      8.6223     91.4306     17.8022
  1288.8000      7.7866      2.5036      0.0353      8.8701     92.9769     17.6303
  1288.9000      7.7866      2.5088      0.0005      8.5601     95.5052     17.1361
  1289.0000      7.8155      2.5283      0.0877      7.3755     96.6674     16.9191
  1289.1000      7.8155      2.5453      0.0372      6.3444     95.4548     16.8444
  1289.2000      7.8155      2.5579     -0.0171      5.5807     95.3265     16.4476
  1289.3000      7.8277      2.5742      0.0670      4.5934     98.1013     16.2085
  1289.4000      7.8277      2.5809      0.0479      4.1868    101.4484     16.5243
  1289.5000      7.8149      2.5719      0.0765      4.7358    100.9786     16.9431
  1289.6000      7.8149      2.5609      0.0373      5.3987     96.1123     17.3350
  1289.7000      7.8149      2.5560      0.0477      5.6994     90.8359     17.8514
  1289.8000      7.8290      2.5516      0.0458      5.9648     87.7753     18.3406
  1289.9000      7.8290      2.5476      0.0591      6.2044     87.1169     18.7589
  1290.0000      7.8105      2.5560      0.0279      5.6980     89.1165     18.7597
  1290.1000      7.8105      2.5827      0.0659      4.0774     93.7387     17.9950
  1290.2000      7.8105      2.6109      0.1130      2.3680     97.7144     17.5165
  1290.3000      7.8050      2.6224      0.1112      1.6756     97.6216     18.0975
  1290.4000      7.8050      2.6178      0.0957      1.9544     96.2132     18.6316
  1290.5000      7.8090      2.6077      0.0845      2.5661     95.6903     17.9393
  1290.6000      7.8090      2.5992      0.0678      3.0798     94.6200     16.4903
  1290.7000      7.8090      2.5890      0.0837      3.6965     92.8785     15.5547
  1290.8000      7.8038      2.5733      0.0145      4.6504     91.0351     15.4733
  1290.9000      7.8038      2.5577      0.0482      5.5930     88.7444     15.7086
  1291.0000      7.8052      2.5459      0.0199      6.3068     86.7797     16.1489
  1291.1000      7.8052      2.5403      0.0034      6.6512     87.2429     16.6514
  1291.2000      7.8052      2.5395      0.0026      6.6947     89.6802     16.7834
  1291.3000      7.8058      2.5346      0.0400      6.9912     92.8721     16.6339
  1291.4000      7.8058      2.5270     -0.0085      7.4533     95.8200     16.6356
  1291.5000      7.8136      2.5301      0.0067      7.2678     97.0863     16.8182
  1291.6000      7.8136      2.5368      0.0760      6.8635     98.4288     17.4165
  1291.7000      7.8136      2.5258      0.0645      7.5296     99.6497     18.5705
  1291.8000      7.8093      2.5055     -0.0396      8.7564     98.4964     19.4260
  1291.9000      7.8093      2.5010     -0.0126      9.0276     98.7748     19.7146
  1292.0000      7.8097      2.5126      0.0227      8.3298    102.6441     20.1826
  1292.1000      7.8097      2.5238      0.0466      7.6515    107.1751     20.7882
  1292.2000      7.8097      2.5285      0.0472      7.3614    110.6514     20.5000
  1292.3000      7.8284      2.5298      0.0402      7.2878    112.9037     19.4369
  1292.4000      7.8284      2.5239      0.0630      7.6397    113.2611     18.7558
  1292.5000      7.8312      2.5088      0.0057      8.5569    111.6752     18.6768
  1292.6000      7.8312      2.4980      0.0135      9.2124    109.8048     18.8863
  1292.7000      7.8312      2.4992      0.0103      9.1384    109.4964     19.1634
  1292.8000      7.8243      2.4997      0.0656      9.1091    110.6801     19.3162
  1292.9000      7.8243      2.4912      0.0422      9.6230    109.3919     19.2497
  1293.0000      7.8331      2.4828      0.0102     10.1356    105.7582     18.8448
  1293.1000      7.8331      2.4782      0.0131     10.4100    103.5911     18.5892
  1293.2000      7.8331      2.4724     -0.0042     10.7651    104.4184     19.1411
  1293.3000      7.8247      2.4683     -0.0306     11.0123    108.4988     20.0791
  1293.4000      7.8247      2.4699      0.0499     10.9141    114.1294     20.5327
  1293.5000      7.8106      2.4750     -0.0063     10.6060    116.8081     20.3695
  1293.6000      7.8106      2.4846      0.0386     10.0272    114.4591     19.8266
  1293.7000      7.8106      2.5036      0.0264      8.8729    109.2839     19.0900
  1293.8000      7.8019      2.5380      0.0949      6.7875    105.6514     18.4444
  1293.9000      7.8019      2.5753      0.1340      4.5245    105.5746     17.9360
