~Version Information
VERS.                      2.0: CWLS Log ASCII Standard - VERSION 2.0
WRAP.                       NO: One line per depth step
~Well Information Block
STRT.FT               665.0000: 
STOP.FT              1972.5000: 
STEP.FT                 0.1000: 
NULL.                -999.2500: 
COMP.          Petrogulf Corporation: COMPANY
WELL.          Great Plains 22-21V: WELL
FLD.           Purgatorie River: FIELD
LOC.           63' FNL & 1895' FWL: LOCATION
PROV.                 Colorado: PROVINCE
CNTY.               Las Animas: COUNTRY
SRVC.                Patterson: SERVICE COMPANY
DATE.          Thu Sep 01 07:39:43 2005: LOG DATE
UWI.                          : UNIQUE WELL ID
~Curve Information Block
DEPT.FT            0 000 00 00: Depth
DCAL.in                       : CDL Caliper
RHOB.g/cc                     : CDL Bulk Density
RHOC.g/cc                     : CDL Density Correction
DPOR.pu                       : CDL Density Porosity
GR.GAPI                       : Gamma Ray
NPOR.pu                       : Neutron Porosity
~Parameter Information Block
~A  Depth       DCAL        RHOB        RHOC        DPOR         GR         NPOR    
# ...
  1874.6000      8.5144      1.8436      0.0125     48.8727     65.9439     30.4441
  1874.7000      8.5144      1.7684      0.0018     53.4287     64.1794     30.6021
  1874.8000      8.6544      1.6839     -0.0316     58.5543     61.6078     30.6884
  1874.9000      8.6544      1.6153      0.0178     62.7110     57.8180     30.7960
  1875.0000      8.7996      1.5771      0.0966     65.0228     54.0457     30.9679
  1875.1000      8.7996      1.5597      0.0834     66.0761     52.2154     31.1499
  1875.2000      8.7996      1.5543      0.0826     66.4054     51.3305     31.3008
  1875.3000      8.9193      1.5568      0.0946     66.2555     49.3696     31.6071
  1875.4000      8.9193      1.5595      0.0823     66.0905     46.4205     32.2960
  1875.5000      8.8221      1.5520      0.1179     66.5448     44.4922     33.0331
  1875.6000      8.8221      1.5278      0.0731     68.0098     44.3146     33.2289
  1875.7000      8.8221      1.4939      0.0550     70.0675     44.3971     32.8823
  1875.8000      8.6236      1.4588      0.0503     72.1956     43.6577     32.5288
  1875.9000      8.6236      1.4234      0.0201     74.3378     41.9774     32.4822
  1876.0000      8.6246      1.3893      0.0193     76.4081     40.7019     32.5858
  1876.1000      8.6246      1.3601      0.0098     78.1759     39.9966     32.8357
  1876.2000      8.6246      1.3386     -0.0229     79.4793     38.4665     33.3092
  1876.3000      8.8538      1.3213     -0.0061     80.5255     37.8210     33.8265
  1876.4000      8.8538      1.3018      0.0039     81.7093     39.8689     34.1623
  1876.5000      8.9142      1.2853      0.0040     82.7078     42.1834     34.2498
  1876.6000      8.9142      1.2830      0.0654     82.8476     43.1803     34.3399
  1876.7000      8.9142      1.2984      0.0714     81.9123     43.8075     34.5342
  1876.8000      8.7662      1.3384      0.1076     79.4932     44.8734     34.6174
  1876.9000      8.7662      1.4163      0.1059     74.7671     48.2889     34.5916
  1877.0000      8.7134      1.5316      0.1359     67.7824     54.9627     34.5779
  1877.1000      8.7134      1.6505      0.2003     60.5753     62.6564     34.5086
  1877.2000      8.7134      1.7401      0.2329     55.1482     68.3787     34.3023
  1877.3000      8.4945      1.8180      0.2007     50.4259     72.3192     34.0929
  1877.4000      8.4945      1.9255      0.2364     43.9090     76.2989     34.0047
  1877.5000      8.4695      2.0554      0.3151     36.0370     80.6299     33.9316
  1877.6000      8.4695      2.1623      0.2663     29.5582     84.4499     33.7178
  1877.7000      8.4695      2.2334      0.2255     25.2474     87.1889     33.3078
  1877.8000      8.1347      2.2954      0.2217     21.4918     91.7615     32.7400
  1877.9000      8.1347      2.3655      0.2263     17.2436     99.7281     32.1670
  1878.0000      8.0541      2.4307      0.1868     13.2908    106.0297     31.6564
  1878.1000      8.0541      2.4723      0.1609     10.7688    107.8218     31.0493
  1878.2000      8.0541      2.4886      0.1356      9.7788    108.5686     30.3941
  1878.3000      8.0423      2.4908      0.0971      9.6466    109.4900     30.0244
  1878.4000      8.0423      2.4916      0.0527      9.6028    108.6782     29.8918
  1878.5000      8.0366      2.4950      0.0691      9.3930    107.1810     29.6334
  1878.6000      8.0366      2.4936      0.1121      9.4783    109.2678     29.2874
  1878.7000      8.0366      2.4774      0.0882     10.4595    114.9284     29.0703
  1878.8000      8.0307      2.4407      0.0861     12.6824    117.9469     28.8795
  1878.9000      8.0307      2.3906      0.0390     15.7240    115.5672     28.7550
  1879.0000      8.0399      2.3510      0.0132     18.1221    111.5687     28.8034
  1879.1000      8.0399      2.3368      0.0212     18.9835    109.2780     28.6601
  1879.2000      8.0399      2.3421      0.0073     18.6617    110.2929     28.2030
  1879.3000      8.0527      2.3624      0.0359     17.4281    114.0769     27.8434
  1879.4000      8.0527      2.4012      0.0286     15.0778    117.0969     27.6284
  1879.5000      8.0990      2.4531      0.1446     11.9316    117.6420     27.4657
  1879.6000      8.0990      2.5023      0.2072      8.9508    117.3356     27.5095
  1879.7000      8.0990      2.5412      0.2547      6.5915    117.0592     27.7111
  1879.8000      8.1558      2.5679      0.3026      4.9746    115.3215     27.9014
  1879.9000      8.1558      2.5688      0.3115      4.9208    111.9879     28.1390
  1880.0000      8.0681      2.5422      0.1870      6.5328    108.8110     28.5085
  1880.1000      8.0681      2.5189      0.1371      7.9463    105.7826     28.8727
  1880.2000      8.0681      2.5165      0.1699      8.0926    102.8731     29.1001
  1880.3000      8.0196      2.5171      0.1777      8.0553    103.3960     29.1914
  1880.4000      8.0196      2.5099      0.0958      8.4933    108.4762     29.2035
  1880.5000      8.0091      2.5043      0.0904      8.8297    114.5759     29.0916
  1880.6000      8.0091      2.5009      0.0942      9.0360    117.5975     28.7728
  1880.7000      8.0091      2.4972      0.0397      9.2628    115.5980     28.3719
  1880.8000      8.0672      2.5014      0.0414      9.0046    111.6281     28.0838
  1880.9000      8.0672      2.5133      0.0864      8.2871    109.9600     27.9675
  1881.0000      8.0505      2.5208      0.0716      7.8298    109.6332     27.9619
  1881.1000      8.0505      2.5196      0.0746      7.9042    108.9596     28.0382
  1881.2000      8.0505      2.5139      0.0419      8.2487    109.5729     28.1575
  1881.3000      8.0199      2.5132      0.0148      8.2923    111.7388     28.1480
  1881.4000      8.0199      2.5218      0.0719      7.7689    112.7875     27.9616
  1881.5000      8.0437      2.5281      0.0827      7.3882    111.7473     27.6537
  1881.6000      8.0437      2.5170      0.0867      8.0627    108.9508     27.1768
  1881.7000      8.0437      2.4920      0.0378      9.5778    105.4928     26.6982
  1881.8000      8.0508      2.4772      0.0035     10.4752    104.6358     26.3922
  1881.9000      8.0508      2.4856      0.0388      9.9645    108.3492     26.0999
  1882.0000      8.0478      2.5004      0.0925      9.0660    113.5383     25.6740
  1882.1000      8.0478      2.5105      0.0486      8.4561    114.1698     25.3057
  1882.2000      8.0478      2.5258      0.0850      7.5285    109.8321     25.1838
  1882.3000      8.0503      2.5384      0.1247      6.7628    104.3011     25.1667
  1882.4000      8.0503      2.5296      0.0836      7.2982     99.4661     25.0433
  1882.5000      8.0506      2.5055      0.0728      8.7556     97.8963     24.7724
  1882.6000      8.0506      2.4854      0.0621      9.9763     99.4737     24.4231
  1882.7000      8.0506      2.4811      0.0664     10.2354    100.7581     24.2162
  1882.8000      8.0273      2.4925      0.0904      9.5429    101.0293     24.5200
  1882.9000      8.0273      2.5093      0.0946      8.5243    101.8859     25.2752
  1883.0000      7.9987      2.5266      0.0854      7.4794    103.9707     25.9902
  1883.1000      7.9987      2.5460      0.1118      6.3033    105.4640     26.5285
  1883.2000      7.9987      2.5685      0.1103      4.9412    104.9028     26.7651
  1883.3000      8.0129      2.5927      0.1267      3.4752    101.8823     26.3353
  1883.4000      8.0129      2.6058      0.1468      2.6817     95.4446     25.4615
  1883.5000      7.9903      2.5982      0.1321      3.1364     87.7043     24.6860
  1883.6000      7.9903      2.5864      0.0747      3.8547     84.1105     24.1614
  1883.7000      7.9903      2.5870      0.1178      3.8163     85.8155     23.8849
  1883.8000      7.9572      2.5927      0.0927      3.4751     86.9579     23.7959
  1883.9000      7.9572      2.5905      0.0928      3.6085     84.0422     23.6164
  1884.0000      7.9787      2.5769      0.0786      4.4328     81.4859     23.2040
  1884.1000      7.9787      2.5570      0.0592      5.6366     81.4063     22.7577
