~Version Information
VERS.                      2.0: CWLS Log ASCII Standard - VERSION 2.0
WRAP.                       NO: One line per depth step
~Well Information Block
STRT.FT                -7.7500: 
STOP.FT              1383.2500: 
STEP.FT                 0.2500: 
NULL.                -999.2500: 
COMP.          Petrogulf Corporation: COMPANY
WELL.          Great Plains 22-22R: WELL
FLD.           Purgatoire River: FIELD
LOC.           2042' FNL & 1657' FWL SENW 22 33S 67W ----: LOCATION
PROV.                 Colorado: PROVINCE
CNTY.               Las Animas: COUNTRY
SRVC.                         : SERVICE COMPANY
DATE.          Thu Sep 22 14:55:58 2005: LOG DATE
UWI.             07108028     : UNIQUE WELL ID
~Curve Information Block
DEPT.FT            0 000 00 00: Depth
CCL.                          : Casing Collar Locator
TT3.usec                      : CBL 3' Travel Time
AMP3.mV                       : CBL 3' Amplitude
GR.GAPI                       : Gamma Ray
~Parameter Information Block
~A  Depth       CCL         TT3         AMP3         GR     
# ...
   829.7500      0.0000    541.9679     14.6230    147.2665
   830.0000      0.0000    562.2963     15.0087    147.4911
   830.2500      0.0000    558.3488     15.4682    147.8896
   830.5000      0.0000    523.5973     15.9472    149.6814
   830.7500      0.0000    467.9904     16.4225    153.4479
   831.0000      0.0000    410.2654     16.8928    157.9313
   831.2500      0.0000    364.8383     17.3687    160.7296
   831.5000      0.0000    335.6181     17.8703    160.3012
   831.7500      0.0000    319.2846     18.4065    157.3194
   832.0000      0.0000    311.0001     18.9434    153.8732
   832.2500      0.0000    307.1675     19.4081    151.2362
   832.5000      0.0000    305.6074     19.7455    148.7821
   832.7500      0.0000    305.0697     19.9705    145.1559
   833.0000      0.0000    304.8891     20.1565    139.8318
   833.2500      0.0000    304.7544     20.3797    133.3820
   833.5000      0.0000    304.5649     20.6879    126.9823
   833.7500      0.0000    304.3027     21.1083    121.9799
   834.0000      0.0000    303.9715     21.6502    119.3817
   834.2500      0.0000    303.5964     22.2744    119.3396
   834.5000      0.0000    303.2320     22.8762    120.9171
   834.7500      0.0000    302.9408     23.3313    122.2349
   835.0000      0.0000    302.7634     23.5650    121.2288
   835.2500      0.0000    302.7244     23.5658    116.9303
   835.5000      0.0000    302.8930     23.3330    110.1281
   835.7500      0.0000    303.4851     22.8420    102.5871
   836.0000      0.0000    304.9884     22.0758     95.6579
   836.2500      0.0000    308.1820     21.0751     89.7124
   836.5000      0.0000    313.7745     19.9411     84.7825
   836.7500      0.0000    321.6538     18.7953     81.2920
   837.0000      0.0000    330.4500     17.7384     79.7651
   837.2500      0.0000    338.1770     16.8269     79.9817
   837.5000      0.0000    343.5630     16.0625     80.9729
   837.7500      0.0000    346.7683     15.4038     82.0007
   838.0000      0.0000    349.0083     14.7998     83.1364
   838.2500      0.0000    351.7423     14.2218     84.6315
   838.5000      0.0000    356.0810     13.6684     86.0649
   838.7500      0.0000    362.5591     13.1494     86.5754
   839.0000      0.0000    371.3584     12.6707     85.8223
   839.2500      0.0000    382.6408     12.2353     84.2888
   839.5000      0.0000    396.5731     11.8610     82.5637
   839.7500      0.0000    412.8324     11.5893     80.6555
   840.0000      0.0000    429.4030     11.4644     78.2485
   840.2500      0.0000    441.5473     11.4968     75.4351
   840.5000      0.0000    443.7948     11.6453     72.8306
   840.7500      0.0000    434.8900     11.8333     71.0631
   841.0000      0.0000    419.6684     11.9869     70.5842
   841.2500      0.0000    405.2131     12.0605     71.8946
   841.5000      0.0000    397.1672     12.0341     75.3627
   841.7500      0.0000    399.9553     11.8968     80.7615
   842.0000      0.0000    416.7762     11.6417     87.4434
   842.2500      0.0000    447.1030     11.2784     94.9524
   842.5000      0.0000    485.7398     10.8426    103.0776
   842.7500      0.0000    526.2927     10.3876    111.4097
   843.0000      0.0000    565.0285      9.9616    119.2742
   843.2500      0.0000    599.7972      9.5932    126.0230
   843.5000      0.0000    626.4728      9.2916    130.9524
   843.7500      0.0000    639.4044      9.0535    132.9386
   844.0000      0.0000    636.3277      8.8711    130.6958
   844.2500      0.0000    622.3118      8.7400    123.8032
   844.5000      0.0000    608.1413      8.6598    113.4541
   844.7500      0.0000    602.8709      8.6233    102.0513
   845.0000      0.0000    606.4176      8.6067     92.1319
   845.2500      0.0000    610.1578      8.5743     85.5589
   845.5000      0.0000    605.7448      8.4995     83.1771
   845.7500      0.0000    593.6002      8.3811     84.7858
   846.0000      0.0000    583.3553      8.2413     89.4777
   846.2500      0.0000    585.8342      8.1151     96.0879
   846.5000      0.0000    603.2966      8.0434    103.1451
   846.7500      0.0000    627.4594      8.0653    108.5870
   847.0000      0.0000    646.8727      8.1989    110.2474
   847.2500      0.0000    654.6258      8.4267    107.1270
   847.5000      0.0000    649.3923      8.7057    100.1210
   847.7500      0.0000    632.4525      8.9991     91.3500
   848.0000      0.0000    605.8991      9.2996     82.8331
   848.2500      0.0000    573.3455      9.6204     75.7538
   848.5000      0.0000    541.6735      9.9618     70.5929
   848.7500      0.0000    520.2902     10.2930     67.3831
   849.0000      0.0000    515.6697     10.5716     65.6684
   849.2500      0.0000    526.1418     10.7707     64.6500
   849.5000      0.0000    544.2847     10.8603     63.8190
   849.7500      0.0000    563.5105     10.7479     63.3135
   850.0000      0.0000    579.3965     10.2654     63.4303
   850.2500      0.0000    586.8091      9.2719     64.0961
   850.5000      0.0000    581.7347      7.8145     65.1431
   850.7500      0.0000    567.6661      6.1806     66.6937
   851.0000      0.0000    556.4374      4.7486     68.7500
   851.2500      0.0000    559.3941      3.7670     70.7424
   851.5000      0.0000    578.0633      3.2685     72.1451
   851.7500      0.0000    604.1469      3.1486     73.4218
   852.0000      0.0000    625.5303      3.2791     75.7223
   852.2500      0.0000    630.9723      3.5710     79.5062
   852.5000      0.0000    614.5873      3.9949     83.8612
   852.7500      0.0000    580.0253      4.5966     87.3505
   853.0000      0.0000    537.2596      5.5053     89.2938
   853.2500      0.0000    494.2420      6.8841     89.9828
   853.5000      0.0000    455.8052      8.7841     89.8946
   853.7500      0.0000    428.9164     10.9976     89.2897
   854.0000      0.0000    422.0258     13.0969     88.7779
   854.2500      0.0000    438.2141     14.6688     89.8002
   854.5000      0.0000    472.2229     15.5353     94.0540
   854.7500      0.0000    513.5120     15.7874    102.3116
   855.0000      0.0000    550.0292     15.6648    113.5883
   855.2500      0.0000    570.8232     15.4054    125.1413
   855.5000      0.0000    569.3972     15.1612    133.4445
   855.7500      0.0000    548.4707     15.0013    135.7311
   856.0000      0.0000    521.7657     14.9506    131.1602
   856.2500      0.0000    506.4483     15.0108    120.9724
   856.5000      0.0000    509.2557     15.1537    107.7417
   856.7500      0.0000    521.7333     15.3155     94.2992
   857.0000      0.0000    532.4959     15.4112     82.8044
   857.2500      0.0000    541.7833     15.3678     74.1195
   857.5000      0.0000    559.1830     15.1597     67.7245
   857.7500      0.0000    588.9632     14.8219     62.5379
   858.0000      0.0000    623.9597     14.4157     58.2351
   858.2500      0.0000    653.8366     13.9759     55.6434
   858.5000      0.0000    673.8799     13.4939     55.6390
   858.7500      0.0000    684.7565     12.9481     58.0934
   859.0000      0.0000    688.3292     12.3363     62.1946
   859.2500      0.0000    686.4269     11.6770     67.3039
   859.5000      0.0000    681.6508     10.9912     73.1951
   859.7500      0.0000    676.9750     10.2951     79.7743
   860.0000      0.0000    674.5775      9.6131     86.7941
   860.2500      0.0000    675.9091      8.9899     93.7800
   860.5000      0.0000    682.4662      8.4801    100.3364
   860.7500      0.0000    695.1852      8.1219    106.4586
   861.0000      0.0000    712.1462      7.9204    112.1946
   861.2500      0.0000    727.3939      7.8554    117.1155
   861.5000      0.0000    733.8050      7.9041    120.6740
   861.7500      0.0000    728.5426      8.0576    123.1514
   862.0000      0.0000    715.9292      8.3201    125.7811
   862.2500      0.0000    704.4320      8.6932    129.7728
   862.5000      0.0000    700.2977      9.1654    135.4521
   862.7500      0.0000    703.3706      9.7193    142.2086
   863.0000      0.0000    708.0825     10.3485    148.7624
