~Version Information
VERS.                      2.0: CWLS Log ASCII Standard - VERSION 2.0
WRAP.                       NO: One line per depth step
~Well Information Block
STRT.FT               292.0000: 
STOP.FT               801.0000: 
STEP.FT                 0.1000: 
NULL.                -999.2500: 
COMP.          Pioneer Natural Resources: COMPANY
WELL.          HG Duran 34-27 Tr: WELL
FLD.           Purgatoire River: FIELD
LOC.           1076' FSL & 1465' FEL: LOCATION
PROV.                 Colorado: PROVINCE
CNTY.               Las Animas: COUNTRY
SRVC.                Patterson: SERVICE COMPANY
DATE.          Wed Apr 13 08:36:06 2005: LOG DATE
UWI.           05 071 08218 00: UNIQUE WELL ID
~Curve Information Block
DEPT.FT            0 000 00 00: Depth
DCAL.in                       : CDL Caliper
RHOB.g/cc                     : CDL Bulk Density
RHOC.g/cc                     : CDL Density Correction
DPOR.pu                       : CDL Density Porosity
GR.GAPI                       : Gamma Ray
NPOR.pu                       : Neutron Porosity
~Parameter Information Block
~A  Depth       DCAL        RHOB        RHOC        DPOR         GR         NPOR    
# ...
   628.0000      7.8306      2.4569     -0.0175     11.7033     56.7038     16.6889
   628.1000      7.8306      2.4383      0.0056     12.8276     51.8867     17.0773
   628.2000      7.8306      2.4243     -0.0622     13.6792     51.5304     17.8975
   628.3000      7.8355      2.4289     -0.0108     13.3983     55.0046     18.4314
   628.4000      7.8355      2.4474      0.0079     12.2792     57.6985     18.5416
   628.5000      7.8452      2.4713      0.0109     10.8303     57.9481     18.6206
   628.6000      7.8452      2.5082      0.0250      8.5941     57.8009     18.9355
   628.7000      7.8452      2.5582      0.0516      5.5641     59.5821     19.4322
   628.8000      7.8548      2.5859      0.1112      3.8869     64.2949     19.9519
   628.9000      7.8548      2.5677      0.0775      4.9853     70.4043     20.4399
   629.0000      7.8466      2.5382     -0.0127      6.7734     76.4455     20.9419
   629.1000      7.8466      2.5261      0.0682      7.5089     84.1618     21.4682
   629.2000      7.8466      2.5104      0.0281      8.4590     94.4750     21.7887
   629.3000      7.8477      2.4751      0.0254     10.6026    104.3630     21.8041
   629.4000      7.8477      2.4376     -0.0208     12.8747    112.2535     21.6484
   629.5000      7.8812      2.4168     -0.0150     14.1304    119.4037     21.3834
   629.6000      7.8812      2.4089     -0.0198     14.6109    126.3068     21.3085
   629.7000      7.8812      2.4131     -0.0494     14.3556    131.6475     21.6711
   629.8000      7.9010      2.4352     -0.0001     13.0196    134.8523     22.0761
   629.9000      7.9010      2.4544      0.0883     11.8556    138.7673     22.2048
   630.0000      7.9406      2.4480      0.0588     12.2438    144.0458     22.2503
   630.1000      7.9406      2.4248      0.0697     13.6466    149.4706     22.2319
   630.2000      7.9406      2.4007      0.0609     15.1088    155.2690     21.5942
   630.3000      7.9732      2.3771      0.0503     16.5416    159.9921     20.2624
   630.4000      7.9732      2.3568      0.0049     17.7667    163.7618     19.0219
   630.5000      8.0235      2.3519     -0.0169     18.0686    165.9619     18.0844
   630.6000      8.0235      2.3574      0.0015     17.7351    163.8719     17.0380
   630.7000      8.0235      2.3218      0.1096     19.8933    159.1740     15.7283
   630.8000      8.0352      2.2012      0.0258     27.1981    155.7814     14.3959
   630.9000      8.0352      2.0373     -0.0320     37.1337    151.9513     13.4879
   631.0000      8.0538      1.8931     -0.0177     45.8748    142.5852     13.2509
   631.1000      8.0538      1.7818      0.0007     52.6200    132.9456     13.4088
   631.2000      8.0538      1.6972     -0.0512     57.7464    131.6236     13.5787
   631.3000      8.0981      1.6487     -0.1450     60.6840    133.3029     13.8708
   631.4000      8.0981      1.6436     -0.0042     60.9929    130.1038     14.5645
   631.5000      8.2302      1.6703      0.0818     59.3734    124.2822     15.6828
   631.6000      8.2302      1.7252      0.1776     56.0506    120.2989     16.9216
   631.7000      8.2302      1.8092      0.2735     50.9552    117.3946     18.0590
   631.8000      8.2633      1.9095      0.2798     44.8796    112.3506     19.2635
   631.9000      8.2633      2.0118      0.2723     38.6779    106.4868     20.6693
   632.0000      8.4005      2.1112      0.2633     32.6543    105.9317     22.1209
   632.1000      8.4005      2.2072      0.2168     26.8350    114.1480     23.4463
   632.2000      8.4005      2.2971      0.1991     21.3864    127.9148     24.5669
   632.3000      8.4299      2.3730      0.2416     16.7906    139.9140     25.3436
   632.4000      8.4299      2.4267      0.2698     13.5337    144.2472     25.5618
   632.5000      8.1204      2.4583      0.2000     11.6190    144.2965     25.2951
   632.6000      8.1204      2.4751      0.1706     10.6028    147.8627     25.0334
   632.7000      8.1204      2.4825      0.1494     10.1491    155.7614     25.1606
   632.8000      7.9369      2.4838      0.0671     10.0714    162.5449     25.5466
   632.9000      7.9369      2.4909      0.0043      9.6400    164.3843     25.8731
   633.0000      7.8555      2.5122      0.0213      8.3504    162.2329     25.9259
   633.1000      7.8555      2.5359      0.0790      6.9137    158.9911     25.5989
   633.2000      7.8555      2.5477      0.0957      6.1992    157.1694     25.1758
   633.3000      7.8378      2.5464      0.1375      6.2808    156.0851     25.2083
   633.4000      7.8378      2.5389      0.1013      6.7347    154.6551     25.6224
   633.5000      7.8207      2.5221      0.1042      7.7528    152.7553     25.8002
   633.6000      7.8207      2.4932      0.0399      9.5051    147.5817     25.7095
   633.7000      7.8207      2.4645      0.0671     11.2443    141.2018     25.6917
   633.8000      7.8110      2.4362      0.0553     12.9586    137.6769     25.5474
   633.9000      7.8110      2.4102     -0.0614     14.5346    133.2929     25.1418
   634.0000      7.8293      2.4017      0.0209     15.0481    127.2305     24.7229
   634.1000      7.8293      2.4007      0.0300     15.1108    123.5737     24.4183
   634.2000      7.8293      2.3910     -0.0056     15.6944    121.2694     24.0882
   634.3000      7.8384      2.3805      0.0197     16.3307    116.6869     23.6247
   634.4000      7.8384      2.3827      0.0346     16.1985    110.4590     23.1682
   634.5000      7.8248      2.4082      0.0839     14.6565    105.5397     22.7753
   634.6000      7.8248      2.4577      0.2138     11.6574    101.3188     22.5110
   634.7000      7.8248      2.5204      0.2456      7.8522     96.8512     22.4651
   634.8000      7.7957      2.5820      0.3390      4.1204     94.3099     22.4584
   634.9000      7.7957      2.6238      0.3509      1.5885     95.2128     22.2266
   635.0000      7.7135      2.6322      0.3173      1.0799     96.2515     21.5726
   635.1000      7.7135      2.6154      0.2555      2.0991     94.4988     20.6947
   635.2000      7.7135      2.6028      0.1860      2.8579     93.1598     20.1471
   635.3000      7.5734      2.6175      0.2151      1.9667     94.7498     20.2698
   635.4000      7.5734      2.6523      0.2242     -0.1402     97.0239     20.9311
   635.5000      7.5837      2.6794      0.1938     -1.7824     96.9518     21.4927
   635.6000      7.5837      2.6814      0.1856     -1.9045     94.2520     21.3565
   635.7000      7.5837      2.6664      0.1876     -0.9940     93.9253     20.7249
   635.8000      7.7223      2.6516      0.1011     -0.0941     98.8498     20.3771
   635.9000      7.7223      2.6405      0.1568      0.5787    103.5698     20.7166
   636.0000      7.7946      2.6259      0.0821      1.4582    105.7828     21.4261
   636.1000      7.7946      2.6088      0.1109      2.4968    109.0009     21.9835
   636.2000      7.7946      2.5877      0.0648      3.7786    112.6782     22.1109
   636.3000      7.8065      2.5588      0.0645      5.5263    113.8836     21.8750
   636.4000      7.8065      2.5295      0.0224      7.3023    114.7517     21.6144
   636.5000      7.8153      2.5139      0.0376      8.2475    116.2177     21.6635
   636.6000      7.8153      2.5176      0.0425      8.0221    116.1873     21.8653
   636.7000      7.8153      2.5265      0.0719      7.4853    116.1663     21.7613
   636.8000      7.8185      2.5181      0.0541      7.9919    114.9554     21.3233
   636.9000      7.8185      2.4978      0.0600      9.2219    107.7811     20.9297
   637.0000      7.8270      2.4966     -0.0026      9.2974     97.9398     20.7006
   637.1000      7.8270      2.5313      0.0092      7.1935     92.9518     20.6689
   637.2000      7.8270      2.5777      0.0728      4.3815     93.4299     20.9479
   637.3000      7.8058      2.6040      0.0648      2.7874     93.1767     21.2961
   637.4000      7.8058      2.6095      0.0526      2.4544     89.5928     21.4607
   637.5000      7.8189      2.6008      0.0560      2.9832     87.1097     21.5099
