~Version Information
VERS.                      2.0: CWLS Log ASCII Standard - VERSION 2.0
WRAP.                       NO: One line per depth step
~Well Information Block
STRT.FT                -7.5000: 
STOP.FT               978.5000: 
STEP.FT                 0.2500: 
NULL.                -999.2500: 
COMP.          Pioneer Natural Resources: COMPANY
WELL.          Piggyback 33-25: WELL
FLD.           Purgatoire River: FIELD
LOC.           1600' FSL & 1800' FEL: LOCATION
PROV.                 Colorado: PROVINCE
CNTY.               Las Animas: COUNTRY
SRVC.                Patterson: SERVICE COMPANY
DATE.          Mon May 09 09:22:28 2005: LOG DATE
UWI.           05 071 08233 00: UNIQUE WELL ID
~Curve Information Block
DEPT.FT            0 000 00 00: Depth
CCL.                          : Casing Collar Locator
TT3.usec                      : CBL 3' Travel Time
AMP3.mV                       : CBL 3' Amplitude
GR.GAPI                       : Gamma Ray
~Parameter Information Block
~A  Depth       CCL         TT3         AMP3         GR     
# ...
   428.0000      0.0000    667.0060      8.3795    118.3327
   428.2500      0.0000    654.8254      8.3555    122.8910
   428.5000      0.0000    644.9637      8.0913    127.1674
   428.7500      0.0000    641.1302      7.6068    129.7151
   429.0000      0.0000    643.2836      7.0546    131.1067
   429.2500      0.0000    649.8463      6.6065    132.3336
   429.5000     -2.0000    661.1284      6.3387    133.2271
   429.7500      2.0000    678.9087      6.2270    132.8925
   430.0000      2.0000    702.4493      6.2089    131.0350
   430.2500      0.0000    726.1492      6.2267    128.3507
   430.5000      0.0000    742.1206      6.2413    125.7263
   430.7500      0.0000    745.1993      6.2378    123.1725
   431.0000      0.0000    735.8801      6.2324    119.6290
   431.2500      0.0000    719.5427      6.2752    113.9775
   431.5000      0.0000    703.0491      6.4333    106.2494
   431.7500      0.0000    691.0295      6.7317     97.7595
   432.0000      0.0000    684.3628      7.0952     90.2385
   432.2500      0.0000    681.4506      7.3826     84.9258
   432.5000      0.0000    680.3515      7.5027     82.1607
   432.7500      0.0000    679.8679      7.4870     81.5402
   433.0000      0.0000    679.4910      7.4451     82.4170
   433.2500      0.0000    679.0583      7.4640     84.1764
   433.5000      0.0000    678.5680      7.5530     86.0417
   433.7500      0.0000    678.1251      7.6716     86.9692
   434.0000      0.0000    677.8977      7.7839     86.1145
   434.2500      0.0000    678.0833      7.8780     83.4810
   434.5000      0.0000    678.9637      7.9463     80.0659
   434.7500      0.0000    681.0408      7.9770     77.3157
   435.0000      0.0000    684.9009      7.9737     76.3235
   435.2500      0.0000    690.4501      7.9715     77.5189
   435.5000      0.0000    696.1516      8.0196     81.0851
   435.7500      0.0000    699.7900      8.1461     87.4053
   436.0000      0.0000    700.6675      8.3416     96.8110
   436.2500      0.0000    700.3795      8.5682    108.8981
   436.5000      0.0000    700.5910      8.7786    122.4193
   436.7500      0.0000    700.7276      8.9326    135.8515
   437.0000      0.0000    698.8511      9.0102    147.6096
   437.2500      0.0000    694.3246      9.0121    155.6896
   437.5000      0.0000    688.6151      8.9497    158.0806
   437.7500      0.0000    683.6998      8.8399    154.3111
   438.0000      0.0000    680.5901      8.7079    146.2200
   438.2500      0.0000    679.5099      8.5823    136.6700
   438.5000      0.0000    680.8906      8.4820    127.8114
   438.7500      0.0000    685.7156      8.4059    120.8729
   439.0000      0.0000    694.3879      8.3373    116.7754
   439.2500      0.0000    704.8290      8.2551    115.7543
   439.5000      0.0000    712.2678      8.1475    116.4659
   439.7500      0.0000    712.3776      8.0205    116.5285
   440.0000      0.0000    705.1263      7.8970    114.3613
   440.2500      0.0000    694.7869      7.8048    110.2240
   440.5000      0.0000    686.1661      7.7637    105.6496
   440.7500      0.0000    681.6827      7.7792    102.2889
   441.0000      0.0000    681.9046      7.8430    101.1085
   441.2500      0.0000    687.4172      7.9392    101.9314
   441.5000      0.0000    698.8457      8.0514    103.4077
   441.7500      0.0000    714.5878      8.1688    103.7695
   442.0000      0.0000    729.2113      8.2839    102.0399
   442.2500      0.0000    735.8981      8.3890     98.6904
   442.5000      0.0000    732.0124      8.4781     95.3868
   442.7500      0.0000    722.1432      8.5555     94.2801
   443.0000      0.0000    714.7200      8.6419     97.2055
   443.2500      0.0000    715.1491      8.7687    104.8745
   443.5000      0.0000    721.8504      8.9571    116.4683
   443.7500      0.0000    728.3143      9.1961    130.0214
   444.0000      0.0000    728.8688      9.4383    143.2545
   444.2500      0.0000    723.0646      9.6231    154.1410
   444.5000      0.0000    715.0178      9.7113    161.2473
   444.7500      0.0000    708.7773      9.7025    164.1641
   445.0000      0.0000    704.7430      9.6219    163.5621
   445.2500      0.0000    700.6300      9.4932    160.4792
   445.5000      0.0000    695.0332      9.3266    155.7145
   445.7500      0.0000    689.1366      9.1312    150.0064
   446.0000      0.0000    685.4202      8.9312    144.1314
   446.2500      0.0000    685.5704      8.7618    138.3813
   446.5000      0.0000    689.2364      8.6468    132.5154
   446.7500      0.0000    693.8381      8.5833    126.6193
   447.0000      0.0000    695.9099      8.5486    121.3467
   447.2500      0.0000    693.7803      8.5193    116.7927
   447.5000      0.0000    689.1021      8.4836    111.8117
   447.7500      0.0000    685.4269      8.4427    105.1558
   448.0000      0.0000    685.4927      8.4052     97.0357
   448.2500      0.0000    689.6672      8.3789     89.2591
   448.5000      0.0000    696.1514      8.3664     83.9845
   448.7500      0.0000    702.5935      8.3680     82.1864
   449.0000      0.0000    708.1699      8.3829     82.9604
   449.2500      0.0000    714.1292      8.4019     84.2446
   449.5000      0.0000    722.1948      8.4029     84.3112
   449.7500      0.0000    732.7385      8.3677     82.8059
   450.0000      0.0000    744.2971      8.3078     80.7724
   450.2500      0.0000    754.2586      8.2632     79.7563
   450.5000      0.0000    760.2509      8.2677     80.4563
   450.7500      0.0000    761.4081      8.3167     82.0053
   451.0000      0.0000    758.3384      8.3708     82.7075
   451.2500      0.0000    751.7806      8.3886     81.6482
   451.5000      0.0000    741.6779      8.3528     79.7227
   451.7500      0.0000    728.3466      8.2683     79.0970
   452.0000      0.0000    714.6766      8.1505     81.4411
   452.2500      0.0000    706.0667      8.0243     86.4795
   452.5000      0.0000    706.9990      7.9246     92.2081
   452.7500      0.0000    717.1451      7.8858     96.4347
   453.0000      0.0000    730.7623      7.9228     98.1492
   453.2500      0.0000    740.4202      8.0206     97.8273
   453.5000      0.0000    742.4604      8.1384     96.8606
   453.7500      0.0000    739.2983      8.2289     96.5727
   454.0000      0.0000    736.1855      8.2629     97.2786
   454.2500      0.0000    736.2252      8.2404     97.9529
   454.5000      0.0000    739.2053      8.1863     97.0027
   454.7500      0.0000    743.8651      8.1331     93.8447
   455.0000      0.0000    748.9385      8.1040     89.7939
   455.2500      0.0000    752.4692      8.1011     87.0704
   455.5000      0.0000    752.5825      8.1073     87.0457
   455.7500      0.0000    749.4033      8.1002     89.7778
   456.0000      0.0000    744.6381      8.0688     94.7005
   456.2500      0.0000    738.8005      8.0157    100.9797
   456.5000      0.0000    730.3136      7.9452    107.5617
   456.7500      0.0000    718.2097      7.8570    113.7218
   457.0000      0.0000    704.5989      7.7546    119.5418
   457.2500      0.0000    693.5422      7.6505    125.3675
   457.5000      0.0000    688.1326      7.5581    130.9522
   457.7500      0.0000    689.2067      7.4818    135.5159
   458.0000      0.0000    696.0338      7.4194    138.4382
   458.2500      0.0000    707.0772      7.3715    139.5449
   458.5000      0.0000    719.6926      7.3425    139.0783
   458.7500      0.0000    729.6618      7.3350    137.7534
   459.0000      0.0000    732.4929      7.3477    136.5308
   459.2500      0.0000    726.6924      7.3772    135.9993
   459.5000      0.0000    715.6983      7.4173    136.1678
   459.7500      0.0000    705.5782      7.4566    136.8838
   460.0000      0.0000    700.5595      7.4807    137.8777
   460.2500      0.0000    701.1905      7.4832    138.1844
   460.5000      0.0000    706.2863      7.4740    136.3141
   460.7500      0.0000    715.1971      7.4726    131.6756
   461.0000      0.0000    727.4938      7.4932    125.4087
   461.2500      0.0000    741.2879      7.5399    119.4012
