~Version Information
VERS.                      2.0: CWLS Log ASCII Standard - VERSION 2.0
WRAP.                       NO: One line per depth step
~Well Information Block
STRT.FT               860.0000: 
STOP.FT              2733.7000: 
STEP.FT                 0.1000: 
NULL.                -999.2500: 
COMP.          Pioneer Natural Resources: COMPANY
WELL.          Beacon 11-18 Tr: WELL
FLD.           Purgatoire River: FIELD
LOC.           409' FNL & 203' FWL: LOCATION
PROV.                 Colorado: PROVINCE
CNTY.               Las Animas: COUNTRY
SRVC.                Patterson: SERVICE COMPANY
DATE.          Mon Jan 17 07:36:09 2005: LOG DATE
UWI.           05 071 08251 00: UNIQUE WELL ID
~Curve Information Block
DEPT.FT            0 000 00 00: Depth
DCAL.in                       : CDL Caliper
RHOB.g/cc                     : CDL Bulk Density
RHOC.g/cc                     : CDL Density Correction
DPOR.pu                       : CDL Density Porosity
NPOR.pu                       : Neutron Porosity
GR.GAPI                       : Gamma Ray
~Parameter Information Block
~A  Depth       DCAL        RHOB        RHOC        DPOR        NPOR         GR     
# ...
  1224.8000      8.2204      2.3546      0.1426     17.9053     15.8679     57.1285
  1224.9000      8.2204      2.3563      0.0919     17.7970     16.3719     50.9050
  1225.0000      8.2141      2.3619      0.0642     17.4578     16.5339     47.7353
  1225.1000      8.2141      2.3793      0.0920     16.4064     16.1693     48.7084
  1225.2000      8.2141      2.3996      0.1170     15.1753     15.6978     52.7744
  1225.3000      8.2117      2.4099      0.1293     14.5502     15.6189     56.9086
  1225.4000      8.2117      2.4053      0.1082     14.8303     15.7480     58.0184
  1225.5000      8.2131      2.3853      0.0778     16.0411     15.7892     56.3737
  1225.6000      8.2131      2.3580      0.0424     17.6999     15.9375     54.2878
  1225.7000      8.2131      2.3447      0.0115     18.5050     16.4152     53.2137
  1225.8000      8.2133      2.3537      0.0670     17.9548     16.9704     54.1663
  1225.9000      8.2133      2.3708      0.0727     16.9238     17.2365     56.3915
  1226.0000      8.2125      2.3928      0.0535     15.5865     17.3012     58.0878
  1226.1000      8.2125      2.4232      0.0656     13.7485     17.4886     61.2431
  1226.2000      8.2125      2.4448      0.1050     12.4371     17.9567     67.0920
  1226.3000      8.2128      2.4432      0.0867     12.5360     18.7734     70.0963
  1226.4000      8.2128      2.4315      0.0561     13.2411     19.8954     67.6772
  1226.5000      8.2134      2.4307      0.0628     13.2896     20.8236     64.4883
  1226.6000      8.2134      2.4441      0.1117     12.4762     21.0713     65.3255
  1226.7000      8.2134      2.4611      0.1215     11.4456     20.7743     69.7132
  1226.8000      8.2128      2.4730      0.0899     10.7286     20.2562     73.8419
  1226.9000      8.2128      2.4782      0.0991     10.4124     19.7931     75.4071
  1227.0000      8.2117      2.4762      0.1127     10.5332     19.6156     73.9275
  1227.1000      8.2117      2.4725      0.0621     10.7577     19.8535     71.7210
  1227.2000      8.2117      2.4758      0.0942     10.5591     20.3592     70.3118
  1227.3000      8.2112      2.4797      0.1131     10.3207     20.5497     67.6861
  1227.4000      8.2112      2.4753      0.0955     10.5897     20.2818     64.5384
  1227.5000      8.2120      2.4724      0.0908     10.7665     20.0676     63.7157
  1227.6000      8.2120      2.4912      0.0806      9.6247     20.0583     66.6557
  1227.7000      8.2120      2.5334      0.1259      7.0686     20.1862     73.3631
  1227.8000      8.2128      2.5725      0.1515      4.6983     20.7190     80.4271
  1227.9000      8.2128      2.5897      0.1183      3.6558     21.7237     83.9660
  1228.0000      8.2148      2.5906      0.1582      3.6004     22.5480     85.3147
  1228.1000      8.2148      2.5799      0.1204      4.2485     22.7457     87.2962
  1228.2000      8.2148      2.5618      0.0869      5.3438     22.5813     88.9235
  1228.3000      8.2168      2.5389      0.0802      6.7304     22.3951     89.0188
  1228.4000      8.2168      2.5096      0.0427      8.5101     22.2717     90.0136
  1228.5000      8.2147      2.4850      0.0351      9.9996     22.2729     94.0171
  1228.6000      8.2147      2.4812      0.0062     10.2305     22.4763     98.7684
  1228.7000      8.2147      2.4959      0.0374      9.3370     22.7499    100.9492
  1228.8000      8.2117      2.5072      0.0388      8.6544     23.0951    100.0196
  1228.9000      8.2117      2.5025      0.0075      8.9404     23.5214     96.8269
  1229.0000      8.2120      2.4874      0.0522      9.8565     23.6628     91.5137
  1229.1000      8.2120      2.4668      0.0007     11.1008     23.5794     85.0984
  1229.2000      8.2120      2.4464      0.0174     12.3403     23.7113     81.0059
  1229.3000      8.2141      2.4335      0.0158     13.1223     23.7640     78.1470
  1229.4000      8.2141      2.4375     -0.0135     12.8765     23.2059     72.1956
  1229.5000      8.2155      2.4570      0.0473     11.6959     22.2118     66.6956
  1229.6000      8.2155      2.4735      0.0552     10.6959     21.3926     66.8621
  1229.7000      8.2155      2.4854      0.0134      9.9773     20.9782     70.1611
  1229.8000      8.2153      2.5065      0.0812      8.6992     20.8878     73.7006
  1229.9000      8.2153      2.5279      0.1351      7.3984     21.1580     76.1509
  1230.0000      8.2136      2.5329      0.1092      7.0948     21.4145     75.8955
  1230.1000      8.2136      2.5234      0.1099      7.6698     21.3337     76.1819
  1230.2000      8.2136      2.5067      0.1255      8.6832     21.3115     80.4567
  1230.3000      8.2112      2.4847      0.0845     10.0207     21.7628     84.1579
  1230.4000      8.2112      2.4592      0.0826     11.5617     22.4763     82.4933
  1230.5000      8.2118      2.4359      0.0578     12.9783     22.8592     79.6110
  1230.6000      8.2118      2.4249      0.0694     13.6423     22.5866     80.7222
  1230.7000      8.2118      2.4325      0.0555     13.1824     21.7404     81.9422
  1230.8000      8.2142      2.4515      0.0953     12.0319     20.8927     77.6685
  1230.9000      8.2142      2.4676      0.1170     11.0542     20.4918     71.8010
  1231.0000      8.2166      2.4811      0.1016     10.2377     20.1476     70.9411
  1231.1000      8.2166      2.5020      0.1452      8.9673     19.7115     72.1849
  1231.2000      8.2166      2.5182      0.2062      7.9875     19.6292     69.5019
  1231.3000      8.2230      2.5105      0.1482      8.4527     19.8231     64.0558
  1231.4000      8.2230      2.4864      0.1052      9.9138     19.7035     59.9233
  1231.5000      8.2334      2.4650      0.1112     11.2117     19.3231     57.3584
  1231.6000      8.2334      2.4606      0.0790     11.4760     19.2907     55.0047
  1231.7000      8.2334      2.4809      0.0680     10.2511     19.6198     55.3124
  1231.8000      8.2392      2.5140      0.1294      8.2421     20.0059     59.7356
  1231.9000      8.2392      2.5427      0.0905      6.5039     20.4918     63.3461
  1232.0000      8.2412      2.5654      0.1248      5.1298     21.0326     62.2442
  1232.1000      8.2412      2.5770      0.1067      4.4228     21.4385     59.8169
  1232.2000      8.2412      2.5702      0.1057      4.8346     21.7083     60.2285
  1232.3000      8.2411      2.5525      0.0714      5.9070     21.8922     62.9245
  1232.4000      8.2411      2.5347      0.0643      6.9885     22.2620     66.4990
  1232.5000      8.2399      2.5219      0.0388      7.7623     23.0217     71.3508
  1232.6000      8.2399      2.5177      0.0279      8.0153     23.8195     75.2591
  1232.7000      8.2399      2.5176      0.0652      8.0249     24.6110     74.7112
  1232.8000      8.2404      2.5188      0.0508      7.9532     25.7520     73.1146
  1232.9000      8.2404      2.5303      0.0115      7.2524     26.9922     76.7034
  1233.0000      8.2424      2.5509      0.0729      6.0087     27.8996     84.8897
  1233.1000      8.2424      2.5629      0.0554      5.2778     28.2956     93.1067
  1233.2000      8.2424      2.5597      0.0583      5.4708     28.3341    100.5627
  1233.3000      8.2446      2.5510      0.0422      6.0012     28.3310    108.0949
  1233.4000      8.2446      2.5520     -0.0037      5.9422     28.2899    112.9275
  1233.5000      8.2439      2.5653      0.0613      5.1342     28.0340    115.1768
  1233.6000      8.2439      2.5724      0.1017      4.7020     27.3690    117.7215
  1233.7000      8.2439      2.5654      0.0574      5.1288     26.5272    119.1192
  1233.8000      8.2431      2.5594      0.0549      5.4921     26.1863    118.2244
  1233.9000      8.2431      2.5612      0.0511      5.3838     26.3975    115.9876
  1234.0000      8.2438      2.5577      0.0654      5.5949     26.7278    113.0154
  1234.1000      8.2438      2.5430      0.0559      6.4821     27.2067    109.7227
  1234.2000      8.2438      2.5337      0.0485      7.0479     27.9656    106.8707
  1234.3000      8.2422      2.5428      0.0437      6.4964     28.5161    106.0627
