~Version Information
 VERS.                                  2.0 : CWLS LAS VERSION
 WRAP.                                   NO : WRAPING MODE
 SWARE .                 MController 2.5.0J : SOFTWARE VERSION
~Well Information
 WELL.                           State 16-14: WELL
 COMP.                       Petrogulf Corp : COMPANY
 FLD.                       Purgatoire River: FIELD
 LOC.                  SW/SW Sec16 T33S R67W: LOCATION
 DATE.                             11/04/04 : DATE(S) LOGGED
 SRVC.        BLanco Geological Services LLC: SERVICE COMPANY
 STAT.                                    CO: STATE
 CNTY.                           Las Animas : COUNTY
 CTRY.                                   USA: COUNTRY
 API.                           05-071-08034: API NUMBER
 STRT.FT                             659.00 : START DEPTH
 STOP.FT                            1890.00 : STOP DEPTH
 STEP.FT                               1.00 : DEPTH INCREMENT
 NULL.                                -9999 : NULL VALUE
~Curve information
 DEPTH.FT                                   :
 ROP.MIN/FT                                 :
 GAS.UNITS                                  :
~ASCII Log data
# ...
      1459.0         0.20         32.7 
      1460.0         0.20         31.1 
      1461.0         0.17         31.5 
      1462.0         0.20         28.7 
      1463.0         0.10         28.7 
      1464.0         0.27         27.2 
      1465.0         0.27         22.4 
      1466.0         0.13         19.8 
      1467.0         0.23         18.8 
      1468.0         0.40         18.4 
      1469.0         0.33         15.8 
      1470.0         0.40         14.7 
      1471.0         0.30         13.4 
      1472.0         0.30         13.0 
      1473.0         0.32         11.2 
      1474.0         0.20         11.3 
      1475.0         0.17         10.9 
      1476.0         0.20         10.9 
      1477.0         0.20         10.1 
      1478.0         0.17         10.6 
      1479.0         0.20         10.7 
      1480.0         0.20         10.7 
      1481.0         0.17         10.7 
      1482.0         0.27         10.5 
      1483.0         0.23         11.0 
      1484.0         0.23         11.4 
      1485.0         0.23         11.2 
      1486.0         0.27         12.2 
      1487.0         0.23         13.4 
      1488.0         0.30          8.5 
      1489.0         0.32         10.2 
      1490.0         0.20         11.6 
      1491.0         0.17         13.9 
      1492.0         0.27         17.4 
      1493.0         0.27         25.5 
      1494.0         0.27         28.8 
      1495.0         0.27         29.2 
      1496.0         0.38         24.8 
      1497.0         0.23         24.8 
      1498.0         0.27         23.1 
      1499.0         0.23         22.3 
      1500.0         0.23         17.9 
      1501.0         0.20         16.6 
      1502.0         0.30         14.7 
      1503.0         0.27         14.7 
      1504.0         0.23         12.6 
      1505.0         0.23         12.2 
      1506.0         0.23         11.0 
      1507.0         0.20         10.4 
      1508.0         0.23         10.4 
      1509.0         0.20         10.6 
      1510.0         0.25         10.6 
      1511.0         0.23         11.1 
      1512.0         0.20         11.1 
      1513.0         0.23         11.3 
      1514.0         0.33         11.2 
      1515.0         0.33         11.0 
      1516.0         0.30         10.8 
      1517.0         0.30         10.9 
      1518.0         0.27         10.7 
      1519.0         0.30         11.9 
      1520.0         0.40         11.9 
      1521.0         0.38         15.5 
      1522.0         0.33         21.6 
      1523.0         0.20         24.5 
      1524.0         0.27         26.8 
      1525.0         0.27         27.8 
      1526.0         0.50         27.9 
      1527.0         0.43         24.0 
      1528.0         0.27         21.4 
      1529.0         0.43         16.8 
      1530.0         0.30         14.2 
      1531.0         0.33         13.1 
      1532.0         0.27         12.9 
      1533.0         0.30         11.9 
      1534.0         0.40         11.2 
      1535.0         0.45         10.0 
      1536.0         0.23          9.2 
      1537.0         0.33         10.1 
      1538.0         0.23          9.9 
      1539.0         0.17         10.0 
      1540.0         0.20          9.9 
      1541.0         0.20          9.0 
      1542.0         0.17          8.8 
      1543.0         0.17          8.6 
      1544.0         0.20          8.5 
      1545.0         0.17         11.2 
      1546.0         0.17          9.9 
      1547.0         0.13         10.6 
      1548.0         0.17          9.7 
      1549.0         0.20         11.8 
      1550.0         0.13         11.8 
      1551.0         0.13         11.4 
      1552.0         0.17         11.8 
      1553.0         0.15         12.8 
      1554.0         0.17         14.3 
      1555.0         0.17         16.0 
      1556.0         0.17         16.0 
      1557.0         0.10         17.0 
      1558.0         0.30         18.0 
      1559.0         0.30         18.5 
      1560.0         0.27         17.2 
      1561.0         0.32         15.3 
      1562.0         0.23         14.2 
      1563.0         0.20         13.7 
      1564.0         0.23         13.6 
      1565.0         0.37         13.7 
      1566.0         0.30         13.4 
      1567.0         0.23         12.6 
      1568.0         0.27         12.4 
      1569.0         0.20         12.5 
      1570.0         0.23         11.4 
      1571.0         0.23         11.4 
      1572.0         0.20         11.4 
      1573.0         0.20         11.4 
      1574.0         0.17         11.2 
      1575.0         0.18         10.9 
      1576.0         0.13         10.5 
      1577.0         0.20         10.5 
      1578.0         0.27         10.2 
      1579.0         0.23         11.7 
      1580.0         0.27         14.3 
      1581.0         0.20         16.7 
      1582.0         0.33         20.5 
      1583.0         0.27         20.0 
      1584.0         0.23         19.4 
      1585.0         0.23         18.2 
      1586.0         0.37         18.0 
      1587.0         0.30         14.9 
      1588.0         0.23         13.7 
      1589.0         0.20         12.1 
      1590.0         0.32         12.1 
      1591.0         0.27         11.7 
      1592.0         0.30         11.6 
      1593.0         0.27         11.3 
      1594.0         0.30         11.0 
      1595.0         0.27         10.6 
      1596.0         0.23         10.1 
      1597.0         0.20         10.1 
      1598.0         0.23         10.3 
      1599.0         0.23         10.3 
      1600.0         0.23         10.0 
      1601.0         0.20         10.0 
      1602.0         0.23         10.5 
      1603.0         0.25          9.5 
      1604.0         0.27          9.4 
      1605.0         0.27          9.5 
      1606.0         0.30         10.2 
      1607.0         0.30          9.7 
      1608.0         0.40         10.9 
      1609.0         0.20          8.3 
      1610.0         0.20          8.3 
      1611.0         0.23          8.1 
      1612.0         0.20          9.5 
      1613.0         0.20          9.9 
      1614.0         0.13         10.5 
      1615.0         0.20         10.6 
      1616.0         0.27         13.4 
      1617.0         0.17         13.4 
      1618.0         0.27         15.0 
      1619.0         0.23         17.2 
      1620.0         0.30         19.3 
      1621.0         0.37         19.7 
      1622.0         0.30         18.4 
      1623.0         0.25         16.2 
      1624.0         0.23         16.1 
      1625.0         0.30         13.7 
      1626.0         0.37         13.4 
      1627.0         0.30         12.8 
      1628.0         0.23         12.2 
      1629.0         0.27         12.4 
      1630.0         0.30         11.9 
      1631.0         0.27         11.2 
      1632.0         0.27         11.2 
      1633.0         0.27         10.6 
      1634.0         0.27         10.4 
      1635.0         0.25         10.1 
      1636.0         0.27         10.5 
      1637.0         0.27         10.1 
      1638.0         0.23          9.4 
      1639.0         0.27         10.9 
      1640.0         0.23         10.0 
      1641.0         0.23         10.5 
      1642.0         0.27         11.9 
      1643.0         0.23         13.1 
      1644.0         0.23         14.9 
      1645.0         0.27         18.8 
      1646.0         0.17         19.5 
      1647.0         0.27         23.2 
      1648.0         0.20         24.5 
      1649.0         0.23         23.7 
      1650.0         0.27         22.6 
      1651.0         0.20         21.1 
      1652.0         0.13         17.7 
      1653.0         0.17         15.9 
      1654.0         0.23         15.7 
      1655.0         0.20         13.9 
      1656.0         0.27         13.7 
      1657.0         0.28         13.0 
      1658.0         0.23         12.5 
