~Version Information
VERS.                      2.0: CWLS Log ASCII Standard - VERSION 2.0
WRAP.                       NO: One line per depth step
~Well Information Block
STRT.FT               860.0000: 
STOP.FT              2733.7500: 
STEP.FT                 0.2500: 
NULL.                -999.2500: 
COMP.          Pioneer Natural Resources: COMPANY
WELL.          Beacon 11-18 Tr: WELL
FLD.           Purgatoire River: FIELD
LOC.           409' FNL & 203' FWL: LOCATION
PROV.                 Colorado: PROVINCE
CNTY.               Las Animas: COUNTRY
SRVC.                Patterson: SERVICE COMPANY
DATE.          Sun Jan 16 19:36:19 2005: LOG DATE
UWI.           05 071 08251 00: UNIQUE WELL ID
~Curve Information Block
DEPT.FT            0 000 00 00: Depth
SN.Ohm-m                      : IEL Short Normal
SP.mV                         : IEL Spontaneous Potential
DIR.Ohm-m                     : IEL Induction Resistivity
GR.GAPI                       : Gamma Ray
~Parameter Information Block
~A  Depth        SN          SP         DIR          GR     
# ...
  1362.5000   2000.0000   2000.0000     24.6761     72.0754
  1362.7500   2000.0000   2000.0000     25.2193     72.8827
  1363.0000   2000.0000   2000.0000     25.7843     74.2277
  1363.2500   2000.0000   2000.0000     26.3318     75.1971
  1363.5000   2000.0000   2000.0000     26.8163     77.1206
  1363.7500   2000.0000   2000.0000     27.2016     78.6963
  1364.0000   2000.0000   2000.0000     27.4579     80.8419
  1364.2500   2000.0000   2000.0000     27.5517     81.7733
  1364.5000   2000.0000   2000.0000     27.4523     82.5654
  1364.7500   2000.0000   2000.0000     27.1556     83.0382
  1365.0000   2000.0000   2000.0000     26.6998     83.8131
  1365.2500   2000.0000   2000.0000     26.1565     84.1351
  1365.5000   2000.0000   2000.0000     25.6042     84.2070
  1365.7500   2000.0000   2000.0000     25.1050     84.3219
  1366.0000   2000.0000   2000.0000     24.6906     85.2436
  1366.2500   2000.0000   2000.0000     24.3575     86.3420
  1366.5000   2000.0000   2000.0000     24.0720     88.1305
  1366.7500   2000.0000   2000.0000     23.7833     89.1821
  1367.0000   2000.0000   2000.0000     23.4413     90.8386
  1367.2500   2000.0000   2000.0000     23.0103     92.3750
  1367.5000   2000.0000   2000.0000     22.4733     95.6550
  1367.7500   2000.0000   2000.0000     21.8326     98.4121
  1368.0000   2000.0000   2000.0000     21.1102    103.2102
  1368.2500   2000.0000   2000.0000     20.3463    106.8282
  1368.5000   2000.0000   2000.0000     19.5865    112.7343
  1368.7500   2000.0000   2000.0000     18.8645    116.7023
  1369.0000   2000.0000   2000.0000     18.1940    122.0868
  1369.2500   2000.0000   2000.0000     17.5760    125.0545
  1369.5000   2000.0000   2000.0000     17.0120    128.1544
  1369.7500   2000.0000   2000.0000     16.5123    128.9552
  1370.0000   2000.0000   2000.0000     16.0928    128.0051
  1370.2500   2000.0000   2000.0000     15.7688    126.4183
  1370.5000   2000.0000   2000.0000     15.5534    124.0098
  1370.7500   2000.0000   2000.0000     15.4584    122.7342
  1371.0000   2000.0000   2000.0000     15.4961    120.5123
  1371.2500   2000.0000   2000.0000     15.6756    118.0687
  1371.5000   2000.0000   2000.0000     15.9964    112.4803
  1371.7500   2000.0000   2000.0000     16.4451    107.8981
  1372.0000   2000.0000   2000.0000     16.9953    101.2141
  1372.2500   2000.0000   2000.0000     17.6127     97.7208
  1372.5000   2000.0000   2000.0000     18.2584     94.5215
  1372.7500   2000.0000   2000.0000     18.8888     93.5233
  1373.0000   2000.0000   2000.0000     19.4529     93.0731
  1373.2500   2000.0000   2000.0000     19.8888     93.3236
  1373.5000   2000.0000   2000.0000     20.1300     94.4392
  1373.7500   2000.0000   2000.0000     20.1308     95.3730
  1374.0000   2000.0000   2000.0000     19.9051     96.3511
  1374.2500   2000.0000   2000.0000     19.5359     96.7152
  1374.5000   2000.0000   2000.0000     19.1342     97.7867
  1374.7500   2000.0000   2000.0000     18.7761     99.4963
  1375.0000   2000.0000   2000.0000     18.4732    103.7453
  1375.2500   2000.0000   2000.0000     18.1910    107.1432
  1375.5000   2000.0000   2000.0000     17.8902    111.6076
  1375.7500   2000.0000   2000.0000     17.5551    113.4543
  1376.0000   2000.0000   2000.0000     17.1947    114.0791
  1376.2500   2000.0000   2000.0000     16.8287    113.3252
  1376.5000   2000.0000   2000.0000     16.4762    111.7290
  1376.7500   2000.0000   2000.0000     16.1519    111.3606
  1377.0000   2000.0000   2000.0000     15.8648    113.0067
  1377.2500   2000.0000   2000.0000     15.6162    115.4003
  1377.5000   2000.0000   2000.0000     15.4003    119.4542
  1377.7500   2000.0000   2000.0000     15.2089    121.6933
  1378.0000   2000.0000   2000.0000     15.0351    124.1648
  1378.2500   2000.0000   2000.0000     14.8764    125.4616
  1378.5000   2000.0000   2000.0000     14.7359    126.8922
  1378.7500   2000.0000   2000.0000     14.6224    127.3008
  1379.0000   2000.0000   2000.0000     14.5468    127.0592
  1379.2500   2000.0000   2000.0000     14.5160    126.5181
  1379.5000   2000.0000   2000.0000     14.5240    125.2229
  1379.7500   2000.0000   2000.0000     14.5504    123.8471
  1380.0000   2000.0000   2000.0000     14.5689    120.9153
  1380.2500   2000.0000   2000.0000     14.5621    118.7904
  1380.5000   2000.0000   2000.0000     14.5323    116.4809
  1380.7500   2000.0000   2000.0000     14.4982    115.9096
  1381.0000   2000.0000   2000.0000     14.4812    116.2105
  1381.2500   2000.0000   2000.0000     14.4909    116.6765
  1381.5000   2000.0000   2000.0000     14.5207    117.0313
  1381.7500   2000.0000   2000.0000     14.5536    116.8427
  1382.0000   2000.0000   2000.0000     14.5761    115.9352
  1382.2500   2000.0000   2000.0000     14.5904    115.0951
  1382.5000   2000.0000   2000.0000     14.6167    114.0862
  1382.7500   2000.0000   2000.0000     14.6795    113.9655
  1383.0000   2000.0000   2000.0000     14.7913    114.7181
  1383.2500   2000.0000   2000.0000     14.9453    115.3973
  1383.5000   2000.0000   2000.0000     15.1245    115.6367
  1383.7500   2000.0000   2000.0000     15.3180    115.0828
  1384.0000   2000.0000   2000.0000     15.5283    113.9850
  1384.2500   2000.0000   2000.0000     15.7607    113.8509
  1384.5000   2000.0000   2000.0000     16.0089    115.3880
  1384.7500   2000.0000   2000.0000     16.2537    117.4677
  1385.0000   2000.0000   2000.0000     16.4800    121.1154
  1385.2500   2000.0000   2000.0000     16.6935    123.0874
  1385.5000   2000.0000   2000.0000     16.9203    124.1254
  1385.7500   2000.0000   2000.0000     17.1880    123.0831
  1386.0000   2000.0000   2000.0000     17.5088    118.8521
  1386.2500   2000.0000   2000.0000     17.8764    114.6835
  1386.5000   2000.0000   2000.0000     18.2779    107.7042
  1386.7500   2000.0000   2000.0000     18.7079    103.4145
  1387.0000   2000.0000   2000.0000     19.1736     98.7560
  1387.2500   2000.0000   2000.0000     19.6866     97.2769
  1387.5000   2000.0000   2000.0000     20.2450     97.6552
  1387.7500   2000.0000   2000.0000     20.8186     99.4068
  1388.0000   2000.0000   2000.0000     21.3473    103.4685
  1388.2500   2000.0000   2000.0000     21.7542    106.4869
  1388.5000   2000.0000   2000.0000     21.9712    110.3703
  1388.7500   2000.0000   2000.0000     21.9684    112.1766
  1389.0000   2000.0000   2000.0000     21.7728    113.8989
  1389.2500   2000.0000   2000.0000     21.4600    114.6626
  1389.5000   2000.0000   2000.0000     21.1229    115.0568
  1389.7500   2000.0000   2000.0000     20.8393    114.2722
  1390.0000   2000.0000   2000.0000     20.6594    110.8271
  1390.2500   2000.0000   2000.0000     20.6085    107.3725
  1390.5000   2000.0000   2000.0000     20.6943    102.4206
  1390.7500   2000.0000   2000.0000     20.9099    100.5235
  1391.0000   2000.0000   2000.0000     21.2356    100.5518
  1391.2500   2000.0000   2000.0000     21.6371    101.8912
  1391.5000   2000.0000   2000.0000     22.0670    104.0691
  1391.7500   2000.0000   2000.0000     22.4721    104.8474
  1392.0000   2000.0000   2000.0000     22.8087    104.7131
  1392.2500   2000.0000   2000.0000     23.0571    104.0607
  1392.5000   2000.0000   2000.0000     23.2240    103.0382
  1392.7500   2000.0000   2000.0000     23.3299    102.7129
  1393.0000   2000.0000   2000.0000     23.3946    103.0205
  1393.2500   2000.0000   2000.0000     23.4269    103.6731
  1393.5000   2000.0000   2000.0000     23.4248    105.0098
  1393.7500   2000.0000   2000.0000     23.3829    105.9245
  1394.0000   2000.0000   2000.0000     23.3040    106.7592
  1394.2500   2000.0000   2000.0000     23.2059    106.5338
  1394.5000   2000.0000   2000.0000     23.1224    104.7390
  1394.7500   2000.0000   2000.0000     23.0953    102.9104
  1395.0000   2000.0000   2000.0000     23.1625    100.2405
  1395.2500   2000.0000   2000.0000     23.3467     98.8696
  1395.5000   2000.0000   2000.0000     23.6443     97.2895
  1395.7500   2000.0000   2000.0000     24.0204     96.2799
