~Version Information
VERS.                      2.0: CWLS Log ASCII Standard - VERSION 2.0
WRAP.                       NO: One line per depth step
~Well Information Block
STRT.FT               700.0000: 
STOP.FT              1869.5000: 
STEP.FT                 0.2500: 
NULL.                -999.2500: 
COMP.          Petrogulf Corporation: COMPANY
WELL.             State 16-24R: WELL
FLD.           Purgatorie River: FIELD
LOC.           541' FSL & 2371' FWL: LOCATION
PROV.                 Colorado: PROVINCE
CNTY.               Las Animas: COUNTRY
SRVC.                Patterson: SERVICE COMPANY
DATE.          Fri Aug 12 09:07:22 2005: LOG DATE
UWI.                071-08312 : UNIQUE WELL ID
~Curve Information Block
DEPT.FT            0 000 00 00: Depth
SP.mV                         : DIL Spontaneous Potential
RILD.Ohm-m                    : DIL Deep Resistivity
RILM.Ohm-m                    : DIL Medium Resistivity
RLL3.Ohm-m                    : DIL Shallow Resistivity
GR.GAPI                       : Gamma Ray
~Parameter Information Block
~A  Depth        SP         RILD        RILM        RLL3         GR     
# ...
  1092.0000    102.7300     21.9569     23.3902     21.1710    115.9882
  1092.2500    100.7629     21.4125     22.7825     20.9739    109.3793
  1092.5000     99.7529     21.6779     23.8660     24.4411    105.3449
  1092.7500     99.6404     20.0332     23.8399     31.5119    104.8833
  1093.0000    101.6131     21.5038     24.0752     32.7758    109.8895
  1093.2500    104.0890     22.0696     23.6621     28.3821    105.4767
  1093.5000    103.7172     21.9985     23.2951     28.1168    116.5764
  1093.7500    102.7691     22.1637     22.8508     27.3565    111.9546
  1094.0000    100.1319     22.8824     22.8265     23.2645    118.5033
  1094.2500    106.2834     23.7068     22.6547     20.7421    114.0406
  1094.5000    106.8822     25.7153     22.7594     18.6514    108.3926
  1094.7500    106.7109     26.7466     24.0364     18.2141     95.6974
  1095.0000    105.7577     26.0963     25.5011     20.8133     79.5037
  1095.2500    104.1225     26.2503     27.5003     28.8375     76.8302
  1095.5000    102.3454     27.5693     29.3561     46.7219     63.5549
  1095.7500    100.7355     28.6719     30.9851     64.8293     54.4077
  1096.0000     98.0982     28.3020     32.9284     87.7983     51.1710
  1096.2500     97.7634     29.6101     34.2858     96.0829     51.6197
  1096.5000     97.5813     30.6630     36.4275     89.7786     50.5988
  1096.7500     98.0697     32.9432     35.1919     67.0824     52.2451
  1097.0000     98.0718     34.5718     35.3376     52.2234     51.7400
  1097.2500     98.2932     37.3912     36.5721     45.1846     48.4441
  1097.5000     98.0213     37.1179     37.9664     44.5661     53.9849
  1097.7500     96.8996     37.9093     40.9325     44.9312     54.4988
  1098.0000     95.8466     35.4884     41.7840     43.9423     50.1423
  1098.2500     94.5692     38.6782     41.1848     43.2192     54.6135
  1098.5000     91.2771     39.5803     40.2264     47.7680     62.3379
  1098.7500     86.8870     38.4488     41.2211     54.5449     61.9228
  1099.0000     92.3539     34.5817     42.3985     55.0180     55.6249
  1099.2500     90.7411     36.5633     40.5222     51.9203     55.3978
  1099.5000     90.4601     38.8610     38.0995     50.2142     52.0336
  1099.7500     87.4018     38.1305     37.2062     46.5561     57.4706
  1100.0000     90.7655     35.9582     38.1609     40.8254     59.9436
  1100.2500     87.6098     34.1868     38.0174     39.2552     61.3933
  1100.5000     87.4701     36.5824     36.8560     39.5939     55.6087
  1100.7500     88.5751     36.1149     36.8510     40.7662     58.0407
  1101.0000     87.0733     37.0516     36.4798     41.3716     54.2554
  1101.2500     87.0498     36.3142     37.7172     40.9754     56.5522
  1101.5000     86.0257     35.6589     38.7254     40.9480     60.6500
  1101.7500     89.9065     34.4009     40.8779     42.5839     59.3854
  1102.0000     90.5627     38.1710     38.0534     45.9654     49.0102
  1102.2500     93.3761     37.2960     37.8482     49.3323     46.5641
  1102.5000     94.6894     35.8521     38.0403     50.3072     45.7940
  1102.7500     93.3986     38.7079     40.9355     49.5493     48.0794
  1103.0000     91.7920     35.8302     42.2562     48.4030     54.6093
  1103.2500     93.2450     33.6717     40.8090     50.1866     47.7039
  1103.5000     94.3553     35.5458     40.7793     58.2870     51.1833
  1103.7500     94.2691     38.3785     42.5299     69.0256     50.0093
  1104.0000     96.2931     37.6789     43.8244     80.6962     51.8067
  1104.2500     96.2420     37.0834     42.0004     81.7742     59.3420
  1104.5000     96.4827     39.9241     42.6049     75.2705     61.1413
  1104.7500     94.5799     37.3246     39.9386     65.8305     68.1315
  1105.0000    100.0914     35.5586     39.1847     51.7226     84.0482
  1105.2500    101.4054     37.0061     38.2092     38.0048     89.0703
  1105.5000     99.5639     35.1507     40.4287     30.4924     94.6783
  1105.7500    102.6102     37.0701     36.8549     28.4307     97.6168
  1106.0000    101.2909     37.2195     36.6699     28.2057     92.0123
  1106.2500    100.9102     35.0875     37.4517     28.8556     91.6236
  1106.5000    104.5821     36.2800     37.3424     30.9444     88.9398
  1106.7500    104.6316     35.8099     40.4538     37.5446     75.4557
  1107.0000    102.9239     35.9585     40.7253     49.5424     70.5973
  1107.2500    103.8473     36.7557     39.6212     58.2029     66.8736
  1107.5000    106.2549     34.3481     38.6281     60.0388     68.3215
  1107.7500    106.4286     34.6424     38.4476     56.8832     72.6441
  1108.0000    106.5498     31.9674     37.9133     50.0739     76.2805
  1108.2500    110.6701     33.7123     36.3143     42.1649     82.8298
  1108.5000    113.7159     33.0493     35.6227     38.3087     97.5783
  1108.7500    116.6677     34.3056     34.7967     33.9389     98.5722
  1109.0000    117.7442     32.8445     34.2368     29.4476     95.6017
  1109.2500    119.5994     30.3851     34.5569     27.6796     92.0718
  1109.5000    119.5553     31.5559     33.4181     29.9009     97.8283
  1109.7500    122.0868     30.9009     32.1658     33.0049    100.5362
  1110.0000    121.3767     28.4710     31.7564     33.9741    102.9850
  1110.2500    124.4657     28.3405     29.2528     31.8872    100.2980
  1110.5000    124.4817     27.0616     30.2234     27.2369    107.2115
  1110.7500    127.6241     25.9727     26.5402     24.5174    105.7709
  1111.0000    127.5339     23.8910     25.1162     22.4464    115.5368
  1111.2500    125.6603     23.5033     24.7766     21.8255    116.3711
  1111.5000    124.8892     23.4587     23.9535     21.9808    118.1050
  1111.7500    125.0104     21.8714     24.1903     22.6834    122.2557
  1112.0000    128.1506     20.7393     22.9407     23.9294    121.8479
  1112.2500    127.6590     20.1304     22.8747     24.6114    117.1759
  1112.5000    124.4288     20.0304     22.3512     24.1569    119.6083
  1112.7500    122.9518     19.3108     21.6777     23.3381    121.3070
  1113.0000    121.6337     19.3218     21.3437     22.4633    131.7731
  1113.2500    123.4085     18.7221     20.4900     20.9956    127.9424
  1113.5000    122.4028     17.9529     20.0262     20.0008    121.7255
  1113.7500    120.9917     16.7667     19.5249     19.6456    119.8421
  1114.0000    119.5741     17.5575     19.1879     19.5678    120.2729
  1114.2500    117.9820     17.7335     18.6627     19.8342    120.3548
  1114.5000    118.6188     17.4165     18.2451     20.1986    126.5782
  1114.7500    118.8697     17.0640     18.8752     20.0736    123.0228
  1115.0000    116.2695     17.2443     18.3775     19.4937    111.6267
  1115.2500    113.0491     16.9093     17.6564     18.5076    114.9012
  1115.5000    112.7538     17.2527     17.9715     17.7598    123.2742
  1115.7500    109.0677     18.4540     18.5980     17.9699    123.3551
  1116.0000    107.6967     18.4446     19.1311     19.5321    110.1790
  1116.2500    107.6258     19.7489     19.2854     20.5849    101.5137
  1116.5000    107.9618     19.9265     21.0126     19.2607     92.1100
  1116.7500    106.0037     21.4820     22.5047     21.4145     74.6440
  1117.0000    103.8521     23.6950     24.9976     36.6438     55.6800
  1117.2500    105.4779     23.7100     28.3495     77.3812     47.8007
  1117.5000    104.0872     25.6645     33.0398    109.7480     35.4368
  1117.7500    104.1237     28.0428     33.4507    113.4875     26.6183
  1118.0000    103.0195     30.3738     35.5602    113.4967     21.2710
  1118.2500    102.1316     32.1458     40.1300    113.4967     18.0355
  1118.5000    102.8820     34.7200     46.0412    113.4967     18.7651
  1118.7500    104.6767     34.9051     50.4476    113.4967     19.6060
  1119.0000    105.6780     40.6466     56.0579    113.4967     20.6288
  1119.2500    103.8208     41.6769     57.9696    113.4967     22.3393
  1119.5000    107.0378     45.0677     57.5577    113.4967     20.7408
  1119.7500    109.4781     45.3503     64.4256    113.4967     20.7895
