~Version Information
VERS.                      2.0: CWLS Log ASCII Standard - VERSION 2.0
WRAP.                       NO: One line per depth step
~Well Information Block
STRT.FT                -8.8000: 
STOP.FT              2006.2000: 
STEP.FT                 0.1000: 
NULL.                -999.2500: 
COMP.          Petrogulf Corporation: COMPANY
WELL.             J & P 12-33V: WELL
FLD.           Purgatorie River: FIELD
LOC.           2005' FSL & 1928' FEL: LOCATION
CNTY.               Las Animas: COUNTY
SRVC.                         : SERVICE COMPANY
DATE.          Fri Jul 29 13:37:28 2005: LOG DATE
UWI.                          : UNIQUE WELL ID
STAT.                 Colorado: STATE
~Curve Information Block
DEPT.FT            0 000 00 00: Depth
GR.GAPI                       : Gamma Ray
CCL.                          : Casing Collar Locator
TT3.usec                      : CBL 3' Travel Time
AMP3.mV                       : CBL 3' Amplitude
~Parameter Information Block
~A  Depth        GR         CCL         TT3         AMP3    
# ...
   929.2000     70.1359      0.0000    256.1718     75.6553
   929.3000     71.9511      0.0000    256.1714     75.5590
   929.4000     71.9511      0.0000    256.1714     75.5590
   929.5000     72.5480      0.0000    256.1761     75.5976
   929.6000     72.5480      0.0000    256.1761     75.5976
   929.7000     72.5480      0.0000    256.1761     75.5976
   929.8000     73.3366      0.0000    256.1876     75.7304
   929.9000     73.3366      0.0000    256.1876     75.7304
   930.0000     75.3580      0.0000    256.2031     75.9082
   930.1000     75.3580      0.0000    256.2031     75.9082
   930.2000     75.3580      0.0000    256.2031     75.9082
   930.3000     78.3088      0.0000    256.1927     76.1599
   930.4000     78.3088      0.0000    256.1927     76.1599
   930.5000     81.4229      0.0000    256.1257     76.5252
   930.6000     81.4229      0.0000    256.1257     76.5252
   930.7000     81.4229      0.0000    256.1257     76.5252
   930.8000     84.7451      0.0000    256.0265     76.9561
   930.9000     84.7451      0.0000    256.0265     76.9561
   931.0000     89.2691      0.0000    255.9512     77.3555
   931.1000     89.2691      0.0000    255.9512     77.3555
   931.2000     89.2691      0.0000    255.9512     77.3555
   931.3000     96.1526      0.0000    255.9249     77.6355
   931.4000     96.1526      0.0000    255.9249     77.6355
   931.5000    105.9363      0.0000    255.9305     77.7522
   931.6000    105.9363      0.0000    255.9305     77.7522
   931.7000    105.9363      0.0000    255.9305     77.7522
   931.8000    118.1743      0.0000    255.9345     77.7870
   931.9000    118.1743      0.0000    255.9345     77.7870
   932.0000    131.5300      0.0000    255.9162     77.8851
   932.1000    131.5300      0.0000    255.9162     77.8851
   932.2000    131.5300      0.0000    255.9162     77.8851
   932.3000    144.2305      0.0000    255.8848     78.0484
   932.4000    144.2305      0.0000    255.8848     78.0484
   932.5000    154.5325      0.0000    255.8648     78.1603
   932.6000    154.5325      0.0000    255.8648     78.1603
   932.7000    154.5325      0.0000    255.8648     78.1603
   932.8000    161.0820      0.0000    255.8636     78.1950
   932.9000    161.0820      0.0000    255.8636     78.1950
   933.0000    163.4494      0.0000    255.8654     78.2198
   933.1000    163.4494      0.0000    255.8654     78.2198
   933.2000    163.4494      0.0000    255.8654     78.2198
   933.3000    162.5755      0.0000    255.8553     78.2381
   933.4000    162.5755      0.0000    255.8553     78.2381
   933.5000    160.1848      0.0000    255.8351     78.1780
   933.6000    160.1848      0.0000    255.8351     78.1780
   933.7000    160.1848      0.0000    255.8351     78.1780
   933.8000    157.3706      0.0000    255.8112     78.0025
   933.9000    157.3706      0.0000    255.8112     78.0025
   934.0000    153.8485      0.0000    255.7803     77.7314
   934.1000    153.8485      0.0000    255.7803     77.7314
   934.2000    153.8485      0.0000    255.7803     77.7314
   934.3000    148.4726      0.0000    255.7395     77.4058
   934.4000    148.4726      0.0000    255.7395     77.4058
   934.5000    140.2294      0.0000    255.6984     77.0994
   934.6000    140.2294      0.0000    255.6984     77.0994
   934.7000    140.2294      0.0000    255.6984     77.0994
   934.8000    129.0509      0.0000    255.6681     76.9061
   934.9000    129.0509      0.0000    255.6681     76.9061
   935.0000    116.1044      0.0000    255.6514     76.8292
   935.1000    116.1044      0.0000    255.6514     76.8292
   935.2000    116.1044      0.0000    255.6514     76.8292
   935.3000    103.1955      0.0000    255.6504     76.6258
   935.4000    103.1955      0.0000    255.6504     76.6258
   935.5000     91.5868      0.0000    255.6941     75.7221
   935.6000     91.5868      0.0000    255.6941     75.7221
   935.7000     91.5868      0.0000    255.6941     75.7221
   935.8000     81.4347      0.0000    255.9067     73.5889
   935.9000     81.4347      0.0000    255.9067     73.5889
   936.0000     72.4279      0.0000    256.5411     70.6091
   936.1000     72.4279      0.0000    256.5411     70.6091
   936.2000     72.4279      0.0000    256.5411     70.6091
   936.3000     64.5952      0.0000    257.7923     67.8858
   936.4000     64.5952      0.0000    257.7923     67.8858
   936.5000     58.1411      0.0000    259.4745     65.7811
   936.6000     58.1411      0.0000    259.4745     65.7811
   936.7000     58.1411      0.0000    259.4745     65.7811
   936.8000     52.7925      0.0000    261.0513     64.0212
   936.9000     52.7925      0.0000    261.0513     64.0212
   937.0000     47.8196      0.0000    262.0988     62.7986
   937.1000     47.8196      0.0000    262.0988     62.7986
   937.2000     47.8196      0.0000    262.0988     62.7986
   937.3000     42.7124      0.0000    262.5973     62.2403
   937.4000     42.7124      0.0000    262.5973     62.2403
   937.5000     37.5519      0.0000    262.7642     62.0038
   937.6000     37.5519      0.0000    262.7642     62.0038
   937.7000     37.5519      0.0000    262.7642     62.0038
   937.8000     32.7740      0.0000    262.8195     61.8660
   937.9000     32.7740     -2.0000    262.8195     61.8660
   938.0000     28.8732      2.0000    263.0385     61.7715
   938.1000     28.8732      2.0000    263.0385     61.7715
   938.2000     28.8732     -2.0000    263.0385     61.7715
   938.3000     26.3222      2.0000    264.0483     61.4642
   938.4000     26.3222      0.0000    264.0483     61.4642
   938.5000     25.3859      0.0000    266.6572     60.6539
   938.6000     25.3859      0.0000    266.6572     60.6539
   938.7000     25.3859      0.0000    266.6572     60.6539
   938.8000     25.8179      0.0000    270.1371     60.0144
   938.9000     25.8179      0.0000    270.1371     60.0144
   939.0000     26.9818      0.0000    271.1713     61.2223
   939.1000     26.9818      0.0000    271.1713     61.2223
   939.2000     26.9818      0.0000    271.1713     61.2223
   939.3000     28.5536      0.0000    267.5714     64.7054
   939.4000     28.5536      0.0000    267.5714     64.7054
   939.5000     31.1255      0.0000    261.8467     69.0804
   939.6000     31.1255      0.0000    261.8467     69.0804
   939.7000     31.1255      0.0000    261.8467     69.0804
   939.8000     36.1125      0.0000    257.7547     73.1965
   939.9000     36.1125      0.0000    257.7547     73.1965
   940.0000     45.0395      0.0000    256.1057     76.3890
   940.1000     45.0395      0.0000    256.1057     76.3890
   940.2000     45.0395      0.0000    256.1057     76.3890
   940.3000     58.5866      0.0000    255.7357     78.1904
   940.4000     58.5866      0.0000    255.7357     78.1904
   940.5000     75.7019      0.0000    255.7064     78.8497
   940.6000     75.7019      0.0000    255.7064     78.8497
   940.7000     75.7019      0.0000    255.7064     78.8497
   940.8000     93.3295      0.0000    255.7197     78.9924
   940.9000     93.3295      0.0000    255.7197     78.9924
   941.0000    107.4588      0.0000    255.7334     79.0495
   941.1000    107.4588      0.0000    255.7334     79.0495
   941.2000    107.4588      0.0000    255.7334     79.0495
   941.3000    115.4437      0.0000    255.7360     79.1881
   941.4000    115.4437      0.0000    255.7360     79.1881
   941.5000    118.0327      0.0000    255.7223     79.3901
   941.6000    118.0327      0.0000    255.7223     79.3901
   941.7000    118.0327      0.0000    255.7223     79.3901
   941.8000    119.1844      0.0000    255.7025     79.5652
   941.9000    119.1844      0.0000    255.7025     79.5652
   942.0000    123.5274      0.0000    255.6860     79.6654
   942.1000    123.5274      0.0000    255.6860     79.6654
   942.2000    123.5274      0.0000    255.6860     79.6654
   942.3000    133.4092      0.0000    255.6659     79.7147
   942.4000    133.4092      0.0000    255.6659     79.7147
   942.5000    147.5570      0.0000    255.6329     79.7622
