~Version Information
VERS.                      2.0: CWLS Log ASCII Standard - VERSION 2.0
WRAP.                       NO: One line per depth step
~Well Information Block
STRT.FT               235.0000: 
STOP.FT              1633.0000: 
STEP.FT                 0.1000: 
NULL.                -999.2500: 
COMP.          Petrogulf Corporation: COMPANY
WELL.             State 16-41R: WELL
FLD.           Purgatorie River: FIELD
LOC.           280' FNL & 907' FEL: LOCATION
PROV.                 Colorado: PROVINCE
CNTY.               Las Animas: COUNTRY
SRVC.                Patterson: SERVICE COMPANY
DATE.          Wed Oct 19 07:05:20 2005: LOG DATE
API.           05-071-08345    : API
~Curve Information Block
DEPT.FT            0 000 00 00: Depth
DCAL.in                       : CDL Caliper
RHOB.g/cc                     : CDL Bulk Density
RHOC.g/cc                     : CDL Density Correction
DPOR.pu                       : CDL Density Porosity
GR.GAPI                       : Gamma Ray
NPOR.pu                       : Neutron Porosity
~Parameter Information Block
~A  Depth       DCAL        RHOB        RHOC        DPOR         GR         NPOR    
# ...
  1339.0000      7.9131      2.5375      0.0962      6.8162     67.4569     23.0633
  1339.1000      7.9131      2.5183      0.1260      7.9821     66.3984     22.9347
  1339.2000      7.9131      2.4889      0.0531      9.7608     63.8844     22.8501
  1339.3000      7.9198      2.4728      0.0338     10.7367     62.2072     22.6614
  1339.4000      7.9198      2.4760      0.0655     10.5476     62.8952     22.1399
  1339.5000      7.9206      2.4766      0.1040     10.5113     64.7466     21.2422
  1339.6000      7.9206      2.4623      0.0347     11.3729     65.5943     20.4633
  1339.7000      7.9206      2.4524     -0.0038     11.9745     66.4336     20.1299
  1339.8000      7.9190      2.4625      0.0250     11.3658     69.4621     19.9350
  1339.9000      7.9190      2.4824      0.0568     10.1580     75.4353     19.6278
  1340.0000      7.9154      2.5042      0.0456      8.8367     82.0758     19.2856
  1340.1000      7.9154      2.5279      0.0556      7.3995     85.7657     19.2910
  1340.2000      7.9154      2.5419      0.1080      6.5514     87.7621     19.9113
  1340.3000      7.9212      2.5387      0.0340      6.7438     92.0340     20.7893
  1340.4000      7.9212      2.5288      0.0740      7.3457     99.8886     21.3172
  1340.5000      7.9307      2.5164      0.0565      8.0954    108.8409     21.2964
  1340.6000      7.9307      2.5025     -0.0353      8.9395    115.0548     20.8223
  1340.7000      7.9307      2.4950     -0.0150      9.3949    116.8231     20.0974
  1340.8000      7.9351      2.4947      0.0321      9.4122    117.8305     19.5605
  1340.9000      7.9351      2.4965      0.0174      9.3047    120.4025     19.4255
  1341.0000      7.9272      2.4985      0.0549      9.1829    120.1307     19.3920
  1341.1000      7.9272      2.5008      0.0326      9.0406    116.0668     19.3381
  1341.2000      7.9272      2.5064      0.0260      8.7060    112.9248     19.5526
  1341.3000      7.9084      2.5165      0.0534      8.0903    112.8534     20.0671
  1341.4000      7.9084      2.5296      0.0498      7.2975    114.7676     20.5470
  1341.5000      7.8884      2.5511      0.0463      5.9944    115.9911     20.8026
  1341.6000      7.8884      2.5799      0.0907      4.2509    116.5778     20.9568
  1341.7000      7.8884      2.6026      0.1159      2.8757    119.2099     21.0331
  1341.8000      7.8305      2.6178      0.0935      1.9530    123.9971     21.0677
  1341.9000      7.8305      2.6302      0.1237      1.1996    129.4355     21.2942
  1342.0000      7.8138      2.6345      0.1007      0.9368    133.1417     21.7652
  1342.1000      7.8138      2.6261      0.0760      1.4460    135.3454     22.2260
  1342.2000      7.8138      2.5993      0.0806      3.0717    140.3482     22.5406
  1342.3000      7.8428      2.5553      0.0506      5.7397    147.9464     22.7190
  1342.4000      7.8428      2.5192      0.0211      7.9303    152.4866     22.7373
  1342.5000      7.9048      2.5112      0.0421      8.4116    153.3961     22.8876
  1342.6000      7.9048      2.5200      0.0159      7.8816    155.9253     23.5758
  1342.7000      7.9048      2.5218      0.0226      7.7672    163.4214     24.6123
  1342.8000      7.9135      2.5121      0.0190      8.3563    172.9970     25.5123
  1342.9000      7.9135      2.5114      0.0254      8.4027    179.5338     26.1956
  1343.0000      7.9190      2.5321      0.0846      7.1480    183.1902     26.7971
  1343.1000      7.9190      2.5490      0.1719      6.1197    186.7539     27.3073
  1343.2000      7.9190      2.5270      0.2132      7.4524    188.6256     27.6575
  1343.3000      7.9249      2.4638      0.1425     11.2874    187.3289     27.9437
  1343.4000      7.9249      2.3835      0.1167     16.1501    185.1132     28.2364
  1343.5000      7.9542      2.3071      0.0559     20.7823    181.1742     28.4520
  1343.6000      7.9542      2.2456      0.0027     24.5111    173.1149     28.6302
  1343.7000      7.9542      2.2051      0.0093     26.9617    166.6382     28.8913
  1343.8000      8.0070      2.1920     -0.0253     27.7605    169.2793     29.1360
  1343.9000      8.0070      2.2037      0.0602     27.0481    176.5518     29.2499
  1344.0000      8.0607      2.2134      0.1494     26.4615    179.1881     29.3274
  1344.1000      8.0607      2.2015      0.1918     27.1847    177.5754     29.5256
  1344.2000      8.0607      2.1856      0.2352     28.1455    175.7866     29.9735
  1344.3000      8.2910      2.1851      0.3106     28.1778    175.1632     30.4333
  1344.4000      8.2910      2.1994      0.3295     27.3069    176.0262     30.5212
  1344.5000      8.6245      2.2341      0.3070     25.2051    176.1700     30.4487
  1344.6000      8.6245      2.2998      0.3058     21.2220    172.6449     30.4924
  1344.7000      8.6245      2.3873      0.3230     15.9221    166.0868     30.4379
  1344.8000      8.4451      2.4717      0.4169     10.8052    161.5412     30.1958
  1344.9000      8.4451      2.5362      0.4563      6.8963    162.3563     30.0564
  1345.0000      8.5106      2.5780      0.4447      4.3660    166.3438     30.2018
  1345.1000      8.5106      2.5941      0.4457      3.3858    168.2947     30.4360
  1345.2000      8.5106      2.5870      0.3432      3.8152    164.5947     30.4660
  1345.3000      8.0962      2.5786      0.2534      4.3271    157.8026     30.0727
  1345.4000      8.0962      2.5858      0.2396      3.8920    152.1138     29.1948
  1345.5000      8.0933      2.6013      0.2222      2.9525    146.7371     28.3218
  1345.6000      8.0933      2.6103      0.1642      2.4072    138.2912     27.9253
  1345.7000      8.0933      2.6069      0.1071      2.6141    128.8655     27.7478
  1345.8000      7.9237      2.5987      0.0762      3.1061    123.4052     27.4967
  1345.9000      7.9237      2.5952      0.1341      3.3183    120.6846     27.1213
  1346.0000      7.8800      2.5964      0.0696      3.2456    115.8802     26.3610
  1346.1000      7.8800      2.5956      0.1061      3.2955    109.8698     25.1186
  1346.2000      7.8800      2.5841      0.0670      3.9966    106.4737     23.9072
  1346.3000      7.8230      2.5677      0.0479      4.9870    106.0001     23.1407
  1346.4000      7.8230      2.5636      0.0232      5.2339    105.5292     22.7718
  1346.5000      7.8478      2.5772      0.0401      4.4134    104.1373     22.7200
  1346.6000      7.8478      2.5917      0.1074      3.5317    103.2763     22.8884
  1346.7000      7.8478      2.5833      0.1357      4.0421    104.8922     22.9457
  1346.8000      7.8449      2.5463      0.0653      6.2831    110.7811     22.8293
  1346.9000      7.8449      2.4902      0.0736      9.6834    119.5374     22.9892
  1347.0000      7.8572      2.4287     -0.0016     13.4134    126.0102     23.6673
  1347.1000      7.8572      2.3852     -0.0097     16.0479    127.9300     24.4728
  1347.2000      7.8572      2.3705     -0.0071     16.9398    130.7477     25.1106
  1347.3000      7.8568      2.3735      0.0206     16.7598    137.8981     25.7478
  1347.4000      7.8568      2.3873      0.0524     15.9198    144.6645     26.6052
  1347.5000      7.8549      2.4146      0.0600     14.2647    148.0930     27.6409
  1347.6000      7.8549      2.4624      0.0995     11.3689    150.1496     28.4813
  1347.7000      7.8549      2.5284      0.2267      7.3687    149.6963     28.8206
  1347.8000      8.0217      2.5856      0.2749      3.9043    146.7174     28.8214
  1347.9000      8.0217      2.6064      0.2978      2.6441    145.9585     28.8725
  1348.0000      8.0451      2.5921      0.2415      3.5108    149.8227     29.0197
  1348.1000      8.0451      2.5722      0.1462      4.7166    157.1605     29.0139
  1348.2000      8.0451      2.5679      0.1452      4.9735    165.5861     28.7921
  1348.3000      7.9637      2.5668      0.1859      5.0428    171.4211     28.4800
  1348.4000      7.9637      2.5535      0.1200      5.8466    170.7607     28.2114
  1348.5000      7.9318      2.5324      0.0969      7.1279    163.6974     27.9719
