~Version Information
VERS.                      2.0: CWLS Log ASCII Standard - VERSION 2.0
WRAP.                       NO: One line per depth step
~Well Information Block
STRT.FT                -8.5000: 
STOP.FT              1968.0000: 
STEP.FT                 0.2500: 
NULL.                -999.2500: 
COMP.          Pioneer Natural Resources: COMPANY
WELL.           Firehawk 34-26: WELL
FLD.           Purgatorie River: FIELD
LOC.           1196' FSL & 1595' FEL--: LOCATION
STAT.                       CO: State
CNTY.               Las Animas: COUNTY
CTRY. USA : Country
SECT. 26 : Section
TOWN. 32S : Township
RANG. 66W : Range 
SRVC.          Patterson Wireline: SERVICE COMPANY
DATE.          Tue Oct 25 14:45:07 2005: LOG DATE
API.           05 071 08389 00: UNIQUE WELL ID
~Curve Information Block
DEPT.FT            0 000 00 00: Depth
CCL.                          : Casing Collar Locator
TT3.usec                      : CBL 3' Travel Time
AMP3.mV                       : CBL 3' Amplitude
GR.GAPI                       : Gamma Ray
~Parameter Information Block
~A  Depth       CCL         TT3         AMP3         GR     
# ...
  1164.0000      0.0000    497.0579      4.2984     83.2046
  1164.2500      0.0000    493.8034      4.3141     79.7519
  1164.5000      0.0000    491.4902      4.3339     74.8422
  1164.7500      0.0000    488.1545      4.3498     70.1186
  1165.0000      0.0000    483.3386      4.3551     66.6711
  1165.2500      0.0000    478.4717      4.3471     65.2001
  1165.5000      0.0000    475.8099      4.3250     66.3457
  1165.7500      0.0000    475.8162      4.2897     70.2513
  1166.0000      0.0000    475.8636      4.2461     75.7771
  1166.2500      0.0000    472.6813      4.2039     80.5831
  1166.5000      0.0000    466.3519      4.1753     82.5045
  1166.7500      0.0000    461.1419      4.1697     81.1202
  1167.0000      0.0000    461.7039      4.1885     77.9612
  1167.2500      0.0000    468.6425      4.2237     75.2858
  1167.5000      0.0000    478.3195      4.2625     74.6488
  1167.7500      0.0000    486.5933      4.2952     76.3235
  1168.0000      0.0000    491.9365      4.3199     79.4473
  1168.2500      0.0000    495.4418      4.3421     82.3774
  1168.5000      0.0000    499.1307      4.3695     83.3032
  1168.7500      0.0000    504.4790      4.4092     81.3816
  1169.0000      0.0000    511.5390      4.4668     77.6376
  1169.2500      0.0000    518.7336      4.5430     74.5663
  1169.5000      0.0000    523.7244      4.6278     74.5765
  1169.7500      0.0000    525.0958      4.7015     78.4164
  1170.0000      0.0000    523.6037      4.7457     84.4981
  1170.2500      0.0000    521.7949      4.7538     89.5816
  1170.5000      0.0000    522.0811      4.7321     90.7481
  1170.7500      0.0000    524.9248      4.6939     87.3571
  1171.0000      0.0000    528.8690      4.6533     81.2454
  1171.2500      0.0000    532.1172      4.6204     75.1927
  1171.5000      0.0000    533.7875      4.5999     71.4313
  1171.7500      0.0000    533.9233      4.5897     71.0491
  1172.0000      0.0000    533.1297      4.5838     73.6115
  1172.2500      0.0000    532.7925      4.5730     76.9402
  1172.5000      0.0000    535.3303      4.5536     78.0007
  1172.7500      0.0000    542.8306      4.5414     74.9952
  1173.0000      0.0000    554.1990      4.5683     68.8795
  1173.2500      0.0000    564.2217      4.6436     62.5579
  1173.5000      0.0000    567.5638      4.7283     58.4600
  1173.7500      0.0000    564.4364      4.7761     57.0360
  1174.0000      0.0000    561.2585      4.7864     57.2820
  1174.2500      0.0000    565.0600      4.7925     58.0265
  1174.5000     -2.0000    577.8231      4.8129     58.6673
  1174.7500      0.0000    596.2255      4.8358     59.1564
  1175.0000      0.0000    615.3417      4.8280     59.6456
  1175.2500      0.0000    631.3357      4.7546     60.2193
  1175.5000      0.0000    641.1450      4.6297     60.9615
  1175.7500      0.0000    641.6410      4.5540     62.1920
  1176.0000      0.0000    630.8572      4.6498     64.3421
  1176.2500      0.0000    610.2473      4.9311     67.3451
  1176.5000      0.0000    585.0607      5.2736     70.3910
  1176.7500      0.0000    561.6443      5.5303     72.5258
  1177.0000      0.0000    543.6994      5.6500     73.3196
  1177.2500      0.0000    530.9339      5.6766     73.0388
  1177.5000      0.0000    521.1625      5.6739     72.4886
  1177.7500      0.0000    513.0466      5.6738     72.4508
  1178.0000      0.0000    506.7360      5.6785     72.9015
  1178.2500      0.0000    502.6603      5.6820     73.0218
  1178.5000      0.0000    500.5808      5.6828     72.2234
  1178.7500      0.0000    499.7427      5.6836     70.9346
  1179.0000      0.0000    499.4389      5.6867     70.1349
  1179.2500      0.0000    499.3020      5.6905     70.1588
  1179.5000      0.0000    499.3978      5.6877     70.2980
  1179.7500      0.0000    500.5242      5.6662     69.9079
  1180.0000      0.0000    504.8304      5.6111     69.6345
  1180.2500      0.0000    516.0117      5.5074     70.8377
  1180.5000      0.0000    537.6538      5.3475     73.6808
  1180.7500      0.0000    569.6989      5.1472     76.4811
  1181.0000      0.0000    606.3316      4.9556     77.3103
  1181.2500      0.0000    638.8011      4.8358     75.8148
  1181.5000      0.0000    661.2452      4.8183     73.3030
  1181.7500      0.0000    673.6911      4.8702     71.5919
  1182.0000      0.0000    679.9770      4.9198     72.0861
  1182.2500      0.0000    683.7985      4.9131     75.6259
  1182.5000      0.0000    686.5409      4.8422     82.6057
  1182.7500      0.0000    687.7621      4.7297     92.6732
  1183.0000      0.0000    686.9622      4.6027    104.3257
  1183.2500      0.0000    684.4998      4.4819    115.3943
  1183.5000      0.0000    680.6812      4.3824    124.1717
  1183.7500      0.0000    674.3039      4.3219    129.8763
  1184.0000      0.0000    662.9392      4.3302    132.2221
  1184.2500      0.0000    645.8293      4.4431    131.0838
  1184.5000      0.0000    627.1257      4.6673    126.7347
  1184.7500      0.0000    614.9314      4.9545    120.1372
  1185.0000      0.0000    615.1302      5.2221    112.8435
  1185.2500      0.0000    626.2678      5.4061    106.5634
  1185.5000      0.0000    641.4212      5.4955    102.5582
  1185.7500      0.0000    653.7351      5.5238    101.1808
  1186.0000      0.0000    659.0986      5.5360    101.9618
  1186.2500      0.0000    655.7385      5.5570    104.1360
  1186.5000      0.0000    643.6588      5.5846    107.1160
  1186.7500      0.0000    624.6000      5.6083    110.6527
  1187.0000      0.0000    602.8149      5.6297    114.7675
  1187.2500      0.0000    585.8563      5.6600    119.4593
  1187.5000      0.0000    581.6988      5.6945    124.1334
  1187.7500      0.0000    591.7935      5.6989    127.2609
  1188.0000      0.0000    607.3524      5.6261    127.0957
  1188.2500      0.0000    615.0104      5.4510    123.1255
  1188.5000      0.0000    607.4810      5.1947    116.7425
  1188.7500      0.0000    589.3090      4.9163    110.3870
  1189.0000      0.0000    573.2719      4.6808    106.1352
  1189.2500      0.0000    571.3293      4.5282    105.0126
  1189.5000      0.0000    587.0002      4.4655    107.0398
  1189.7500      0.0000    613.9357      4.4784    111.1998
  1190.0000      0.0000    641.0895      4.5469    115.3084
  1190.2500      0.0000    659.7239      4.6583    116.8073
  1190.5000      0.0000    666.0879      4.8095    114.6178
  1190.7500      0.0000    659.0982      4.9945    110.1577
  1191.0000      0.0000    638.2600      5.1898    106.1806
  1191.2500      0.0000    605.3372      5.3620    104.8341
  1191.5000      0.0000    566.8289      5.4956    106.8291
  1191.7500      0.0000    532.2740      5.6063    111.5868
  1192.0000      0.0000    508.8092      5.7217    117.3869
  1192.2500      0.0000    497.4417      5.8489    121.7361
  1192.5000      0.0000    494.3153      5.9660    122.7257
  1192.7500      0.0000    494.7025      6.0471    120.6384
  1193.0000      0.0000    495.7128      6.0904    117.9154
  1193.2500      0.0000    496.4570      6.1233    116.9872
  1193.5000      0.0000    497.0237      6.1773    118.0876
  1193.7500      0.0000    497.8215      6.2607    119.4550
  1194.0000      0.0000    499.6528      6.3545    119.5885
  1194.2500      0.0000    504.1411      6.4322    118.9954
  1194.5000      0.0000    513.6964      6.4785    119.7484
  1194.7500      0.0000    530.2970      6.4953    123.4597
  1195.0000      0.0000    553.6201      6.4950    129.6702
  1195.2500      0.0000    580.8310      6.4927    136.3345
  1195.5000      0.0000    608.9007      6.4955    141.7757
  1195.7500      0.0000    636.3090      6.4977    145.6321
  1196.0000      0.0000    661.4777      6.4880    148.0526
  1196.2500      0.0000    680.9836      6.4664    149.0006
  1196.5000      0.0000    691.5284      6.4439    148.6824
  1196.7500      0.0000    693.3811      6.4222    147.7686
  1197.0000      0.0000    690.3539      6.3839    146.6365
  1197.2500      0.0000    686.5187      6.3122    144.9613
