~Version Information
VERS.                      2.0: CWLS Log ASCII Standard - VERSION 2.0
WRAP.                       NO: One line per depth step
~Well Information Block
STRT.FT               510.0000: 
STOP.FT              1848.7500: 
STEP.FT                 0.2500: 
NULL.                -999.2500: 
COMP.          Pioneer Natural Resources: COMPANY
WELL.           Stampede 42-18: WELL
FLD.           Purgatoire River: FIELD
LOC.           2479' FNL & 160' FEL--: LOCATION
CNTY.               Las Animas: COUNTY
SRVC.          Superior Well Services: SERVICE COMPANY
DATE.          Sat Jun 09 02:07:27 2007: LOG DATE
UWI.           05 071 08237 00: UNIQUE WELL ID
STAT.                 Colorado: STATE
~Curve Information Block
DEPT.FT            0 000 00 00: Depth
SN.Ohm-m                      : IEL Short Normal
SP.mV                         : IEL Spontaneous Potential
DIR.Ohm-m                     : IEL Induction Resistivity
GR.GAPI                       : Gamma Ray
~Parameter Information Block
~A  Depth        SN          SP         DIR          GR     
# ...
   845.0000   2000.0000   2000.0000     21.2748     90.9765
   845.2500   2000.0000   2000.0000     19.8302     92.1581
   845.5000   2000.0000   2000.0000     18.5762     96.8980
   845.7500   2000.0000   2000.0000     17.5050    101.7774
   846.0000   2000.0000   2000.0000     16.6061    110.3348
   846.2500   2000.0000   2000.0000     15.8708    115.8400
   846.5000   2000.0000   2000.0000     15.2883    122.5389
   846.7500   2000.0000   2000.0000     14.8390    125.8581
   847.0000   2000.0000   2000.0000     14.4955    129.5760
   847.2500   2000.0000   2000.0000     14.2311    131.3753
   847.5000   2000.0000   2000.0000     14.0299    132.9593
   847.7500   2000.0000   2000.0000     13.8907    133.2301
   848.0000   2000.0000   2000.0000     13.8243    132.5619
   848.2500   2000.0000   2000.0000     13.8443    131.4445
   848.5000   2000.0000   2000.0000     13.9580    128.7243
   848.7500   2000.0000   2000.0000     14.1617    126.2478
   849.0000   2000.0000   2000.0000     14.4442    121.9701
   849.2500   2000.0000   2000.0000     14.7958    119.2560
   849.5000   2000.0000   2000.0000     15.2154    116.4661
   849.7500   2000.0000   2000.0000     15.7114    115.8812
   850.0000   2000.0000   2000.0000     16.2950    116.7768
   850.2500   2000.0000   2000.0000     16.9710    118.0308
   850.5000   2000.0000   2000.0000     17.7274    120.0306
   850.7500   2000.0000   2000.0000     18.5231    121.3222
   851.0000   2000.0000   2000.0000     19.2791    123.4264
   851.2500   2000.0000   2000.0000     19.8818    124.8202
   851.5000   2000.0000   2000.0000     20.2101    125.6686
   851.7500   2000.0000   2000.0000     20.1770    124.4648
   852.0000   2000.0000   2000.0000     19.7648    119.6206
   852.2500   2000.0000   2000.0000     19.0311    115.3509
   852.5000   2000.0000   2000.0000     18.0868    110.1687
   852.7500   2000.0000   2000.0000     17.0589    108.7539
   853.0000   2000.0000   2000.0000     16.0544    110.2039
   853.2500   2000.0000   2000.0000     15.1417    113.1826
   853.5000   2000.0000   2000.0000     14.3508    119.5846
   853.7500   2000.0000   2000.0000     13.6852    124.3607
   854.0000   2000.0000   2000.0000     13.1327    130.9020
   854.2500   2000.0000   2000.0000     12.6712    134.3244
   854.5000   2000.0000   2000.0000     12.2706    138.0714
   854.7500   2000.0000   2000.0000     11.8964    139.9860
   855.0000   2000.0000   2000.0000     11.5185    142.2525
   855.2500   2000.0000   2000.0000     11.1233    143.1158
   855.5000   2000.0000   2000.0000     10.7198    142.8818
   855.7500   2000.0000   2000.0000     10.3356    141.7315
   856.0000   2000.0000   2000.0000     10.0043    139.1861
   856.2500   2000.0000   2000.0000      9.7524    137.3315
   856.5000   2000.0000   2000.0000      9.5921    134.5935
   856.7500   2000.0000   2000.0000      9.5212    132.8927
   857.0000   2000.0000   2000.0000      9.5256    130.7832
   857.2500   2000.0000   2000.0000      9.5843    129.7097
   857.5000   2000.0000   2000.0000      9.6745    128.2366
   857.7500   2000.0000   2000.0000      9.7765    127.0740
   858.0000   2000.0000   2000.0000      9.8767    125.0107
   858.2500   2000.0000   2000.0000      9.9703    123.7223
   858.5000   2000.0000   2000.0000     10.0621    122.7289
   858.7500   2000.0000   2000.0000     10.1642    123.0877
   859.0000   2000.0000   2000.0000     10.2909    125.1864
   859.2500   2000.0000   2000.0000     10.4523    127.1251
   859.5000   2000.0000   2000.0000     10.6517    129.3944
   859.7500   2000.0000   2000.0000     10.8870    129.6611
   860.0000   2000.0000   2000.0000     11.1539    127.5956
   860.2500   2000.0000   2000.0000     11.4490    124.9642
   860.5000   2000.0000   2000.0000     11.7707    120.8826
   860.7500   2000.0000   2000.0000     12.1197    119.1971
   861.0000   2000.0000   2000.0000     12.4977    119.2317
   861.2500   2000.0000   2000.0000     12.9060    120.7473
   861.5000   2000.0000   2000.0000     13.3398    123.8030
   861.7500   2000.0000   2000.0000     13.7828    125.2562
   862.0000   2000.0000   2000.0000     14.2048    124.9338
   862.2500   2000.0000   2000.0000     14.5709    122.5073
   862.5000   2000.0000   2000.0000     14.8574    115.5586
   862.7500   2000.0000   2000.0000     15.0652    109.4091
   863.0000   2000.0000   2000.0000     15.2188    100.3762
   863.2500   2000.0000   2000.0000     15.3535     96.3041
   863.5000   2000.0000   2000.0000     15.5042     95.4381
   863.7500   2000.0000   2000.0000     15.7015     98.5746
   864.0000   2000.0000   2000.0000     15.9702    106.9273
   864.2500   2000.0000   2000.0000     16.3207    112.8040
   864.5000   2000.0000   2000.0000     16.7305    118.3546
   864.7500   2000.0000   2000.0000     17.1311    118.7316
   865.0000   2000.0000   2000.0000     17.4209    114.9221
   865.2500   2000.0000   2000.0000     17.5172    110.8341
   865.5000   2000.0000   2000.0000     17.4145    105.0328
   865.7500   2000.0000   2000.0000     17.1954    102.6705
   866.0000   2000.0000   2000.0000     16.9800    102.9222
   866.2500   2000.0000   2000.0000     16.8668    106.0377
   866.5000   2000.0000   2000.0000     16.9072    114.7116
   866.7500   2000.0000   2000.0000     17.1130    122.1716
   867.0000   2000.0000   2000.0000     17.4731    133.5064
   867.2500   2000.0000   2000.0000     17.9658    139.9598
   867.5000   2000.0000   2000.0000     18.5651    146.6492
   867.7500   2000.0000   2000.0000     19.2438    148.4741
   868.0000   2000.0000   2000.0000     19.9751    146.3464
   868.2500   2000.0000   2000.0000     20.7313    141.7951
   868.5000   2000.0000   2000.0000     21.4842    132.0983
   868.7500   2000.0000   2000.0000     22.2101    125.2845
   869.0000   2000.0000   2000.0000     22.8961    116.7722
   869.2500   2000.0000   2000.0000     23.5394    112.8545
   869.5000   2000.0000   2000.0000     24.1448    109.2752
   869.7500   2000.0000   2000.0000     24.7279    107.6750
   870.0000   2000.0000   2000.0000     25.3233    105.3827
   870.2500   2000.0000   2000.0000     25.9866    103.8429
   870.5000   2000.0000   2000.0000     26.7776    102.0327
   870.7500   2000.0000   2000.0000     27.7348    101.5649
   871.0000   2000.0000   2000.0000     28.8583    102.7327
   871.2500   2000.0000   2000.0000     30.1129    105.0090
   871.5000   2000.0000   2000.0000     31.4431    109.6537
   871.7500   2000.0000   2000.0000     32.7750    111.8539
   872.0000   2000.0000   2000.0000     34.0008    110.3473
   872.2500   2000.0000   2000.0000     34.9752    105.1560
   872.5000   2000.0000   2000.0000     35.5593     92.4466
   872.7500   2000.0000   2000.0000     35.6883     82.7154
   873.0000   2000.0000   2000.0000     35.3921     69.5726
   873.2500   2000.0000   2000.0000     34.7436     62.8010
   873.5000   2000.0000   2000.0000     33.8016     55.8143
   873.7500   2000.0000   2000.0000     32.6139     52.9764
   874.0000   2000.0000   2000.0000     31.2593     50.9090
   874.2500   2000.0000   2000.0000     29.8567     50.7420
   874.5000   2000.0000   2000.0000     28.5163     52.0966
   874.7500   2000.0000   2000.0000     27.2818     54.0935
   875.0000   2000.0000   2000.0000     26.1211     58.8107
   875.2500   2000.0000   2000.0000     24.9698     63.0185
   875.5000   2000.0000   2000.0000     23.7859     70.4402
   875.7500   2000.0000   2000.0000     22.5737     75.7010
   876.0000   2000.0000   2000.0000     21.3636     83.2583
   876.2500   2000.0000   2000.0000     20.1801     87.5780
   876.5000   2000.0000   2000.0000     19.0304     92.0549
   876.7500   2000.0000   2000.0000     17.9143     93.3295
   877.0000   2000.0000   2000.0000     16.8387    103.9680
   877.2500   2000.0000   2000.0000     15.8192    103.0259
   877.5000   2000.0000   2000.0000     14.8726    102.3708
   877.7500   2000.0000   2000.0000     14.0108    102.9881
   878.0000   2000.0000   2000.0000     13.2400    116.3675
   878.2500   2000.0000   2000.0000     12.5604    118.5504
