~Version Information
VERS.                      2.0: CWLS Log ASCII Standard - VERSION 2.0
WRAP.                       NO: One line per depth step
~Well Information Block
STRT.FT               350.0000: 
STOP.FT              1391.5000: 
STEP.FT                 0.2500: 
NULL.                -999.2500: 
COMP.          Petrogulf Corporation: COMPANY
WELL.             Leier 17-42R: WELL
FLD.           Purgatorie River: FIELD
LOC.           2398' FNL & 1109' FEL: LOCATION
PROV.                 Colorado: PROVINCE
CNTY.               Las Animas: COUNTRY
SRVC.                Patterson: SERVICE COMPANY
DATE.          Mon Oct 17 09:42:26 2005: LOG DATE
UWI.                          : UNIQUE WELL ID
~Curve Information Block
DEPT.FT            0 000 00 00: Depth
SP.mV                         : DIL Spontaneous Potential
RILD.Ohm-m                    : DIL Deep Resistivity
RILM.Ohm-m                    : DIL Medium Resistivity
RLL3.Ohm-m                    : DIL Shallow Resistivity
GR.GAPI                       : Gamma Ray
~Parameter Information Block
~A  Depth        SP         RILD        RILM        RLL3         GR     
# ...
  1022.0000    233.1683     18.9272     19.7657     31.5025    124.4038
  1022.2500    232.1672     19.6022     20.6539     35.8973    120.7430
  1022.5000    231.1785     20.4001     21.6811     40.0183    115.3942
  1022.7500    230.1937     21.3120     22.8367     43.2233    111.6528
  1023.0000    229.1668     22.3245     24.1124     45.2542    105.6533
  1023.2500    228.0409     23.4187     25.5040     46.1331    101.7028
  1023.5000    226.7791     24.5693     27.0106     46.1682     97.4148
  1023.7500    225.3800     25.7442     28.6293     46.1308     96.7306
  1024.0000    223.8754     26.9045     30.3473     47.0428     99.1390
  1024.2500    222.3193     28.0074     32.1338     49.4501    101.6256
  1024.5000    220.7745     29.0150     33.9360     52.9412    103.3748
  1024.7500    219.2960     29.9060     35.6842     56.5026    102.3353
  1025.0000    217.9157     30.6855     37.3060     59.2743     98.8290
  1025.2500    216.6379     31.3815     38.7478     60.8845     96.8787
  1025.5000    215.4516     32.0317     39.9930     61.2441     96.6261
  1025.7500    214.3512     32.6716     41.0708     60.3544     98.2382
  1026.0000    213.3485     33.3292     42.0488     58.4404    101.3005
  1026.2500    212.4698     34.0238     43.0160     56.0972    102.1360
  1026.5000    211.7471     34.7564     44.0623     54.1092    100.0037
  1026.7500    211.2106     35.4933     45.2590     53.0913     96.8330
  1027.0000    210.8846     36.1547     46.6432     53.3341     92.0538
  1027.2500    210.7879     36.6220     48.1998     54.9510     90.1669
  1027.5000    210.9387     36.7678     49.8410     58.1490     89.6094
  1027.7500    211.3550     36.4899     51.3818     63.4426     89.9622
  1028.0000    212.0510     35.7333     52.5238     71.5979     89.7892
  1028.2500    213.0339     34.4950     52.8727     83.0770     88.4998
  1028.5000    214.3042     32.8238     52.0252     97.2562     84.6518
  1028.7500    215.8568     30.8192     49.7292    112.2619     81.2181
  1029.0000    217.6805     28.6242     46.0452    125.6652     75.6805
  1029.2500    219.7576     26.4004     41.3771    135.0578     72.1085
  1029.5000    222.0638     24.2933     36.3205    137.8611     67.2037
  1029.7500    224.5653     22.4020     31.4332    131.4752     64.3618
  1030.0000    227.2075     20.7694     27.0854    114.9235     61.5322
  1030.2500    229.8993     19.3900     23.4383     90.7232     61.4797
  1030.5000    232.5067     18.2285     20.5013     64.4918     65.4521
  1030.7500    234.8746     17.2380     18.2027     42.0450     70.8307
  1031.0000    236.8717     16.3728     16.4410     26.5137     81.8282
  1031.2500    238.4317     15.5938     15.1131     17.7534     90.2849
  1031.5000    239.5654     14.8712     14.1267     13.7946    103.7897
  1031.7500    240.3458     14.1861     13.4029     12.5493    113.1048
  1032.0000    240.8799     13.5329     12.8755     12.6209    126.7270
  1032.2500    241.2806     12.9201     12.4897     13.3041    134.4217
  1032.5000    241.6437     12.3669     12.2006     14.3031    141.2983
  1032.7500    242.0359     11.8956     11.9730     15.4581    141.9732
  1033.0000    242.4919     11.5234     11.7819     16.5471    138.2843
  1033.2500    243.0199     11.2576     11.6125     17.2434    134.3730
  1033.5000    243.6131     11.0943     11.4589     17.2731    129.0320
  1033.7500    244.2595     11.0214     11.3227     16.6322    126.7558
  1034.0000    244.9429     11.0214     11.2094     15.6201    125.7575
  1034.2500    245.6360     11.0735     11.1251     14.6338    126.3129
  1034.5000    246.2977     11.1537     11.0742     13.9336    127.4247
  1034.7500    246.8789     11.2371     11.0576     13.5896    127.6597
  1035.0000    247.3355     11.3014     11.0722     13.5878    127.5162
  1035.2500    247.6345     11.3322     11.1119     13.9171    127.5053
  1035.5000    247.7533     11.3267     11.1682     14.5195    126.9719
  1035.7500    247.6765     11.2922     11.2323     15.1943    125.4158
  1036.0000    247.3970     11.2405     11.2959     15.6486    121.4802
  1036.2500    246.9181     11.1840     11.3521     15.7246    119.2692
  1036.5000    246.2523     11.1337     11.3957     15.5599    119.2587
  1036.7500    245.4203     11.0990     11.4232     15.4581    121.8404
  1037.0000    244.4537     11.0875     11.4325     15.5903    128.1412
  1037.2500    243.4001     11.1038     11.4236     15.8478    132.7083
  1037.5000    242.3198     11.1491     11.3991     15.9689    138.4553
  1037.7500    241.2722     11.2220     11.3647     15.7730    141.0469
  1038.0000    240.2986     11.3211     11.3295     15.2921    143.2421
  1038.2500    239.4128     11.4470     11.3053     14.7262    144.2936
  1038.5000    238.6006     11.6020     11.3058     14.2967    146.5388
  1038.7500    237.8270     11.7893     11.3458     14.1165    148.4269
  1039.0000    237.0433     12.0115     11.4405     14.1602    150.1242
  1039.2500    236.1965     12.2699     11.6052     14.3311    149.3632
  1039.5000    235.2425     12.5640     11.8552     14.5760    144.9506
  1039.7500    234.1634     12.8919     12.2048     14.9885    140.6287
  1040.0000    232.9734     13.2498     12.6658     15.8533    133.8852
  1040.2500    231.7079     13.6293     13.2447     17.6249    129.6347
  1040.5000    230.4070     14.0156     13.9380     20.9136    122.9473
  1040.7500    229.1108     14.3873     14.7257     26.5210    117.6431
  1041.0000    227.8631     14.7219     15.5648     35.3509    108.1803
  1041.2500    226.7085     15.0042     16.3861     47.8381    101.5054
  1041.5000    225.6840     15.2332     17.0997     62.8326     92.7636
  1041.7500    224.8173     15.4228     17.6141     76.7760     88.4868
  1042.0000    224.1311     15.5970     17.8663     84.5936     84.1723
  1042.2500    223.6440     15.7809     17.8466     82.5739     82.2211
  1042.5000    223.3618     15.9931     17.6038     71.1076     80.7665
  1042.7500    223.2654     16.2392     17.2256     54.6054     81.4931
  1043.0000    223.3077     16.5088     16.8087     38.5949     86.5079
  1043.2500    223.4226     16.7757     16.4344     26.7266     92.8049
  1043.5000    223.5403     17.0028     16.1575     19.9073    105.9219
  1043.7500    223.5999     17.1532     16.0053     17.3049    115.8540
  1044.0000    223.5562     17.2057     15.9829     17.6615    129.5505
  1044.2500    223.3844     17.1673     16.0792     19.9204    136.2493
  1044.5000    223.0854     17.0739     16.2736     23.1927    141.1071
  1044.7500    222.6855     16.9790     16.5420     26.5470    141.0591
  1045.0000    222.2263     16.9394     16.8633     29.0437    138.0721
  1045.2500    221.7476     17.0033     17.2241     30.0936    135.6705
  1045.5000    221.2747     17.2061     17.6212     29.8192    132.9681
  1045.7500    220.8134     17.5685     18.0618     28.9820    131.6053
  1046.0000    220.3512     18.0957     18.5607     28.4195    129.1454
  1046.2500    219.8646     18.7782     19.1370     28.4644    126.8776
  1046.5000    219.3333     19.5940     19.8113     28.8882    122.6588
  1046.7500    218.7513     20.5129     20.6025     29.3895    119.5813
  1047.0000    218.1286     21.5007     21.5277     30.0882    115.4214
  1047.2500    217.4811     22.5214     22.6002     31.5296    113.6337
  1047.5000    216.8143     23.5376     23.8286     34.2802    113.0094
  1047.7500    216.1089     24.5140     25.2144     38.5839    113.4793
  1048.0000    215.3222     25.4273     26.7487     44.3060    113.6700
  1048.2500    214.4088     26.2772     28.4095     50.9514    112.4657
  1048.5000    213.3482     27.0894     30.1610     57.6036    107.9199
  1048.7500    212.1610     27.9026     31.9571     63.0394    103.2282
  1049.0000    210.9036     28.7501     33.7502     66.2790     94.9101
  1049.2500    209.6511     29.6484     35.5026     67.2799     89.6141
  1049.5000    208.4784     30.5983     37.1963     67.1790     83.6848
  1049.7500    207.4441     31.5910     38.8352     67.8594     81.2846
