~Version Information
VERS.                      2.0: CWLS Log ASCII Standard - VERSION 2.0
WRAP.                       NO: One line per depth step
~Well Information Block
STRT.FT                15.0000: 
STOP.FT              1211.0000: 
STEP.FT                 0.2500: 
NULL.                -999.2500: 
COMP.          Pioneer Natural Resources: COMPANY
WELL.          Santa Fe 43-27 Tr: WELL
FLD.           Purgatoire River: FIELD
LOC.           2018' FSL & 534' FEL: LOCATION
PROV.                 Colorado: PROVINCE
CNTY.               Las Animas: COUNTRY
SRVC.                Patterson: SERVICE COMPANY
DATE.          Mon Mar 14 15:43:40 2005: LOG DATE
UWI.           05 071 08303 00: UNIQUE WELL ID
~Curve Information Block
DEPT.FT            0 000 00 00: Depth
GR.GAPI                       : Gamma Ray
CCL.                          : Casing Collar Locator
TT3.usec                      : CBL 3' Travel Time
AMP3.mV                       : CBL 3' Amplitude
AMP5.mV                       : CBL 5' Amplitude
~Parameter Information Block
~A  Depth        GR         CCL         TT3         AMP3        AMP5    
# ...
  1023.0000    145.2870      0.0000    795.2525     20.1898      3.9508
  1023.2500    143.4093      0.0000    793.8056     20.4793      3.9623
  1023.5000    141.7377      0.0000    791.2988     20.8172      3.9738
  1023.7500    139.7195      0.0000    788.0889     21.1957      3.9826
  1024.0000    137.3080      0.0000    784.7650     21.6184      3.9871
  1024.2500    134.3524      0.0000    781.6465     22.0852      3.9884
  1024.5000    130.2621      0.0000    778.9975     22.5832      3.9881
  1024.7500    124.7420      0.0000    777.7449     23.0843      3.9859
  1025.0000    118.3727      0.0000    779.0893     23.5450      3.9813
  1025.2500    111.8890      0.0000    783.0237     23.9081      3.9763
  1025.5000    105.2817      0.0000    787.9066     24.1165      3.9750
  1025.7500     98.0996      0.0000    791.8311     24.1354      3.9792
  1026.0000     90.3737      0.0000    793.9896     23.9618      3.9867
  1026.2500     82.9494      0.0000    794.6440     23.6128      3.9925
  1026.5000     77.1323      0.0000    794.1049     23.1194      3.9929
  1026.7500     74.0784      0.0000    791.5939     22.5389      3.9866
  1027.0000     74.1633      0.0000    784.4351     21.9535      3.9734
  1027.2500     76.7868      0.0000    768.5867     21.4367      3.9521
  1027.5000     80.8630      0.0000    742.2303     21.0162      3.9206
  1027.7500     85.3801      0.0000    711.1934     20.6776      3.8795
  1028.0000     89.4340      0.0000    689.3641     20.4010      3.8333
  1028.2500     92.1173      0.0000    688.9362     20.1846      3.7884
  1028.5000     92.8169      0.0000    708.0405     20.0390      3.7493
  1028.7500     91.6558      0.0000    729.5906     19.9718      3.7193
  1029.0000     89.4367      0.0000    732.7088     19.9857      3.7028
  1029.2500     87.0252      0.0000    705.2741     20.0839      3.7053
  1029.5000     84.8361      0.0000    649.6255     20.2765      3.7310
  1029.7500     83.0166      0.0000    580.9225     20.5753      3.7809
  1030.0000     82.0001      0.0000    518.5837     20.9763      3.8520
  1030.2500     82.6121      0.0000    474.5431     21.4523      3.9398
  1030.5000     85.5558      0.0000    447.8768     21.9715      4.0407
  1030.7500     90.9151      0.0000    430.9885     22.5214      4.1529
  1031.0000     98.1145      0.0000    420.2250     23.1051      4.2728
  1031.2500    106.2739      0.0000    420.1849     23.7145      4.3922
  1031.5000    114.6358      0.0000    438.8294     24.3116      4.5020
  1031.7500    122.7242      0.0000    477.5935     24.8331      4.5975
  1032.0000    130.1135      0.0000    523.6636     25.2104      4.6803
  1032.2500    136.1904      0.0000    553.1511     25.3929      4.7544
  1032.5000    140.3146      0.0000    547.4995     25.3742      4.8220
  1032.7500    142.2748      0.0000    509.1970     25.2062      4.8846
  1033.0000    142.5902      0.0000    459.0407     24.9833      4.9451
  1033.2500    142.4680      0.0000    418.0179     24.8071      5.0060
  1033.5000    143.3114      0.0000    394.0841     24.7610      5.0644
  1033.7500    145.7480      0.0000    383.8680     24.8991      5.1124
  1034.0000    148.8837      0.0000    381.3735     25.2293      5.1431
  1034.2500    150.8632      0.0000    383.9910     25.6936      5.1563
  1034.5000    150.4577      0.0000    394.2191     26.1686      5.1602
  1034.7500    147.8311      0.0000    418.1820     26.5059      5.1640
  1035.0000    143.6840      0.0000    459.9914     26.6003      5.1682
  1035.2500    138.4105      0.0000    513.8290     26.4505      5.1612
  1035.5000    132.4854      0.0000    563.5403     26.1637      5.1280
  1035.7500    126.9457      0.0000    596.1428     25.8861      5.0614
  1036.0000    122.6436      0.0000    616.1622     25.7082      4.9688
  1036.2500    119.2210      0.0000    640.1755     25.6250      4.8682
  1036.5000    115.6737      0.0000    675.9902     25.5770      4.7771
  1036.7500    112.0633      0.0000    712.7969     25.5114      4.7051
  1037.0000    109.8531      0.0000    733.1476     25.3956      4.6536
  1037.2500    110.1676      0.0000    730.4077     25.1908      4.6189
  1037.5000    112.2180      0.0000    713.5653     24.8475      4.5937
  1037.7500    113.7735      0.0000    696.6412     24.3503      4.5675
  1038.0000    112.8318      0.0000    683.8179     23.7619      4.5277
  1038.2500    108.6319      0.0000    667.6090     23.2013      4.4621
  1038.5000    101.7330      0.0000    644.4567     22.7635      4.3643
  1038.7500     93.7581      0.0000    627.1964     22.4574      4.2379
  1039.0000     86.7137      0.0000    634.5743     22.2166      4.0958
  1039.2500     81.8392      0.0000    669.9911     21.9617      3.9544
  1039.5000     79.0085      0.0000    717.3407     21.6511      3.8275
  1039.7500     77.3041      0.0000    757.1533     21.2909      3.7220
  1040.0000     75.8993      0.0000    781.3572     20.9126      3.6371
  1040.2500     74.3434      0.0000    793.2523     20.5415      3.5670
  1040.5000     72.6007      0.0000    799.6256     20.1773      3.5075
  1040.7500     71.1590      0.0000    805.1281     19.7996      3.4599
  1041.0000     70.7256      0.0000    811.1430     19.3957      3.4265
  1041.2500     71.4336      0.0000    816.9111     18.9854      3.4049
  1041.5000     72.5003      0.0000    821.2996     18.6190      3.3870
  1041.7500     72.8776      0.0000    823.8433     18.3452      3.3656
  1042.0000     72.2999      0.0000    824.3475     18.1805      3.3393
  1042.2500     71.7289      0.0000    822.2756     18.1093      3.3123
  1042.5000     72.8240      0.0000    817.3496     18.1133      3.2885
  1042.7500     76.8813      0.0000    810.5871     18.1922      3.2677
  1043.0000     84.1258      0.0000    804.0067     18.3519      3.2477
  1043.2500     93.7395      0.0000    799.2002     18.5797      3.2283
  1043.5000    104.2441      0.0000    796.4944     18.8349      3.2122
  1043.7500    113.8268      0.0000    795.3488     19.0610      3.2041
  1044.0000    120.6454      0.0000    795.1375     19.2085      3.2069
  1044.2500    123.2931      0.0000    795.5321     19.2528      3.2203
  1044.5000    121.3849      0.0000    796.5106     19.1989      3.2400
  1044.7500    115.8487      0.0000    798.1795     19.0717      3.2599
  1045.0000    108.4605      0.0000    800.4084     18.8992      3.2756
  1045.2500    100.9503      0.0000    802.4614     18.7063      3.2875
  1045.5000     94.6389      0.0000    803.2267     18.5207      3.2988
  1045.7500     90.7289      0.0000    802.1304     18.3743      3.3101
  1046.0000     90.3348      0.0000    799.7310     18.2855      3.3187
  1046.2500     93.9031      0.0000    797.1934     18.2408      3.3227
  1046.5000    100.8116      0.0000    795.3229     18.2030      3.3266
  1046.7500    109.6463      0.0000    794.2469     18.1446      3.3394
  1047.0000    118.8369      0.0000    793.7534     18.0752      3.3681
  1047.2500    127.2332      0.0000    793.6309     18.0388      3.4117
  1047.5000    134.2991      0.0000    793.7388     18.0826      3.4650
  1047.7500    139.7307      0.0000    793.9645     18.2283      3.5266
  1048.0000    143.0125      0.0000    794.2239     18.4726      3.6003
  1048.2500    143.7997      0.0000    794.4778     18.8096      3.6885
  1048.5000    142.7969      0.0000    794.7217     19.2427      3.7865
  1048.7500    141.5156      0.0000    794.9520     19.7803      3.8862
  1049.0000    140.5434      0.0000    795.1486     20.4237      3.9827
  1049.2500    138.6486      0.0000    795.2734     21.1547      4.0768
  1049.5000    134.5292      0.0000    795.2904     21.9348      4.1710
  1049.7500    129.1334      0.0000    795.2076     22.7248      4.2659
  1050.0000    125.2467      0.0000    795.0871     23.5034      4.3597
  1050.2500    124.8283      0.0000    794.9860     24.2612      4.4506
  1050.5000    127.5881      0.0000    794.9036     24.9769      4.5392
  1050.7500    132.0879      0.0000    794.8156     25.6093      4.6300
