~Version Information
VERS.                      2.0: CWLS Log ASCII Standard - VERSION 2.0
WRAP.                       NO: One line per depth step
~Well Information Block
STRT.FT               260.0000: 
STOP.FT              1199.2000: 
STEP.FT                 0.1000: 
NULL.                -999.2500: 
COMP.          Evergreen Operating Corporation: COMPANY
WELL.             Justin 32-10: WELL
FLD.           Purgatorie River: FIELD
LOC.           2994' FNL & 1449' FEL: LOCATION
PROV.                 Colorado: PROVINCE
CNTY.               Las Animas: COUNTRY
SRVC.                         : SERVICE COMPANY
DATE.          Mon Aug 30 07:14:35 2004: LOG DATE
UWI.           05 071 08053 00: UNIQUE WELL ID
~Curve Information Block
DEPT.FT            0 000 00 00: Depth
LTEN.lb                       : Surface Line Tension
DCAL.in                       : CDL Caliper
RHOB.g/cc                     : CDL Bulk Density
RHOC.g/cc                     : CDL Density Correction
DPOR.pu                       : CDL Density Porosity
GR.GAPI                       : Gamma Ray
NPOR.pu                       : Neutron Porosity
~Parameter Information Block
~A  Depth       LTEN        DCAL        RHOB        RHOC        DPOR         GR         NPOR    
# ...
   386.0000    838.4860      8.1405      2.3956      0.0729     15.4210     56.0238     17.0053
   386.1000    838.4860      8.1405      2.3932      0.0630     15.5608     56.3666     16.8306
   386.2000    838.4860      8.1405      2.3835      0.0470     16.1526     55.0010     16.8921
   386.3000    869.6309      8.1736      2.3730      0.0508     16.7866     54.4524     17.3615
   386.4000    869.6309      8.1736      2.3718      0.0211     16.8623     53.0633     17.8451
   386.5000    855.1646      8.1848      2.3880      0.0140     15.8813     51.0079     18.1974
   386.6000    855.1646      8.1848      2.4202      0.0426     13.9293     51.8677     18.4553
   386.7000    855.1646      8.1848      2.4517      0.0574     12.0160     54.9874     18.5493
   386.8000    818.5464      8.1610      2.4640      0.0733     11.2723     55.4387     18.3907
   386.9000    818.5464      8.1610      2.4504      0.0611     12.0949     53.5963     18.1812
   387.0000    829.5886      8.1593      2.4215      0.0329     13.8515     53.0012     18.0497
   387.1000    829.5886      8.1593      2.3957      0.0168     15.4114     53.5643     17.8834
   387.2000    829.5886      8.1593      2.3907      0.0000     15.7150     52.4202     17.9614
   387.3000    840.2296      8.1514      2.4151      0.0146     14.2357     47.9085     18.3643
   387.4000    840.2296      8.1514      2.4562      0.0884     11.7427     43.9544     18.6271
   387.5000    812.0797      8.1568      2.4908      0.0713      9.6498     47.7447     18.5424
   387.6000    812.0797      8.1568      2.5136      0.0889      8.2685     58.1858     18.2459
   387.7000    812.0797      8.1568      2.5313      0.1162      7.1964     63.7593     17.9784
   387.8000    799.4416      8.1549      2.5453      0.1091      6.3471     60.2824     17.8807
   387.9000    799.4416      8.1549      2.5528      0.1662      5.8933     56.6576     17.8017
   388.0000    801.9742      8.1556      2.5493      0.1469      6.1055     57.1909     17.5188
   388.1000    801.9742      8.1556      2.5349      0.1443      6.9773     58.2192     17.1563
   388.2000    801.9742      8.1556      2.5104      0.0908      8.4584     58.7863     16.9424
   388.3000    805.2058      8.1566      2.4817      0.0634     10.2029     61.1419     16.9960
   388.4000    805.2058      8.1566      2.4653      0.0026     11.1936     63.8939     17.2611
   388.5000    779.0956      8.1410      2.4639      0.0919     11.2780     63.9703     17.4671
   388.6000    779.0956      8.1410      2.4611      0.0487     11.4467     64.3842     17.6612
   388.7000    779.0956      8.1410      2.4575      0.0522     11.6654     68.9495     18.1428
   388.8000    800.4295      8.1532      2.4612      0.0584     11.4447     72.5568     18.7775
   388.9000    800.4295      8.1532      2.4694      0.0714     10.9476     69.9949     19.1228
   389.0000    834.6738      8.1516      2.4789      0.0629     10.3684     68.0968     19.1601
   389.1000    834.6738      8.1516      2.4883      0.0798      9.7991     73.8248     19.1484
   389.2000    834.6738      8.1516      2.4973      0.0634      9.2560     79.8324     19.3529
   389.3000    791.4360      8.1522      2.5056      0.0831      8.7527     76.6088     19.9767
   389.4000    791.4360      8.1522      2.5117      0.0643      8.3791     67.3996     20.5831
   389.5000    855.3051      8.1587      2.5166      0.0593      8.0864     61.9108     20.5573
   389.6000    855.3051      8.1587      2.5209      0.0749      7.8230     63.5764     20.2074
   389.7000    855.3051      8.1587      2.5279      0.0335      7.3986     65.6335     20.0391
   389.8000    834.6374      8.1466      2.5394      0.0301      6.7019     63.9332     20.1541
   389.9000    834.6374      8.1466      2.5461      0.0614      6.2941     64.2324     20.4461
   390.0000    866.1293      8.1333      2.5454      0.0148      6.3371     68.0055     20.4217
   390.1000    866.1293      8.1333      2.5492      0.0530      6.1065     69.3363     19.9401
   390.2000    866.1293      8.1333      2.5576      0.0404      5.6009     68.6060     19.4683
   390.3000    861.6793      8.1462      2.5564      0.0705      5.6699     71.0947     19.1300
   390.4000    861.6793      8.1462      2.5381      0.0567      6.7816     75.9575     18.7486
   390.5000    837.1422      8.1544      2.5086      0.0498      8.5686     78.7128     18.2086
   390.6000    837.1422      8.1544      2.4869     -0.0282      9.8825     77.7984     17.5041
   390.7000    837.1422      8.1544      2.4856      0.0423      9.9607     73.7737     16.7398
   390.8000    833.7031      8.1579      2.4939      0.0472      9.4594     70.2000     16.0204
   390.9000    833.7031      8.1579      2.4983      0.0637      9.1926     71.2651     15.3922
   391.0000    838.1544      8.1559      2.4929      0.0522      9.5228     71.8559     14.9191
   391.1000    838.1544      8.1559      2.4747      0.0454     10.6234     67.7997     14.9413
   391.2000    838.1544      8.1559      2.4467      0.0636     12.3199     65.2875     15.4980
   391.3000    799.0962      8.1542      2.4234      0.0293     13.7355     65.8162     15.8944
   391.4000    799.0962      8.1542      2.4221      0.0489     13.8118     66.6477     15.7326
   391.5000    830.0432      8.1537      2.4376      0.0903     12.8724     67.4117     15.3139
   391.6000    830.0432      8.1537      2.4456      0.0979     12.3863     64.4143     15.0825
   391.7000    830.0432      8.1537      2.4370      0.0589     12.9082     58.9547     15.2439
   391.8000    821.6000      8.1668      2.4266      0.0769     13.5405     58.3705     15.6679
   391.9000    821.6000      8.1668      2.4289      0.0503     13.4028     61.6769     15.9921
   392.0000    820.6909      8.1605      2.4388      0.1026     12.8023     62.8232     15.9230
   392.1000    820.6909      8.1605      2.4420      0.0945     12.6080     61.1954     15.5138
   392.2000    820.6909      8.1605      2.4400      0.0842     12.7284     59.5479     15.1829
   392.3000    850.5535      8.1382      2.4415      0.1124     12.6385     58.0565     15.2431
   392.4000    850.5535      8.1382      2.4371      0.1355     12.9021     57.0576     15.6049
   392.5000    814.6608      8.1584      2.4203      0.0628     13.9192     59.0791     16.1787
   392.6000    814.6608      8.1584      2.4064      0.0652     14.7636     62.6045     16.7716
   392.7000    814.6608      8.1584      2.3993      0.0849     15.1937     60.7908     17.1260
   392.8000    819.3173      8.1505      2.3894      0.0289     15.7947     53.6514     17.1134
   392.9000    819.3173      8.1505      2.3798      0.0499     16.3788     50.3060     16.8272
   393.0000    838.2402      8.1496      2.3768      0.0376     16.5562     55.8463     16.5988
   393.1000    838.2402      8.1496      2.3805      0.0534     16.3327     66.7703     16.6714
   393.2000    838.2402      8.1496      2.3876      0.0222     15.9044     76.7446     16.8506
   393.3000    818.7716      8.1636      2.3971      0.0491     15.3249     82.4635     16.9028
   393.4000    818.7716      8.1636      2.4092      0.0650     14.5918     81.7780     16.9050
   393.5000    827.9649      8.1593      2.4223      0.0589     13.7984     73.9697     16.9224
   393.6000    827.9649      8.1593      2.4338      0.0924     13.1037     64.4806     16.9701
   393.7000    827.9649      8.1593      2.4407      0.0820     12.6824     60.2393     17.1089
   393.8000    829.2068      8.1596      2.4422      0.0493     12.5957     61.5083     17.2084
   393.9000    829.2068      8.1596      2.4363      0.0769     12.9531     64.2583     17.1299
   394.0000    831.4865      8.1562      2.4252      0.0497     13.6249     66.2489     16.9235
   394.1000    831.4865      8.1562      2.4219      0.0183     13.8252     67.2572     16.6886
   394.2000    831.4865      8.1562      2.4304      0.0600     13.3103     67.9780     16.5749
   394.3000    808.1335      8.1671      2.4396      0.0765     12.7498     68.1233     16.7361
