~Version Information
VERS.                      2.0: CWLS Log ASCII Standard - VERSION 2.0
WRAP.                       NO: One line per depth step
~Well Information Block
STRT.FT               550.0000: 
STOP.FT              2042.5000: 
STEP.FT                 0.1000: 
NULL.                -999.2500: 
COMP.          Petrogulf Corporation: COMPANY
WELL.          Robinson 15-12V: WELL
FLD.           Purgatorie River: FIELD
LOC.           1788' FNL & 466' FWL: LOCATION
PROV.                 Colorado: PROVINCE
CNTY.               Las Animas: COUNTRY
SRVC.                Patterson: SERVICE COMPANY
DATE.          Mon Sep 12 10:04:59 2005: LOG DATE
UWI.                          : UNIQUE WELL ID
~Curve Information Block
DEPT.FT            0 000 00 00: Depth
DCAL.in                       : CDL Caliper
RHOB.g/cc                     : CDL Bulk Density
RHOC.g/cc                     : CDL Density Correction
DPOR.pu                       : CDL Density Porosity
GR.GAPI                       : Gamma Ray
NPOR.pu                       : Neutron Porosity
~Parameter Information Block
~A  Depth       DCAL        RHOB        RHOC        DPOR         GR         NPOR    
# ...
  1423.6000      8.2533      2.2182      0.0591     26.1703    160.1294     30.7360
  1423.7000      8.2533      2.2139      0.0191     26.4333    158.6758     31.1803
  1423.8000      8.3430      2.2370      0.0737     25.0282    157.7318     31.3486
  1423.9000      8.3430      2.2917      0.1684     21.7126    159.6950     30.9549
  1424.0000      8.6070      2.3643      0.3516     17.3133    162.5513     30.7171
  1424.1000      8.6070      2.4206      0.3960     13.9004    164.2813     30.7949
  1424.2000      8.6070      2.4442      0.3816     12.4697    165.5798     30.7954
  1424.3000      9.0130      2.4473      0.3645     12.2871    165.5824     30.5677
  1424.4000      9.0130      2.4496      0.2987     12.1471    164.1035     30.3823
  1424.5000      8.8118      2.4679      0.2770     11.0374    163.2103     30.4940
  1424.6000      8.8118      2.4941      0.3608      9.4462    162.8241     30.6059
  1424.7000      8.8118      2.4966      0.3741      9.2984    160.3199     30.3524
  1424.8000      8.2236      2.4499      0.3505     12.1266    154.3153     30.0921
  1424.9000      8.2236      2.3482      0.2849     18.2880    147.0479     30.1781
  1425.0000      8.0895      2.2173      0.1753     26.2220    142.6727     30.2901
  1425.1000      8.0895      2.1006      0.1415     33.2965    143.1023     30.3840
  1425.2000      8.0895      2.0110      0.1150     38.7258    145.1866     30.5903
  1425.3000      8.2890      1.9227      0.1573     44.0804    143.7560     30.8073
  1425.4000      8.2890      1.8204      0.0872     50.2785    136.8534     30.9789
  1425.5000      8.4881      1.7348      0.0539     55.4647    126.7615     31.0506
  1425.6000      8.4881      1.6973      0.1080     57.7407    116.6855     31.1831
  1425.7000      8.4881      1.7001      0.1717     57.5685    107.6703     31.6767
  1425.8000      8.5119      1.7283      0.1926     55.8612     98.4792     32.1555
  1425.9000      8.5119      1.7793      0.2060     52.7720     91.2372     32.0675
  1426.0000      8.2290      1.8482      0.2035     48.5942     91.4483     31.7163
  1426.1000      8.2290      1.9351      0.2131     43.3267     98.2153     31.7201
  1426.2000      8.2290      2.0498      0.2375     36.3772    105.4361     31.8721
  1426.3000      8.1028      2.1824      0.2830     28.3419    108.5276     31.7452
  1426.4000      8.1028      2.2994      0.3130     21.2490    109.1012     31.6442
  1426.5000      8.0669      2.3901      0.2804     15.7492    113.9560     31.6561
  1426.6000      8.0669      2.4735      0.2243     10.6979    125.0577     31.1346
  1426.7000      8.0669      2.5493      0.2299      6.1038    136.9171     29.9062
  1426.8000      7.9335      2.5946      0.1235      3.3586    145.0865     28.4846
  1426.9000      7.9335      2.6036      0.1135      2.8123    149.0878     27.1727
  1427.0000      7.9137      2.5927      0.0536      3.4720    151.4868     26.0929
  1427.1000      7.9137      2.5785      0.0621      4.3331    154.7073     25.0744
  1427.2000      7.9137      2.5651      0.0292      5.1465    158.6952     23.7613
  1427.3000      7.9588      2.5527      0.0363      5.8985    163.4113     22.5596
  1427.4000      7.9588      2.5446     -0.0157      6.3896    168.2823     22.1500
  1427.5000      7.9604      2.5452      0.0357      6.3490    171.1842     22.2697
  1427.6000      7.9604      2.5555      0.0089      5.7279    170.4216     22.5223
  1427.7000      7.9604      2.5682      0.0623      4.9570    165.7458     22.9993
  1427.8000      7.9384      2.5736      0.0546      4.6321    159.4027     23.3227
  1427.9000      7.9384      2.5718      0.0759      4.7401    155.3962     22.8651
  1428.0000      7.9196      2.5743      0.0030      4.5850    154.7580     21.8950
  1428.1000      7.9196      2.5867      0.0752      3.8339    155.2050     21.2845
  1428.2000      7.9196      2.5947      0.1078      3.3512    157.0972     21.5545
  1428.3000      7.9110      2.5915      0.0642      3.5454    162.0212     22.3892
  1428.4000      7.9110      2.5838      0.0723      4.0103    169.1503     23.1075
  1428.5000      7.8981      2.5673      0.0764      5.0104    174.7006     23.4337
  1428.6000      7.8981      2.5437      0.0104      6.4397    175.5032     23.4638
  1428.7000      7.8981      2.5318      0.0086      7.1630    173.1304     23.0935
  1428.8000      7.9327      2.5325      0.0459      7.1235    170.1320     22.4681
  1428.9000      7.9327      2.5274      0.0347      7.4293    169.1574     22.3278
  1429.0000      7.9291      2.5152      0.0099      8.1684    171.8092     22.9431
  1429.1000      7.9291      2.5111      0.0007      8.4161    177.0102     23.7294
  1429.2000      7.9291      2.5149      0.0718      8.1895    182.2608     24.1450
  1429.3000      7.9323      2.5116      0.0082      8.3862    185.2427     24.3273
  1429.4000      7.9323      2.4977      0.0608      9.2313    185.8416     24.6159
  1429.5000      7.9358      2.4829     -0.0068     10.1282    187.7650     24.9869
  1429.6000      7.9358      2.4865     -0.0088      9.9079    192.0422     25.4808
  1429.7000      7.9358      2.5138      0.0722      8.2523    192.5421     26.3596
  1429.8000      7.9418      2.5374      0.0837      6.8219    190.3336     27.4840
  1429.9000      7.9418      2.5290      0.0932      7.3319    191.6248     28.4476
  1430.0000      7.9384      2.4883      0.1225      9.7986    194.1290     28.8416
  1430.1000      7.9384      2.4359      0.0420     12.9786    193.4304     28.6235
  1430.2000      7.9384      2.3881      0.0472     15.8723    187.3752     28.5559
  1430.3000      7.9305      2.3443      0.0286     18.5279    178.7502     28.8555
  1430.4000      7.9305      2.3060      0.0074     20.8515    172.6277     28.8825
  1430.5000      7.9397      2.2788      0.0332     22.4978    167.2328     28.7796
  1430.6000      7.9397      2.2526      0.0121     24.0849    161.3896     28.8993
  1430.7000      7.9397      2.2156      0.0244     26.3293    159.2693     28.7583
  1430.8000      7.9805      2.1747      0.0376     28.8089    159.8238     28.4390
  1430.9000      7.9805      2.1475      0.0402     30.4527    157.4281     28.5370
  1431.0000      8.0029      2.1408      0.0570     30.8584    152.7051     28.9888
  1431.1000      8.0029      2.1478      0.0600     30.4373    149.7143     29.3475
  1431.2000      8.0029      2.1661      0.0468     29.3271    147.1357     29.3872
  1431.3000      8.0320      2.2043      0.0508     27.0120    143.1875     29.3936
  1431.4000      8.0320      2.2691      0.1018     23.0835    141.0215     29.6572
  1431.5000      8.0280      2.3536      0.1563     17.9654    142.4780     29.8381
  1431.6000      8.0280      2.4337      0.2258     13.1088    145.2144     29.3531
  1431.7000      8.0280      2.4830      0.1892     10.1222    147.4494     28.3685
  1431.8000      8.0027      2.5053      0.0769      8.7674    149.9365     27.5247
  1431.9000      8.0027      2.5300      0.0853      7.2715    153.1931     27.1868
  1432.0000      7.9536      2.5637      0.1357      5.2278    154.3093     27.2849
  1432.1000      7.9536      2.5883      0.1099      3.7385    150.0817     27.1877
  1432.2000      7.9536      2.5999      0.0916      3.0389    140.0789     26.4597
  1432.3000      7.9297      2.6113      0.1125      2.3461    128.5348     25.2725
  1432.4000      7.9297      2.6264      0.0837      1.4333    121.8786     23.9194
  1432.5000      7.9046      2.6345      0.1057      0.9382    119.8822     22.8465
  1432.6000      7.9046      2.6279      0.0981      1.3403    118.0638     22.1621
  1432.7000      7.9046      2.6175      0.0972      1.9708    113.5399     21.2766
  1432.8000      7.8566      2.6174      0.0577      1.9753    108.3801     19.8681
  1432.9000      7.8566      2.6260      0.0976      1.4569    107.7478     18.5496
  1433.0000      7.8090      2.6288      0.0701      1.2819    113.2237     17.9532
  1433.1000      7.8090      2.6171      0.0454      1.9934    123.0036     17.9226
