~Version Information
VERS.                      2.0: CWLS Log ASCII Standard - VERSION 2.0
WRAP.                       NO: One line per depth step
~Well Information Block
STRT.FT               236.5000: 
STOP.FT              2818.2500: 
STEP.FT                 0.2500: 
NULL.                -999.2500: 
COMP.          Pioneer Natural Resources: COMPANY
WELL.            Sebring 42-29: WELL
FLD.           Purgatorie River: FIELD
LOC.           1751' FNL & 584' FEL--: LOCATION
PROV.                       CO: PROVINCE
CNTY.               Las Animas: COUNTRY
SRVC.          Patterson Wireline: SERVICE COMPANY
DATE.          Fri Aug 26 09:14:13 2005: LOG DATE
UWI.           05 071 08293 00: UNIQUE WELL ID
~Curve Information Block
DEPT.FT            0 000 00 00: Depth
CCL.                          : Casing Collar Locator
TT3.usec                      : CBL 3' Travel Time
AMP3.mV                       : CBL 3' Amplitude
GR.GAPI                       : Gamma Ray
~Parameter Information Block
~A  Depth       CCL         TT3         AMP3         GR     
# ...
  2112.5000      0.0000    684.2817      5.4802     99.1774
  2112.7500      0.0000    684.5780      5.5793     98.4614
  2113.0000      0.0000    677.3334      5.6494     99.3720
  2113.2500      0.0000    660.1323      5.6929    101.2404
  2113.5000      0.0000    635.8441      5.7202    103.2859
  2113.7500      0.0000    612.1249      5.7405    105.8014
  2114.0000      0.0000    594.3323      5.7560    109.9290
  2114.2500      0.0000    579.6380      5.7635    116.3914
  2114.5000      0.0000    560.9178      5.7599    124.4941
  2114.7500      0.0000    536.3964      5.7457    132.4120
  2115.0000      0.0000    513.0159      5.7261    138.4444
  2115.2500      0.0000    500.9314      5.7097    141.7467
  2115.5000      0.0000    507.2085      5.7061    142.0504
  2115.7500      0.0000    533.4407      5.7207    139.3309
  2116.0000      0.0000    575.1392      5.7501    133.7838
  2116.2500      0.0000    622.3841      5.7804    125.7158
  2116.5000      0.0000    663.7862      5.7893    115.6483
  2116.7500      0.0000    691.9280      5.7513    104.9447
  2117.0000      0.0000    705.5234      5.6475     95.9259
  2117.2500      0.0000    707.4621      5.4782     90.7520
  2117.5000      0.0000    701.8523      5.2740     90.1686
  2117.7500      0.0000    692.3116      5.0885     93.4023
  2118.0000      0.0000    681.6949      4.9738     98.9382
  2118.2500      0.0000    672.3394      4.9544    105.1446
  2118.5000      0.0000    665.8981      5.0226    110.3308
  2118.7500      0.0000    663.0423      5.1504    112.7412
  2119.0000      0.0000    663.8518      5.3035    111.0882
  2119.2500      0.0000    668.4623      5.4476    105.6608
  2119.5000      0.0000    676.5969      5.5535     99.1609
  2119.7500      0.0000    685.9344      5.6071     96.0539
  2120.0000      0.0000    691.4761      5.6193    100.2297
  2120.2500      0.0000    687.5184      5.6214    112.4260
  2120.5000      0.0000    670.5255      5.6440    129.5538
  2120.7500      0.0000    640.4523      5.6970    146.7364
  2121.0000      0.0000    601.1525      5.7677    160.2741
  2121.2500      0.0000    560.7631      5.8361    168.9327
  2121.5000      0.0000    529.8853      5.8900    173.2973
  2121.7500      0.0000    516.8777      5.9291    174.7623
  2122.0000      0.0000    523.9029      5.9590    174.7456
  2122.2500      0.0000    546.4786      5.9829    173.9639
  2122.5000      0.0000    575.9078      5.9984    172.3923
  2122.7500      0.0000    603.4192      5.9993    170.0356
  2123.0000      0.0000    623.9745      5.9803    167.4491
  2123.2500      0.0000    636.7100      5.9392    165.4444
  2123.5000      0.0000    642.0167      5.8781    164.4176
  2123.7500      0.0000    639.7039      5.8016    163.7478
  2124.0000      0.0000    631.2111      5.7174    161.8162
  2124.2500      0.0000    622.6644      5.6328    157.2605
  2124.5000      0.0000    623.2126      5.5487    150.5397
  2124.7500      0.0000    638.3183      5.4578    143.8235
  2125.0000      0.0000    664.5258      5.3537    139.0590
  2125.2500      0.0000    691.6367      5.2474    136.2458
  2125.5000      0.0000    710.5282      5.1672    133.5179
  2125.7500      0.0000    718.9769      5.1365    128.7972
  2126.0000      0.0000    720.6332      5.1529    121.7135
  2126.2500      0.0000    719.8448      5.1938    114.2543
  2126.5000      0.0000    718.4583      5.2374    109.5456
  2126.7500      0.0000    716.5666      5.2745    109.7109
  2127.0000      0.0000    714.4079      5.3066    114.5583
  2127.2500      0.0000    712.9233      5.3382    122.1372
  2127.5000      0.0000    713.1441      5.3611    130.4939
  2127.7500      0.0000    715.2650      5.3435    138.6703
  2128.0000      0.0000    718.1285      5.2587    145.9589
  2128.2500      0.0000    720.0551      5.1315    150.9593
  2128.5000      0.0000    720.3137      5.0293    152.4519
  2128.7500      0.0000    719.2222      5.0005    151.1244
  2129.0000     -2.0000    717.0576      5.0383    149.5136
  2129.2500      2.0000    713.6585      5.1059    150.0733
  2129.5000      0.0000    708.8922      5.1723    153.7019
  2129.7500      0.0000    702.7505      5.2212    159.8517
  2130.0000      0.0000    695.1095      5.2476    167.4407
  2130.2500      0.0000    686.1369      5.2557    175.4790
  2130.5000      0.0000    677.0269      5.2571    182.7169
  2130.7500      0.0000    669.5851      5.2677    186.7749
  2131.0000      0.0000    664.8804      5.3043    184.6745
  2131.2500      0.0000    662.5983      5.3737    175.4126
  2131.5000      0.0000    661.6630      5.4624    161.8540
  2131.7500      0.0000    661.0485      5.5487    149.3121
  2132.0000      0.0000    660.0085      5.6205    141.9747
  2132.2500      0.0000    658.0065      5.6776    140.3908
  2132.5000      0.0000    654.9301      5.7225    141.8823
  2132.7500      0.0000    651.3970      5.7562    143.3220
  2133.0000      0.0000    648.4974      5.7782    143.7763
  2133.2500      0.0000    647.0161      5.7862    144.6238
  2133.5000      0.0000    647.1358      5.7770    147.4047
  2133.7500      0.0000    648.7720      5.7514    151.9477
  2134.0000      0.0000    651.5456      5.7163    156.6524
  2134.2500      0.0000    654.3786      5.6823    160.0420
  2134.5000      0.0000    655.7584      5.6564    161.5824
  2134.7500      0.0000    654.6789      5.6354    161.3802
  2135.0000      0.0000    651.2716      5.6062    159.7600
  2135.2500      0.0000    646.6772      5.5574    157.3488
  2135.5000      0.0000    642.3879      5.4912    155.3333
  2135.7500      0.0000    639.5279      5.4237    155.0201
  2136.0000      0.0000    638.3324      5.3755    156.5334
  2136.2500      0.0000    637.7499      5.3607    158.0232
  2136.5000      0.0000    635.1304      5.3799    156.6671
  2136.7500      0.0000    627.1238      5.4204    150.6058
  2137.0000      0.0000    612.8387      5.4622    140.0049
  2137.2500      0.0000    596.8652      5.4879    126.8137
  2137.5000      0.0000    587.3221      5.4884    113.7111
  2137.7500      0.0000    589.0782      5.4611    102.8380
  2138.0000      0.0000    599.6183      5.4047     95.1926
  2138.2500      0.0000    612.2947      5.3189     90.9446
  2138.5000      0.0000    622.1279      5.2095     89.7381
  2138.7500      0.0000    627.5781      5.0896     90.5127
  2139.0000      0.0000    628.3318      4.9734     91.6966
  2139.2500      0.0000    622.6547      4.8694     92.0719
  2139.5000      0.0000    606.6262      4.7791     91.2105
  2139.7500      0.0000    576.6094      4.7029     88.9184
  2140.0000      0.0000    534.3416      4.6442     84.8278
  2140.2500      0.0000    490.0296      4.6101     78.9043
  2140.5000      0.0000    457.7886      4.6090     71.9298
  2140.7500      0.0000    445.0747      4.6413     65.1544
  2141.0000      0.0000    446.0096      4.6892     59.8688
  2141.2500      0.0000    446.5687      4.7154     57.4970
  2141.5000      0.0000    437.4896      4.6845     59.3851
  2141.7500      0.0000    421.6103      4.5915     65.6517
  2142.0000      0.0000    409.1145      4.4700     74.1977
  2142.2500      0.0000    407.8399      4.3706     81.4877
  2142.5000      0.0000    417.9543      4.3300     84.9381
  2142.7500      0.0000    432.7202      4.3579     84.7617
  2143.0000      0.0000    443.9005      4.4414     83.3534
  2143.2500      0.0000    448.4335      4.5586     82.9723
  2143.5000      0.0000    449.3222      4.6881     84.2825
  2143.7500      0.0000    448.7984      4.8138     86.7365
  2144.0000      0.0000    443.4889      4.9254     89.4548
  2144.2500      0.0000    429.1875      5.0176     91.5275
  2144.5000      0.0000    407.8163      5.0883     92.1411
  2144.7500      0.0000    386.6662      5.1387     91.0225
  2145.0000      0.0000    372.1371      5.1732     88.7306
  2145.2500      0.0000    365.9992      5.1989     86.1940
  2145.5000      0.0000    366.1825      5.2232     83.9000
  2145.7500      0.0000    369.1510      5.2512     81.7228
