~Version Information
VERS.                      2.0: CWLS Log ASCII Standard - VERSION 2.0
WRAP.                       NO: One line per depth step
~Well Information Block
STRT.FT               420.0000: 
STOP.FT              1528.5000: 
STEP.FT                 0.2500: 
NULL.                -999.2500: 
COMP.          Evergreen Operating Corporation: COMPANY
WELL.              Chase 21-10: WELL
FLD.           Purgatoire River: FIELD
LOC.           1122' FNL & 1544' FWL: LOCATION
PROV.                       CO: PROVINCE
CNTY.               Las Animas: COUNTRY
SRVC.                         : SERVICE COMPANY
DATE.          Sun May 23 21:20:45 2004: LOG DATE
UWI.           05 071 08006 00: UNIQUE WELL ID
~Curve Information Block
DEPT.FT            0 000 00 00: Depth
SN.Ohm-m                      : IEL Short Normal
SP.mV                         : IEL Spontaneous Potential
DIR.Ohm-m                     : IEL Induction Resistivity
GR.GAPI                       : Gamma Ray
~Parameter Information Block
~A  Depth        SN          SP         DIR          GR     
# ...
  1190.5000     22.4508    136.0482     18.5971     73.9091
  1190.7500     22.8336    136.0233     18.7997     71.2525
  1191.0000     23.1368    135.9806     18.8646     66.1145
  1191.2500     23.3524    135.9267     18.7998     63.1646
  1191.5000     23.4623    135.8687     18.6356     61.0881
  1191.7500     23.4411    135.8134     18.4167     61.4091
  1192.0000     23.2682    135.7664     18.1879     63.4646
  1192.2500     22.9416    135.7315     17.9816     65.0008
  1192.5000     22.4859    135.7108     17.8131     66.3728
  1192.7500     21.9485    135.7041     17.6820     66.5463
  1193.0000     21.3867    135.7100     17.5774     66.4584
  1193.2500     20.8518    135.7261     17.4813     66.7448
  1193.5000     20.3782    135.7494     17.3717     68.0553
  1193.7500     19.9812    135.7773     17.2290     69.3708
  1194.0000     19.6653    135.8070     17.0452     72.0015
  1194.2500     19.4359    135.8370     16.8293     74.5301
  1194.5000     19.3104    135.8661     16.6043     79.6322
  1194.7500     19.3156    135.8943     16.3935     83.1988
  1195.0000     19.4708    135.9228     16.2077     86.9197
  1195.2500     19.7617    135.9533     16.0394     87.7626
  1195.5000     20.1232    135.9885     15.8687     87.1670
  1195.7500     20.4454    136.0312     15.6760     86.2695
  1196.0000     20.6047    136.0840     15.4516     84.9243
  1196.2500     20.5091    136.1487     15.1972     83.9811
  1196.5000     20.1371    136.2263     14.9188     82.0254
  1196.7500     19.5516    136.3160     14.6202     80.2142
  1197.0000     18.8770    136.4158     14.3044     77.3023
  1197.2500     18.2445    136.5222     13.9790     76.0820
  1197.5000     17.7333    136.6308     13.6609     76.7641
  1197.7500     17.3457    136.7361     13.3728     78.9915
  1198.0000     17.0294    136.8322     13.1345     83.5041
  1198.2500     16.7300    136.9132     12.9563     85.9654
  1198.5000     16.4335    136.9737     12.8403     87.1634
  1198.7500     16.1738    137.0092     12.7885     86.1930
  1199.0000     16.0081    137.0166     12.8094     83.4972
  1199.2500     15.9851    136.9950     12.9168     82.0993
  1199.5000     16.1303    136.9457     13.1220     81.8520
  1199.7500     16.4517    136.8722     13.4233     82.7058
  1200.0000     16.9575    136.7801     13.8013     84.1541
  1200.2500     17.6673    136.6764     14.2217     84.4600
  1200.5000     18.6087    136.5685     14.6467     83.0040
  1200.7500     19.8016    136.4635     15.0476     80.4551
  1201.0000     21.2346    136.3674     15.4136     74.5703
  1201.2500     22.8385    136.2845     15.7531     69.9337
  1201.5000     24.4646    136.2173     16.0892     62.9208
  1201.7500     25.8944    136.1663     16.4528     58.3958
  1202.0000     26.8963    136.1303     16.8740     52.1222
  1202.2500     27.3178    136.1067     17.3716     48.8045
  1202.5000     27.1573    136.0922     17.9398     46.3233
  1202.7500     26.5630    136.0833     18.5376     46.8550
  1203.0000     25.7589    136.0770     19.0884     51.2558
  1203.2500     24.9500    136.0710     19.4985     56.3878
  1203.5000     24.2658    136.0648     19.6903     66.1597
  1203.7500     23.7593    136.0595     19.6316     72.9119
  1204.0000     23.4338    136.0578     19.3432     81.4482
  1204.2500     23.2683    136.0635     18.8816     85.4332
  1204.5000     23.2249    136.0805     18.3132     88.9094
  1204.7500     23.2469    136.1125     17.6935     90.0501
  1205.0000     23.2591    136.1620     17.0590     90.8818
  1205.2500     23.1748    136.2293     16.4277     91.0733
  1205.5000     22.9064    136.3134     15.8064     90.5947
  1205.7500     22.3776    136.4113     15.1965     89.5531
  1206.0000     21.5397    136.5186     14.5977     87.1395
  1206.2500     20.3911    136.6304     14.0079     85.5345
  1206.5000     18.9938    136.7411     13.4233     84.0577
  1206.7500     17.4684    136.8449     12.8398     83.6989
  1207.0000     15.9610    136.9362     12.2561     83.3117
  1207.2500     14.5978    137.0100     11.6755     82.7048
  1207.5000     13.4515    137.0618     11.1062     81.0459
  1207.7500     12.5396    137.0886     10.5605     79.5923
  1208.0000     11.8454    137.0894     10.0516     77.4586
  1208.2500     11.3404    137.0649      9.5913     76.4681
  1208.5000     10.9955    137.0180      9.1884     76.0030
  1208.7500     10.7785    136.9533      8.8487     76.2520
  1209.0000     10.6519    136.8763      8.5756     77.1125
  1209.2500     10.5761    136.7932      8.3701     78.1530
  1209.5000     10.5189    136.7094      8.2305     81.1417
  1209.7500     10.4626    136.6297      8.1520     84.1751
  1210.0000     10.4074    136.5576      8.1269     89.1400
  1210.2500     10.3667    136.4953      8.1464     91.7236
  1210.5000     10.3594    136.4437      8.2023     93.3931
  1210.7500     10.4019    136.4026      8.2889     92.9127
  1211.0000     10.5025    136.3710      8.4038     90.1920
  1211.2500     10.6602    136.3471      8.5479     87.5740
  1211.5000     10.8674    136.3289      8.7231     83.8134
  1211.7500     11.1147    136.3149      8.9303     82.1811
  1212.0000     11.3934    136.3040      9.1680     81.4302
  1212.2500     11.6961    136.2963      9.4339     81.5907
  1212.5000     12.0140    136.2934      9.7289     81.5096
  1212.7500     12.3373    136.2984     10.0587     80.7369
  1213.0000     12.6579    136.3152     10.4317     78.4706
  1213.2500     12.9723    136.3481     10.8555     76.5498
  1213.5000     13.2809    136.4011     11.3328     74.0775
  1213.7500     13.5830    136.4765     11.8598     73.5226
  1214.0000     13.8726    136.5750     12.4261     75.2859
  1214.2500     14.1424    136.6945     13.0148     77.8287
  1214.5000     14.3939    136.8309     13.6058     81.6167
  1214.7500     14.6476    136.9777     14.1803     83.0081
  1215.0000     14.9444    137.1270     14.7262     83.0320
  1215.2500     15.3352    137.2701     15.2397     82.1065
  1215.5000     15.8647    137.3983     15.7248     79.8480
  1215.7500     16.5568    137.5037     16.1890     77.7864
  1216.0000     17.4043    137.5799     16.6393     74.0727
  1216.2500     18.3680    137.6230     17.0794     71.5889
  1216.5000     19.3833    137.6319     17.5095     68.5380
  1216.7500     20.3751    137.6083     17.9281     66.9605
  1217.0000     21.2750    137.5572     18.3361     64.4697
  1217.2500     22.0339    137.4856     18.7379     62.2159
  1217.5000     22.6225    137.4018     19.1381     58.2885
  1217.7500     23.0259    137.3145     19.5343     56.3929
  1218.0000     23.2390    137.2315     19.9114     56.6729
  1218.2500     23.2690    137.1587     20.2425     59.3146
  1218.5000     23.1419    137.1000     20.4966     65.8105
  1218.7500     22.9024    137.0572     20.6472     70.5865
  1219.0000     22.6055    137.0301     20.6737     76.3529
  1219.2500     22.3043    137.0174     20.5623     78.4708
  1219.5000     22.0400    137.0168     20.3136     78.7361
  1219.7500     21.8380    137.0254     19.9570     77.3905
  1220.0000     21.7051    137.0403     19.5531     74.4116
  1220.2500     21.6287    137.0586     19.1773     72.4555
  1220.5000     21.5793    137.0774     18.8928     69.8424
  1220.7500     21.5205    137.0945     18.7320     68.1003
  1221.0000     21.4247    137.1086     18.6925     65.5443
  1221.2500     21.2852    137.1193     18.7461     64.5138
  1221.5000     21.1160    137.1280     18.8527     65.4363
  1221.7500     20.9408    137.1372     18.9767     68.0308
  1222.0000     20.7808    137.1506     19.0969     73.8637
  1222.2500     20.6510    137.1723     19.2076     77.7873
  1222.5000     20.5660    137.2065     19.3134     81.7100
  1222.7500     20.5472    137.2563     19.4224     82.5067
  1223.0000     20.6220    137.3237     19.5432     81.3534
  1223.2500     20.8132    137.4089     19.6845     79.5254
  1223.5000     21.1262    137.5101     19.8537     75.7790
  1223.7500     21.5429    137.6240     20.0543     72.7482
