~Version Information
VERS.                      2.0: CWLS Log ASCII Standard - VERSION 2.0
WRAP.                       NO: One line per depth step
~Well Information Block
STRT.FT               575.0000: 
STOP.FT              2016.2500: 
STEP.FT                 0.2500: 
NULL.                -999.2500: 
COMP.          Pioneer Natural Resources: COMPANY
WELL.          Bucksnort 41-35: WELL
FLD.           Purgatoire River: FIELD
LOC.           117' FNL & 463' FEL--: LOCATION
PROV.                 Colorado: PROVINCE
CNTY.               Las Animas: COUNTRY
SRVC.                Patterson: SERVICE COMPANY
DATE.          Thu Jul 21 10:13:55 2005: LOG DATE
UWI.           05 071 08401 00: UNIQUE WELL ID
~Curve Information Block
DEPT.FT            0 000 00 00: Depth
SN.Ohm-m                      : IEL Short Normal
SP.mV                         : IEL Spontaneous Potential
DIR.Ohm-m                     : IEL Induction Resistivity
GR.GAPI                       : Gamma Ray
~Parameter Information Block
~A  Depth        SN          SP         DIR          GR     
# ...
  1982.0000     24.9021    256.8220     24.9626     97.8627
  1982.2500     24.5295    257.9711     24.6082    100.6261
  1982.5000     24.0787    259.0804     24.1536    102.4390
  1982.7500     23.5968    260.0285     23.6350    101.8321
  1983.0000     23.1370    260.7197     23.0966     98.3323
  1983.2500     22.7415    261.0924     22.5815     94.1754
  1983.5000     22.4288    261.1234     22.1300     83.7166
  1983.7500     22.1915    260.8259     21.7774     72.8027
  1984.0000     22.0062    260.2438     21.5457     51.1003
  1984.2500     21.8473    259.4426     21.4357     35.6669
  1984.5000     21.6965    258.4993     21.4238     16.6902
  1984.7500     21.5455    257.4920     21.4684      8.5685
  1985.0000     21.3952    256.4913     21.5206      2.4385
  1985.2500     21.2523    255.5542     21.5367      0.8831
  1985.5000     21.1231    254.7208     21.4887      0.1456
  1985.7500     21.0074    254.0137     21.3683      0.0350
  1986.0000     20.8968    253.4400     21.1825      0.0014
  1986.2500     20.7804    252.9933     20.9465   -999.2500
  1986.5000     20.6517    252.6574     20.6759   -999.2500
  1986.7500     20.5106    252.4089     20.3854   -999.2500
  1987.0000     20.3614    252.2190     20.0890   -999.2500
  1987.2500     20.2107    252.0551     19.8016   -999.2500
  1987.5000     20.0671    251.8819     19.5363   -999.2500
  1987.7500     19.9414    251.6619     19.3007   -999.2500
  1988.0000     19.8428    251.3575     19.0977   -999.2500
  1988.2500     19.7758    250.9328     18.9309   -999.2500
  1988.5000     19.7399    250.3574     18.8105   -999.2500
  1988.7500     19.7324    249.6104     18.7513   -999.2500
  1989.0000     19.7486    248.6856     18.7629   -999.2500
  1989.2500     19.7797    247.5954     18.8415   -999.2500
  1989.5000     19.8143    246.3744     18.9675   -999.2500
  1989.7500     19.8427    245.0786     19.1106   -999.2500
  1990.0000     19.8578    243.7820     19.2361   -999.2500
  1990.2500     19.8494    242.5675     19.3097   -999.2500
  1990.5000     19.8026    241.5150     19.3016   -999.2500
  1990.7500     19.7032    240.6876     19.1906   -999.2500
  1991.0000     19.5490    240.1186     18.9700   -999.2500
  1991.2500     19.3570    239.8035     18.6544   -999.2500
  1991.5000     19.1600    239.6980     18.2841   -999.2500
  1991.7500     18.9899    239.7242     17.9184   -999.2500
  1992.0000     18.8564    239.7828     17.6168   -999.2500
  1992.2500     18.7415    239.7698     17.4170   -999.2500
  1992.5000     18.6163    239.5935     17.3228   -999.2500
  1992.7500     18.4706    239.1886     17.3113   -999.2500
  1993.0000     18.3327    238.5236     17.3539   -999.2500
  1993.2500     18.2661    237.6024     17.4384   -999.2500
  1993.5000     18.3494    236.4570     17.5782   -999.2500
  1993.7500     18.6434    235.1385     17.8047   -999.2500
  1994.0000     19.1544    233.7041     18.1508   -999.2500
  1994.2500     19.8160    232.2085     18.6347   -999.2500
  1994.5000     20.5106    230.6981     19.2478   -999.2500
  1994.7500     21.1234    229.2096     19.9509   -999.2500
  1995.0000     21.5885    227.7725     20.6771   -999.2500
  1995.2500     21.8993    226.4121     21.3425   -999.2500
  1995.5000     22.0863    225.1522     21.8644   -999.2500
  1995.7500     22.1876    224.0156     22.1866   -999.2500
  1996.0000     22.2292    223.0230     22.3011   -999.2500
  1996.2500     22.2211    222.1909     22.2507   -999.2500
  1996.5000     22.1627    221.5307     22.1045   -999.2500
  1996.7500     22.0514    221.0487     21.9226   -999.2500
  1997.0000     21.8880    220.7472     21.7345   -999.2500
  1997.2500     21.6792    220.6273     21.5413   -999.2500
  1997.5000     21.4344    220.6898     21.3295   -999.2500
  1997.7500     21.1594    220.9356     21.0831   -999.2500
  1998.0000     20.8526    221.3621     20.7856   -999.2500
  1998.2500     20.5061    221.9597     20.4180   -999.2500
  1998.5000     20.1113    222.7057     19.9579   -999.2500
  1998.7500     19.6671    223.5600     19.3910   -999.2500
  1999.0000     19.1900    224.4635     18.7292   -999.2500
  1999.2500     18.7173    225.3404     18.0218   -999.2500
  1999.5000     18.2924    226.1059     17.3416   -999.2500
  1999.7500     17.9391    226.6771     16.7523   -999.2500
  2000.0000     17.6433    226.9869     16.2809   -999.2500
  2000.2500     17.3594    226.9972     15.9121   -999.2500
  2000.5000     17.0367    226.7097     15.6055   -999.2500
  2000.7500     16.6508    226.1700     15.3213   -999.2500
  2001.0000     16.2260    225.4644     15.0392   -999.2500
  2001.2500     15.8358    224.7090     14.7618   -999.2500
  2001.5000     15.5732    224.0309     14.5082   -999.2500
  2001.7500     15.4973    223.5472     14.3042   -999.2500
  2002.0000     15.5867    223.3440     14.1717   -999.2500
  2002.2500     15.7414    223.4629     14.1175   -999.2500
  2002.5000     15.8402    223.8954     14.1265   -999.2500
  2002.7500     15.8128    224.5871     14.1656   -999.2500
  2003.0000     15.6740    225.4506     14.2012   -999.2500
  2003.2500     15.5107    226.3817     14.3145   -999.2500
  2003.5000     15.4416    227.2758     14.3424   -999.2500
  2003.7500     15.5714    228.0423     14.4273   -999.2500
  2004.0000     15.9501    228.6142     14.6222   -999.2500
  2004.2500     16.5530    228.9531     14.9622   -999.2500
  2004.5000     17.2960    229.0516     15.4532   -999.2500
  2004.7500     18.0861    228.9308     16.0749   -999.2500
  2005.0000     18.8699    228.6353     16.7965   -999.2500
  2005.2500     19.6489    228.2257     17.6008   -999.2500
  2005.5000     20.4536    227.7681     18.5091   -999.2500
  2005.7500     21.3058    227.3231     19.6057   -999.2500
  2006.0000     22.1944    226.9358     21.0778   -999.2500
  2006.2500     23.0745    226.6290     23.2974   -999.2500
  2006.5000     23.8815    226.4014     26.9946   -999.2500
  2006.7500     24.5540    226.2303     33.1054   -999.2500
  2007.0000     25.0553    226.0789     45.9403   -999.2500
  2007.2500     25.3854    225.9052     75.7496   -999.2500
  2007.5000     25.5758    225.6631    177.7268   -999.2500
  2007.7500     25.6736    225.3183 100000.0000   -999.2500
  2008.0000     25.7225    224.8374 100000.0000   -999.2500
  2008.2500     25.7488    224.1817 100000.0000   -999.2500
  2008.5000     25.7614    223.2916 100000.0000   -999.2500
  2008.7500     25.7604    222.0624 100000.0000   -999.2500
  2009.0000     25.7481    220.3151 100000.0000   -999.2500
  2009.2500     25.7316    217.7676 100000.0000   -999.2500
  2009.5000     25.7206    214.0179 100000.0000   -999.2500
  2009.7500     25.7236    208.5555 100000.0000   -999.2500
  2010.0000     25.7434    200.8167 100000.0000   -999.2500
  2010.2500     25.7766    190.2888 100000.0000   -999.2500
  2010.5000     25.7921    176.6511 100000.0000   -999.2500
  2010.7500     25.6634    159.9173 100000.0000   -999.2500
  2011.0000     25.0554    140.5302 100000.0000   -999.2500
  2011.2500     23.3878    119.3632 100000.0000   -999.2500
  2011.5000     20.0929     97.6100 100000.0000   -999.2500
  2011.7500     15.1676     76.5826 100000.0000   -999.2500
  2012.0000      9.5051     57.4727 100000.0000   -999.2500
  2012.2500      4.4658     41.1488 100000.0000   -999.2500
  2012.5000      0.9842     28.0451 100000.0000   -999.2500
  2012.7500     -0.8857     18.1611 100000.0000   -999.2500
  2013.0000     -1.6670     11.1563 100000.0000   -999.2500
  2013.2500     -1.9211      6.4922 100000.0000   -999.2500
  2013.5000     -1.9854      3.5745 100000.0000   -999.2500
  2013.7500     -1.9981      1.8598 100000.0000   -999.2500
  2014.0000   -999.2500      0.9131 100000.0000   -999.2500
  2014.2500   -999.2500      0.4221  31109.3535   -999.2500
  2014.5000   -999.2500      0.1829   4550.5796   -999.2500
  2014.7500   -999.2500      0.0733   3068.3486   -999.2500
  2015.0000   -999.2500      0.0262   2651.1372   -999.2500
  2015.2500   -999.2500      0.0072   2510.4009   -999.2500
