~Version Information
VERS.                      2.0: CWLS Log ASCII Standard - VERSION 2.0
WRAP.                       NO: One line per depth step
~Well Information Block
STRT.FT                -7.5000: 
STOP.FT              1877.2500: 
STEP.FT                 0.2500: 
NULL.                -999.2500: 
COMP.          Pioneer Natural Resources: COMPANY
WELL.            Nova 11-14 Tr: WELL
FLD.           Purgatorie River: FIELD
LOC.           706' FNL & 1109' FWL--: LOCATION
PROV.                       CO: PROVINCE
CNTY.               Las Animas: COUNTRY
SRVC.          Patterson Wireline: SERVICE COMPANY
DATE.          Tue Jul 26 15:08:01 2005: LOG DATE
UWI.           05 071 08434 00: UNIQUE WELL ID
~Curve Information Block
DEPT.FT            0 000 00 00: Depth
CCL.                          : Casing Collar Locator
TT3.usec                      : CBL 3' Travel Time
AMP3.mV                       : CBL 3' Amplitude
GR.GAPI                       : Gamma Ray
~Parameter Information Block
~A  Depth       CCL         TT3         AMP3         GR     
# ...
  1701.0000      0.0000    684.8629      7.4695    122.8382
  1701.2500      0.0000    670.3024      7.4093    117.7814
  1701.5000      0.0000    648.5092      7.3802    110.6380
  1701.7500      0.0000    626.8676      7.3963    105.2296
  1702.0000      0.0000    615.2119      7.4662    103.7168
  1702.2500      0.0000    617.3747      7.5835    106.1510
  1702.5000      0.0000    627.2566      7.7294    111.1606
  1702.7500      0.0000    634.6497      7.8847    116.9134
  1703.0000      0.0000    634.8032      8.0391    122.1460
  1703.2500      0.0000    631.9473      8.1862    126.7058
  1703.5000      0.0000    634.1295      8.3106    131.0315
  1703.7500      0.0000    645.0457      8.3877    135.3914
  1704.0000      0.0000    660.1260      8.4017    139.8910
  1704.2500      0.0000    669.5895      8.3636    144.7404
  1704.5000      0.0000    665.4203      8.3076    150.0306
  1704.7500      0.0000    646.8729      8.2682    155.3770
  1705.0000      0.0000    620.8847      8.2638    159.8633
  1705.2500      0.0000    597.5200      8.2952    162.2281
  1705.5000      0.0000    583.9353      8.3514    161.4407
  1705.7500      0.0000    581.3510      8.4130    157.4073
  1706.0000      0.0000    586.6402      8.4577    150.9755
  1706.2500      0.0000    595.8331      8.4675    143.2374
  1706.5000      0.0000    604.7852      8.4312    134.9995
  1706.7500      0.0000    606.3066      8.3462    126.7428
  1707.0000      0.0000    590.4219      8.2221    118.6757
  1707.2500      0.0000    552.4883      8.0850    110.8858
  1707.5000      0.0000    501.2487      7.9731    103.6807
  1707.7500      0.0000    455.3824      7.9214     97.7463
  1708.0000      0.0000    431.4418      7.9456     93.9413
  1708.2500      0.0000    436.1782      8.0346     93.1954
  1708.5000      0.0000    467.2627      8.1586     96.6612
  1708.7500      0.0000    515.3879      8.2835    105.4672
  1709.0000      0.0000    564.9669      8.3812    119.4859
  1709.2500      0.0000    598.8678      8.4343    136.0880
  1709.5000      0.0000    608.0986      8.4358    150.8300
  1709.7500      0.0000    597.6011      8.3882    160.1375
  1710.0000      0.0000    581.6622      8.3016    163.1426
  1710.2500      0.0000    574.1313      8.1918    160.9998
  1710.5000      0.0000    581.9553      8.0793    155.6304
  1710.7500      0.0000    603.7115      7.9869    149.6805
  1711.0000      0.0000    630.9622      7.9355    146.3866
  1711.2500      0.0000    652.7943      7.9398    147.9511
  1711.5000      0.0000    662.9053      8.0048    153.6263
  1711.7500      0.0000    663.4257      8.1242    159.7778
  1712.0000      0.0000    661.0975      8.2803    162.3003
  1712.2500      0.0000    659.7419      8.4461    159.4021
  1712.5000      0.0000    656.7249      8.5933    152.4090
  1712.7500      0.0000    645.4525      8.7003    144.3799
  1713.0000      0.0000    620.3409      8.7578    138.2467
  1713.2500      0.0000    581.2179      8.7666    135.7830
  1713.5000      0.0000    534.8070      8.7333    137.1289
  1713.7500      0.0000    490.9507      8.6679    140.4637
  1714.0000      0.0000    456.2495      8.5857    142.4298
  1714.2500      0.0000    431.6860      8.5116    140.1073
  1714.5000      0.0000    416.1400      8.4748    133.3763
  1714.7500      0.0000    411.0881      8.4887    125.2049
  1715.0000      0.0000    420.9951      8.5367    119.2586
  1715.2500      0.0000    447.6529      8.5842    117.1278
  1715.5000      0.0000    483.0393      8.6086    117.7951
  1715.7500      0.0000    510.3428      8.6131    119.4829
  1716.0000      0.0000    517.5535      8.6134    121.4869
  1716.2500      0.0000    511.4133      8.6163    124.0803
  1716.5000      0.0000    513.5822      8.6122    127.3177
  1716.7500      0.0000    540.3524      8.5866    130.7033
  1717.0000      0.0000    588.0838      8.5346    133.9198
  1717.2500      0.0000    639.1398      8.4656    137.2292
  1717.5000      0.0000    678.3989      8.3906    140.8358
  1717.7500      0.0000    701.8020      8.3057    144.1948
  1718.0000      0.0000    712.4016      8.1927    146.4346
  1718.2500      0.0000    713.5949      8.0411    147.4473
  1718.5000      0.0000    707.8227      7.8673    148.1527
  1718.7500      0.0000    699.1743      7.7071    149.5196
  1719.0000      0.0000    693.6291      7.5878    151.4081
  1719.2500      0.0000    695.3027      7.5104    152.4975
  1719.5000      0.0000    703.4852      7.4545    151.6486
  1719.7500      0.0000    714.0939      7.4016    149.3407
  1720.0000      0.0000    723.3740      7.3542    147.1697
  1720.2500      0.0000    729.9447      7.3376    145.9130
  1720.5000      0.0000    734.0862      7.3791    144.8643
  1720.7500      0.0000    735.6188      7.4704    143.1392
  1721.0000      0.0000    732.9583      7.5506    140.7117
  1721.2500      0.0000    725.1493      7.5501    137.9296
  1721.5000      0.0000    714.7210      7.4685    134.8032
  1721.7500      0.0000    707.1497      7.3835    131.0733
  1722.0000      0.0000    706.6772      7.3690    126.6443
  1722.2500      0.0000    713.1320      7.4241    122.1571
  1722.5000      0.0000    722.7667      7.4936    119.4240
  1722.7500      2.0000    731.5280      7.5342    120.5288
  1723.0000      0.0000    737.6449      7.5519    125.5772
  1723.2500      0.0000    741.6818      7.5911    131.7380
  1723.5000      0.0000    744.4459      7.6897    135.5197
  1723.7500      0.0000    745.3619      7.8307    136.0754
  1724.0000      0.0000    743.3066      7.9509    135.7863
  1724.2500      0.0000    738.5359      8.0171    137.7283
  1724.5000      0.0000    732.7450      8.0678    142.9151
  1724.7500      0.0000    726.9290      8.1504    149.6084
  1725.0000      0.0000    719.6617      8.2508    154.6847
  1725.2500      0.0000    708.0652      8.3176    155.9655
  1725.5000      0.0000    690.9465      8.3295    153.8598
  1725.7500      0.0000    671.0391      8.3073    150.8216
  1726.0000      0.0000    653.5444      8.2772    149.1045
  1726.2500      0.0000    641.7070      8.2481    148.9686
  1726.5000      0.0000    633.8101      8.2182    148.7384
  1726.7500      0.0000    625.7437      8.1869    146.3803
  1727.0000      0.0000    616.9672      8.1595    141.2645
  1727.2500      0.0000    612.3775      8.1446    134.7763
  1727.5000      0.0000    617.3903      8.1477    129.3365
  1727.7500      0.0000    632.0187      8.1659    126.5741
  1728.0000      0.0000    650.1732      8.1862    126.1545
  1728.2500      0.0000    664.3578      8.1926    126.3816
  1728.5000      0.0000    670.9704      8.1738    125.8525
  1728.7500      0.0000    671.5081      8.1261    124.4621
  1729.0000      0.0000    669.7150      8.0518    123.2034
  1729.2500      0.0000    668.5546      7.9596    123.2909
  1729.5000      0.0000    669.6300      7.8635    125.1520
  1729.7500      0.0000    673.9944      7.7788    128.0450
  1730.0000      0.0000    682.1746      7.7176    130.9081
  1730.2500      0.0000    693.0737      7.6901    133.4650
  1730.5000      0.0000    703.5179      7.7036    136.0680
  1730.7500      0.0000    709.9490      7.7556    138.6439
  1731.0000      0.0000    710.9376      7.8279    140.4014
  1731.2500      0.0000    707.8036      7.8972    140.6389
  1731.5000      0.0000    703.1295      7.9532    139.4033
  1731.7500      0.0000    699.2182      8.0067    137.2483
  1732.0000      0.0000    697.3870      8.0744    134.5925
  1732.2500      0.0000    697.5042      8.1567    131.3835
  1732.5000      0.0000    698.0288      8.2345    127.4289
  1732.7500      0.0000    697.2228      8.2875    123.1737
  1733.0000      0.0000    694.6794      8.3117    119.8670
  1733.2500      0.0000    691.5600      8.3173    118.6959
  1733.5000      0.0000    689.3724      8.3098    119.8214
  1733.7500      0.0000    688.5939      8.2790    122.3412
  1734.0000      0.0000    688.2474      8.2075    125.1693
  1734.2500      0.0000    686.4255      8.0916    127.9017
