~Version Information
VERS.                      2.0: CWLS Log ASCII Standard - VERSION 2.0
WRAP.                       NO: One line per depth step
~Well Information Block
STRT.FT                -7.5000: 
STOP.FT               872.5000: 
STEP.FT                 0.5000: 
NULL.                -999.2500: 
COMP.          Pioneer Natural Resources: COMPANY
WELL.          New Mexico 21-5: WELL
FLD.           Purgatorie River: FIELD
LOC.           175' FNL & 1700' FWL: LOCATION
PROV.                 Colorado: PROVINCE
CNTY.               Las Animas: COUNTRY
SRVC.          Patterson Wireline: SERVICE COMPANY
DATE.          Fri Dec 17 09:32:01 2004: LOG DATE
UWI.           05-071-08234-00: UNIQUE WELL ID
~Curve Information Block
DEPT.FT            0 000 00 00: Depth
CCL.                          : Casing Collar Locator
TT3.usec                      : CBL 3' Travel Time
AMP3.mV                       : CBL 3' Amplitude
GR.GAPI                       : Gamma Ray
~Parameter Information Block
~A  Depth       CCL         TT3         AMP3         GR     
# ...
   461.5000      0.0000    746.6447      9.3224     69.4653
   462.0000      0.0000    741.1387      9.5394     67.9239
   462.5000      0.0000    736.6288      9.7923     76.1792
   463.0000      0.0000    738.8513     10.0022     87.3088
   463.5000      0.0000    738.9777      9.9112     96.1484
   464.0000      0.0000    733.8918      9.4523    107.7456
   464.5000      0.0000    736.9189      8.8742    117.5595
   465.0000      0.0000    745.1942      8.4063    117.3143
   465.5000      0.0000    749.1190      8.0330    110.1767
   466.0000      0.0000    749.6694      7.6670    105.5773
   466.5000      0.0000    749.0820      7.2627    115.1108
   467.0000      0.0000    748.4545      6.8926    136.6317
   467.5000      0.0000    748.6405      6.6068    150.8355
   468.0000      0.0000    750.1130      6.3598    143.9313
   468.5000      0.0000    754.0535      6.1670    129.7757
   469.0000      0.0000    756.8016      6.0958    124.9578
   469.5000      0.0000    752.7374      6.0679    126.3111
   470.0000      0.0000    748.0893      6.0078    126.6031
   470.5000      0.0000    746.2750      5.9447    120.5439
   471.0000      0.0000    739.5066      5.9296    107.1199
   471.5000      0.0000    718.6345      5.9301     97.0037
   472.0000      0.0000    702.5422      5.9532     96.3819
   472.5000      0.0000    714.7556      6.0139    101.2568
   473.0000      0.0000    726.5426      6.0851     99.9612
   473.5000      0.0000    713.2303      6.2099     95.6919
   474.0000      0.0000    692.0276      6.3169     98.6399
   474.5000      0.0000    682.1194      6.0135    110.0046
   475.0000      0.0000    689.4932      5.4069    116.8882
   475.5000      0.0000    720.8487      5.3041    105.8081
   476.0000      5.0000    744.5936      5.7128     90.0423
   476.5000      0.0000    744.7806      6.0779     93.7663
   477.0000      0.0000    748.7805      6.4710    119.5979
   477.5000      0.0000    755.6388      7.0473    141.0212
   478.0000      0.0000    759.1644      7.5851    135.9274
   478.5000      0.0000    749.5391      8.1326    112.1526
   479.0000      0.0000    728.8784      8.5332     94.0135
   479.5000      0.0000    723.1744      8.7236     83.7640
   480.0000      0.0000    733.3078      8.7877     79.4224
   480.5000      0.0000    746.1395      8.7130     83.2344
   481.0000      0.0000    758.4240      8.8063     90.1925
   481.5000      0.0000    766.7442      9.1442     98.8977
   482.0000      0.0000    764.1583      9.7241    111.0604
   482.5000      0.0000    757.5601     10.6114    124.5380
   483.0000      0.0000    723.6811     11.5673    129.8016
   483.5000      0.0000    615.4886     12.1504    128.6563
   484.0000      0.0000    467.7577     12.2525    124.3202
   484.5000      0.0000    383.9488     12.2458    125.1820
   485.0000      0.0000    369.9854     12.0279    131.4331
   485.5000      0.0000    407.1233     11.3507    135.3514
   486.0000      0.0000    510.9876     10.4375    136.6901
   486.5000      0.0000    589.2250      9.6420    142.0719
   487.0000      0.0000    542.9299      9.0460    153.1606
   487.5000      0.0000    513.4056      8.5704    155.9084
   488.0000      0.0000    599.1037      8.1070    142.8821
   488.5000      0.0000    643.7362      7.6325    125.3494
   489.0000      0.0000    560.4422      7.2664    118.4911
   489.5000      0.0000    513.5654      7.0522    125.7592
   490.0000      0.0000    577.2345      6.9388    141.9156
   490.5000      0.0000    569.4694      6.9636    162.0270
   491.0000      0.0000    458.6784      7.0805    168.3790
   491.5000      0.0000    392.1642      7.1859    153.9796
   492.0000      0.0000    385.1574      7.1848    127.9000
   492.5000      0.0000    394.2097      7.0138    104.7788
   493.0000      0.0000    398.3290      6.8846     94.1487
   493.5000      0.0000    399.1539      6.9753     96.1407
   494.0000      0.0000    411.7592      7.0942    108.2715
   494.5000      0.0000    468.0177      7.0923    122.9826
   495.0000      0.0000    562.8068      7.0087    139.4706
   495.5000      0.0000    634.9818      6.9937    158.9261
   496.0000      0.0000    697.6819      7.1596    171.8333
   496.5000      0.0000    747.5819      7.3803    173.4829
   497.0000      0.0000    760.2344      7.5296    170.9714
   497.5000      0.0000    762.1794      7.5781    171.7123
   498.0000      0.0000    766.7751      7.6258    173.5037
   498.5000      0.0000    776.5905      7.7246    172.4218
   499.0000      0.0000    788.1317      7.7983    171.2302
   499.5000      0.0000    794.1921      7.8141    166.9703
   500.0000      0.0000    795.3237      7.7348    158.6743
   500.5000      0.0000    794.5473      7.5733    151.5947
   501.0000      0.0000    790.7521      7.5209    140.5132
   501.5000      0.0000    787.7217      7.7056    133.7446
   502.0000      0.0000    793.5262      7.9012    144.2307
   502.5000      0.0000    801.4159      8.0650    158.7718
   503.0000      0.0000    779.5786      8.1696    156.7276
   503.5000      0.0000    682.2997      8.2127    149.3309
   504.0000      0.0000    561.3613      8.2896    150.9848
   504.5000      0.0000    557.7280      8.3177    152.7303
   505.0000      0.0000    658.7886      8.1800    151.7746
   505.5000      0.0000    711.6896      8.0163    151.9229
   506.0000      0.0000    725.5823      7.9293    148.3593
   506.5000      0.0000    744.9774      7.8653    142.8761
   507.0000      0.0000    751.1666      7.7611    140.9283
   507.5000      0.0000    767.7936      7.5832    138.3643
   508.0000      0.0000    798.0934      7.3937    135.8998
   508.5000      0.0000    801.7888      7.2983    137.6816
   509.0000      0.0000    755.7079      7.2880    141.2156
   509.5000      0.0000    711.1533      7.2898    141.8136
   510.0000      0.0000    692.9993      7.3198    142.6633
   510.5000      0.0000    706.8134      7.3970    141.8479
   511.0000      0.0000    712.0810      7.5334    135.0223
   511.5000      0.0000    609.6336      7.7585    126.3553
   512.0000      0.0000    455.3965      7.9734    121.6508
   512.5000      0.0000    377.3001      8.2781    121.4361
   513.0000      0.0000    361.5097      8.7419    130.2458
   513.5000      0.0000    359.8787      9.0773    142.2188
   514.0000      0.0000    360.3979      9.0886    141.9646
   514.5000      0.0000    363.6168      8.8569    131.4261
   515.0000      0.0000    377.5251      8.5612    126.2939
   515.5000      0.0000    428.4654      8.4220    127.0691
   516.0000      0.0000    542.2084      8.4891    126.6086
   516.5000      0.0000    649.9586      8.5382    127.0946
   517.0000      0.0000    685.6769      8.2667    130.7506
   517.5000      0.0000    701.0189      7.6016    132.7511
   518.0000      0.0000    724.4437      6.7467    135.8199
   518.5000      0.0000    757.0516      5.9982    138.3321
   519.0000      0.0000    785.8086      5.7985    136.0146
   519.5000      3.7674    807.3344      5.8880    132.8143
   520.0000      0.0000    813.8713      5.9951    137.1780
   520.5000      0.0000    814.3344      6.4787    139.3371
   521.0000      0.0000    801.7549      7.2699    131.0395
   521.5000      0.0000    762.9645      7.8558    120.8040
   522.0000      0.0000    695.2267      8.2982    119.8632
   522.5000      0.0000    587.1343      8.4879    121.3659
   523.0000      0.0000    497.5807      8.3021    112.1091
   523.5000      0.0000    526.7201      7.9695    101.1118
   524.0000      0.0000    624.7598      7.6631     93.0973
   524.5000      0.0000    687.2357      7.4769     85.2119
   525.0000      0.0000    702.7657      7.3515     79.9390
   525.5000      0.0000    687.8940      7.1923     80.5154
   526.0000      0.0000    673.1428      6.9488     83.1088
   526.5000      0.0000    686.7474      6.6527     88.5426
   527.0000      0.0000    715.2672      6.4389    100.0279
   527.5000      0.0000    723.5275      6.3263    108.7223
   528.0000      0.0000    700.3353      6.2299    118.6968
