~Version Information
VERS.                      2.0: CWLS Log ASCII Standard - VERSION 2.0
WRAP.                       NO: One line per depth step
~Well Information Block
STRT.FT               -12.5000: 
STOP.FT              2487.7500: 
STEP.FT                 0.2500: 
NULL.                -999.2500: 
COMP.          Petrogulf Corporation: COMPANY
WELL.             Royal 8-33 V: WELL
FLD.           Purgatorie River: FIELD
LOC.           2365' FSL & 2336' FEL--: LOCATION
CNTY.               Las Animas: COUNTY
SRVC.                         : SERVICE COMPANY
DATE.          Sat Jan 17 11:43:49 2004: LOG DATE
UWI.           05 071 07934 00: UNIQUE WELL ID
STAT.                       CO: STATE
~Curve Information Block
DEPT.FT            0 000 00 00: Depth
CCL.                          : Casing Collar Locator
TT3.usec                      : CBL 3' Travel Time
AMP3.mV                       : CBL 3' Amplitude
GR.GAPI                       : Gamma Ray
~Parameter Information Block
~A  Depth       CCL         TT3         AMP3         GR     
# ...
   155.0000      0.0000    766.1816      9.7144     63.8543
   155.2500      0.0000    766.5907      9.5335     66.6788
   155.5000      0.0000    765.8264      9.4355     68.7374
   155.7500      0.0000    764.6683      9.4629     70.3757
   156.0000      0.0000    763.7295      9.6264     71.8932
   156.2500      0.0000    761.8812      9.8764     73.0124
   156.5000      0.0000    754.6445     10.1404     72.8521
   156.7500      0.0000    737.4489     10.3778     70.5922
   157.0000      0.0000    713.0470     10.5973     66.2768
   157.2500      0.0000    692.9736     10.8388     60.8786
   157.5000      0.0000    687.3557     11.1417     55.5809
   157.7500      0.0000    693.0396     11.5178     51.1621
   158.0000      4.0000    693.0473     11.9472     48.1411
   158.2500      0.0000    668.5212     12.3788     47.1443
   158.5000      0.0000    614.3267     12.7281     48.5863
   158.7500      0.0000    546.5657     12.8955     51.9313
   159.0000      0.0000    494.4075     12.8166     55.7147
   159.2500      0.0000    481.6694     12.4979     58.6185
   159.5000      0.0000    512.5156     12.0082     60.4533
   159.7500      0.0000    570.5364     11.4533     61.9060
   160.0000      0.0000    630.2167     10.9475     63.4887
   160.2500      0.0000    672.5658     10.5714     64.8867
   160.5000      0.0000    693.6138     10.3367     65.1227
   160.7500      0.0000    700.5908     10.1921     63.2953
   161.0000      0.0000    702.4580     10.0584     59.5200
   161.2500      0.0000    704.4068      9.8789     55.2184
   161.5000      0.0000    708.0970      9.6591     52.0695
   161.7500      0.0000    713.4499      9.4599     50.6191
   162.0000      0.0000    719.5407      9.3427     50.2690
   162.2500      0.0000    725.2410      9.3172     50.4749
   162.5000      0.0000    729.9200      9.3431     51.3628
   162.7500      0.0000    733.4822      9.3749     53.1354
   163.0000      0.0000    735.6901      9.3937     55.4310
   163.2500      0.0000    736.0146      9.3965     57.5329
   163.5000      0.0000    734.4688      9.3780     59.0331
   163.7500      0.0000    732.2453      9.3373     60.1684
   164.0000      0.0000    731.1813      9.2836     61.4964
   164.2500      0.0000    732.6774      9.2220     63.1777
   164.5000      0.0000    736.9733      9.1564     64.7304
   164.7500      0.0000    742.8032      9.1162     65.7077
   165.0000      0.0000    747.5046      9.1495     66.4999
   165.2500      0.0000    748.0445      9.2684     68.2307
   165.5000      0.0000    742.5008      9.4233     71.8709
   165.7500      0.0000    730.6606      9.5546     77.4190
   166.0000      0.0000    713.6226      9.6516     83.7524
   166.2500      0.0000    693.7956      9.7416     89.2982
   166.5000      0.0000    675.4797      9.8337     93.0809
   166.7500      0.0000    664.0980      9.8947     95.2613
   167.0000      0.0000    663.1875      9.8797     96.6489
   167.2500      0.0000    671.2979      9.7719     97.7236
   167.5000      0.0000    681.9503      9.5918     98.2272
   167.7500      0.0000    687.6908      9.3812     97.7247
   168.0000      0.0000    685.6947      9.1767     96.4824
   168.2500      0.0000    680.0825      8.9868     95.5789
   168.5000      0.0000    678.3588      8.7927     95.8311
   168.7500      0.0000    685.0164      8.5787     96.6104
   169.0000      0.0000    698.2688      8.3591     96.2383
   169.2500      0.0000    712.3453      8.1713     93.7655
   169.5000      0.0000    722.0336      8.0435     89.9038
   169.7500      0.0000    724.8780      7.9687     86.0291
   170.0000      0.0000    720.6876      7.9129     82.9539
   170.2500      0.0000    711.2899      7.8485     81.0225
   170.5000      0.0000    701.2354      7.7808     80.6010
   170.7500      0.0000    696.4534      7.7404     81.6910
   171.0000      0.0000    700.0506      7.7507     83.4534
   171.2500      0.0000    709.9003      7.7973     84.7592
   171.5000      0.0000    721.3727      7.8269     85.0868
   171.7500      0.0000    731.4055      7.7861     84.6986
   172.0000      0.0000    739.0823      7.6680     84.3196
   172.2500      0.0000    743.8333      7.5215     84.7322
   172.5000      0.0000    745.0225      7.4117     86.2540
   172.7500      0.0000    743.1975      7.3671     88.5499
   173.0000      0.0000    740.5038      7.3601     91.2952
   173.2500      0.0000    739.3831      7.3426     94.8206
   173.5000      0.0000    741.0114      7.2981     99.4933
   173.7500      0.0000    744.7056      7.2560    104.5269
   174.0000      0.0000    748.4863      7.2598    108.1566
   174.2500      0.0000    750.3881      7.3257    109.2591
   174.5000      0.0000    749.6396      7.4309    108.3049
   174.7500      0.0000    746.8024      7.5407    106.5688
   175.0000      0.0000    743.0817      7.6419    104.9183
   175.2500      0.0000    739.7169      7.7426    103.5014
   175.5000      0.0000    737.7226      7.8462    102.1116
   175.7500      0.0000    737.7213      7.9415    100.4000
   176.0000      0.0000    739.3892      8.0155     97.8679
   176.2500      0.0000    740.5266      8.0691     94.0988
   176.5000      0.0000    736.7028      8.1147     89.1968
   176.7500      0.0000    723.4109      8.1673     83.8195
   177.0000      0.0000    700.9621      8.2351     78.7764
   177.2500      0.0000    677.8119      8.3187     74.8157
   177.5000      0.0000    666.2910      8.4213     72.6337
   177.7500      0.0000    672.1317      8.5586     72.6064
   178.0000      0.0000    688.6072      8.7507     74.3505
   178.2500      0.0000    701.5806      9.0098     76.7247
   178.5000      0.0000    698.1608      9.3503     78.3315
   178.7500      0.0000    670.6811      9.8089     78.1505
   179.0000      0.0000    617.9714     10.4396     76.0330
   179.2500      0.0000    547.3939     11.2905     72.7394
   179.5000      0.0000    473.9991     12.3707     69.4234
   179.7500      0.0000    413.7280     13.5991     66.9621
   180.0000      0.0000    376.0544     14.7671     65.5828
   180.2500      0.0000    363.0976     15.6120     64.8365
   180.5000      0.0000    373.4112     16.0052     63.9515
   180.7500      0.0000    403.2510     16.0772     62.5321
   181.0000      0.0000    444.1527     16.1027     61.0436
   181.2500      0.0000    482.9093     16.2532     60.3816
   181.5000      0.0000    506.3280     16.5043     60.7813
   181.7500      0.0000    506.0419     16.7669     61.3851
   182.0000      0.0000    481.0983     17.0226     61.1303
   182.2500      0.0000    440.1689     17.2934     59.9001
   182.5000      0.0000    399.9618     17.5307     58.6818
   182.7500     -4.0000    376.1981     17.5916     58.9356
   183.0000      0.0000    374.2556     17.3611     61.8929
   183.2500      0.0000    389.7608     16.8947     67.9406
   183.5000      0.0000    417.5829     16.3919     76.2929
   183.7500      0.0000    458.3059     15.9855     85.2806
   184.0000      0.0000    514.8862     15.5961     93.1769
   184.2500      0.0000    583.4090     15.0557     99.0702
   184.5000      0.0000    648.7739     14.3371    103.1488
   184.7500      0.0000    692.0566     13.5845    105.9867
   185.0000      0.0000    703.6926     12.9569    107.5330
   185.2500      0.0000    690.1677     12.5239    107.1445
   185.5000      0.0000    669.0613     12.2923    104.6093
   185.7500      0.0000    657.8431     12.2523    100.6345
   186.0000      0.0000    664.6742     12.3780     96.2260
   186.2500      0.0000    685.6440     12.6210     92.1389
   186.5000      0.0000    708.3224     12.9366     89.1680
   186.7500      0.0000    718.7841     13.3040     88.4772
   187.0000      0.0000    707.1006     13.7168     91.0351
   187.2500      0.0000    669.5124     14.1639     96.5794
   187.5000      0.0000    610.3741     14.6264    103.2892
   187.7500      0.0000    545.1359     15.0765    108.6971
   188.0000      0.0000    498.3922     15.4734    111.1928
   188.2500      0.0000    492.0510     15.7767    111.0182
