~Version Information
VERS.                      2.0: CWLS Log ASCII Standard - VERSION 2.0
WRAP.                       NO: One line per depth step
~Well Information Block
STRT.FT                15.0000: 
STOP.FT              2409.7500: 
STEP.FT                 0.2500: 
NULL.                -999.2500: 
COMP.          Pioneer Natural Resources: COMPANY
WELL.          Oink Oink 14-36: WELL
FLD.           Purgatoire River: FIELD
LOC.           216' FSL & 263' FWL: LOCATION
PROV.                 Colorado: PROVINCE
CNTY.               Las Animas: COUNTRY
SRVC.                Patterson: SERVICE COMPANY
DATE.          Wed Jun 22 11:05:26 2005: LOG DATE
UWI.           05 071 08394 00: UNIQUE WELL ID
~Curve Information Block
DEPT.FT            0 000 00 00: Depth
GR.GAPI                       : Gamma Ray
CCL.                          : Casing Collar Locator
TT3.usec                      : CBL 3' Travel Time
AMP3.mV                       : CBL 3' Amplitude
~Parameter Information Block
~A  Depth        GR         CCL         TT3         AMP3    
# ...
  1120.5000    106.2325      0.0000    605.3987      5.6951
  1120.7500     99.1809      0.0000    631.6222      5.6868
  1121.0000     92.6095      0.0000    655.1750      5.6359
  1121.2500     86.7014      0.0000    674.9245      5.5493
  1121.5000     81.9833      0.0000    689.8074      5.4578
  1121.7500     79.4761      0.0000    698.9432      5.3996
  1122.0000     79.9793      0.0000    702.0554      5.3942
  1122.2500     83.3283      0.0000    700.1830      5.4350
  1122.5000     88.4799      0.0000    695.6970      5.5037
  1122.7500     94.1397      0.0000    691.1096      5.5850
  1123.0000     99.3546      0.0000    687.7401      5.6690
  1123.2500    103.9142      0.0000    685.3723      5.7462
  1123.5000    108.4331      0.0000    682.3283      5.8110
  1123.7500    113.8816      0.0000    675.4146      5.8656
  1124.0000    120.6920      0.0000    661.3328      5.9103
  1124.2500    128.0332      0.0000    640.4360      5.9256
  1124.5000    133.9858      0.0000    619.1511      5.8729
  1124.7500    136.8409      0.0000    606.5978      5.7255
  1125.0000    136.5273      0.0000    607.7899      5.5106
  1125.2500    134.6409      0.0000    620.4942      5.3124
  1125.5000    132.7410      0.0000    637.7018      5.2168
  1125.7500    130.8137      0.0000    651.5745      5.2409
  1126.0000    127.9340      0.0000    656.2589      5.3229
  1126.2500    124.1609      0.0000    650.1792      5.3846
  1126.5000    120.8842      0.0000    637.1644      5.4006
  1126.7500    119.3196      3.0000    624.2095      5.4098
  1127.0000    119.3031      2.9929    617.1026      5.4745
  1127.2500    119.4241      0.0000    617.9105      5.6269
  1127.5000    118.0600      0.0000    625.3242      5.8331
  1127.7500    114.8133      0.0000    635.8802      5.9963
  1128.0000    111.2498      0.0000    645.2049      6.0153
  1128.2500    109.6289      0.0000    649.7098      5.8646
  1128.5000    110.6911      0.0000    647.8671      5.6151
  1128.7500    113.1428      0.0000    640.2778      5.3677
  1129.0000    115.1894      0.0000    629.4615      5.1745
  1129.2500    115.9130      0.0000    619.9352      5.0291
  1129.5000    115.1481      0.0000    616.9693      4.9069
  1129.7500    113.0048      0.0000    623.4877      4.7928
  1130.0000    110.1508      0.0000    637.8695      4.6770
  1130.2500    107.8955      0.0000    654.7820      4.5496
  1130.5000    107.0474      0.0000    667.7204      4.4101
  1130.7500    106.8326      0.0000    671.8199      4.2726
  1131.0000    105.5224      0.0000    666.9786      4.1511
  1131.2500    102.1800      0.0000    659.1260      4.0454
  1131.5000     97.6007      0.0000    656.2934      3.9466
  1131.7500     93.5521      0.0000    662.0323      3.8503
  1132.0000     91.1947      0.0000    673.2486      3.7559
  1132.2500     90.1798      0.0000    684.1548      3.6579
  1132.5000     89.0594      0.0000    690.5814      3.5488
  1132.7500     86.4364      0.0000    690.7048      3.4321
  1133.0000     81.9165      0.0000    684.3209      3.3266
  1133.2500     76.3532      0.0000    673.4017      3.2530
  1133.5000     71.3484      0.0000    662.1779      3.2170
  1133.7500     68.3006      0.0000    654.6141      3.2052
  1134.0000     67.6382      0.0000    651.7648      3.1945
  1134.2500     68.7696      0.0000    652.3652      3.1706
  1134.5000     70.6174      0.0000    654.7907      3.1424
  1134.7500     72.2832      0.0000    657.2723      3.1337
  1135.0000     73.4136      0.0000    658.0736      3.1569
  1135.2500     74.0815      0.0000    657.5444      3.1985
  1135.5000     74.5161      0.0000    658.6927      3.2368
  1135.7500     75.0919      0.0000    663.9457      3.2672
  1136.0000     76.3770      0.0000    672.2922      3.3024
  1136.2500     78.9541      0.0000    680.4502      3.3562
  1136.5000     83.2273      0.0000    685.5162      3.4357
  1136.7500     89.3632      0.0000    685.7979      3.5462
  1137.0000     97.2498      0.0000    680.5358      3.6930
  1137.2500    106.4224      0.0000    670.2824      3.8751
  1137.5000    116.1561      0.0000    657.2955      4.0791
  1137.7500    125.7236      0.0000    644.4341      4.2823
  1138.0000    134.3754      0.0000    633.5004      4.4667
  1138.2500    140.9399      0.0000    625.3616      4.6284
  1138.5000    143.9789      0.0000    621.1992      4.7719
  1138.7500    142.9734      0.0000    621.0782      4.8978
  1139.0000    139.2679      0.0000    619.9136      4.9982
  1139.2500    135.4437      0.0000    608.0120      5.0645
  1139.5000    133.6251      0.0000    579.7648      5.0953
  1139.7500    134.1822      0.0000    541.3994      5.0960
  1140.0000    135.6800      0.0000    507.8943      5.0718
  1140.2500    135.9875      0.0000    492.4782      5.0244
  1140.5000    133.7354      0.0000    499.3096      4.9542
  1140.7500    129.1117      0.0000    523.3299      4.8626
  1141.0000    123.7689      0.0000    554.7542      4.7516
  1141.2500    120.1293      0.0000    585.0911      4.6225
  1141.5000    120.1237      0.0000    611.3217      4.4750
  1141.7500    123.5089      0.0000    635.1522      4.3095
  1142.0000    127.0926      0.0000    658.6187      4.1356
  1142.2500    126.3837      0.0000    680.8501      3.9781
  1142.5000    118.9303      0.0000    699.2819      3.8690
  1142.7500    106.3461      0.0000    713.5081      3.8298
  1143.0000     92.9945      0.0000    726.6979      3.8650
  1143.2500     82.7267      0.0000    742.2855      3.9768
  1143.5000     76.9881      0.0000    759.5288      4.1804
  1143.7500     75.6475      0.0000    772.8220      4.5018
  1144.0000     78.5420      0.0000    775.5206      4.9655
  1144.2500     85.4691      0.0000    764.7268      5.5866
  1144.5000     95.1457      0.0000    743.5325      6.3709
  1144.7500    105.0563      0.0000    719.8657      7.3099
  1145.0000    112.6541      0.0000    702.8101      8.3584
  1145.2500    116.7281      0.0000    697.7568      9.4070
  1145.5000    117.7979      0.0000    703.0065     10.2862
  1145.7500    117.3472      0.0000    711.0760     10.8223
  1146.0000    116.6691      0.0000    714.8621     10.9157
  1146.2500    116.3949      0.0000    713.3091     10.5879
  1146.5000    116.8419      0.0000    710.7197      9.9673
  1146.7500    118.0998      0.0000    711.0698      9.2275
  1147.0000    119.4912      0.0000    714.3284      8.5162
  1147.2500    119.6495      0.0000    717.8322      7.9076
  1147.5000    117.7364      0.0000    718.9078      7.3996
  1147.7500    114.5298      0.0000    715.6682      6.9534
  1148.0000    112.1727      0.0000    707.6010      6.5413
  1148.2500    112.7153      0.0000    696.5412      6.1700
  1148.5000    116.6697      0.0000    685.1818      5.8701
  1148.7500    122.8135      0.0000    673.9080      5.6701
  1149.0000    129.1544      0.0000    660.9371      5.5771
  1149.2500    134.0049      0.0000    646.4885      5.5749
  1149.5000    136.5428      0.0000    635.0928      5.6350
  1149.7500    136.8528      0.0000    632.2321      5.7270
  1150.0000    135.6078      0.0000    638.3994      5.8256
  1150.2500    133.6889      0.0000    646.2094      5.9179
  1150.5000    131.8933      0.0000    644.0603      6.0015
  1150.7500    130.5419      0.0000    625.2120      6.0752
  1151.0000    129.1291      0.0000    594.3482      6.1298
  1151.2500    126.5936      0.0000    563.6606      6.1536
  1151.5000    122.2635      0.0000    542.1681      6.1473
  1151.7500    116.7016      0.0000    530.4270      6.1280
  1152.0000    111.5814      0.0000    524.6496      6.1132
  1152.2500    108.4276      0.0000    522.0618      6.1038
  1152.5000    107.2266      0.0000    520.9608      6.0869
  1152.7500    106.4689      0.0000    519.0273      6.0551
  1153.0000    104.9014      0.0000    514.5176      6.0159
  1153.2500    103.1774      0.0000    508.2656      5.9825
  1153.5000    103.3773      0.0000    502.7339      5.9608
  1153.7500    106.7581      0.0000    499.4727      5.9460
