~Version Information
VERS.                      2.0: CWLS Log ASCII Standard - VERSION 2.0
WRAP.                       NO: One line per depth step
~Well Information Block
STRT.FT               -14.0000: 
STOP.FT              2531.7500: 
STEP.FT                 0.2500: 
NULL.                -999.2500: 
COMP.          Petrogulf Corporation: COMPANY
WELL.            Lavedure 7-44: WELL
FLD.           Purgatorie River: FIELD
LOC.           969' FSL & 501' FEL--: LOCATION
PROV.                       CO: PROVINCE
CNTY.               Las Animas: COUNTRY
SRVC.          Patterson Wireline: SERVICE COMPANY
DATE.          Wed Dec 10 09:23:08 2003: LOG DATE
UWI.                          : UNIQUE WELL ID
~Curve Information Block
DEPT.FT            0 000 00 00: Depth
CCL.                          : Casing Collar Locator
TT3.usec                      : CBL 3' Travel Time
AMP3.mV                       : CBL 3' Amplitude
GR.GAPI                       : Gamma Ray
~Parameter Information Block
~A  Depth       CCL         TT3         AMP3         GR     
# ...
  1996.0000      0.0000    762.1199      1.5210     85.0125
  1996.2500      0.0000    772.0630      1.5189     90.1126
  1996.5000      0.0000    774.9349      1.4774     93.3594
  1996.7500      0.0000    770.1055      1.4137     94.2362
  1997.0000      0.0000    759.0887      1.3483     93.1570
  1997.2500      0.0000    744.8651      1.2955     91.5045
  1997.5000      0.0000    731.1757      1.2625     90.6894
  1997.7500      0.0000    721.7548      1.2546     90.7222
  1998.0000      0.0000    719.4598      1.2766     90.0035
  1998.2500      0.0000    725.0406      1.3287     86.8357
  1998.5000      0.0000    736.4227      1.3987     81.0486
  1998.7500      0.0000    749.9832      1.4617     74.2015
  1999.0000      0.0000    762.6310      1.4887     68.5583
  1999.2500      0.0000    772.0435      1.4622     65.9253
  1999.5000      0.0000    775.7809      1.3902     67.0994
  1999.7500      0.0000    772.4763      1.3072     71.9884
  2000.0000     -2.0000    764.3405      1.2534     79.8980
  2000.2500      0.0000    756.2631      1.2477     89.5449
  2000.5000      0.0000    751.0122      1.2794     99.0997
  2000.7500      0.0000    746.4774      1.3229    106.8066
  2001.0000      0.0000    738.7578      1.3546    111.9637
  2001.2500      0.0000    727.0388      1.3605    115.3195
  2001.5000      0.0000    714.3122      1.3384    118.1370
  2001.7500      0.0000    704.0300      1.3015    120.4558
  2002.0000      0.0000    697.4124      1.2729    120.4270
  2002.2500      0.0000    693.7561      1.2707    116.0333
  2002.5000      0.0000    692.2020      1.2926    107.8238
  2002.7500      0.0000    693.0212      1.3183     99.4502
  2003.0000      0.0000    698.0322      1.3267     94.8211
  2003.2500      0.0000    709.8980      1.3104     94.7094
  2003.5000      0.0000    729.7162      1.2761     96.5837
  2003.7500      0.0000    754.0233      1.2359     97.6603
  2004.0000      0.0000    774.8118      1.2009     97.4271
  2004.2500      0.0000    784.4978      1.1812     97.0388
  2004.5000      0.0000    781.7892      1.1841     97.3112
  2004.7500      0.0000    772.0621      1.2087     98.1536
  2005.0000      0.0000    761.8237      1.2470     99.3061
  2005.2500      0.0000    753.8395      1.2921    100.5626
  2005.5000      0.0000    748.0731      1.3398    101.4763
  2005.7500      0.0000    745.7417      1.3825    101.5946
  2006.0000      0.0000    749.9105      1.4115    101.0193
  2006.2500      0.0000    760.9905      1.4281    100.4988
  2006.5000      0.0000    772.9319      1.4430    101.1505
  2006.7500      0.0000    776.2992      1.4587    103.9613
  2007.0000      0.0000    766.1556      1.4638    108.9163
  2007.2500      0.0000    746.0975      1.4472    114.4752
  2007.5000      0.0000    724.4601      1.4108    118.4061
  2007.7500      0.0000    707.7589      1.3663    119.3414
  2008.0000      0.0000    697.7748      1.3241    117.4880
  2008.2500      0.0000    692.9801      1.2904    114.2051
  2008.5000      0.0000    691.1180      1.2695    111.1582
  2008.7500      0.0000    690.6271      1.2644    109.3961
  2009.0000      0.0000    690.8018      1.2760    108.8546
  2009.2500      0.0000    691.4608      1.3045    108.8368
  2009.5000      0.0000    692.6115      1.3521    108.8379
  2009.7500      0.0000    694.2048      1.4235    108.6707
  2010.0000      0.0000    695.9764      1.5199    108.3645
  2010.2500      0.0000    697.4158      1.6323    108.5843
  2010.5000      0.0000    697.8010      1.7487    110.6345
  2010.7500      0.0000    696.3199      1.8709    115.0457
  2011.0000      0.0000    692.4856      2.0116    120.2810
  2011.2500      0.0000    686.8954      2.1645    123.7687
  2011.5000      0.0000    681.6107      2.2873    124.3819
  2011.7500      0.0000    679.2197      2.3328    123.3260
  2012.0000      0.0000    680.9683      2.2939    122.5411
  2012.2500      0.0000    685.7816      2.2059    122.7920
  2012.5000      0.0000    691.2562      2.1108    123.4028
  2012.7500      0.0000    695.5110      2.0327    123.1879
  2013.0000      0.0000    698.0894      1.9810    121.3561
  2013.2500      0.0000    699.5788      1.9585    118.1193
  2013.5000      0.0000    700.9316      1.9601    114.8227
  2013.7500      0.0000    703.1215      1.9630    113.2016
  2014.0000      0.0000    706.8629      1.9313    114.3290
  2014.2500      0.0000    712.1356      1.8425    118.2077
  2014.5000      0.0000    717.9645      1.7129    123.9752
  2014.7500      0.0000    722.9884      1.5865    130.2637
  2015.0000      0.0000    726.3412      1.4972    135.6418
  2015.2500      0.0000    727.9177      1.4477    139.0225
  2015.5000      0.0000    727.9377      1.4237    139.8196
  2015.7500      0.0000    726.5815      1.4131    138.1079
  2016.0000      0.0000    724.1476      1.4086    134.8925
  2016.2500      0.0000    721.3248      1.4034    131.7549
  2016.5000      0.0000    718.9533      1.3946    129.6608
  2016.7500      0.0000    717.5815      1.3880    128.1926
  2017.0000      0.0000    717.8210      1.3939    126.2001
  2017.2500      0.0000    721.0588      1.4146    123.0495
  2017.5000      0.0000    728.5797      1.4367    119.0339
  2017.7500      0.0000    739.2835      1.4401    114.8503
  2018.0000      0.0000    749.3131      1.4215    111.0104
  2018.2500      0.0000    755.0513      1.4043    107.6105
  2018.5000      0.0000    756.0792      1.4188    104.3890
  2018.7500      0.0000    754.5560      1.4718    101.0542
  2019.0000      0.0000    752.3160      1.5419     97.7523
  2019.2500      1.8591    749.2999      1.6032     95.2044
  2019.5000      0.0000    744.2338      1.6547     94.2243
  2019.7500      0.0000    736.2077      1.7242     95.1116
  2020.0000      0.0000    725.9813      1.8322     97.5874
  2020.2500      0.0000    715.9467      1.9494    101.0679
  2020.5000      0.0000    708.4482      2.0095    104.6762
  2020.7500      0.0000    704.1413      1.9760    107.1778
  2021.0000      0.0000    702.0380      1.8828    107.3832
  2021.2500      0.0000    700.6530      1.7939    104.7639
  2021.5000      0.0000    698.9167      1.7423     99.7048
  2021.7500      0.0000    696.5923      1.7227     93.4740
  2022.0000      0.0000    694.3812      1.7217     88.0215
  2022.2500      0.0000    693.4048      1.7287     85.3107
  2022.5000      0.0000    694.1218      1.7287     86.2119
  2022.7500      0.0000    695.7960      1.7080     89.8315
  2023.0000      0.0000    697.1967      1.6675     94.0382
  2023.2500      0.0000    697.6385      1.6225     96.8643
  2023.5000      0.0000    697.1887      1.5911     97.6785
  2023.7500      0.0000    696.1281      1.5881     97.2714
  2024.0000      0.0000    694.4376      1.6196     97.0204
  2024.2500      0.0000    691.7629      1.6716     98.0214
  2024.5000      0.0000    687.9515      1.7105    100.7943
  2024.7500      0.0000    683.8246      1.7093    105.2938
  2025.0000      0.0000    681.2180      1.6708    110.8661
  2025.2500      0.0000    681.6659      1.6208    116.3327
  2025.5000      0.0000    684.8853      1.5879    120.4869
  2025.7500      0.0000    688.9100      1.5844    122.7427
  2026.0000      0.0000    691.8201      1.6012    123.4784
  2026.2500      0.0000    693.1552      1.6186    123.7038
  2026.5000      0.0000    693.9641      1.6212    124.0366
  2026.7500      0.0000    696.0625      1.6025    123.9921
  2027.0000      0.0000    701.1137      1.5639    122.5771
  2027.2500      0.0000    709.5013      1.5134    119.6112
  2027.5000      0.0000    719.3375      1.4632    116.2770
  2027.7500      0.0000    726.7742      1.4214    114.3276
  2028.0000      0.0000    728.3174      1.3866    114.5682
  2028.2500      0.0000    723.7001      1.3542    115.8971
  2028.5000      0.0000    716.3497      1.3290    115.9092
  2028.7500      0.0000    710.4642      1.3257    112.6463
  2029.0000      0.0000    707.7036      1.3554    105.9857
  2029.2500      0.0000    706.9019      1.4145     97.5704
