~Version Information
VERS.                      2.0: CWLS Log ASCII Standard - VERSION 2.0
WRAP.                       NO: One line per depth step
~Well Information Block
STRT.FT               575.0000: 
STOP.FT              2016.2500: 
STEP.FT                 0.2500: 
NULL.                -999.2500: 
COMP.          Pioneer Natural Resources: COMPANY
WELL.          Bucksnort 41-35: WELL
FLD.           Purgatoire River: FIELD
LOC.           117' FNL & 463' FEL--: LOCATION
PROV.                 Colorado: PROVINCE
CNTY.               Las Animas: COUNTRY
SRVC.                Patterson: SERVICE COMPANY
DATE.          Thu Jul 21 10:13:55 2005: LOG DATE
UWI.           05 071 08401 00: UNIQUE WELL ID
~Curve Information Block
DEPT.FT            0 000 00 00: Depth
SN.Ohm-m                      : IEL Short Normal
SP.mV                         : IEL Spontaneous Potential
DIR.Ohm-m                     : IEL Induction Resistivity
GR.GAPI                       : Gamma Ray
~Parameter Information Block
~A  Depth        SN          SP         DIR          GR     
# ...
  1613.5000     12.5506     87.7692     11.3785    164.5216
  1613.7500     12.6306     87.6217     11.4534    160.9292
  1614.0000     12.8105     87.4716     11.5643    157.6669
  1614.2500     13.0955     87.3140     11.7342    157.4239
  1614.5000     13.4722     87.1402     11.9842    158.9382
  1614.7500     13.9129     86.9401     12.3251    159.9314
  1615.0000     14.3815     86.7049     12.7504    159.3882
  1615.2500     14.8396     86.4297     13.2353    157.0766
  1615.5000     15.2568     86.1158     13.7417    150.7202
  1615.7500     15.6222     85.7708     14.2306    145.0925
  1616.0000     15.9468     85.4082     14.6747    136.3888
  1616.2500     16.2534     85.0443     15.0636    131.8380
  1616.5000     16.5554     84.6948     15.3974    128.7228
  1616.7500     16.8387     84.3705     15.6740    129.1416
  1617.0000     17.0613     84.0742     15.8790    131.9420
  1617.2500     17.1730     83.7979     15.9862    134.2584
  1617.5000     17.1447     83.5228     15.9687    137.7920
  1617.7500     16.9823     83.2205     15.8141    140.3383
  1618.0000     16.7190     82.8574     15.5337    144.5046
  1618.2500     16.3956     82.3995     15.1585    147.2178
  1618.5000     16.0464     81.8186     14.7284    150.6723
  1618.7500     15.6987     81.0971     14.2830    152.5633
  1619.0000     15.3767     80.2307     13.8582    155.2392
  1619.2500     15.1029     79.2285     13.4866    157.1871
  1619.5000     14.8944     78.1109     13.1946    160.4130
  1619.7500     14.7617     76.9055     13.0004    162.5193
  1620.0000     14.7098     75.6434     12.9113    164.9212
  1620.2500     14.7403     74.3558     12.9246    165.5889
  1620.5000     14.8502     73.0722     13.0299    164.6364
  1620.7500     15.0310     71.8207     13.2116    162.7059
  1621.0000     15.2714     70.6286     13.4529    158.7134
  1621.2500     15.5677     69.5223     13.7402    155.9895
  1621.5000     15.9342     68.5271     14.0674    152.2860
  1621.7500     16.4080     67.6652     14.4372    149.9361
  1622.0000     17.0422     66.9531     14.8592    146.5434
  1622.2500     17.8832     66.3996     15.3469    144.6187
  1622.5000     18.9369     66.0048     15.9150    142.3277
  1622.7500     20.1403     65.7626     16.5741    140.6978
  1623.0000     21.3602     65.6645     17.3220    136.7938
  1623.2500     22.4333     65.7060     18.1326    132.7465
  1623.5000     23.2249     65.8931     18.9480    124.6329
  1623.7500     23.6748     66.2466     19.6851    118.2925
  1624.0000     23.8107     66.8035     20.2612    108.2824
  1624.2500     23.7306     67.6123     20.6256    101.8032
  1624.5000     23.5625     68.7246     20.7750     93.5003
  1624.7500     23.4016     70.1830     20.7386     89.8470
  1625.0000     23.2552     72.0088     20.5483     88.8885
  1625.2500     23.0378     74.1928     20.2170     91.7012
  1625.5000     22.6277     76.6909     19.7390    100.2008
  1625.7500     21.9434     79.4267     19.1093    107.5785
  1626.0000     20.9911     82.3004     18.3465    119.2247
  1626.2500     19.8646     85.2010     17.5024    126.3378
  1626.5000     18.7096     88.0210     16.6512    134.2831
  1626.7500     17.6763     90.6686     15.8682    137.0041
  1627.0000     16.8805     93.0768     15.2109    137.0986
  1627.2500     16.3850     95.2070     14.7106    135.1664
  1627.5000     16.1970     97.0480     14.3729    131.1555
  1627.7500     16.2737     98.6107     14.1841    128.9102
  1628.0000     16.5349     99.9207     14.1184    127.4180
  1628.2500     16.8885    101.0100     14.1452    127.5771
  1628.5000     17.2609    101.9102     14.2344    128.2866
  1628.7500     17.6166    102.6477     14.3598    128.2939
  1629.0000     17.9519    103.2425     14.5021    127.1342
  1629.2500     18.2743    103.7093     14.6515    125.9768
  1629.5000     18.5873    104.0607     14.8099    125.0390
  1629.7500     18.8878    104.3103     14.9878    125.4882
  1630.0000     19.1754    104.4751     15.1983    127.1601
  1630.2500     19.4615    104.5765     15.4507    127.8019
  1630.5000     19.7729    104.6381     15.7497    126.4218
  1630.7500     20.1480    104.6829     16.1005    124.0647
  1631.0000     20.6278    104.7297     16.5131    120.4361
  1631.2500     21.2426    104.7900     17.0020    119.2624
  1631.5000     21.9958    104.8672     17.5824    120.0364
  1631.7500     22.8558    104.9561     18.2641    121.7237
  1632.0000     23.7669    105.0450     19.0503    124.7203
  1632.2500     24.6767    105.1181     19.9361    126.2268
  1632.5000     25.5627    105.1577     20.9099    125.8776
  1632.7500     26.4363    105.1470     21.9518    122.8420
  1633.0000     27.3205    105.0710     23.0314    113.9663
  1633.2500     28.2228    104.9179     24.1069    106.4003
  1633.5000     29.1238    104.6789     25.1318     95.6711
  1633.7500     29.9850    104.3476     26.0689     90.4482
  1634.0000     30.7658    103.9181     26.9052     86.7351
  1634.2500     31.4346    103.3840     27.6536     86.6442
  1634.5000     31.9716    102.7357     28.3374     87.7215
  1634.7500     32.3711    101.9609     28.9666     87.5998
  1635.0000     32.6390    101.0447     29.5273     84.7826
  1635.2500     32.7848     99.9748     29.9902     81.6169
  1635.5000     32.8132     98.7485     30.3298     76.9930
  1635.7500     32.7262     97.3821     30.5356     75.0113
  1636.0000     32.5342     95.9197     30.6088     74.0951
  1636.2500     32.2635     94.4372     30.5547     74.4415
  1636.5000     31.9488     93.0396     30.3835     75.3765
  1636.7500     31.6187     91.8464     30.1149     75.7943
  1637.0000     31.2874     90.9695     29.7765     75.6759
  1637.2500     30.9582     90.4861     29.3941     75.1594
  1637.5000     30.6266     90.4150     28.9820     74.2410
  1637.7500     30.2788     90.7050     28.5442     73.8381
  1638.0000     29.8863     91.2408     28.0805     73.7543
  1638.2500     29.4034     91.8674     27.5901     73.9548
  1638.5000     28.7777     92.4259     27.0664     74.1694
  1638.7500     27.9746     92.7919     26.4878     73.9223
  1639.0000     27.0076     92.9024     25.8192     72.9154
  1639.2500     25.9475     92.7654     25.0318     72.4780
  1639.5000     24.8983     92.4477     24.1292     74.4409
  1639.7500     23.9512     92.0491     23.1555     78.8097
  1640.0000     23.1445     91.6701     22.1741     90.4716
  1640.2500     22.4548     91.3868     21.2345    100.4895
  1640.5000     21.8197     91.2379     20.3535    115.0117
  1640.7500     21.1759     91.2262     19.5190    121.8981
  1641.0000     20.4888     91.3312     18.7095    125.6332
  1641.2500     19.7619     91.5239     17.9134    124.3089
  1641.5000     19.0308     91.7799     17.1394    120.6722
  1641.7500     18.3488     92.0864     16.4143    119.8552
  1642.0000     17.7709     92.4419     15.7715    123.1455
  1642.2500     17.3377     92.8528     15.2394    127.6061
  1642.5000     17.0659     93.3265     14.8357    134.8700
  1642.7500     16.9528     93.8671     14.5679    138.8907
  1643.0000     16.9927     94.4710     14.4369    142.9935
  1643.2500     17.1942     95.1255     14.4405    144.2034
  1643.5000     17.5831     95.8068     14.5731    142.8331
  1643.7500     18.1845     96.4813     14.8245    139.3051
  1644.0000     18.9968     97.1067     15.1786    130.1726
  1644.2500     19.9755     97.6366     15.6134    122.2200
  1644.5000     21.0386     98.0280     16.1015    109.3774
  1644.7500     22.0815     98.2517     16.6065    101.3006
  1645.0000     22.9825     98.3023     17.0758     91.0483
  1645.2500     23.6006     98.2058     17.4315     85.5937
  1645.5000     23.7949     98.0209     17.5734     79.3978
  1645.7500     23.4783     97.8307     17.4049     76.7916
  1646.0000     22.6703     97.7278     16.8772     76.3429
  1646.2500     21.4949     97.7948     16.0235     79.2701
  1646.5000     20.1131     98.0864     14.9486     89.2581
  1646.7500     18.6415     98.6193     13.7810     98.9674
