~Version Information
VERS.                      2.0: CWLS Log ASCII Standard - VERSION 2.0
WRAP.                       NO: One line per depth step
~Well Information Block
STRT.FT               300.0000: 
STOP.FT               871.2500: 
STEP.FT                 0.2500: 
NULL.                -999.2500: 
COMP.          Pioneer Natural Resources: COMPANY
WELL.            Hustler 12-17: WELL
FLD.           Purgatoire River: FIELD
LOC.           2150' FNL & 450' FWL: LOCATION
PROV.                 Colorado: PROVINCE
CNTY.               Las Animas: COUNTRY
SRVC.                Patterson: SERVICE COMPANY
DATE.          Mon Dec 20 09:25:34 2004: LOG DATE
UWI.           05 071 08236 00: UNIQUE WELL ID
~Curve Information Block
DEPT.FT            0 000 00 00: Depth
SN.Ohm-m                      : IEL Short Normal
SP.mV                         : IEL Spontaneous Potential
DIR.Ohm-m                     : IEL Induction Resistivity
GR.GAPI                       : Gamma Ray
~Parameter Information Block
~A  Depth        SN          SP         DIR          GR     
# ...
   702.0000    645.9807   -800.0005     21.2552    101.5982
   702.2500    645.9807   -800.0005     21.2710    101.2893
   702.5000    645.9807   -800.0005     21.2151    100.8266
   702.7500    645.9807   -800.0005     21.0728    100.9619
   703.0000    645.9807   -800.0005     20.8991    102.0227
   703.2500    645.9807   -800.0005     20.7803    103.0603
   703.5000    645.9807   -800.0005     20.7752    104.7322
   703.7500    645.9807   -800.0005     20.8811    105.7873
   704.0000    645.9807   -800.0005     21.0431    106.7846
   704.2500    645.9807   -800.0005     21.1935    106.6971
   704.5000    645.9807   -800.0005     21.2953    105.3010
   704.7500    645.9807   -800.0005     21.3618    103.8045
   705.0000    645.9807   -800.0005     21.4467    101.4457
   705.2500    645.9807   -800.0005     21.6110    100.2036
   705.5000    645.9807   -800.0005     21.8831     99.2390
   705.7500    645.9807   -800.0005     22.2261     99.2127
   706.0000    645.9807   -800.0005     22.5387    100.0805
   706.2500    645.9807   -800.0005     22.7103    101.4440
   706.5000    645.9807   -800.0005     22.7044    105.0754
   706.7500    645.9807   -800.0005     22.5898    108.4584
   707.0000    645.9807   -800.0005     22.4840    113.6635
   707.2500    645.9807   -800.0005     22.4688    115.9189
   707.5000    645.9807   -800.0005     22.5509    115.5799
   707.7500    645.9807   -800.0005     22.6824    112.7470
   708.0000    645.9807   -800.0005     22.8122    106.3724
   708.2500    645.9807   -800.0005     22.9256    102.2535
   708.5000    645.9807   -800.0005     23.0423     98.1752
   708.7500    645.9807   -800.0005     23.1813     97.1627
   709.0000    645.9807   -800.0005     23.3292     97.7263
   709.2500    645.9807   -800.0005     23.4410     98.9911
   709.5000    645.9807   -800.0005     23.4675    101.2644
   709.7500    645.9807   -800.0005     23.3854    102.3796
   710.0000    645.9807   -800.0005     23.2062    102.4181
   710.2500    645.9807   -800.0005     22.9684    101.1627
   710.5000    645.9807   -800.0005     22.7229     98.0583
   710.7500    645.9807   -800.0005     22.5139     95.8687
   711.0000    645.9807   -800.0005     22.3630     93.4026
   711.2500    645.9807   -800.0005     22.2600     92.6913
   711.5000    645.9807   -800.0005     22.1682     93.2908
   711.7500    645.9807   -800.0005     22.0447     94.6225
   712.0000    645.9807   -800.0005     21.8662     97.3174
   712.2500    645.9807   -800.0005     21.6496     99.2345
   712.5000    645.9807   -800.0005     21.4486    101.9348
   712.7500    645.9807   -800.0005     21.3281    103.3878
   713.0000    645.9807   -800.0005     21.3313    104.6200
   713.2500    645.9807   -800.0005     21.4590    104.7570
   713.5000    645.9807   -800.0005     21.6725    104.2914
   713.7500    645.9807   -800.0005     21.9125    103.7711
   714.0000    645.9807   -800.0005     22.1236    102.6774
   714.2500    645.9807   -800.0005     22.2680    101.5656
   714.5000    645.9807   -800.0005     22.3283     99.4159
   714.7500    645.9807   -800.0005     22.3033     98.1777
   715.0000    645.9807   -800.0005     22.2083     97.6383
   715.2500    645.9807   -800.0005     22.0734     98.2166
   715.5000    645.9807   -800.0005     21.9361     99.5949
   715.7500    645.9807   -800.0005     21.8282    100.4143
   716.0000    645.9807   -800.0005     21.7660    101.8756
   716.2500    645.9807   -800.0005     21.7459    103.6248
   716.5000    645.9807   -800.0005     21.7465    107.8307
   716.7500    645.9807   -800.0005     21.7372    111.2075
   717.0000    645.9807   -800.0005     21.6949    115.6105
   717.2500    645.9807   -800.0005     21.6213    117.3297
   717.5000    645.9807   -800.0005     21.5425    117.5635
   717.7500    645.9807   -800.0005     21.4880    116.4149
   718.0000    645.9807   -800.0005     21.4683    113.9693
   718.2500    645.9807   -800.0005     21.4697    112.6705
   718.5000    645.9807   -800.0005     21.4669    111.8355
   718.7500    645.9807   -800.0005     21.4395    111.7142
   719.0000    645.9807   -800.0005     21.3818    111.2907
   719.2500    645.9807   -800.0005     21.3044    110.7839
   719.5000    645.9807   -800.0005     21.2292    110.5569
   719.7500    645.9807   -800.0005     21.1801    111.2372
   720.0000    645.9807   -800.0005     21.1710    113.3344
   720.2500    645.9807   -800.0005     21.2021    114.9291
   720.5000    645.9807   -800.0005     21.2686    116.8709
   720.7500    645.9807   -800.0005     21.3754    117.7358
   721.0000    645.9807   -800.0005     21.5427    118.4805
   721.2500    645.9807   -800.0005     21.7957    118.6223
   721.5000    645.9807   -800.0005     22.1466    118.1093
   721.7500    645.9807   -800.0005     22.5846    117.2133
   722.0000    645.9807   -800.0005     23.0800    115.2790
   722.2500    645.9807   -800.0005     23.5980    113.7445
   722.5000    645.9807   -800.0005     24.1088    110.9283
   722.7500    645.9807   -800.0005     24.5890    108.6473
   723.0000    645.9807   -800.0005     25.0148    105.2217
   723.2500    645.9807   -800.0005     25.3531    103.4582
   723.5000    645.9807   -800.0005     25.5591    101.7755
   723.7500    645.9807   -800.0005     25.5874    100.9561
   724.0000    645.9807   -800.0005     25.4155     99.7312
   724.2500    645.9807   -800.0005     25.0608     99.0716
   724.5000    645.9807   -800.0005     24.5742     98.9819
   724.7500    645.9807   -800.0005     24.0183     99.7229
   725.0000    645.9807   -800.0005     23.4492    101.8105
   725.2500    645.9807   -800.0005     22.9100    103.6246
   725.5000    645.9807   -800.0005     22.4286    106.7540
   725.7500    645.9807   -800.0005     22.0176    108.9952
   726.0000    645.9807   -800.0005     21.6777    112.2827
   726.2500    645.9807   -800.0005     21.4058    114.2897
   726.5000    645.9807   -800.0005     21.2034    116.9846
   726.7500    645.9807   -800.0005     21.0776    118.5104
   727.0000    645.9807   -800.0005     21.0348    119.8626
   727.2500    645.9807   -800.0005     21.0732    119.6477
   727.5000    645.9807   -800.0005     21.1788    117.1571
   727.7500    645.9807   -800.0005     21.3260    114.2697
   728.0000    645.9807   -800.0005     21.4797    109.3013
   728.2500    645.9807   -800.0005     21.6004    106.4528
   728.5000    645.9807   -800.0005     21.6547    103.9467
   728.7500    645.9807   -800.0005     21.6334    103.5317
   729.0000    645.9807   -800.0005     21.5649    104.2329
   729.2500    645.9807   -800.0005     21.5098    105.1595
   729.5000    645.9807   -800.0005     21.5371    106.4278
   729.7500    645.9807   -800.0005     21.7000    106.5995
   730.0000    645.9807   -800.0005     22.0221    105.1542
   730.2500    645.9807   -800.0005     22.4960    103.3135
   730.5000    645.9807   -800.0005     23.0882    100.7509
   730.7500    645.9807   -800.0005     23.7491    100.0045
   731.0000    645.9807   -800.0005     24.4263    100.4834
   731.2500    645.9807   -800.0005     25.0758    101.2185
   731.5000    645.9807   -800.0005     25.6637    101.5341
   731.7500    645.9807   -800.0005     26.1567    100.7460
   732.0000    645.9807   -800.0005     26.5177     98.2321
   732.2500    645.9807   -800.0005     26.7141     96.2370
   732.5000    645.9807   -800.0005     26.7315     94.1360
   732.7500    645.9807   -800.0005     26.5767     94.0338
   733.0000    645.9807   -800.0005     26.2625     96.1580
   733.2500    645.9807   -800.0005     25.7938     98.5866
   733.5000    645.9807   -800.0005     25.1725    102.2022
   733.7500    645.9807   -800.0005     24.4211    103.8494
   734.0000    645.9807   -800.0005     23.6027    104.8288
   734.2500    645.9807   -800.0005     22.8113    104.7541
   734.5000    645.9807   -800.0005     22.1360    104.1873
   734.7500    645.9807   -800.0005     21.6270    103.7511
   735.0000    645.9807   -800.0005     21.2876    103.4221
   735.2500    645.9807   -800.0005     21.0887    103.7744
