~Version Information
VERS.                      2.0: CWLS Log ASCII Standard - VERSION 2.0
WRAP.                       NO: One line per depth step
~Well Information Block
STRT.FT                -2.7500: 
STOP.FT              2139.2500: 
STEP.FT                 0.2500: 
NULL.                -999.2500: 
COMP.          Petrogulf Corporation: COMPANY
WELL.             State 16-34V: WELL
FLD.           Purgatorie River: FIELD
LOC.           1146' FSL & 1393' FEL: LOCATION
PROV.                 Colorado: PROVINCE
CNTY.               Las Animas: COUNTRY
SRVC.          Patterson Wireline: SERVICE COMPANY
DATE.          Wed Jun 25 13:16:42 2003: LOG DATE
UWI.           05 071 07724 00: UNIQUE WELL ID
~Curve Information Block
DEPT.FT            0 000 00 00: Depth
CCL.                          : Casing Collar Locator
TT3.usec                      : CBL 3' Travel Time
AMP3.mV                       : CBL 3' Amplitude
GR.GAPI                       : Gamma Ray
~Parameter Information Block
~A  Depth       CCL         TT3         AMP3         GR     
# ...
  1672.2500      0.0000    740.6851      3.7612    128.5198
  1672.5000      0.0000    743.2565      3.8116    130.1046
  1672.7500      0.0000    745.8817      3.8459    131.6921
  1673.0000      0.0000    747.6743      3.9134    132.8167
  1673.2500      0.0000    748.5883      3.9768    133.0023
  1673.5000      0.0000    749.0006      3.9738    132.2273
  1673.7500      0.0000    749.2332      3.9068    130.9863
  1674.0000      0.0000    749.4347      3.8457    129.5765
  1674.2500      0.0000    749.7322      3.8453    127.6591
  1674.5000      0.0000    750.3124      3.8782    125.0303
  1674.7500      0.0000    751.1605      3.8553    122.6874
  1675.0000      0.0000    751.4677      3.7102    122.4877
  1675.2500      0.0000    749.7266      3.4637    125.4608
  1675.5000      0.0000    745.6376      3.2023    130.7018
  1675.7500      0.0000    742.3348      2.9977    136.0456
  1676.0000      0.0000    744.9886      2.8597    139.5297
  1676.2500      0.0000    755.6542      2.7650    140.1954
  1676.5000      0.0000    770.5548      2.7116    138.1645
  1676.7500      0.0000    783.6211      2.7360    134.5710
  1677.0000      0.0000    791.6873      2.8754    131.2110
  1677.2500      0.0000    795.6127      3.1085    129.5294
  1677.5000      0.0000    797.7997      3.3346    129.5257
  1677.7500      0.0000    799.5244      3.4199    129.8430
  1678.0000      0.0000    799.8342      3.2910    129.3133
  1678.2500      0.0000    796.4681      3.0021    128.2684
  1678.5000      0.0000    788.3140      2.7058    127.9334
  1678.7500      0.0000    776.8879      2.5305    128.7204
  1679.0000      0.0000    764.8051      2.4817    129.5924
  1679.2500      0.0000    753.5121      2.4664    128.8864
  1679.5000      0.0000    743.4833      2.4114    125.4583
  1679.7500      0.0000    735.6980      2.3365    119.4694
  1680.0000      0.0000    731.3820      2.3025    112.4417
  1680.2500      0.0000    730.4215      2.3169    106.2825
  1680.5000      0.0000    730.8344      2.3235    102.2090
  1680.7500      0.0000    730.0721      2.2753    100.7422
  1681.0000      0.0000    727.2097      2.1901    102.2973
  1681.2500      0.0000    724.5244      2.1228    107.0937
  1681.5000      0.0000    726.6943      2.0929    114.3539
  1681.7500      0.0000    737.2111      2.0674    122.1837
  1682.0000      0.0000    754.3845      2.0329    128.9444
  1682.2500      0.0000    771.1574      2.0566    134.5236
  1682.5000      0.0000    780.6086      2.2287    139.6015
  1682.7500      0.0000    782.4279      2.5407    143.8657
  1683.0000      0.0000    782.7299      2.8602    145.7367
  1683.2500      0.0000    786.5888      3.0581    143.8985
  1683.5000      0.0000    791.8669      3.1546    138.6163
  1683.7500      0.0000    791.3641      3.3104    131.4874
  1684.0000      0.0000    780.4683      3.6605    124.3551
  1684.2500     -2.0000    761.8752      4.1683    118.6712
  1684.5000     -2.0000    742.5299      4.6651    115.3827
  1684.7500      0.0000    725.8631      5.0315    114.7845
  1685.0000      0.0000    708.1284      5.3282    116.5004
  1685.2500      0.0000    684.1973      5.7328    119.8765
  1685.5000      0.0000    656.6045      6.3434    124.1957
  1685.7500      0.0000    635.3563      7.0647    128.4852
  1686.0000      0.0000    625.9609      7.7197    131.5574
  1686.2500      0.0000    619.7817      8.2565    132.4458
  1686.5000      0.0000    600.0699      8.7729    130.9393
  1686.7500      0.0000    558.0833      9.3336    128.1790
  1687.0000      0.0000    501.7086      9.8701    126.7132
  1687.2500      0.0000    448.2437     10.3105    128.8828
  1687.5000      0.0000    410.5128     10.7183    134.4670
  1687.7500      0.0000    390.2828     11.2148    140.4721
  1688.0000      0.0000    381.9846     11.7992    143.7109
  1688.2500      0.0000    379.2768     12.3281    143.0474
  1688.5000      0.0000    378.1899     12.6926    139.1002
  1688.7500      0.0000    376.7330     12.9563    132.9748
  1689.0000      0.0000    373.6620     13.2751    126.0004
  1689.2500      0.0000    368.0542     13.7028    119.9049
  1689.5000      0.0000    359.8225     14.1371    116.2517
  1689.7500      0.0000    350.1645     14.4606    115.5449
  1690.0000      0.0000    340.9769     14.6864    116.9908
  1690.2500      0.0000    333.7466     14.9302    119.1532
  1690.5000      0.0000    329.1061     15.2494    121.0289
  1690.7500      0.0000    327.0878     15.5565    122.6029
  1691.0000      0.0000    327.2311     15.7244    124.3651
  1691.2500      0.0000    328.5531     15.7578    126.4728
  1691.5000      0.0000    329.9456     15.8170    128.4633
  1691.7500      0.0000    330.7674     16.0498    129.5283
  1692.0000      0.0000    330.9662     16.4234    128.9879
  1692.2500      0.0000    330.7253     16.7526    126.6794
  1692.5000      0.0000    330.1075     16.8933    123.0629
  1692.7500      0.0000    329.0154     16.8785    119.0267
  1693.0000      0.0000    327.4745     16.8430    115.5903
  1693.2500      0.0000    325.8878     16.8477    113.4206
  1693.5000      0.0000    324.7399     16.8232    112.4232
  1693.7500      0.0000    323.8791     16.6843    112.1497
  1694.0000      0.0000    322.4460     16.4540    112.7995
  1694.2500      0.0000    320.0042     16.2432    115.4462
  1694.5000      0.0000    317.7037     16.1115    120.9622
  1694.7500      0.0000    317.9527     15.9910    128.7988
  1695.0000      0.0000    322.7647     15.7656    136.9584
  1695.2500      0.0000    332.3155     15.4021    143.2777
  1695.5000      0.0000    344.7485     14.9748    146.8348
  1695.7500      0.0000    357.0886     14.5772    148.1105
  1696.0000      0.0000    366.5778     14.2470    147.8749
  1696.2500      0.0000    371.6596     13.9852    146.2770
  1696.5000      0.0000    372.1355     13.8098    143.2286
  1696.7500      0.0000    368.9594     13.7484    139.4222
  1697.0000      0.0000    364.3141     13.7779    136.5183
  1697.2500      0.0000    361.6995     13.8131    136.1193
  1697.5000      0.0000    365.4206     13.7778    138.5539
  1697.7500      0.0000    380.4077     13.6627    142.6648
  1698.0000      0.0000    412.7600     13.4948    146.7216
  1698.2500      0.0000    467.9434     13.2818    149.4304
  1698.5000      0.0000    544.4743     13.0190    150.2784
  1698.7500      0.0000    629.1669     12.7340    149.5683
  1699.0000      0.0000    702.4747     12.4859    148.4234
  1699.2500      0.0000    750.7763     12.3138    148.0867
  1699.5000      0.0000    773.1265     12.2161    148.5343
  1699.7500      0.0000    777.3060     12.1921    148.1328
  1700.0000      0.0000    771.4049     12.2671    145.2357
  1700.2500      0.0000    757.8795     12.4425    139.8903
  1700.5000      0.0000    733.0183     12.6554    133.5420
  1700.7500      0.0000    693.0507     12.8298    127.3845
  1701.0000      0.0000    643.5389     12.9559    121.5326
  1701.2500      0.0000    601.7239     13.0850    115.5750
  1701.5000      0.0000    585.1583     13.2500    109.3112
  1701.7500      0.0000    596.8036     13.4155    102.9688
  1702.0000      0.0000    623.1503     13.5079     97.1978
  1702.2500      0.0000    645.0765     13.4969     93.1186
  1702.5000      0.0000    647.4189     13.4346     92.0018
  1702.7500      0.0000    622.8828     13.4025     94.3069
  1703.0000      0.0000    576.3580     13.4412     98.9780
  1703.2500      0.0000    527.8892     13.5609    104.0880
  1703.5000      0.0000    504.5611     13.7897    108.2949
  1703.7500      0.0000    522.2509     14.1449    111.5770
  1704.0000      0.0000    572.6351     14.5532    114.9099
  1704.2500      0.0000    628.5878     14.8651    119.6302
  1704.5000      0.0000    664.2709     14.9946    126.5725
  1704.7500      0.0000    671.6345     15.0172    134.9517
  1705.0000      0.0000    657.9819     15.0905    142.0531
  1705.2500      0.0000    631.6338     15.2781    144.7055
  1705.5000      0.0000    596.2296     15.4713    141.6425
