~Version Information
VERS.                      2.0: CWLS Log ASCII Standard - VERSION 2.0
WRAP.                       NO: One line per depth step
~Well Information Block
STRT.FT               768.0000: 
STOP.FT              2637.5000: 
STEP.FT                 0.2500: 
NULL.                -999.2500: 
COMP.          Pioneer Natural Resources: COMPANY
WELL.               Zink 44-10: WELL
FLD.           Purgatoire River: FIELD
LOC.           548' FSL & 473' FEL: LOCATION
PROV.                 Colorado: PROVINCE
CNTY.               Las Animas: COUNTRY
SRVC.                Patterson: SERVICE COMPANY
DATE.          Mon May 30 05:59:42 2005: LOG DATE
UWI.           05 071 08380 00: UNIQUE WELL ID
~Curve Information Block
DEPT.FT            0 000 00 00: Depth
SN.Ohm-m                      : IEL Short Normal
SP.mV                         : IEL Spontaneous Potential
DIR.Ohm-m                     : IEL Induction Resistivity
GR.GAPI                       : Gamma Ray
~Parameter Information Block
~A  Depth        SN          SP         DIR          GR     
# ...
  2376.0000     21.1621    -14.9180     18.5005     84.7140
  2376.2500     21.1559    -15.0407     18.1344     83.7207
  2376.5000     21.1288    -15.2204     17.8013     84.7921
  2376.7500     21.1115    -15.4809     17.5456     87.0265
  2377.0000     21.1632    -15.8468     17.3929     91.3079
  2377.2500     21.3316    -16.3430     17.3498     93.8510
  2377.5000     21.6151    -16.9968     17.4093     96.1015
  2377.7500     21.9319    -17.8360     17.5553     96.4270
  2378.0000     22.1882    -18.8788     17.7690     95.8515
  2378.2500     22.3703    -20.1187     18.0332     95.4265
  2378.5000     22.4845    -21.5112     18.3344     95.3941
  2378.7500     22.4797    -22.9721     18.6579     95.5508
  2379.0000     22.3126    -24.3949     18.9808     94.8341
  2379.2500     22.0542    -25.6866     19.2737     92.9907
  2379.5000     21.8806    -26.7984     19.5139     87.7059
  2379.7500     21.9687    -27.7281     19.6991     82.8447
  2380.0000     22.4621    -28.4958     19.8472     74.9108
  2380.2500     23.4753    -29.1196     19.9828     70.1759
  2380.5000     24.9361    -29.6085     20.1242     65.4578
  2380.7500     26.4737    -29.9650     20.2786     64.5099
  2381.0000     27.6640    -30.1876     20.4418     66.5299
  2381.2500     28.3120    -30.2770     20.5993     69.6251
  2381.5000     28.4516    -30.2522     20.7317     75.2490
  2381.7500     28.1956    -30.1662     20.8252     78.7684
  2382.0000     27.6041    -30.1029     20.8803     82.9985
  2382.2500     26.6758    -30.1389     20.9062     85.1430
  2382.5000     25.4656    -30.2987     20.9039     87.6519
  2382.7500     24.1618    -30.5444     20.8497     88.9515
  2383.0000     23.0066    -30.8126     20.7007     90.1105
  2383.2500     22.1537    -31.0589     20.4256     90.0653
  2383.5000     21.6202    -31.2697     20.0390     88.7918
  2383.7500     21.3453    -31.4425     19.6043     87.7694
  2384.0000     21.2381    -31.5692     19.2009     87.4523
  2384.2500     21.2031    -31.6420     18.8850     88.3948
  2384.5000     21.1989    -31.6654     18.6759     90.7757
  2384.7500     21.2507    -31.6570     18.5665     92.2554
  2385.0000     21.3727    -31.6349     18.5419     93.5659
  2385.2500     21.5339    -31.6093     18.5903     93.8094
  2385.5000     21.7107    -31.5850     18.6972     93.3169
  2385.7500     21.9030    -31.5614     18.8348     92.3655
  2386.0000     22.0857    -31.5242     18.9578     90.1237
  2386.2500     22.1873    -31.4408     19.0178     88.4745
  2386.5000     22.1329    -31.2754     18.9887     86.5965
  2386.7500     21.9307    -31.0116     18.8836     85.9643
  2387.0000     21.6995    -30.6587     18.7459     85.8410
  2387.2500     21.5506    -30.2384     18.6210     86.2217
  2387.5000     21.4775    -29.7708     18.5322     87.4772
  2387.7500     21.4024    -29.2769     18.4749     88.6612
  2388.0000     21.2778    -28.7928     18.4314     90.3345
  2388.2500     21.1165    -28.3717     18.3914     90.9772
  2388.5000     20.9558    -28.0632     18.3648     91.1577
  2388.7500     20.8194    -27.8812     18.3769     91.1305
  2389.0000     20.7161    -27.7930     18.4521     91.5404
  2389.2500     20.6629    -27.7393     18.5969     92.0980
  2389.5000     20.6969    -27.6709     18.7951     92.5975
  2389.7500     20.8812    -27.5728     19.0179     92.1846
  2390.0000     21.2933    -27.4591     19.2420     89.9709
  2390.2500     21.9881    -27.3559     19.4614     87.3694
  2390.5000     23.0050    -27.2894     19.6845     81.6356
  2390.7500     24.3871    -27.2819     19.9213     76.4204
  2391.0000     26.1210    -27.3410     20.1698     66.5017
  2391.2500     28.1416    -27.4478     20.4108     59.0081
  2391.5000     30.4203    -27.5633     20.6147     48.3674
  2391.7500     32.8979    -27.6510     20.7598     43.0706
  2392.0000     35.2738    -27.6932     20.8466     39.7777
  2392.2500     36.9782    -27.6851     20.8976     41.2061
  2392.5000     37.4910    -27.6217     20.9411     48.3356
  2392.7500     36.7199    -27.5003     20.9967     55.4143
  2393.0000     35.0120    -27.3363     21.0711     66.9853
  2393.2500     32.8302    -27.1635     21.1580     73.8147
  2393.5000     30.5129    -27.0085     21.2344     80.9807
  2393.7500     28.2944    -26.8622     21.2628     83.4816
  2394.0000     26.3762    -26.6867     21.2050     84.6188
  2394.2500     24.9088    -26.4560     21.0410     84.3618
  2394.5000     23.9563    -26.1873     20.7786     83.4242
  2394.7500     23.4942    -25.9335     20.4510     82.7816
  2395.0000     23.4044    -25.7489     20.1104     82.3413
  2395.2500     23.4994    -25.6660     19.8189     82.6894
  2395.5000     23.6144    -25.6919     19.6332     84.1977
  2395.7500     23.6799    -25.8163     19.5862     85.5594
  2396.0000     23.6996    -26.0204     19.6752     87.6159
  2396.2500     23.6988    -26.2883     19.8649     88.8215
  2396.5000     23.6951    -26.6185     20.1066     89.8974
  2396.7500     23.6856    -27.0218     20.3617     89.6847
  2397.0000     23.6648    -27.5022     20.6192     87.7122
  2397.2500     23.6599    -28.0361     20.8953     85.7348
  2397.5000     23.7328    -28.5756     21.2197     82.9084
  2397.7500     23.9529    -29.0751     21.6179     81.4147
  2398.0000     24.3660    -29.5183     22.1000     79.4336
  2398.2500     24.9806    -29.9189     22.6614     77.9557
  2398.5000     25.7943    -30.3026     23.2952     75.1656
  2398.7500     26.7969    -30.6903     24.0021     72.8152
  2399.0000     27.9288    -31.0955     24.7884     68.3941
  2399.2500     29.1130    -31.5265     25.6482     64.8897
  2399.5000     30.3396    -31.9800     26.5477     59.2260
  2399.7500     31.6690    -32.4344     27.4272     55.4436
  2400.0000     33.1758    -32.8550     28.2235     49.9657
  2400.2500     34.8949    -33.2096     28.8978     46.6054
  2400.5000     36.7630    -33.4820     29.4505     42.7064
  2400.7500     38.6120    -33.6781     29.9169     41.3310
  2401.0000     40.2551    -33.8252     30.3508     41.3790
  2401.2500     41.5858    -33.9603     30.8026     42.6085
  2401.5000     42.5978    -34.1096     31.3029     45.4297
  2401.7500     43.3118    -34.2750     31.8553     47.3023
  2402.0000     43.6959    -34.4424     32.4393     49.0116
  2402.2500     43.6852    -34.6020     33.0114     49.1454
  2402.5000     43.2823    -34.7606     33.5058     48.2593
  2402.7500     42.6124    -34.9355     33.8440     47.4725
  2403.0000     41.8762    -35.1400     33.9674     46.7478
  2403.2500     41.2565    -35.3747     33.8810     46.7330
  2403.5000     40.8372    -35.6272     33.6697     47.1735
  2403.7500     40.5904    -35.8746     33.4645     47.4286
  2404.0000     40.4465    -36.0835     33.3832     47.2125
  2404.2500     40.3630    -36.2103     33.4859     46.5747
  2404.5000     40.3396    -36.2091     33.7652     45.0639
  2404.7500     40.4093    -36.0444     34.1575     43.8620
  2405.0000     40.6175    -35.7013     34.5625     42.0066
  2405.2500     40.9705    -35.1854     34.8692     40.8388
  2405.5000     41.3953    -34.5191     34.9953     39.4674
  2405.7500     41.7910    -33.7452     34.9312     39.1205
  2406.0000     42.1105    -32.9346     34.7488     40.0515
  2406.2500     42.3283    -32.1815     34.5581     41.6816
  2406.5000     42.3764    -31.5784     34.4426     44.8560
  2406.7500     42.2038    -31.1854     34.4188     46.8326
  2407.0000     41.8412    -31.0143     34.4390     49.1281
  2407.2500     41.3204    -31.0302     34.4228     50.3202
  2407.5000     40.6199    -31.1633     34.2955     51.7416
  2407.7500     39.7569    -31.3309     34.0116     52.3137
  2408.0000     38.8536    -31.4622     33.5618     52.3632
  2408.2500     38.0790    -31.5124     32.9669     51.9524
  2408.5000     37.5728    -31.4583     32.2683     51.3186
  2408.7500     37.4173    -31.2934     31.5203     51.3172
  2409.0000     37.6109    -31.0365     30.7816     52.1455
  2409.2500     38.0520    -30.7443     30.1051     52.9508
