~Version Information
VERS.                      2.0: CWLS Log ASCII Standard - VERSION 2.0
WRAP.                       NO: One line per depth step
~Well Information Block
STRT.FT               -12.5000: 
STOP.FT              2742.5000: 
STEP.FT                 0.2500: 
NULL.                -999.2500: 
COMP.          Pioneer Natural Resources: COMPANY
WELL.            Rangely 22-28: WELL
FLD.           Purgatorie River: FIELD
LOC.           720' FSL & 1036' FEL--: LOCATION
PROV.                       CO: PROVINCE
CNTY.               Las Animas: COUNTRY
SRVC.                         : SERVICE COMPANY
DATE.          Wed Nov 10 08:59:10 2004: LOG DATE
UWI.                          : UNIQUE WELL ID
~Curve Information Block
DEPT.FT            0 000 00 00: Depth
GR.GAPI                       : Gamma Ray
CCL.                          : Casing Collar Locator
TT3.usec                      : CBL 3' Travel Time
AMP3.mV                       : CBL 3' Amplitude
~Parameter Information Block
~A  Depth        GR         CCL         TT3         AMP3    
# ...
   892.0000    151.9948      0.0000    684.5639      6.3846
   892.2500    157.9657      0.0000    689.8331      6.4338
   892.5000    163.6500      0.0000    710.6376      6.4705
   892.7500    168.3246      0.0000    738.3832      6.4795
   893.0000    170.7940      0.0000    761.8695      6.4603
   893.2500    170.0472      0.0000    774.3755      6.4204
   893.5000    166.6114      0.0000    776.5043      6.3677
   893.7500    162.2195      0.0000    773.2180      6.3090
   894.0000    157.7739      0.0000    769.1354      6.2494
   894.2500    152.5336      0.0000    766.3173      6.1932
   894.5000    145.8492      0.0000    764.8569      6.1499
   894.7500    139.1156      0.0000    764.2137      6.1355
   895.0000    135.3561      0.0000    763.9485      6.1614
   895.2500    136.8560      0.0000    763.8489      6.2226
   895.5000    143.1241      0.0000    763.8246      6.2950
   895.7500    150.7195      0.0000    763.8177      6.3457
   896.0000    155.2422      0.0000    763.7584      6.3491
   896.2500    154.3045      0.0000    763.5786      6.3006
   896.5000    148.9138      0.0000    763.2471      6.2171
   896.7500    141.9838      0.0000    762.7902      6.1253
   897.0000    136.0621      0.0000    762.2781      6.0485
   897.2500    132.5092      0.0000    761.7816      6.0016
   897.5000    131.5845      0.0000    761.3220      5.9867
   897.7500    132.5039      0.0000    760.8500      5.9884
   898.0000    133.7913      0.0000    760.2802      5.9782
   898.2500    133.9008      0.0000    759.5627      5.9328
   898.5000    131.5837      0.0000    758.7279      5.8535
   898.7500    126.2242      0.0000    757.8654      5.7683
   899.0000    118.4778      0.0000    757.0694      5.7146
   899.2500    110.3979      0.0000    756.3978      5.7154
   899.5000    104.1528      0.0000    755.8583      5.7652
   899.7500    100.2829      0.0000    755.4086      5.8330
   900.0000     97.4992      0.0000    754.9750      5.8819
   900.2500     94.2374      0.0000    754.5003      5.8982
   900.5000     89.9917      0.0000    753.9968      5.9019
   900.7500     85.1650      0.0000    753.5534      5.9261
   901.0000     80.4785      0.0000    753.2824      5.9813
   901.2500     76.8676      0.0000    753.2560      6.0427
   901.5000     75.1611      0.0000    753.4932      6.0732
   901.7500     75.2626      0.0000    753.9910      6.0593
   902.0000     75.9171      0.0000    754.7720      6.0200
   902.2500     75.5913      0.0000    755.9566      5.9857
   902.5000     73.6863      0.0000    757.9114      5.9752
   902.7500     71.1183      0.0000    761.3264      5.9947
   903.0000     69.8228      0.0000    766.8641      6.0453
   903.2500     71.4103      0.0000    774.3969      6.1189
   903.5000     75.7800      0.0000    782.8313      6.1899
   903.7500     80.8068      0.0000    791.5573      6.2276
   904.0000     83.6845      0.0000    802.3376      6.2255
   904.2500     83.0302      0.0000    818.6088      6.2143
   904.5000     79.8486      0.0000    841.6344      6.2377
   904.7500     76.5875      0.0000    867.5511      6.3142
   905.0000     75.5409      0.0000    889.0788      6.4214
   905.2500     77.7309      0.0000    899.8824      6.5130
   905.5000     82.3999      0.0000    897.0545      6.5493
   905.7500     87.4387      0.0000    881.1086      6.5176
   906.0000     91.1064      0.0000    855.6992      6.4307
   906.2500     93.6305      0.0000    826.9898      6.3126
   906.5000     96.5538      0.0000    801.2809      6.1873
   906.7500    100.5214      0.0000    782.2123      6.0776
   907.0000    104.6834      0.0000    770.0737      6.0064
   907.2500    108.3430      0.0000    763.1025      5.9904
   907.5000    111.7935      0.0000    758.8933      6.0292
   907.7500    114.9696      0.0000    755.2115      6.1009
   908.0000    116.3442      0.0000    750.7275      6.1720
   908.2500    114.0067      0.0000    745.7872      6.2124
   908.5000    107.6176      0.0000    742.3152      6.2056
   908.7500     99.1984      0.0000    742.1992      6.1440
   909.0000     92.2665      0.0000    745.5448      6.0136
   909.2500     89.8739      0.0000    751.0164      5.7864
   909.5000     92.7284      0.0000    758.2179      5.4340
   909.7500     98.7341      0.0000    769.2744      4.9580
   910.0000    104.4302      0.0000    787.0624      4.4074
   910.2500    107.1412      0.0000    811.0468      3.8554
   910.5000    106.1939      0.0000    835.1288      3.3530
   910.7500    102.6588      0.0000    850.6509      2.9073
   911.0000     98.3226      0.0000    851.8542      2.5012
   911.2500     94.8070      0.0000    838.7477      2.1246
   911.5000     93.0596      0.0000    816.8224      1.7854
   911.7500     93.0852      0.0000    795.1968      1.5001
   912.0000     94.2047      0.0000    782.3192      1.2820
   912.2500     95.8346      0.0000    780.2244      1.1326
   912.5000     97.9303      0.0000    783.3570      1.0384
   912.7500    100.5849      0.0000    784.6138      0.9760
   913.0000    103.4465      0.0000    781.6155      0.9259
   913.2500    105.7037      0.0000    776.1241      0.8840
   913.5000    106.6158      0.0000    769.7658      0.8610
   913.7500    105.9423      0.0000    763.0717      0.8706
   914.0000    103.8830      0.0000    757.6626      0.9175
   914.2500    100.7749      0.0000    756.8740      0.9968
   914.5000     96.9160      0.0000    763.5258      1.1070
   914.7500     92.4441      0.0000    777.4012      1.2613
   915.0000     87.2545      0.0000    794.4603      1.4795
   915.2500     81.3175      0.0000    808.4040      1.7694
   915.5000     75.2910      0.0000    814.5137      2.1239
   915.7500     70.6847      0.0000    813.0931      2.5393
   916.0000     69.2034      0.0000    808.9533      3.0389
   916.2500     71.7263      0.0000    807.6757      3.6664
   916.5000     77.7232      0.0000    812.5269      4.4455
   916.7500     85.4803      0.0000    823.0874      5.3393
   917.0000     93.0699      0.0000    834.7888      6.2488
   917.2500     99.4599      0.0000    840.9056      7.0515
   917.5000    104.9924      0.0000    837.6091      7.6479
   917.7500    110.9226      0.0000    827.4214      7.9904
   918.0000    118.4292      0.0000    816.5785      8.0887
   918.2500    127.5912      0.0000    809.4568      7.9996
   918.5000    137.0702      0.0000    806.2929      7.8073
   918.7500    144.9998      0.0000    805.0458      7.5993
   919.0000    150.3417      0.0000    803.6703      7.4351
   919.2500    153.2910      0.0000    800.7386      7.3176
   919.5000    154.6128      0.0000    795.3951      7.1910
   919.7500    155.1438      0.0000    787.7158      6.9858
   920.0000    155.7925      0.0000    779.0174      6.6827
   920.2500    157.1777      0.0000    771.2268      6.3347
   920.5000    158.9673      0.0000    765.6520      6.0264
   920.7500    159.9545      0.0000    762.3584      5.8124
   921.0000    159.0277      0.0000    760.6013      5.6934
   921.2500    156.2390      0.0000    759.5862      5.6383
   921.5000    153.1340      0.0000    758.8533      5.6182
   921.7500    151.8228      0.0000    758.2512      5.6196
   922.0000    153.3776      0.0000    757.7785      5.6376
   922.2500    156.9790      0.0000    757.4658      5.6640
   922.5000    160.5043      0.0000    757.3105      5.6841
   922.7500    161.7863      0.0000    757.2548      5.6850
   923.0000    159.4850      0.0000    757.2104      5.6679
   923.2500    153.5223      0.0000    757.1274      5.6462
   923.5000    145.3948      0.0000    757.0476      5.6309
   923.7500    137.7603      0.0000    757.0815      5.6237
   924.0000    133.0166      0.0000    757.3636      5.6275
   924.2500    132.0979      0.0000    758.0743      5.6543
   924.5000    134.4230      0.0000    759.5076      5.7124
   924.7500    138.2928      0.0000    761.9651      5.7903
   925.0000    141.3260      0.0000    765.3554      5.8673
   925.2500    141.6038      0.0000    768.9948      5.9414
