~Version Information
 VERS.                                  2.0 : CWLS LAS VERSION
 WRAP.                                   NO : WRAPING MODE
 SWARE .                 MController 2.5.0N : SOFTWARE VERSION
~Well Information
 WELL.                           King 22-13 : WELL
 COMP.    Pioneer Natural Resources USA Inc : COMPANY
 FLD.                      Purgatoire River : FIELD
 LOC.                SE/NW Sec 13 T32S R66W : LOCATION
 DATE.                           3/30-31/05 : DATE(S) LOGGED
 SRVC.       Blanco Geological Services LLC : SERVICE COMPANY
 STAT.                                   CO : STATE
 CNTY.                           Las Animas : COUNTY
 CTRY.                                  USA : COUNTRY
 API.                       05-071-08318-00 : API NUMBER
 STRT.FT                             603.00 : START DEPTH
 STOP.FT                            2185.00 : STOP DEPTH
 STEP.FT                               1.00 : DEPTH INCREMENT
 NULL.                                -9999 : NULL VALUE
~Curve information
 DEPTH.FT                                   :
 ROP.MIN/FT                                 :
 GAS.UNITS                                  :
~ASCII Log data
# ...
      1203.0         0.47       3619.4 
      1204.0         0.47       3603.4 
      1205.0         0.53       3482.0 
      1206.0         0.53       3285.7 
      1207.0         0.60       3539.9 
      1208.0         0.48       3924.0 
      1209.0         0.43       4133.0 
      1210.0         0.30       4093.8 
      1211.0         0.30       3923.6 
      1212.0         0.33       3821.6 
      1213.0         0.33       3672.7 
      1214.0         0.50       3619.4 
      1215.0         0.50       3711.7 
      1216.0         0.48       3845.8 
      1217.0         0.40       3933.1 
      1218.0         0.43       3980.9 
      1219.0         0.43       3949.8 
      1220.0         0.33       3864.1 
      1221.0         0.33       3858.2 
      1222.0         0.37       3825.5 
      1223.0         0.37       3720.8 
      1224.0         0.40       3478.7 
      1225.0         0.55       3050.5 
      1226.0         5.85       8723.9 
      1227.0         0.65       2569.3 
      1228.0         0.53       2965.8 
      1229.0         0.47       3282.4 
      1230.0         0.43       3383.2 
      1231.0         0.37       3377.0 
      1232.0         0.30       3358.7 
      1233.0         0.33       3364.2 
      1234.0         0.33       3318.4 
      1235.0         0.35       3109.4 
      1236.0         0.30       3137.5 
      1237.0         0.33       3380.9 
      1238.0         0.33       3449.0 
      1239.0         0.30       3485.3 
      1240.0         0.23       3534.7 
      1241.0         0.23       3586.4 
      1242.0         0.27       3600.1 
      1243.0         0.30       3619.4 
      1244.0         0.30       3628.6 
      1245.0         0.30       3584.4 
      1246.0         0.33       3395.6 
      1247.0         0.28       3152.2 
      1248.0         0.30       2850.3 
      1249.0         0.33       2836.2 
      1250.0         0.47       2821.2 
      1251.0         0.53       3949.8 
      1252.0         0.27       4908.4 
      1253.0         0.30       5755.0 
      1254.0         0.30       6390.0 
      1255.0         0.53       6868.3 
      1256.0         2.32       6943.6 
      1257.0         0.27       2101.1 
      1258.0         0.27       2480.3 
      1259.0         0.20       2728.2 
      1260.0         0.17       3060.3 
      1261.0         0.13       3125.4 
      1262.0         0.22       3298.8 
      1263.0         0.20       3370.8 
      1264.0         0.23       3481.3 
      1265.0         0.20       3518.0 
      1266.0         0.20       3529.8 
      1267.0         0.17       3508.2 
      1268.0         0.23       3489.5 
      1269.0         0.27       3458.1 
      1270.0         0.27       3441.4 
      1271.0         0.27       3448.0 
      1272.0         0.27       3488.5 
      1273.0         0.23       3488.5 
      1274.0         0.27       3493.1 
      1275.0         0.23       3492.5 
      1276.0         0.25       3485.3 
      1277.0         0.23       3020.4 
      1278.0         0.23       2605.2 
      1279.0         0.23       2504.8 
      1280.0         0.20       2903.3 
      1281.0         0.23       3648.2 
      1282.0         0.23       3759.7 
      1283.0         0.23       4569.1 
      1284.0         0.13       5451.1 
      1285.0         0.10       5451.1 
      1286.0         3.38       7630.2 
      1287.0         0.40       2539.8 
      1288.0         0.33       2913.7 
      1289.0         0.33       3223.6 
      1290.0         0.23       3515.0 
      1291.0         0.18       3515.0 
      1292.0         0.17       3587.0 
      1293.0         0.13       3599.8 
      1294.0         0.30       3568.4 
      1295.0         0.33       3531.1 
      1296.0         0.30       3495.1 
      1297.0         0.27       3438.8 
      1298.0         0.33       3370.8 
      1299.0         0.23       3354.4 
      1300.0         0.30       3365.2 
      1301.0         0.27       3393.7 
      1302.0         0.33       3431.6 
      1303.0         0.23       3489.2 
      1304.0         0.28       3515.4 
      1305.0         0.23       3464.3 
      1306.0         0.23       3357.7 
      1307.0         0.27       3200.7 
      1308.0         0.23       2376.2 
      1309.0         0.23       2376.2 
      1310.0         0.27       2474.4 
      1311.0         0.27       3001.1 
      1312.0         0.27       4136.3 
      1313.0         0.27       4611.3 
      1314.0         0.17       6001.0 
      1315.0         0.27       6782.9 
      1316.0         3.83       8236.8 
      1317.0         0.47       2585.9 
      1318.0         0.53       2990.9 
      1319.0         0.33       3125.4 
      1320.0         0.37       3210.1 
      1321.0         0.43       3158.4 
      1322.0         0.40       3161.4 
      1323.0         0.27       3210.5 
      1324.0         0.37       3253.0 
      1325.0         0.38       3250.7 
      1326.0         0.27       3197.4 
      1327.0         0.23       3194.4 
      1328.0         0.23       3158.4 
      1329.0         0.27       3187.2 
      1330.0         0.23       3187.6 
      1331.0         0.27       3207.2 
      1332.0         0.27       3196.4 
      1333.0         0.23       2962.2 
      1334.0         0.23       2866.6 
      1335.0         0.23       2723.3 
      1336.0         0.23       2572.5 
      1337.0         0.23       2124.3 
      1338.0         0.25       1895.3 
      1339.0         0.27       2022.6 
      1340.0         0.20       2101.4 
      1341.0         0.17       2358.9 
      1342.0         0.20       2824.4 
      1343.0         0.23       3524.2 
      1344.0         0.30       4310.7 
      1345.0         0.53       6256.2 
      1346.0         4.42       8484.8 
      1347.0         0.32       3426.4 
      1348.0         0.27       3555.6 
      1349.0         0.27       3566.1 
      1350.0         0.23       3592.9 
      1351.0         0.20       3583.4 
      1352.0         0.33       3567.7 
      1353.0         0.33       3436.2 
      1354.0         0.40       3291.6 
      1355.0         0.37       3167.9 
      1356.0         0.30       2961.5 
      1357.0         0.30       2794.0 
      1358.0         0.38       2632.7 
      1359.0         0.37       2399.1 
      1360.0         0.30       2602.3 
      1361.0         0.30       2821.2 
      1362.0         0.27       3048.9 
      1363.0         0.20       3079.6 
      1364.0         0.20       3154.5 
      1365.0         0.17       3171.2 
      1366.0         0.40       3246.5 
      1367.0         0.27       3210.5 
      1368.0         0.27       3121.2 
      1369.0         0.27       2971.6 
      1370.0         0.27       2818.2 
      1371.0         0.28       2754.7 
      1372.0         0.27       3688.4 
      1373.0         0.23       4275.0 
      1374.0         0.23       4275.0 
      1375.0         0.40       4729.7 
      1376.0         3.15       5369.0 
      1377.0         0.47       3069.8 
      1378.0         0.40       3007.6 
      1379.0         0.50       2971.6 
      1380.0         0.40       2879.7 
      1381.0         0.37       2726.3 
      1382.0         0.35       2549.0 
      1383.0         0.33       2286.9 
      1384.0         0.37       2244.1 
      1385.0         0.37       2432.5 
      1386.0         0.33       2591.8 
      1387.0         0.23       2719.7 
      1388.0         0.20       2841.8 
      1389.0         0.27       2941.9 
      1390.0         0.27       2981.5 
      1391.0         0.17       3033.8 
      1392.0         0.20       3056.7 
      1393.0         0.23       3128.7 
      1394.0         0.25       3253.6 
      1395.0         0.27       3253.3 
      1396.0         0.33       3092.7 
      1397.0         0.33       2700.4 
      1398.0         0.23       1999.7 
      1399.0         0.23       1671.9 
      1400.0         0.23       1783.8 
      1401.0         0.27       1891.7 
      1402.0         0.30       2282.3 
