~Version Information
VERS.                      2.0: CWLS Log ASCII Standard - VERSION 2.0
WRAP.                       NO: One line per depth step
~Well Information Block
STRT.FT               860.0000: 
STOP.FT              2733.7500: 
STEP.FT                 0.2500: 
NULL.                -999.2500: 
COMP.          Pioneer Natural Resources: COMPANY
WELL.          Beacon 11-18 Tr: WELL
FLD.           Purgatoire River: FIELD
LOC.           409' FNL & 203' FWL: LOCATION
PROV.                 Colorado: PROVINCE
CNTY.               Las Animas: COUNTRY
SRVC.                Patterson: SERVICE COMPANY
DATE.          Sun Jan 16 19:36:19 2005: LOG DATE
UWI.           05 071 08251 00: UNIQUE WELL ID
~Curve Information Block
DEPT.FT            0 000 00 00: Depth
SN.Ohm-m                      : IEL Short Normal
SP.mV                         : IEL Spontaneous Potential
DIR.Ohm-m                     : IEL Induction Resistivity
GR.GAPI                       : Gamma Ray
~Parameter Information Block
~A  Depth        SN          SP         DIR          GR     
# ...
  1831.5000     27.4343    -43.0941     30.3651     61.3631
  1831.7500     27.9354    -42.1916     30.4391     60.7331
  1832.0000     28.3100    -41.3540     30.2204     59.4478
  1832.2500     28.5579    -40.5837     29.9695     58.6090
  1832.5000     28.6980    -39.8704     29.8778     57.2971
  1832.7500     28.7647    -39.1950     30.0159     55.9573
  1833.0000     28.7973    -38.5359     30.3588     52.9978
  1833.2500     28.8305    -37.8758     30.8369     50.8365
  1833.5000     28.8879    -37.2090     31.3726     48.4193
  1833.7500     28.9776    -36.5456     31.8930     47.7633
  1834.0000     29.0919    -35.9100     32.3309     48.3290
  1834.2500     29.2142    -35.3326     32.6265     49.5935
  1834.5000     29.3301    -34.8383     32.7350     52.3078
  1834.7500     29.4332    -34.4350     32.6387     54.1673
  1835.0000     29.5265    -34.1094     32.3644     55.9502
  1835.2500     29.6265    -33.8312     31.9955     55.9960
  1835.5000     29.7619    -33.5647     31.6583     54.3037
  1835.7500     29.9568    -33.2817     31.4786     52.3543
  1836.0000     30.2128    -32.9703     31.5362     49.0811
  1836.2500     30.5108    -32.6371     31.8424     47.2857
  1836.5000     30.8368    -32.3036     32.3416     46.1692
  1836.7500     31.1999    -31.9989     32.9300     46.6709
  1837.0000     31.6200    -31.7523     33.4881     48.6418
  1837.2500     32.0989    -31.5853     33.9287     50.0812
  1837.5000     32.6105    -31.5059     34.2379     51.3313
  1837.7500     33.1190    -31.5056     34.4735     51.1060
  1838.0000     33.6092    -31.5597     34.7198     49.0583
  1838.2500     34.1031    -31.6331     35.0360     47.0392
  1838.5000     34.6355    -31.6881     35.4313     44.2921
  1838.7500     35.2052    -31.6932     35.8674     43.0365
  1839.0000     35.7639    -31.6283     36.2806     41.8327
  1839.2500     36.2662    -31.4871     36.6213     41.3591
  1839.5000     36.7120    -31.2754     36.8947     41.5175
  1839.7500     37.1233    -31.0073     37.1681     42.4906
  1840.0000     37.4980    -30.7030     37.5315     45.0848
  1840.2500     37.8117    -30.3855     38.0390     47.1186
  1840.5000     38.0543    -30.0786     38.6673     49.9513
  1840.7500     38.2344    -29.8033     39.3133     51.6038
  1841.0000     38.3459    -29.5748     39.8287     53.9650
  1841.2500     38.3574    -29.4003     40.0787     55.6768
  1841.5000     38.2424    -29.2806     39.9975     58.7821
  1841.7500     38.0073    -29.2134     39.6117     61.3125
  1842.0000     37.6889    -29.1946     39.0146     65.7502
  1842.2500     37.3406    -29.2184     38.3195     69.0077
  1842.5000     37.0220    -29.2730     37.6103     74.0043
  1842.7500     36.7802    -29.3394     36.9130     77.1151
  1843.0000     36.6241    -29.3923     36.1969     80.7455
  1843.2500     36.5171    -29.4056     35.4118     82.0799
  1843.5000     36.4023    -29.3587     34.5458     82.3790
  1843.7500     36.2268    -29.2414     33.6551     81.8559
  1844.0000     35.9270    -29.0566     32.8281     80.7668
  1844.2500     35.3968    -28.8214     32.1083     79.9574
  1844.5000     34.5122    -28.5655     31.4352     78.5880
  1844.7500     33.2139    -28.3275     30.6509     77.7961
  1845.0000     31.5602    -28.1476     29.5840     77.5405
  1845.2500     29.6976    -28.0591     28.1651     78.4231
  1845.5000     27.7963    -28.0798     26.4827     82.0982
  1845.7500     26.0028    -28.2066     24.7235     86.6646
  1846.0000     24.4155    -28.4160     23.0605     97.2738
  1846.2500     23.0719    -28.6690     21.5857    106.4621
  1846.5000     21.9504    -28.9201     20.3158    121.1982
  1846.7500     20.9949    -29.1273     19.2273    129.9387
  1847.0000     20.1472    -29.2604     18.2871    139.1546
  1847.2500     19.3692    -29.3052     17.4672    142.3283
  1847.5000     18.6454    -29.2627     16.7515    143.8951
  1847.7500     17.9784    -29.1450     16.1354    144.2868
  1848.0000     17.3839    -28.9690     15.6173    145.9700
  1848.2500     16.8846    -28.7509     15.1881    147.9481
  1848.5000     16.5039    -28.5036     14.8277    150.7981
  1848.7500     16.2575    -28.2362     14.5140    151.7439
  1849.0000     16.1448    -27.9560     14.2345    151.3431
  1849.2500     16.1424    -27.6722     13.9906    150.2633
  1849.5000     16.2064    -27.3979     13.7918    148.4753
  1849.7500     16.2878    -27.1515     13.6484    147.6448
  1850.0000     16.3520    -26.9554     13.5687    147.0491
  1850.2500     16.3852    -26.8330     13.5598    146.6646
  1850.5000     16.3781    -26.8066     13.6280    144.9524
  1850.7500     16.3024    -26.8971     13.7780    142.4345
  1851.0000     16.1080    -27.1253     14.0089    135.7866
  1851.2500     15.7588    -27.5128     14.3100    129.2489
  1851.5000     15.2936    -28.0789     14.6601    117.3238
  1851.7500     14.8720    -28.8351     15.0302    109.6386
  1852.0000     14.7512    -29.7770     15.3912    101.9764
  1852.2500     15.1770    -30.8786     15.7227    100.6421
  1852.5000     16.2345    -32.0914     16.0127    103.9301
  1852.7500     17.7577    -33.3501     16.2487    108.4626
  1853.0000     19.3858    -34.5825     16.4052    116.3955
  1853.2500     20.7533    -35.7219     16.4455    121.1114
  1853.5000     21.6743    -36.7167     16.3423    125.2955
  1853.7500     22.1763    -37.5376     16.1015    125.6470
  1854.0000     22.3939    -38.1781     15.7695    123.9165
  1854.2500     22.4531    -38.6531     15.4181    123.0302
  1854.5000     22.4314    -38.9964     15.1237    124.1279
  1854.7500     22.3630    -39.2573     14.9524    125.9292
  1855.0000     22.2411    -39.4979     14.9524    126.9855
  1855.2500     22.0244    -39.7873     15.1473    124.7951
  1855.5000     21.6652    -40.1929     15.5320    116.4569
  1855.7500     21.1619    -40.7696     16.0725    108.6125
  1856.0000     20.6179    -41.5489     16.7177     96.6032
  1856.2500     20.2759    -42.5321     17.4202     90.2604
  1856.5000     20.4674    -43.6889     18.1566     85.2083
  1856.7500     21.4510    -44.9636     18.9336     84.9822
  1857.0000     23.2087    -46.2859     19.7697     88.1655
  1857.2500     25.3477    -47.5852     20.6634     91.5126
  1857.5000     27.2205    -48.8027     21.5643     96.3738
  1857.7500     28.2230    -49.8989     22.3647     98.4572
  1858.0000     28.0901    -50.8556     22.9260     98.8870
  1858.2500     27.0035    -51.6715     23.1344     97.8819
  1858.5000     25.4602    -52.3556     22.9568     97.0445
  1858.7500     23.9996    -52.9213     22.4559     98.4247
  1859.0000     22.9585    -53.3821     21.7536    103.9135
  1859.2500     22.3801    -53.7508     20.9710    108.9634
  1859.5000     22.0906    -54.0385     20.1864    116.4742
  1859.7500     21.8599    -54.2551     19.4268    120.4070
  1860.0000     21.5305    -54.4085     18.6875    123.6900
  1860.2500     21.0514    -54.5062     17.9637    124.1339
  1860.5000     20.4434    -54.5567     17.2701    123.1613
  1860.7500     19.7560    -54.5718     16.6405    122.2397
  1861.0000     19.0397    -54.5667     16.1091    121.5285
  1861.2500     18.3286    -54.5568     15.6926    121.6966
  1861.5000     17.6351    -54.5546     15.3846    122.3791
  1861.7500     16.9629    -54.5645     15.1624    122.5489
  1862.0000     16.3300    -54.5812     15.0000    122.0312
  1862.2500     15.7817    -54.5906     14.8776    121.6882
  1862.5000     15.3809    -54.5748     14.7852    122.5333
  1862.7500     15.1726    -54.5198     14.7197    124.3143
  1863.0000     15.1488    -54.4216     14.6796    128.1872
  1863.2500     15.2431    -54.2891     14.6603    130.9763
  1863.5000     15.3677    -54.1409     14.6561    134.6463
  1863.7500     15.4616    -53.9967     14.6638    136.2603
  1864.0000     15.5156    -53.8677     14.6859    136.4367
  1864.2500     15.5586    -53.7490     14.7278    134.7485
  1864.5000     15.6191    -53.6156     14.7922    130.1243
  1864.7500     15.6992    -53.4268     14.8748    126.5299
