~Version Information
VERS.                      2.0: CWLS Log ASCII Standard - VERSION 2.0
WRAP.                       NO: One line per depth step
~Well Information Block
STRT.FT                 8.7500: 
STOP.FT              2723.0000: 
STEP.FT                 0.2500: 
NULL.                -999.2500: 
COMP.          Pioneer Natural Resources: COMPANY
WELL.           Desoto 13-7 Tr: WELL
FLD.           Purgatoire River: FIELD
LOC.           1404' FSL & 1115' FWL: LOCATION
PROV.                 Colorado: PROVINCE
CNTY.               Las Animas: COUNTRY
SRVC.                Patterson: SERVICE COMPANY
DATE.          Wed Mar 16 18:00:51 2005: LOG DATE
UWI.           05 071 08216 00: UNIQUE WELL ID
~Curve Information Block
DEPT.FT            0 000 00 00: Depth
GR.GAPI                       : Gamma Ray
CCL.                          : Casing Collar Locator
TT3.usec                      : CBL 3' Travel Time
AMP3.mV                       : CBL 3' Amplitude
AMP5.mV                       : CBL 5' Amplitude
~Parameter Information Block
~A  Depth        GR         CCL         TT3         AMP3        AMP5    
# ...
   904.7500     81.6562      0.0000   1149.4296      5.5083      0.6505
   905.0000     81.8154      0.0000   1196.9592      4.4721      0.6473
   905.2500     80.9093      0.0000   1257.6427      3.5949      0.6578
   905.5000     79.5088      0.0000   1305.9114      2.9713      0.6722
   905.7500     78.0777      0.0000   1333.3311      2.6327      0.6862
   906.0000     76.7434      0.0000   1344.8406      2.5441      0.6962
   906.2500     75.4341      0.0000   1347.7837      2.6635      0.6993
   906.5000     74.0710      0.0000   1345.3987      2.9830      0.6948
   906.7500     72.7263      0.0000   1335.4597      3.5364      0.6837
   907.0000     71.6064      0.0000   1311.8539      4.3690      0.6717
   907.2500     70.7270      0.0000   1270.0723      5.4669      0.6718
   907.5000     69.7779      0.0000   1215.9003      6.7154      0.7033
   907.7500     68.6238      0.0000   1169.1044      7.9656      0.7828
   908.0000     67.8169      0.0000   1153.1516      9.1299      0.9149
   908.2500     68.0801      0.0000   1176.8699     10.1704      1.0872
   908.5000     69.1231      0.0000   1226.9099     11.0338      1.2749
   908.7500     69.4416      0.0000   1279.3717     11.6656      1.4525
   909.0000     67.6512      0.0000   1317.3940     12.0721      1.6047
   909.2500     63.8137      0.0000   1337.9375     12.3165      1.7254
   909.5000     59.4348      0.0000   1346.4396     12.4630      1.8121
   909.7500     56.5320      0.0000   1349.1650     12.5482      1.8654
   910.0000     56.6854      0.0000   1349.8481     12.5930      1.8921
   910.2500     60.3843      0.0000   1349.9807     12.6180      1.9048
   910.5000     66.8329      0.0000   1350.0000     12.6456      1.9172
   910.7500     74.3872      0.0000   1350.0000     12.6895      1.9356
   911.0000     81.3643      0.0000   1350.0000     12.7412      1.9564
   911.2500     86.6688      0.0000   1350.0000     12.7672      1.9718
   911.5000     89.8673      0.0000   1350.0000     12.7322      1.9781
   911.7500     90.9864      0.0000   1350.0000     12.6355      1.9777
   912.0000     90.5049      0.0000   1350.0000     12.5186      1.9734
   912.2500     89.3921      0.0000   1350.0000     12.4342      1.9655
   912.5000     88.7372      0.0000   1350.0000     12.4086      1.9516
   912.7500     89.0669      0.0000   1350.0000     12.4305      1.9305
   913.0000     89.8600      0.0000   1350.0000     12.4607      1.9033
   913.2500     89.7260      0.0000   1350.0000     12.4568      1.8747
   913.5000     87.4939      0.0000   1350.0000     12.3994      1.8523
   913.7500     83.5096      0.0000   1350.0000     12.2996      1.8433
   914.0000     79.6038      0.0000   1350.0000     12.1787      1.8488
   914.2500     77.4312      0.0000   1349.9810     12.0494      1.8625
   914.5000     77.0491      0.0000   1349.8755     11.9204      1.8749
   914.7500     77.3139      0.0000   1349.3488     11.8112      1.8793
   915.0000     77.3627      0.0000   1347.3752     11.7514      1.8740
   915.2500     77.4143      0.0000   1341.6658     11.7628      1.8622
   915.5000     78.1740      0.0000   1329.0200     11.8418      1.8489
   915.7500     79.6610      0.0000   1307.7635     11.9551      1.8373
   916.0000     80.7677      0.0000   1281.2524     12.0568      1.8279
   916.2500     80.0924      0.0000   1258.4719     12.1193      1.8210
   916.5000     77.2674      0.0000   1249.3997     12.1499      1.8188
   916.7500     73.4044      0.0000   1258.3916     12.1715      1.8253
   917.0000     70.0904      0.0000   1281.1385     12.1927      1.8428
   917.2500     67.9495      0.0000   1307.6674     12.2054      1.8698
   917.5000     66.2962      0.0000   1328.9626     12.2074      1.9000
   917.7500     64.1207      0.0000   1341.6404     12.2162      1.9260
   918.0000     61.2500      0.0000   1347.3667     12.2557      1.9442
   918.2500     58.5802      0.0000   1349.3466     12.3358      1.9567
   918.5000     57.2872      0.0000   1349.8751     12.4492      1.9668
   918.7500     57.8619      0.0000   1349.9808     12.5811      1.9739
   919.0000     59.9059      0.0000   1350.0000     12.7174      1.9749
   919.2500     62.6451      0.0000   1350.0000     12.8511      1.9691
   919.5000     65.3430      0.0000   1350.0000     12.9838      1.9605
   919.7500     67.2594      0.0000   1350.0000     13.1179      1.9558
   920.0000     67.5979      0.0000   1350.0000     13.2430      1.9587
   920.2500     65.9080      0.0000   1350.0000     13.3410      1.9681
   920.5000     62.6495      0.0000   1350.0000     13.4083      1.9795
   920.7500     59.0392      0.0000   1350.0000     13.4657      1.9916
   921.0000     56.0512      0.0000   1350.0000     13.5386      2.0069
   921.2500     53.7728      0.0000   1350.0000     13.6315      2.0288
   921.5000     51.8539      0.0000   1350.0000     13.7290      2.0578
   921.7500     50.2020      0.0000   1350.0000     13.8139      2.0919
   922.0000     49.0410      0.0000   1350.0000     13.8796      2.1280
   922.2500     48.5782      0.0000   1350.0000     13.9306      2.1634
   922.5000     48.7677      0.0000   1350.0000     13.9816      2.1961
   922.7500     49.2122      0.0000   1350.0000     14.0533      2.2237
   923.0000     49.3512      0.0000   1350.0000     14.1580      2.2422
   923.2500     48.9888      0.0000   1350.0000     14.2831      2.2494
   923.5000     48.5421      0.0000   1350.0000     14.3989      2.2491
   923.7500     48.5224      0.0000   1350.0000     14.4882      2.2492
   924.0000     48.8900      0.0000   1350.0000     14.5649      2.2558
   924.2500     49.1564      0.0000   1350.0000     14.6585      2.2684
   924.5000     48.9615      0.0000   1350.0000     14.7849      2.2810
   924.7500     48.3748      0.0000   1350.0000     14.9319      2.2878
   925.0000     47.8495      0.0000   1350.0000     15.0661      2.2879
   925.2500     48.0230      0.0000   1350.0000     15.1529      2.2838
   925.5000     49.2872      0.0000   1350.0000     15.1772      2.2767
   925.7500     51.3059      0.0000   1350.0000     15.1493      2.2660
   926.0000     53.0280      0.0000   1350.0000     15.0851      2.2524
   926.2500     53.3749      0.0000   1350.0000     14.9854      2.2391
   926.5000     52.0668      0.0000   1350.0000     14.8442      2.2289
   926.7500     49.8497      0.0000   1350.0000     14.6724      2.2225
   927.0000     47.9503      0.0000   1350.0000     14.5017      2.2200
   927.2500     47.2275      0.0000   1350.0000     14.3645      2.2228
   927.5000     47.8017      0.0000   1350.0000     14.2783      2.2323
   927.7500     49.3805      0.0000   1350.0000     14.2508      2.2469
   928.0000     51.6774      0.0000   1350.0000     14.2870      2.2634
   928.2500     54.3644      0.0000   1350.0000     14.3834      2.2805
   928.5000     56.8461      0.0000   1350.0000     14.5157      2.3002
   928.7500     58.4303      0.0000   1350.0000     14.6410      2.3227
   929.0000     58.7516      0.0000   1350.0000     14.7198      2.3434
   929.2500     57.8897      0.0000   1350.0000     14.7391      2.3570
   929.5000     56.1766      0.0000   1350.0000     14.7178      2.3643
   929.7500     54.0703      0.0000   1350.0000     14.6890      2.3699
   930.0000     52.1070      0.0000   1350.0000     14.6795      2.3746
   930.2500     50.7122      0.0000   1350.0000     14.6989      2.3732
   930.5000     50.0012      0.0000   1350.0000     14.7363      2.3605
   930.7500     49.8434      0.0000   1350.0000     14.7608      2.3390
   931.0000     50.0756      0.0000   1350.0000     14.7298      2.3170
   931.2500     50.5111      0.0000   1350.0000     14.6080      2.3006
   931.5000     50.8515      0.0000   1350.0000     14.3859      2.2895
   931.7500     50.8563      0.0000   1350.0000     14.0879      2.2816
   932.0000     50.5937      0.0000   1350.0000     13.7584      2.2761
   932.2500     50.3243      0.0000   1350.0000     13.4411      2.2727
   932.5000     50.2984      0.0000   1350.0000     13.1671      2.2674
