~Version Information
VERS.                      2.0: CWLS Log ASCII Standard - VERSION 2.0
WRAP.                       NO: One line per depth step
~Well Information Block
STRT.FT                -7.5000: 
STOP.FT              1702.2500: 
STEP.FT                 0.2500: 
NULL.                -999.2500: 
COMP.          Pioneer Natural Resources: COMPANY
WELL.          Warrior 33-1 Tr: WELL
FLD.           Purgatoire River: FIELD
LOC.           2648' FSL & 2341' FEL--: LOCATION
PROV.                 Colorado: PROVINCE
CNTY.               Las Animas: COUNTRY
SRVC.                Patterson: SERVICE COMPANY
DATE.          Wed Jun 22 12:18:08 2005: LOG DATE
UWI.           05 071 08412 00: UNIQUE WELL ID
~Curve Information Block
DEPT.FT            0 000 00 00: Depth
CCL.                          : Casing Collar Locator
TT3.usec                      : CBL 3' Travel Time
AMP3.mV                       : CBL 3' Amplitude
GR.GAPI                       : Gamma Ray
~Parameter Information Block
~A  Depth       CCL         TT3         AMP3         GR     
# ...
   997.5000      0.0000    599.9128     16.3271     49.3539
   997.7500      0.0000    537.5319     17.6503     56.8017
   998.0000      0.0000    503.4324     18.1375     64.5148
   998.2500      0.0000    508.6332     17.5072     70.5461
   998.5000      0.0000    543.9133     15.9543     73.5670
   998.7500      0.0000    590.0027     14.0712     73.4980
   999.0000      0.0000    633.1685     12.4365     71.3544
   999.2500      2.0000    669.8068     11.2789     68.6453
   999.5000      0.0000    700.4908     10.5019     66.7526
   999.7500     -2.0000    725.1251      9.9272     66.4548
  1000.0000      0.0000    743.2390      9.4705     67.5813
  1000.2500      0.0000    755.0615      9.1590     69.0361
  1000.5000      0.0000    760.7718      9.0622     69.5818
  1000.7500      0.0000    758.6815      9.2160     68.8888
  1001.0000      0.0000    745.5687      9.5921     67.7274
  1001.2500      0.0000    721.5400     10.1197     67.0810
  1001.5000      0.0000    694.6652     10.7069     67.1855
  1001.7500      0.0000    677.1434     11.2306     67.3920
  1002.0000      0.0000    675.3389     11.5550     66.8838
  1002.2500      0.0000    686.4404     11.6011     65.4731
  1002.5000      0.0000    704.5936     11.3947     63.6322
  1002.7500      0.0000    725.4750     11.0374     61.8747
  1003.0000      0.0000    744.7822     10.6414     60.4000
  1003.2500      0.0000    757.5030     10.2846     59.3973
  1003.5000      0.0000    760.6808      9.9982     59.4140
  1003.7500      0.0000    755.5687      9.7745     61.1224
  1004.0000      0.0000    746.7914      9.5867     64.5005
  1004.2500      0.0000    739.2317      9.4127     68.3249
  1004.5000      0.0000    734.7421      9.2479     70.8500
  1004.7500      0.0000    731.6332      9.1034     71.2546
  1005.0000      0.0000    727.5756      8.9910     70.3634
  1005.2500      0.0000    722.2569      8.9120     69.7926
  1005.5000      0.0000    716.7941      8.8606     70.3853
  1005.7500      0.0000    711.5385      8.8319     71.5553
  1006.0000      0.0000    705.0536      8.8231     72.1819
  1006.2500      0.0000    694.3956      8.8289     71.9229
  1006.5000      0.0000    675.8876      8.8380     71.3739
  1006.7500      0.0000    647.3333      8.8314     71.1162
  1007.0000      0.0000    612.1551      8.7859     71.1110
  1007.2500      0.0000    581.2076      8.6879     70.9211
  1007.5000      0.0000    567.0759      8.5497     70.0372
  1007.7500      0.0000    574.0326      8.4051     68.1418
  1008.0000      0.0000    594.4816      8.2842     65.6470
  1008.2500      0.0000    616.3807      8.1958     63.9821
  1008.5000      0.0000    632.8900      8.1352     64.7499
  1008.7500      0.0000    643.3243      8.1002     68.3765
  1009.0000      0.0000    647.6353      8.0955     73.9107
  1009.2500      0.0000    645.6554      8.1183     80.2907
  1009.5000      0.0000    642.3689      8.1424     87.3733
  1009.7500      0.0000    647.3439      8.1227     95.3924
  1010.0000      0.0000    664.2836      8.0261    103.5807
  1010.2500      0.0000    683.7449      7.8622    109.8074
  1010.5000      0.0000    689.5552      7.6820    112.0008
  1010.7500      0.0000    671.8845      7.5429    109.9580
  1011.0000      0.0000    634.0958      7.4739    105.7030
  1011.2500      0.0000    589.2319      7.4689    102.3531
  1011.5000      0.0000    550.8465      7.5052    102.6042
  1011.7500      0.0000    525.5602      7.5627    107.3679
  1012.0000      0.0000    512.0624      7.6278    115.1297
  1012.2500      0.0000    505.2346      7.6890    122.9748
  1012.5000      0.0000    500.8815      7.7379    128.8123
  1012.7500      0.0000    498.0995      7.7749    132.5180
  1013.0000      0.0000    498.8955      7.8076    134.8144
  1013.2500      0.0000    505.5935      7.8394    135.5656
  1013.5000      0.0000    518.1730      7.8650    133.7680
  1013.7500      0.0000    534.5028      7.8795    129.1387
  1014.0000      0.0000    552.7788      7.8910    123.0714
  1014.2500      0.0000    571.4250      7.9164    117.8585
  1014.5000      0.0000    585.7693      7.9682    115.2538
  1014.7500      0.0000    588.0524      8.0471    115.8088
  1015.0000      0.0000    573.4701      8.1479    119.2730
  1015.2500      0.0000    544.4727      8.2672    125.2887
  1015.5000      0.0000    507.7083      8.4044    133.5305
  1015.7500      0.0000    469.3601      8.5561    143.3062
  1016.0000      0.0000    434.7425      8.7167    153.0721
  1016.2500      0.0000    409.4697      8.8841    160.2334
  1016.5000      0.0000    399.1201      9.0560    162.0297
  1016.7500      0.0000    409.0157      9.2155    157.7454
  1017.0000      0.0000    443.9529      9.3269    150.0282
  1017.2500      0.0000    504.6731      9.3598    142.9735
  1017.5000      0.0000    582.6682      9.3146    138.6547
  1017.7500      0.0000    660.8804      9.2202    135.9865
  1018.0000      0.0000    722.7429      9.1083    132.7769
  1018.2500      0.0000    761.3870      8.9965    128.4819
  1018.5000      0.0000    780.4210      8.8932    125.0883
  1018.7500      0.0000    787.7960      8.8104    125.3712
  1019.0000      0.0000    790.0656      8.7606    130.1770
  1019.2500      0.0000    790.6672      8.7352    137.7597
  1019.5000      0.0000    790.8143      8.6967    145.7692
  1019.7500      0.0000    790.7317      8.6040    152.9606
  1020.0000      0.0000    790.3459      8.4481    158.5770
  1020.2500      0.0000    789.4472      8.2553    161.2002
  1020.5000      0.0000    787.6532      8.0609    159.3123
  1020.7500      0.0000    784.5076      7.8891    152.8039
  1021.0000      0.0000    779.7098      7.7546    143.3395
  1021.2500      0.0000    773.2652      7.6645    133.1509
  1021.5000      0.0000    765.6162      7.6146    123.5399
  1021.7500      0.0000    757.8702      7.5925    114.4186
  1022.0000      0.0000    751.6690      7.5889    104.9697
  1022.2500      0.0000    748.4807      7.5972     94.6170
  1022.5000      0.0000    749.1384      7.6043     83.6817
  1022.7500      0.0000    753.8910      7.5928     73.4126
  1023.0000      0.0000    762.0774      7.5571     65.2618
  1023.2500      0.0000    771.6805      7.5094     59.8790
  1023.5000      0.0000    780.1031      7.4678     56.7775
  1023.7500      0.0000    785.7490      7.4440     55.1650
  1024.0000      0.0000    788.5192      7.4433     55.1591
  1024.2500      0.0000    788.7713      7.4660     58.0452
  1024.5000      0.0000    785.8489      7.5060     64.9928
  1024.7500      0.0000    777.3964      7.5517     75.3270
  1025.0000      0.0000    760.1709      7.5931     86.3967
  1025.2500      0.0000    732.4431      7.6251     95.6216
  1025.5000      0.0000    696.4414      7.6442    102.6131
  1025.7500      0.0000    658.3002      7.6477    108.8447
  1026.0000      0.0000    625.2488      7.6376    115.2991
  1026.2500      0.0000    602.5886      7.6253    120.9950
  1026.5000      0.0000    592.0424      7.6268    123.9864
  1026.7500      0.0000    590.7747      7.6537    123.4933
  1027.0000      0.0000    592.0514      7.7083    120.7989
  1027.2500      0.0000    589.6469      7.7825    118.0001
  1027.5000      0.0000    582.7333      7.8610    116.1152
  1027.7500      0.0000    575.4554      7.9240    114.7759
  1028.0000      0.0000    572.2812      7.9509    113.4151
  1028.2500      0.0000    575.4465      7.9253    112.1571
  1028.5000      0.0000    586.3801      7.8432    111.5844
  1028.7500      0.0000    607.2756      7.7211    111.8941
  1029.0000      0.0000    639.2402      7.5951    112.2295
  1029.2500      0.0000    678.9600      7.5045    110.9315
  1029.5000      0.0000    718.7884      7.4746    106.7919
  1029.7500      0.0000    751.0319      7.5094    100.2648
  1030.0000      0.0000    771.8441      7.5927     93.4412
  1030.2500      0.0000    781.5721      7.6972     88.6783
  1030.5000      0.0000    783.1683      7.7980     86.9429
  1030.7500      0.0000    780.7552      7.8821     87.3015
