~Version Information
VERS.                      2.0: CWLS Log ASCII Standard - VERSION 2.0
WRAP.                       NO: One line per depth step
~Well Information Block
STRT.FT                -6.0000: 
STOP.FT              2490.5000: 
STEP.FT                 0.2500: 
NULL.                -999.2500: 
COMP.          Pioneer Natural Resources: COMPANY
WELL.          Aztec Federal 41-15: WELL
FLD.           Purgatorie River: FIELD
LOC.           706' FNL & 1253' FEL--: LOCATION
CNTY.               Las Animas: COUNTY
SRVC.          Superior Well Services: SERVICE COMPANY
DATE.          Wed May 28 14-18-16 2008: LOG DATE
UWI.           05 071 08342 00: UNIQUE WELL ID
STAT.                       CO: STATE
~Curve Information Block
DEPT.FT            0 000 00 00: Depth
GR.GAPI                       : Gamma Ray
CCL.                          : Casing Collar Locator
AMP3FT.mV                     : AMP3FT Amplitude
TT3FT.usec                    : 3FT Travel Time
AMP5FT.mV                     : AMP5FT Amplitude
~Parameter Information Block
~A  Depth        GR         CCL        AMP3FT      TT3FT       AMP5FT   
# ...
   638.0000    105.2796      0.0000     13.5695    642.0000      5.6973
   638.2500    104.2745      0.0000     13.5301    642.0000      5.7182
   638.5000    101.9445      0.0000     13.5051    642.0000      5.7346
   638.7500     99.5220      0.0000     13.4968    642.0000      5.7392
   639.0000     97.9082      0.0000     13.4965    642.0000      5.7337
   639.2500     96.9290      0.0000     13.4907    642.0000      5.7292
   639.5000     95.8255      0.0000     13.4744    642.0000      5.7388
   639.7500     94.4185      0.0000     13.4579    642.0000      5.7666
   640.0000     93.2737      0.0000     13.4600    642.0000      5.8017
   640.2500     92.7204      0.0000     13.4899    642.0000      5.8261
   640.5000     92.4274      0.0000     13.5372    642.0000      5.8311
   640.7500     92.1583      0.0000     13.5795    642.0000      5.8264
   641.0000     92.1612      0.0000     13.6042    642.0000      5.8320
   641.2500     92.4797      0.0000     13.6206    642.0000      5.8607
   641.5000     92.5795      0.0000     13.6502    642.0000      5.9098
   641.7500     91.9601      0.0000     13.7062    642.0000      5.9654
   642.0000     90.5499      0.0000     13.7838    642.0000      6.0113
   642.2500     88.3620      0.0000     13.8692    642.0000      6.0373
   642.5000     85.3558      0.0000     13.9533    642.0000      6.0457
   642.7500     81.7312      0.0000     14.0338    642.0000      6.0476
   643.0000     77.9505      0.0000     14.1065    642.0000      6.0504
   643.2500     74.5396      0.0000     14.1589    642.0000      6.0508
   643.5000     72.0685      0.0000     14.1785    642.0000      6.0429
   643.7500     70.9949      0.0000     14.1680    642.0000      6.0307
   644.0000     71.2500      0.0000     14.1488    642.0000      6.0264
   644.2500     72.2587      0.0000     14.1451    642.0000      6.0392
   644.5000     73.6393      0.0000     14.1650    642.0000      6.0696
   644.7500     75.7255      0.0000     14.2003    642.0000      6.1142
   645.0000     79.1284      0.0000     14.2426    642.0000      6.1685
   645.2500     83.6961      0.0000     14.2922    642.0000      6.2243
   645.5000     87.8992      0.0000     14.3510    642.0000      6.2710
   645.7500     89.5025      0.0000     14.4144    642.0000      6.3039
   646.0000     87.3354      0.0000     14.4715    642.0000      6.3293
   646.2500     82.5049      0.0000     14.5140    642.0000      6.3567
   646.5000     77.5525      0.0000     14.5427    642.0000      6.3860
   646.7500     74.3814      0.0000     14.5649    642.0000      6.4072
   647.0000     73.2275      0.0000     14.5849    642.0000      6.4140
   647.2500     73.3683      0.0000     14.5997    642.0000      6.4130
   647.5000     74.1774      0.0000     14.6079    642.0000      6.4165
   647.7500     75.4299      0.0000     14.6207    642.0000      6.4329
   648.0000     77.1439      0.0000     14.6582    642.0000      6.4624
   648.2500     79.3598      0.0000     14.7303    642.0000      6.5013
   648.5000     81.8886      0.0000     14.8217    642.0000      6.5467
   648.7500     84.2867      0.0000     14.8993    642.0000      6.5960
   649.0000     86.1494      0.0000     14.9383    642.0000      6.6434
   649.2500     87.1014      0.0000     14.9414    642.0000      6.6786
   649.5000     86.3481      0.0000     14.9304    642.0000      6.6947
   649.7500     82.9129      0.0000     14.9194    642.0000      6.6976
   650.0000     76.8533      0.0000     14.9005    641.9872      6.7005
   650.2500     69.7536      0.0000     14.8577    641.9166      6.7102
   650.5000     63.4879      0.0000     14.7904    641.5764      6.7195
   650.7500     58.9809      0.0000     14.7172    640.3245      6.7139
   651.0000     56.6770      0.0000     14.6555    636.8391      6.6790
   651.2500     57.4180      0.0000     14.6031    629.6000      6.6110
   651.5000     61.6073      0.0000     14.5434    618.7423      6.5277
   651.7500     67.7385      0.0000     14.4689    607.6957      6.4568
   652.0000     73.0094      0.0000     14.3968    601.2910      6.3962
   652.2500     75.6414      0.0000     14.3618    600.4153      6.3041
   652.5000     75.7893      0.0000     14.3790    599.8438      6.1532
   652.7500     74.2701      0.0000     14.3817    594.0731      5.9738
   653.0000     71.5666      0.0000     14.2014    585.1191      5.8168
   653.2500     68.2867      0.0000     13.6824    581.7181      5.6953
   653.5000     65.4734      0.0000     12.8657    589.8564      5.5862
   653.7500     63.8062      0.0000     12.0037    606.3700      5.4719
   654.0000     63.0238      0.0000     11.3510    622.9605      5.3618
   654.2500     62.6789      0.0000     10.9826    634.0558      5.2764
   654.5000     63.1400      0.0000     10.8236    639.3258      5.2229
   654.7500     65.1904      1.6650     10.7783    640.8214      5.1936
   655.0000     68.6350      0.0000     10.8083    639.6648      5.1802
   655.2500     71.9256      0.0000     10.9464    634.7054      5.1776
   655.5000     73.5256      0.0000     11.2671    623.0792      5.1755
   655.7500     73.3990      0.0000     11.8044    603.1270      5.1602
   656.0000     72.8097      0.0000     12.4677    578.8558      5.1363
   656.2500     72.8521      0.0000     13.0724    560.8682      5.1361
   656.5000     73.5795      0.0000     13.4780    559.5458      5.1975
   656.7500     74.4072      0.0000     13.6767    575.7500      5.3279
   657.0000     74.8626      0.0000     13.7461    599.9547      5.5002
   657.2500     74.9448      0.0000     13.7625    620.9485      5.6823
   657.5000     75.0864      0.0000     13.7693    633.6965      5.8545
   657.7500     75.6402      0.0000     13.7869    639.4236      5.9967
   658.0000     76.3146      0.0000     13.8212    641.3721      6.0872
   658.2500     76.5065      0.0000     13.8614    641.8799      6.1222
   658.5000     76.3696      0.0000     13.8829    641.9835      6.1206
   658.7500     77.0824      0.0000     13.8630    642.0000      6.1031
   659.0000     79.6182      0.0000     13.7985    642.0000      6.0804
   659.2500     83.3341      0.0000     13.7092    642.0000      6.0584
   659.5000     86.3258      0.0000     13.6237    642.0000      6.0432
   659.7500     87.4816      0.0000     13.5592    642.0000      6.0355
   660.0000     87.8371      0.0000     13.5136    642.0000      6.0240
   660.2500     89.4994      0.0000     13.4734    642.0000      5.9903
   660.5000     93.3285      0.0000     13.4259    642.0000      5.9260
   660.7500     97.8977      0.0000     13.3629    642.0000      5.8434
   661.0000    100.7115      0.0000     13.2793    642.0000      5.7670
   661.2500    100.2887      0.0000     13.1737    642.0000      5.7149
   661.5000     97.1355      0.0000     13.0532    642.0000      5.6870
   661.7500     92.9981      0.0000     12.9338    642.0000      5.6717
   662.0000     89.4448      0.0000     12.8319    642.0000      5.6590
   662.2500     87.0006      0.0000     12.7545    642.0000      5.6438
   662.5000     85.1751      0.0000     12.6981    642.0000      5.6205
   662.7500     83.0588      0.0000     12.6576    642.0000      5.5830
   663.0000     80.0523      0.0000     12.6326    642.0000      5.5329
   663.2500     76.2888      0.0000     12.6243    642.0000      5.4837
   663.5000     72.5782      0.0000     12.6273    642.0000      5.4501
   663.7500     69.9122      0.0000     12.6268    642.0000      5.4374
   664.0000     68.9208      0.0000     12.6056    642.0000      5.4432
   664.2500     69.7364      0.0000     12.5566    642.0000      5.4645
   664.5000     72.2126      0.0000     12.4885    642.0000      5.4984
   664.7500     76.1301      0.0000     12.4212    642.0000      5.5345
   665.0000     81.1590      0.0000     12.3769    642.0000      5.5551
   665.2500     86.6127      0.0000     12.3680    642.0000      5.5494
   665.5000     91.3349      0.0000     12.3884    642.0000      5.5229
   665.7500     94.1315      0.0000     12.4173    642.0000      5.4902
