~Version Information
VERS.                      2.0: CWLS Log ASCII Standard - VERSION 2.0
WRAP.                       NO: One line per depth step
~Well Information Block
STRT.FT                -1.5000: 
STOP.FT              1317.0000: 
STEP.FT                 0.2500: 
NULL.                -999.2500: 
COMP.          Pioneer Natural Resources: COMPANY
WELL.              Border 21-3: WELL
FLD.           Purgatoire River: FIELD
LOC.           865' FNL & 1415' FWL: LOCATION
PROV.                 Colorado: PROVINCE
CNTY.               Las Animas: COUNTRY
SRVC.                Patterson: SERVICE COMPANY
DATE.          Tue Dec 14 14:08:05 2004: LOG DATE
UWI.           05 071 08169 00: UNIQUE WELL ID
~Curve Information Block
DEPT.FT            0 000 00 00: Depth
GR.GAPI                       : Gamma Ray
CCL.                          : Casing Collar Locator
TT3.usec                      : CBL 3' Travel Time
AMP3.mV                       : CBL 3' Amplitude
~Parameter Information Block
~A  Depth        GR         CCL         TT3         AMP3    
# ...
   434.0000    107.2393      0.0000    796.7214      9.2131
   434.2500    109.1263      0.0000    801.9142      9.2608
   434.5000    109.9399      0.0000    803.0291      9.3441
   434.7500    109.4341      0.0000    802.5613      9.4626
   435.0000    107.6519      0.0000    803.8523      9.5890
   435.2500    104.8536      0.0000    807.9616      9.6847
   435.5000    101.8839      0.0000    813.1284      9.7211
   435.7500    100.0166      0.0000    816.9506      9.6883
   436.0000     99.9537      0.0000    818.7498      9.5971
   436.2500    101.3511      0.0000    819.8707      9.4782
   436.5000    103.5856      0.0000    821.6992      9.3710
   436.7500    106.4486      0.0000    823.5978      9.3019
   437.0000    109.6713      0.0000    823.5524      9.2717
   437.2500    112.2704      0.0000    821.1697      9.2614
   437.5000    113.0203      0.0000    818.5806      9.2454
   437.7500    111.5286      0.0000    817.5291      9.2029
   438.0000    108.4880      0.0000    816.9012      9.1255
   438.2500    104.9631      0.0000    814.2760      9.0207
   438.5000    101.7526      0.0000    808.8289      8.9095
   438.7500     99.2644      0.0000    801.7726      8.8149
   439.0000     97.6284      0.0000    794.9963      8.7486
   439.2500     96.9517      0.0000    790.1865      8.7086
   439.5000     97.6313      0.0000    788.4382      8.6864
   439.7500    100.2171      0.0000    790.1401      8.6718
   440.0000    104.6845      0.0000    795.5201      8.6513
   440.2500    109.9463      0.0000    804.4702      8.6116
   440.5000    114.5288      0.0000    815.0745      8.5506
   440.7500    117.9890      0.0000    823.6692      8.4858
   441.0000    121.2518      0.0000    827.5322      8.4464
   441.2500    125.1798      0.0000    826.7066      8.4562
   441.5000    129.1947      0.0000    822.6981      8.5194
   441.7500    131.8333      0.0000    816.5237      8.6179
   442.0000    132.3901      0.0000    808.6941      8.7210
   442.2500    131.4630      0.0000    800.2848      8.8050
   442.5000    129.9562      0.0000    793.0331      8.8663
   442.7500    128.1069      0.0000    788.3452      8.9171
   443.0000    125.8330      0.0000    786.6188      8.9707
   443.2500    123.7873      0.0000    787.4713      9.0325
   443.5000    123.4541      0.0000    790.1067      9.1016
   443.7500    125.8120      0.0000    793.3795      9.1731
   444.0000    130.0992      0.0000    796.0943      9.2375
   444.2500    134.2273      0.0000    797.6666      9.2800
   444.5000    136.4384      0.0000    798.3364      9.2896
   444.7500    136.5419      0.0000    798.6697      9.2691
   445.0000    135.7411      0.0000    799.1152      9.2365
   445.2500    135.3988      0.0000    799.8295      9.2154
   445.5000    135.7355      0.0000    800.4396      9.2188
   445.7500    135.6970      0.0000    800.0732      9.2415
   446.0000    134.4884      0.0000    798.0385      9.2659
   446.2500    133.0687      0.0000    794.5502      9.2758
   446.5000    133.3309      0.0000    790.6545      9.2624
   446.7500    135.7352      0.0000    787.4220      9.2229
   447.0000    138.5091      0.0000    785.2905      9.1589
   447.2500    139.3654      0.0000    784.1062      9.0813
   447.5000    137.5771      0.0000    783.5284      9.0142
   447.7500    134.2727      0.0000    783.2894      8.9865
   448.0000    131.1889      0.0000    783.2413      9.0136
   448.2500    129.4399      0.0000    783.3748      9.0880
   448.5000    129.0869      0.0000    783.9238      9.1897
   448.7500    129.2575      0.0000    785.5300      9.3015
   449.0000    128.7103      0.0000    789.3161      9.4142
   449.2500    126.7582      0.0000    796.3940      9.5239
   449.5000    123.8334      0.0000    806.6382      9.6292
   449.7500    121.1757      0.0000    817.7299      9.7258
   450.0000    119.9211      0.0000    826.0198      9.8013
   450.2500    120.3502      0.0000    828.8818      9.8398
   450.5000    121.8692      0.0000    826.1998      9.8373
   450.7500    123.5443      0.0000    819.8079      9.8082
   451.0000    124.5827      0.0000    812.0109      9.7735
   451.2500    124.5796      0.0000    804.2330      9.7443
   451.5000    123.5910      0.0000    796.2271      9.7207
   451.7500    121.9035      0.0000    786.8492      9.6971
   452.0000    119.7405      0.0000    776.1309      9.6615
   452.2500    117.4151      0.0000    765.9973      9.5927
   452.5000    115.6494      0.0000    758.4971      9.4656
   452.7500    115.2663      0.0000    753.9459      9.2746
   453.0000    116.5677      0.0000    751.1441      9.0627
   453.2500    119.3349      0.0000    748.9659      8.9104
   453.5000    123.1716      0.0000    747.6360      8.8603
   453.7500    127.3681      0.0000    748.9151      8.8645
   454.0000    130.6901      0.0000    755.2948      8.8428
   454.2500    131.9803      0.0000    768.5637      8.7752
   454.5000    131.2028      0.0000    788.1826      8.7009
   454.7500    129.6981     -2.0000    810.4252      8.6541
   455.0000    129.1373     -2.0000    829.6246      8.6407
   455.2500    130.0767      2.0000    841.0607      8.6657
   455.5000    131.6266      0.0000    842.8351      8.7581
   455.7500    132.6062      0.0000    835.7540      8.9686
   456.0000    132.5859      0.0000    823.0283      9.3192
   456.2500    131.5367      0.0000    810.0925      9.7357
   456.5000    129.2411      0.0000    802.4823     10.0681
   456.7500    125.8202      0.0000    802.4891     10.2264
   457.0000    122.3248      0.0000    808.2890     10.2634
   457.2500    120.0791      0.0000    816.2568     10.2865
   457.5000    119.7476      0.0000    823.3508     10.3302
   457.7500    121.4302      0.0000    827.6577     10.3501
   458.0000    125.0278      0.0000    828.1348     10.2953
   458.2500    129.8383      0.0000    825.0029     10.1577
   458.5000    134.2184      0.0000    820.2720      9.9752
   458.7500    136.3977      0.0000    816.8107      9.8071
   459.0000    135.7815      0.0000    816.1906      9.6991
   459.2500    133.3097      0.0000    817.3999      9.6652
   459.5000    130.4903      0.0000    817.3452      9.6934
   459.7500    128.0543      0.0000    812.5411      9.7607
   460.0000    125.6299      0.0000    801.4853      9.8460
   460.2500    122.6817      0.0000    786.3149      9.9332
   460.5000    119.4353      0.0000    771.5798     10.0072
   460.7500    116.6996      0.0000    760.9263     10.0514
   461.0000    114.9956      0.0000    755.1718     10.0537
   461.2500    114.1296      0.0000    753.1693     10.0155
   461.5000    113.6881      0.0000    753.4932      9.9538
   461.7500    113.7659      0.0000    755.0256      9.8908
   462.0000    114.8164      0.0000    756.6196      9.8386
   462.2500    116.7499      0.0000    757.0948      9.7942
   462.5000    118.8188      0.0000    755.9244      9.7523
   462.7500    120.6293      0.0000    753.6671      9.7157
   463.0000    122.4108      0.0000    751.4003      9.6919
   463.2500    123.7773      0.0000    749.8293      9.6855
   463.5000    123.0868      0.0000    749.0408      9.6962
   463.7500    118.9255      0.0000    748.8327      9.7162
   464.0000    111.9953      0.0000    749.0278      9.7259
   464.2500    104.9872      0.0000    749.5563      9.7007
   464.5000    100.7300      0.0000    750.4769      9.6279
   464.7500    100.6029      0.0000    751.9821      9.5214
   465.0000    104.2303      0.0000    754.2198      9.4204
   465.2500    110.0276      0.0000    757.0662      9.3688
   465.5000    115.9733      0.0000    760.3516      9.3850
   465.7500    120.3206      0.0000    764.5035      9.4522
   466.0000    122.1423      0.0000    770.6893      9.5406
   466.2500    121.7178      0.0000    779.9653      9.6345
   466.5000    120.6136      0.0000    792.1349      9.7303
   466.7500    120.9229      0.0000    805.2257      9.8189
   467.0000    123.8745      0.0000    816.1262      9.8857
   467.2500    129.0316      0.0000    822.2916      9.9321
