~Version Information
VERS.                      2.0: CWLS Log ASCII Standard - VERSION 2.0
WRAP.                       NO: One line per depth step
~Well Information Block
STRT.FT               650.0000: 
STOP.FT              2085.0000: 
STEP.FT                 0.1000: 
NULL.                -999.2500: 
COMP.          Pioneer Natural Resources: COMPANY
WELL.           Galloway 32-13: WELL
FLD.           Purgatoire River: FIELD
LOC.           1809' FNL & 2004' FEL: LOCATION
PROV.                 Colorado: PROVINCE
CNTY.               Las Animas: COUNTRY
SRVC.                Patterson: SERVICE COMPANY
DATE.          Sat Jul 09 02:17:51 2005: LOG DATE
UWI.           05 071 08423 00: UNIQUE WELL ID
~Curve Information Block
DEPT.FT            0 000 00 00: Depth
DCAL.in                       : CDL Caliper
RHOB.g/cc                     : CDL Bulk Density
RHOC.g/cc                     : CDL Density Correction
DPOR.pu                       : CDL Density Porosity
GR.GAPI                       : Gamma Ray
NPOR.pu                       : Neutron Porosity
~Parameter Information Block
~A  Depth       DCAL        RHOB        RHOC        DPOR         GR         NPOR    
# ...
   842.0000      8.1139      2.4810      0.0388     10.2412    160.0627     28.6228
   842.1000      8.1139      2.4848      0.0470     10.0117    153.9641     28.6043
   842.2000      8.1139      2.4974      0.0403      9.2508    142.9756     28.5432
   842.3000      8.1126      2.5151      0.0300      8.1773    137.4176    -22.3625
   842.4000      8.1126      2.5350      0.0589      6.9708    139.4581    -20.5542
   842.5000      8.1109      2.5611      0.0258      5.3891    142.5946    -19.8919
   842.6000      8.1109      2.6075      0.0665      2.5752    141.0054    -19.8984
   842.7000      8.1109      2.6642      0.1542     -0.8613    132.1281    -20.0612
   842.8000      8.1112      2.7114      0.1388     -3.7186    120.6349    -20.9075
   842.9000      8.1112      2.7553      0.0611     -6.3810    115.0142    -22.7406
   843.0000      8.1130      2.7881      0.1413     -8.3692    117.6824    -27.4663
   843.1000      8.1130      2.7800      0.0687     -7.8803    122.0391    -40.6412
   843.2000      8.1130      2.7320      0.0263     -4.9718    123.3663    -66.8102
   843.3000      8.1134      2.6601     -0.0130     -0.6148    125.8691    -98.2492
   843.4000      8.1134      2.5737     -0.0592      4.6250    131.6436   -115.7470
   843.5000      8.1124      2.4975     -0.0952      9.2398    137.4796   -114.9112
   843.6000      8.1124      2.4581     -0.0689     11.6294    142.6689   -111.8362
   843.7000      8.1124      2.4495     -0.0392     12.1528    151.7425   -115.2523
   843.8000      8.1125      2.4468      0.0019     12.3125    167.2777   -112.9793
   843.9000      8.1125      2.4357      0.0570     12.9898    181.3918    -89.6234
   844.0000      8.1142      2.4237     -0.0065     13.7178    185.2526    -57.9482
   844.1000      8.1142      2.4263      0.0439     13.5604    180.2949    -30.0651
   844.2000      8.1142      2.4413      0.0351     12.6456    172.9316     -7.7247
   844.3000      8.1151      2.4607      0.0540     11.4746    169.0287      1.9263
   844.4000      8.1151      2.4747      0.1055     10.6248    168.2821      7.2015
   844.5000      8.1168      2.4668      0.1082     11.1007    165.7093     10.3297
   844.6000      8.1168      2.4333      0.0168     13.1317    159.8829     11.9467
   844.7000      8.1168      2.3837      0.0107     16.1418    153.6249     13.9999
   844.8000      8.1243      2.3197      0.0013     20.0196    151.9545     15.8340
   844.9000      8.1243      2.2397      0.0178     24.8689    157.5519     16.8704
   845.0000      8.1370      2.1649     -0.0219     29.4014    168.1272     17.7533
   845.1000      8.1370      2.1335     -0.0373     31.3054    178.4905     19.4337
   845.2000      8.1370      2.1532     -0.0003     30.1083    184.6049     22.2640
   845.3000      8.1516      2.2019      0.0743     27.1565    185.5061     23.8766
   845.4000      8.1516      2.2669      0.1070     23.2162    180.9747     22.2258
   845.5000      8.1741      2.3487      0.1732     18.2588    175.4318     20.2015
   845.6000      8.1741      2.4405      0.3049     12.6958    172.8387     20.4665
   845.7000      8.1741      2.5123      0.4845      8.3474    170.1026     21.7690
   845.8000      8.2049      2.5200      0.5165      7.8809    165.3584     23.2678
   845.9000      8.2049      2.4432      0.4244     12.5354    160.1071     25.4125
   846.0000      8.2311      2.3095      0.2081     20.6351    151.8837     27.0454
   846.1000      8.2311      2.1800      0.0479     28.4863    141.3611     26.8928
   846.2000      8.2311      2.0955      0.0122     33.6031    134.3390     25.8937
   846.3000      8.2395      2.0556      0.0040     36.0257    132.7623     25.3461
   846.4000      8.2395      2.0486      0.0159     36.4496    135.5490     25.1542
   846.5000      8.2327      2.0724     -0.0050     35.0047    142.5603     25.5463
   846.6000      8.2327      2.1259      0.0623     31.7616    151.1375     27.3935
   846.7000      8.2327      2.1986      0.1417     27.3576    155.6854     29.9081
   846.8000      8.2267      2.2762      0.2011     22.6523    154.6485     30.2402
   846.9000      8.2267      2.3445      0.2026     18.5175    149.6340     27.1016
   847.0000      8.2278      2.3987      0.1599     15.2307    141.6939     23.2380
   847.1000      8.2278      2.4426      0.1580     12.5704    136.1000     21.5621
   847.2000      8.2278      2.4696      0.1271     10.9316    136.6360     21.3742
   847.3000      8.2290      2.4768      0.0888     10.4951    136.5806     20.7694
   847.4000      8.2290      2.4765      0.0986     10.5164    133.7426     19.4375
   847.5000      8.2224      2.4860      0.0446      9.9398    136.3491     18.4627
   847.6000      8.2224      2.5107      0.0735      8.4417    144.9011     19.0083
   847.7000      8.2224      2.5270      0.1275      7.4522    150.0413     19.8961
   847.8000      8.2056      2.5159      0.0575      8.1303    146.1530     18.8363
   847.9000      8.2056      2.4874      0.0852      9.8546    133.8752     16.4611
   848.0000      8.1882      2.4646      0.0148     11.2380    117.5901     15.3209
   848.1000      8.1882      2.4711      0.0411     10.8395    105.3816     15.7381
   848.2000      8.1882      2.5050      0.0755      8.7869     99.0546     15.9584
   848.3000      8.1704      2.5395      0.0903      6.6993     94.1566     15.3810
   848.4000      8.1704      2.5524      0.1251      5.9137     89.7294     14.9888
   848.5000      8.1313      2.5362      0.0941      6.8972     87.2162     14.3589
   848.6000      8.1313      2.5024      0.0560      8.9448     87.1839     12.5581
   848.7000      8.1313      2.4839     -0.0274     10.0689     89.0266     11.0334
   848.8000      8.0773      2.5083      0.0342      8.5879     90.0739     11.0653
   848.9000      8.0773      2.5648      0.0379      5.1642     87.4546     11.1621
   849.0000      8.0418      2.6225      0.1129      1.6693     82.9479      9.5480
   849.1000      8.0418      2.6545      0.1336     -0.2752     79.5775      8.0355
   849.2000      8.0418      2.6470      0.1060      0.1841     76.7998      8.3341
   849.3000      8.0307      2.6143      0.0200      2.1660     73.2921      9.5700
   849.4000      8.0307      2.5851      0.0368      3.9313     70.7683     10.6647
   849.5000      8.0303      2.5676      0.0244      4.9957     72.8576     11.8660
   849.6000      8.0303      2.5545      0.0216      5.7882     79.6328     12.8091
   849.7000      8.0303      2.5374      0.0634      6.8217     85.2391     12.7137
   849.8000      8.0340      2.5154     -0.0184      8.1573     84.6713     11.9008
   849.9000      8.0340      2.5033     -0.0095      8.8935     80.5451     10.9760
   850.0000      8.0412      2.5090      0.0066      8.5443     78.6238     10.4049
   850.1000      8.0412      2.5254      0.0166      7.5493     78.6335     10.5945
   850.2000      8.0412      2.5352      0.0467      6.9578     76.5316     11.0377
   850.3000      8.0459      2.5219      0.0377      7.7646     73.8051     11.2436
   850.4000      8.0459      2.4991     -0.0235      9.1483     72.8580     11.2819
   850.5000      8.0394      2.4893      0.0528      9.7375     72.7097     10.9270
   850.6000      8.0394      2.4887      0.0294      9.7773     73.2366     10.2510
   850.7000      8.0394      2.4913      0.0633      9.6195     75.1730      9.8857
   850.8000      8.0236      2.4913      0.0522      9.6184     78.0128     10.0043
   850.9000      8.0236      2.4797      0.0347     10.3217     81.5781     10.6353
   851.0000      8.0083      2.4721      0.0201     10.7799     89.1748     11.7944
   851.1000      8.0083      2.4977     -0.0182      9.2330    101.0624     12.1653
   851.2000      8.0083      2.5462      0.0870      6.2898    110.6980     11.3720
   851.3000      8.0046      2.5712      0.1080      4.7743    114.3252     11.2660
   851.4000      8.0046      2.5606      0.1077      5.4174    115.1741     11.9654
   851.5000      8.0173      2.5473      0.0484      6.2233    118.0328     12.0381
