~Version Information
VERS.                      2.0: CWLS Log ASCII Standard - VERSION 2.0
WRAP.                       NO: One line per depth step
~Well Information Block
STRT.FT                -8.0000: 
STOP.FT              1540.2500: 
STEP.FT                 0.2500: 
NULL.                -999.2500: 
COMP.          Pioneer Natural Resources: COMPANY
WELL.           Telna 24-22 Tr: WELL
FLD.           Purgatorie River: FIELD
LOC.           748' FSL & 1931' FWL--: LOCATION
PROV.                       CO: PROVINCE
CNTY.               Las Animas: COUNTRY
SRVC.          Patterson Wireline: SERVICE COMPANY
DATE.          Fri May 06 12:29:21 2005: LOG DATE
UWI.           05 071 08304 00: UNIQUE WELL ID
~Curve Information Block
DEPT.FT            0 000 00 00: Depth
CCL.                          : Casing Collar Locator
TT3.usec                      : CBL 3' Travel Time
AMP3.mV                       : CBL 3' Amplitude
GR.GAPI                       : Gamma Ray
~Parameter Information Block
~A  Depth       CCL         TT3         AMP3         GR     
# ...
   595.0000      0.0000    877.4182      5.5081    152.5534
   595.2500      0.0000    882.3704      5.4662    148.4047
   595.5000      0.0000    887.9241      5.4151    143.2323
   595.7500      0.0000    891.9371      5.3560    139.8179
   596.0000      0.0000    893.3585      5.2854    139.5126
   596.2500      0.0000    891.9789      5.2147    140.8119
   596.5000      0.0000    887.9849      5.1710    140.5731
   596.7500      0.0000    882.2782      5.1709    136.9807
   597.0000      0.0000    876.5673      5.2019    131.0292
   597.2500      0.0000    872.3849      5.2359    124.9276
   597.5000      0.0000    870.1376      5.2513    119.5607
   597.7500      0.0000    869.3127      5.2374    114.0240
   598.0000      0.0000    869.3397      5.1943    107.3451
   598.2500      0.0000    870.1354      5.1411    100.0602
   598.5000      0.0000    872.0868      5.1184     94.1815
   598.7500      0.0000    875.7099      5.1632     92.0405
   599.0000      0.0000    881.3076      5.2710     94.9822
   599.2500      0.0000    888.7795      5.3826    102.6402
   599.5000      0.0000    897.3112      5.4214    113.1049
   599.7500      0.0000    904.8372      5.3526    123.7392
   600.0000      0.0000    908.3193      5.2134    132.2071
   600.2500      0.0000    905.6431      5.0875    137.3141
   600.5000      0.0000    897.5553      5.0460    139.0691
   600.7500      0.0000    887.1870      5.1009    137.9304
   601.0000      0.0000    877.3582      5.2041    134.3210
   601.2500      0.0000    868.2640      5.2848    129.1713
   601.5000      0.0000    857.8690      5.2901    124.3475
   601.7500      0.0000    845.2046      5.1929    121.4624
   602.0000      0.0000    833.7211      4.9814    120.1984
   602.2500      0.0000    830.2404      4.6634    118.4727
   602.5000      0.0000    839.2058      4.2880    114.1877
   602.7500      0.0000    858.7744      3.9453    106.5535
   603.0000      0.0000    884.0843      3.7262     96.4749
   603.2500      0.0000    913.2097      3.6747     86.4629
   603.5000     -2.0000    947.7272      3.7678     79.7901
   603.7500     -2.0000    987.4136      3.9317     78.9236
   604.0000     -2.0000   1025.7761      4.0815     84.2577
   604.2500      0.0000   1051.5245      4.1726     94.0054
   604.5000      0.0000   1054.8851      4.2242    105.3131
   604.7500      0.0000   1034.1946      4.2892    115.7619
   605.0000      0.0000    998.0374      4.3971    123.8811
   605.2500      0.0000    960.1225      4.5360    128.4566
   605.5000      0.0000    930.4648      4.6920    128.2346
   605.7500      0.0000    911.1167      4.8847    122.9372
   606.0000      0.0000    899.3077      5.1385    114.1192
   606.2500      0.0000    892.3251      5.4315    104.1985
   606.5000      0.0000    888.6976      5.7013     94.6740
   606.7500      0.0000    886.8131      5.9007     85.7666
   607.0000      0.0000    884.9243      6.0258     77.6490
   607.2500      0.0000    882.7670      6.0956     71.2989
   607.5000      0.0000    881.8616      6.1276     67.8164
   607.7500      0.0000    883.4341      6.1372     67.1537
   608.0000      0.0000    886.4055      6.1392     67.8767
   608.2500      0.0000    887.9379      6.1387     68.4037
   608.5000      0.0000    885.9325      6.1295     68.4143
   608.7500      0.0000    880.7612      6.1076     68.7403
   609.0000      0.0000    874.5392      6.0732     69.9688
   609.2500      0.0000    868.9814      6.0248     71.7384
   609.5000      0.0000    864.2218      5.9616     73.5349
   609.7500      0.0000    859.6536      5.8871     75.5222
   610.0000      0.0000    855.5529      5.8126     78.1244
   610.2500      0.0000    853.2356      5.7596     80.9564
   610.5000      0.0000    853.0940      5.7428     82.5736
   610.7500      0.0000    852.9808      5.7488     81.5718
   611.0000      0.0000    849.7562      5.7548     77.8992
   611.2500      0.0000    842.5980      5.7592     72.8164
   611.5000      0.0000    833.8865      5.7699     67.7270
   611.7500      0.0000    826.8107      5.7798     63.4159
   612.0000      0.0000    823.0164      5.7763     60.1434
   612.2500      0.0000    822.5959      5.7604     57.8749
   612.5000      0.0000    825.2868      5.7406     56.4628
   612.7500      0.0000    830.9249      5.7191     55.9244
   613.0000      0.0000    838.8483      5.6906     56.4289
   613.2500      0.0000    847.3707      5.6515     57.8598
   613.5000      0.0000    854.2555      5.6088     59.6418
   613.7500      0.0000    857.7338      5.5699     61.2237
   614.0000      0.0000    856.9797      5.5261     62.5535
   614.2500      0.0000    852.0183      5.4656     63.8644
   614.5000      0.0000    843.8850      5.3996     65.0970
   614.7500      0.0000    834.9096      5.3593     65.7814
   615.0000      0.0000    828.1688      5.3594     65.4892
   615.2500      0.0000    826.0801      5.3801     64.2889
   615.5000      0.0000    829.1700      5.3920     62.8949
   615.7500      0.0000    835.7038      5.3876     62.6167
   616.0000      0.0000    842.2566      5.3805     65.1201
   616.2500      0.0000    845.3413      5.3782     71.8646
   616.5000      0.0000    843.3297      5.3691     83.1732
   616.7500      0.0000    837.1000      5.3387     97.3524
   617.0000      0.0000    829.1458      5.2856    110.9485
   617.2500      0.0000    822.7029      5.2165    120.7097
   617.5000      0.0000    821.3765      5.1359    125.6724
   617.7500      0.0000    827.8092      5.0494    127.1412
   618.0000      0.0000    841.4063      4.9726    126.9682
   618.2500      0.0000    857.6635      4.9260    126.5258
   618.5000      0.0000    870.5474      4.9164    126.8344
   618.7500      0.0000    876.2144      4.9291    128.3764
   619.0000      0.0000    875.0488      4.9433    130.5961
   619.2500      0.0000    870.5017      4.9579    132.3820
   619.5000      0.0000    866.1425      4.9954    133.0425
   619.7500      0.0000    863.6840      5.0768    132.4529
   620.0000      0.0000    863.1547      5.1950    130.7449
   620.2500      0.0000    864.2058      5.3140    128.3407
   620.5000      0.0000    867.0301      5.3977    125.8461
   620.7500      0.0000    872.0906      5.4418    123.6298
   621.0000      0.0000    878.8216      5.4721    121.9396
   621.2500      0.0000    884.7856      5.5070    121.4463
   621.5000      0.0000    886.9394      5.5309    122.7958
   621.7500      0.0000    884.2213      5.5166    125.2503
   622.0000      0.0000    878.3862      5.4685    126.6329
   622.2500      0.0000    871.9226      5.4305    125.3956
   622.5000      0.0000    865.6354      5.4418    122.3362
   622.7500      0.0000    858.6377      5.4943    119.5563
   623.0000      0.0000    850.3371      5.5420    118.2676
   623.2500      0.0000    842.0115      5.5484    118.5396
   623.5000      0.0000    836.3454      5.5131    120.3818
   623.7500      0.0000    835.3889      5.4609    123.6848
   624.0000      0.0000    838.7508      5.4186    127.5185
   624.2500      0.0000    843.5928      5.3989    130.6819
   624.5000      0.0000    846.6711      5.3918    132.7951
   624.7500      0.0000    846.9045      5.3748    134.2040
   625.0000      0.0000    846.0765      5.3351    135.0720
   625.2500      0.0000    846.7910      5.2822    134.9635
   625.5000      0.0000    849.7711      5.2355    133.0964
   625.7500      0.0000    853.2877      5.2079    128.8619
   626.0000      0.0000    854.8973      5.2055    122.3907
   626.2500      0.0000    853.4802      5.2330    114.9210
   626.5000      0.0000    850.0991      5.2887    108.6731
   626.7500      0.0000    847.3619      5.3562    105.9398
   627.0000      0.0000    847.5057      5.4106    107.8264
   627.2500      0.0000    850.5566      5.4327    113.7248
   627.5000      0.0000    854.3793      5.4172    121.9202
   627.7500      0.0000    856.6135      5.3698    130.5178
   628.0000      0.0000    856.5359      5.3003    137.9660
   628.2500      0.0000    855.3556      5.2169    143.3389
