~Version Information
VERS.                      2.0: CWLS Log ASCII Standard - VERSION 2.0
WRAP.                       NO: One line per depth step
~Well Information Block
STRT.FT               440.0000: 
STOP.FT              1001.5000: 
STEP.FT                 0.1000: 
NULL.                -999.2500: 
COMP.          Pioneer Natural Resources: COMPANY
WELL.              Dylan 42-25: WELL
FLD.           Purgatoire River: FIELD
LOC.           2160' FNL & 855' FEL: LOCATION
PROV.                 Colorado: PROVINCE
CNTY.               Las Animas: COUNTRY
SRVC.                Patterson: SERVICE COMPANY
DATE.          Mon Apr 25 09:31:16 2005: LOG DATE
UWI.           05 071 08229 00: UNIQUE WELL ID
~Curve Information Block
DEPT.FT            0 000 00 00: Depth
DCAL.in                       : CDL Caliper
RHOB.g/cc                     : CDL Bulk Density
RHOC.g/cc                     : CDL Density Correction
DPOR.pu                       : CDL Density Porosity
GR.GAPI                       : Gamma Ray
NPOR.pu                       : Neutron Porosity
~Parameter Information Block
~A  Depth       DCAL        RHOB        RHOC        DPOR         GR         NPOR    
# ...
   478.4000      7.9172      2.5298      0.0755      7.2837    189.2142     26.9961
   478.5000      7.9290      2.5478      0.0897      6.1955    187.0256     27.0630
   478.6000      7.9290      2.5756      0.0895      4.5079    184.9737     27.1131
   478.7000      7.9290      2.6024      0.1635      2.8829    182.8521     26.9796
   478.8000      7.9312      2.6059      0.1822      2.6728    180.5616     26.8635
   478.9000      7.9312      2.5850      0.1224      3.9394    178.9356     26.6484
   479.0000      7.9403      2.5642      0.1096      5.1997    179.1151     26.3316
   479.1000      7.9403      2.5441      0.1260      6.4199    179.9662     26.1934
   479.2000      7.9403      2.5114      0.0701      8.3974    180.7601     26.3956
   479.3000      7.9443      2.4776      0.0109     10.4515    180.1522     26.8325
   479.4000      7.9443      2.4590      0.0202     11.5735    174.5458     27.1518
   479.5000      7.9513      2.4686      0.0217     10.9911    166.3262     27.0130
   479.6000      7.9513      2.5148      0.0415      8.1970    160.4625     26.4926
   479.7000      7.9513      2.5765      0.1388      4.4569    156.6241     26.1735
   479.8000      7.9540      2.6167      0.1329      2.0184    154.0189     26.3059
   479.9000      7.9540      2.6196      0.0813      1.8409    152.4407     26.4013
   480.0000      7.9640      2.6008      0.0721      2.9831    148.7569     25.8891
   480.1000      7.9640      2.5854      0.0616      3.9144    140.3716     24.8813
   480.2000      7.9640      2.5803      0.0269      4.2234    129.0504     24.1275
   480.3000      7.9801      2.5693      0.1019      4.8938    121.2351     24.1174
   480.4000      7.9801      2.5365      0.0787      6.8795    122.6389     24.3095
   480.5000      7.9404      2.4959     -0.0347      9.3383    129.7955     23.9221
   480.6000      7.9404      2.4739     -0.0227     10.6721    132.4357     23.1659
   480.7000      7.9404      2.4691      0.0290     10.9632    126.5481     22.7209
   480.8000      7.9237      2.4646     -0.0216     11.2376    117.8700     22.7464
   480.9000      7.9237      2.4556      0.0334     11.7789    111.8353     22.9485
   481.0000      7.9308      2.4428      0.0437     12.5581    109.8410     23.2524
   481.1000      7.9308      2.4320      0.0170     13.2110    112.0222     23.5711
   481.2000      7.9308      2.4337     -0.0018     13.1080    116.5989     23.5223
   481.3000      7.9416      2.4470      0.0634     12.3034    122.1790     23.1218
   481.4000      7.9416      2.4606      0.0760     11.4764    130.7804     22.6943
   481.5000      7.9454      2.4658      0.1005     11.1625    142.7593     22.2417
   481.6000      7.9454      2.4635      0.0905     11.3042    151.5797     22.0135
   481.7000      7.9454      2.4676      0.0698     11.0558    151.3453     22.3625
   481.8000      7.9375      2.4849      0.1328     10.0078    143.4851     22.9227
   481.9000      7.9375      2.5119      0.1413      8.3689    136.7693     23.1819
   482.0000      7.9141      2.5410      0.1782      6.6054    139.1256     23.2342
   482.1000      7.9141      2.5569      0.1562      5.6432    148.8225     23.3187
   482.2000      7.9141      2.5612      0.1652      5.3795    156.9168     23.3623
   482.3000      7.8671      2.5634      0.1597      5.2476    159.7809     23.1746
   482.4000      7.8671      2.5548      0.1112      5.7722    161.1012     22.6069
   482.5000      7.8670      2.5304      0.0747      7.2512    159.0128     21.8677
   482.6000      7.8670      2.5032      0.0377      8.8992    152.7167     21.4605
   482.7000      7.8670      2.4810      0.0921     10.2423    147.7150     21.5144
   482.8000      7.9033      2.4591      0.0220     11.5673    147.0269     21.7374
   482.9000      7.9033      2.4423      0.0249     12.5907    146.6728     21.9718
   483.0000      7.9265      2.4466      0.0043     12.3247    138.9942     22.2158
   483.1000      7.9265      2.4802      0.0262     10.2909    126.8406     22.5450
   483.2000      7.9265      2.5231      0.1202      7.6910    122.2911     22.8986
   483.3000      7.9365      2.5513      0.0966      5.9846    129.0011     23.0702
   483.4000      7.9365      2.5702      0.1114      4.8389    138.5397     23.1501
   483.5000      7.9249      2.5936      0.0824      3.4172    143.6684     23.2531
   483.6000      7.9249      2.6194      0.1555      1.8575    144.1390     23.2408
   483.7000      7.9249      2.6358      0.1114      0.8602    142.0980     23.2924
   483.8000      7.9402      2.6366      0.1197      0.8146    139.1090     23.7857
   483.9000      7.9402      2.6180      0.1066      1.9417    135.4502     24.6265
   484.0000      7.8866      2.5835      0.0879      4.0328    132.1663     25.3444
   484.1000      7.8866      2.5485     -0.0147      6.1539    134.1151     25.5231
   484.2000      7.8866      2.5306      0.0164      7.2348    143.4233     25.2584
   484.3000      7.8888      2.5366      0.0416      6.8742    152.5495     24.9930
   484.4000      7.8888      2.5586      0.0875      5.5408    155.1649     24.9101
   484.5000      7.9566      2.5834      0.0803      4.0382    153.0550     25.0485
   484.6000      7.9566      2.6006      0.0902      2.9941    149.9603     25.4568
   484.7000      7.9566      2.6042      0.1183      2.7744    148.2299     25.7838
   484.8000      7.9727      2.6019      0.0547      2.9163    148.5908     25.6385
   484.9000      7.9727      2.6099      0.0453      2.4308    147.8026     25.4460
   485.0000      7.9659      2.6283      0.0517      1.3168    144.9688     25.6828
   485.1000      7.9659      2.6396      0.1091      0.6328    144.3645     26.2357
   485.2000      7.9659      2.6329      0.1034      1.0379    144.7511     26.6593
   485.3000      7.9550      2.6206      0.0567      1.7796    140.2624     26.6611
   485.4000      7.9550      2.6144      0.1054      2.1551    132.9945     26.4398
   485.5000      7.9513      2.6077      0.0764      2.5659    130.8368     26.2748
   485.6000      7.9513      2.5940      0.0657      3.3939    134.4169     26.1077
   485.7000      7.9513      2.5742      0.0642      4.5923    137.8564     25.8858
   485.8000      7.9423      2.5595      0.0127      5.4823    141.0352     25.7922
   485.9000      7.9423      2.5588      0.0425      5.5296    147.7531     25.6342
   486.0000      7.9256      2.5562      0.0641      5.6856    156.4138     25.1779
   486.1000      7.9256      2.5400      0.0807      6.6645    160.5418     24.8338
   486.2000      7.9256      2.5274      0.0750      7.4318    157.1508     24.8600
   486.3000      7.9310      2.5294      0.1087      7.3063    151.8194     24.9500
   486.4000      7.9310      2.5345      0.0981      7.0025    151.2430     24.9276
   486.5000      7.9256      2.5380      0.0690      6.7899    153.6824     24.7748
   486.6000      7.9256      2.5463      0.0767      6.2842    151.5366     24.4405
   486.7000      7.9256      2.5595      0.1092      5.4840    142.6316     24.0366
   486.8000      7.9222      2.5751      0.1029      4.5411    133.7070     23.7647
   486.9000      7.9222      2.5934      0.1266      3.4288    129.0045     23.6824
   487.0000      7.9280      2.6068      0.1427      2.6172    125.4296     23.4870
   487.1000      7.9280      2.6007      0.1388      2.9864    119.4621     22.7211
   487.2000      7.9280      2.5763      0.0961      4.4653    111.7739     21.5397
   487.3000      7.9335      2.5520      0.0770      5.9400    104.7349     20.5837
   487.4000      7.9335      2.5335      0.0865      7.0619     97.3321     20.0656
   487.5000      7.9329      2.5105      0.0720      8.4550     89.4146     19.6733
   487.6000      7.9329      2.4816      0.0441     10.2047     85.2070     19.2367
   487.7000      7.9329      2.4545      0.0007     11.8514     85.8899     19.0043
   487.8000      7.9222      2.4323     -0.0033     13.1925     86.0309     19.0710
   487.9000      7.9222      2.4192     -0.0004     13.9868     82.0046     19.1728
