~Version Information
VERS.                      2.0: CWLS Log ASCII Standard - VERSION 2.0
WRAP.                       NO: One line per depth step
~Well Information Block
STRT.FT                 0.0000: 
STOP.FT              2025.0000: 
STEP.FT                 0.2500: 
NULL.                -999.2500: 
COMP.          Petrogulf Corporation: COMPANY
WELL.          Robinson 15-12V: WELL
FLD.           Purgatorie River: FIELD
LOC.           1788' FNL & 466' FWL: LOCATION
PROV.                 Colorado: PROVINCE
CNTY.               Las Animas: COUNTRY
SRVC.                Patterson: SERVICE COMPANY
DATE.          Tue Oct 04 11:57:31 2005: LOG DATE
UWI.                          : UNIQUE WELL ID
~Curve Information Block
DEPT.FT            0 000 00 00: Depth
GR.GAPI                       : Gamma Ray
CCL.                          : Casing Collar Locator
TT3.usec                      : CBL 3' Travel Time
AMP3.mV                       : CBL 3' Amplitude
~Parameter Information Block
~A  Depth        GR         CCL         TT3         AMP3    
     0.0000   -999.2500   -999.2500   1200.0000      1.7722
     0.2500   -999.2500      0.0000   1200.0000      1.7651
     0.5000   -999.2500      0.0000   1200.0000      1.7645
     0.7500   -999.2500      0.0000   1200.0000      1.7728
     1.0000   -999.2500      0.0000   1200.0000      1.7742
     1.2500   -999.2500      0.0000   1200.0000      1.7630
     1.5000   -999.2500      0.0000   1200.0000      1.7445
     1.7500   -999.2500      0.0000   1200.0000      1.7312
     2.0000   -999.2500      0.0000   1200.0000      1.7352
     2.2500   -999.2500      0.0000   1200.0000      1.7542
     2.5000   -999.2500      0.0000   1200.0000      1.7742
     2.7500   -999.2500      0.0000   1200.0000      1.7915
     3.0000   -999.2500      0.0000   1200.0000      1.8103
     3.2500   -999.2500      0.0000   1200.0000      1.8242
     3.5000   -999.2500      0.0000   1200.0000      1.8230
     3.7500   -999.2500      0.0000   1200.0000      1.8065
     4.0000   -999.2500      0.0000   1200.0000      1.7792
     4.2500   -999.2500      0.0000   1200.0000      1.7442
     4.5000   -999.2500      0.0000   1200.0000      1.7096
     4.7500   -999.2500      0.0000   1200.0000      1.6935
     5.0000     81.9930      0.0000   1200.0000      1.7129
     5.2500     81.8852      0.0000   1200.0000      1.7567
     5.5000     81.7942      0.0000   1200.0000      1.7906
     5.7500     81.5810      0.0000   1200.0000      1.7942
     6.0000     81.0755      0.0000   1200.0000      1.7719
     6.2500     80.1299      0.0000   1200.0000      1.7392
     6.5000     78.4301      0.0000   1200.0000      1.7136
     6.7500     75.5978      0.0000   1200.0000      1.7018
     7.0000     71.6463      0.0000   1200.0000      1.6951
     7.2500     67.2229      0.0000   1200.0000      1.6851
     7.5000     63.2900      0.0000   1200.0000      1.6706
     7.7500     60.4893      0.0000   1200.0000      1.6577
     8.0000     58.8005      0.0000   1200.0000      1.6589
     8.2500     57.9325      0.0000   1200.0000      1.6769
     8.5000     57.9609      0.0000   1200.0000      1.6952
     8.7500     59.2578      0.0000   1200.0000      1.7020
     9.0000     61.7089      0.0000   1200.0000      1.7055
     9.2500     64.3004      0.0000   1199.9563      1.7196
     9.5000     65.7850      0.0000   1199.4528      1.7505
     9.7500     65.7366      0.0000   1195.6927      1.8248
    10.0000     64.7724      0.0000   1177.6127      2.0762
    10.2500     63.7562      0.0000   1120.7079      3.0214
    10.5000     62.9967      0.0000   1000.4383      6.2845
    10.7500     62.3247      0.0000    821.4996     15.0621
    11.0000     61.6900      0.0000    622.1359     31.4924
    11.2500     61.2797      0.0000    449.6615     51.8204
    11.5000     61.0552      0.0000    336.7003     68.1378
    11.7500     60.6670      0.0000    284.0072     76.5917
    12.0000     60.1019      0.0000    267.3879     79.4294
    12.2500     60.0915      0.0000    263.9476     80.0897
    12.5000     61.4776      0.0000    263.4760     80.2810
    12.7500     64.2375      0.0000    263.4055     80.4294
    13.0000     67.4103      0.0000    263.3729     80.5440
    13.2500     69.9820      0.0000    263.3647     80.5779
    13.5000     71.6960      0.0000    263.3924     80.5386
    13.7500     72.9890      0.0000    263.4335     80.5020
    14.0000     74.1799      0.0000    263.4510     80.5574
    14.2500     74.8470      0.0000    263.4329     80.7284
    14.5000     74.2595      0.0000    263.3982     80.9488
    14.7500     72.3655      0.0000    263.3680     81.1311
    15.0000     69.9618      0.0000    263.3473     81.2424
    15.2500     67.8643      0.0000    263.3303     81.3083
    15.5000     66.2429      0.0000    263.3140     81.3569
    15.7500     64.7612      0.0000    263.3056     81.3869
    16.0000     63.0492      0.0000    263.3138     81.3965
    16.2500     60.9533      0.0000    263.3357     81.4035
    16.5000     58.5468      0.0000    263.3515     81.4313
    16.7500     56.1886      0.0000    263.3383     81.5014
    17.0000     54.5827      0.0000    263.2997     81.6128
    17.2500     54.3888      0.0000    263.2772     81.7121
    17.5000     55.5402      0.0000    263.3040     81.7392
    17.7500     57.1838      0.0000    263.3617     81.6965
    18.0000     58.3762      0.0000    263.4091     81.6213
    18.2500     58.5886      0.0000    263.4301     81.5357
    18.5000     57.6883      0.0000    263.4350     81.4529
    18.7500     55.9944      0.0000    263.4389     81.3832
    19.0000     54.2987      0.0000    263.4495     81.3161
    19.2500     53.3706      0.0000    263.4715     81.2107
    19.5000     53.3846      0.0000    263.5051     81.0342
    19.7500     53.9717      0.0000    263.5392     80.8242
    20.0000     54.7188      0.0000    263.5592     80.6645
    20.2500     55.6191      2.0000    263.5584     80.5987
    20.5000     57.1685      0.0000    263.5442     80.6040
    20.7500     59.9078      0.0000    263.5344     80.6330
    21.0000     63.6185      0.0000    263.5372     80.6699
    21.2500     67.0608      0.0000    263.5447     80.7277
    21.5000     68.8637      0.0000    263.5511     80.8040
    21.7500     68.8369      0.0000    263.5609     80.8745
    22.0000     68.3332      0.0000    263.5765     80.9231
    22.2500     69.2109      0.0000    263.5859     80.9684
    22.5000     72.2681      0.0000    263.5743     81.0402
    22.7500     76.5802      0.0000    263.5488     81.1187
    23.0000     80.3702      0.0000    263.5280     81.1581
    23.2500     82.6093      0.0000    263.5126     81.1698
    23.5000     83.7539      0.0000    263.4920     81.2058
    23.7500     84.9116      0.0000    263.4661     81.2882
    24.0000     86.4857      0.0000    263.4426     81.4004
    24.2500     87.9146      0.0000    263.4299     81.5020
    24.5000     88.6665      0.0000    263.4297     81.5590
    24.7500     89.1257      0.0000    263.4334     81.5747
    25.0000     90.1819      0.0000    263.4324     81.5852
    25.2500     92.0521      0.0000    263.4290     81.6229
    25.5000     93.8224      0.0000    263.4286     81.6777
    25.7500     94.2078      0.0000    263.4239     81.7263
    26.0000     92.6667      0.0000    263.4028     81.7885
    26.2500     89.8259      0.0000    263.3713     81.8904
    26.5000     86.9454      0.0000    263.3505     81.9957
    26.7500     85.1080      0.0000    263.3555     82.0390
    27.0000     84.8829      0.0000    263.3852     82.0035
    27.2500     86.3081      0.0000    263.4257     81.9248
    27.5000     88.7175      0.0000    263.4565     81.8594
    27.7500     90.7371      0.0000    263.4590     81.8634
    28.0000     91.0940      0.0000    263.4351     81.9421
    28.2500     89.8415      0.0000    263.4055     82.0322
    28.5000     88.6162      0.0000    263.3867     82.0720
    28.7500     89.3500      0.0000    263.3753     82.0590
    29.0000     92.5641      0.0000    263.3591     82.0214
    29.2500     96.8319      0.0000    263.3391     81.9694
    29.5000     99.7474      0.0000    263.3262     81.9040
    29.7500     99.5239      0.0000    263.3233     81.8385
    30.0000     96.1368      0.0000    263.3228     81.7878
    30.2500     91.3444      0.0000    263.3156     81.7562
    30.5000     87.4879      0.0000    263.2980     81.7431
    30.7500     85.8837      0.0000    263.2769     81.7382
    31.0000     86.1361      0.0000    263.2615     81.7108
    31.2500     86.9594      0.0000    263.2480     81.6443
    31.5000     87.4860      0.0000    263.2223     81.5653
    31.7500     87.5936      0.0000    263.1896     81.4543
    32.0000     87.2702      0.0000    263.2233     81.0665
    32.2500     86.3057      0.0000    263.5529     79.8328
    32.5000     84.7660      0.0000    264.6688     77.1830
    32.7500     83.3157      0.0000    267.3031     73.2199
    33.0000     82.7078      0.0000    271.9670     68.8256
    33.2500     82.9940      0.0000    277.5439     65.1179
