~Version Information
VERS.                      2.0: CWLS Log ASCII Standard - VERSION 2.0
WRAP.                       NO: One line per depth step
~Well Information Block
STRT.FT               -12.2500: 
STOP.FT              2595.7500: 
STEP.FT                 0.2500: 
NULL.                -999.2500: 
COMP.          Petrogulf Corporation: COMPANY
WELL.            Montoya 1-44V: WELL
FLD.           Purgatoire River: FIELD
LOC.           753' FSL & 990' FEL--: LOCATION
PROV.                       CO: PROVINCE
CNTY.               Las Aniams: COUNTRY
SRVC.          Patterson Wireline: SERVICE COMPANY
DATE.          Mon Jun 13 11:58:10 2005: LOG DATE
UWI.           05 071 08142 00: UNIQUE WELL ID
~Curve Information Block
DEPT.FT            0 000 00 00: Depth
CCL.                          : Casing Collar Locator
TT3.usec                      : CBL 3' Travel Time
AMP3.mV                       : CBL 3' Amplitude
GR.GAPI                       : Gamma Ray
~Parameter Information Block
~A  Depth       CCL         TT3         AMP3         GR     
# ...
  1863.7500      0.0000    421.4219     19.3033    138.2286
  1864.0000      0.0000    509.7542     18.1665    140.7635
  1864.2500      0.0000    609.1454     17.1070    143.4697
  1864.5000      0.0000    696.4824     16.1670    144.3576
  1864.7500      0.0000    756.8887     15.3549    142.4641
  1865.0000      0.0000    790.4528     14.6254    139.5352
  1865.2500      0.0000    806.0640     13.9039    138.1906
  1865.5000      0.0000    812.4620     13.1304    138.9233
  1865.7500      0.0000    814.7585     12.2886    139.6979
  1866.0000      0.0000    815.3520     11.4108    138.2525
  1866.2500      0.0000    815.3500     10.5617    134.3744
  1866.5000      0.0000    815.1898      9.8067    129.9696
  1866.7500      0.0000    814.8945      9.1947    127.0680
  1867.0000      0.0000    814.2362      8.7674    125.9435
  1867.2500      0.0000    812.8878      8.5438    125.2716
  1867.5000      0.0000    810.6396      8.4843    123.9299
  1867.7500      0.0000    807.6412      8.5110    122.3808
  1868.0000      0.0000    803.8644      8.5867    122.3027
  1868.2500      0.0000    797.1886      8.7522    124.9348
  1868.5000      0.0000    781.4318      9.0860    129.7057
  1868.7500      0.0000    747.3922      9.6430    134.4437
  1869.0000      0.0000    688.3837     10.4287    137.0573
  1869.2500      0.0000    607.1293     11.4163    136.9878
  1869.5000      0.0000    517.4810     12.5753    135.1032
  1869.7500      0.0000    437.4310     13.8730    132.6123
  1870.0000      0.0000    378.7346     15.2670    130.2009
  1870.2500      0.0000    342.5363     16.7336    127.7604
  1870.5000      0.0000    323.1358     18.2824    124.6031
  1870.7500      0.0000    313.8212     19.8990    120.1398
  1871.0000      0.0000    309.7618     21.4827    114.6321
  1871.2500      0.0000    308.1490     22.8774    109.1859
  1871.5000      0.0000    307.5479     23.9597    104.8114
  1871.7500      0.0000    307.3281     24.6876    101.5538
  1872.0000      0.0000    307.2480     25.0973     98.6406
  1872.2500      0.0000    307.2545     25.2782     95.2577
  1872.5000      0.0000    307.4604     25.3149     91.0574
  1872.7500      0.0000    308.5441     25.2149     86.3014
  1873.0000      0.0000    312.7673     24.9065     81.7912
  1873.2500      0.0000    325.4720     24.3180     78.3478
  1873.5000      0.0000    355.1792     23.4405     76.0906
  1873.7500      0.0000    409.1977     22.3237     74.3881
  1874.0000      0.0000    485.6148     21.0533     72.5314
  1874.2500      0.0000    569.9737     19.7304     70.2086
  1874.5000      0.0000    643.2750     18.4523     67.4053
  1874.7500      0.0000    694.2129     17.3081     64.3335
  1875.0000      0.0000    722.8313     16.3690     61.7704
  1875.2500      0.0000    734.9641     15.6476     60.9597
  1875.5000      0.0000    736.8176     15.0792     62.4008
  1875.7500      0.0000    733.6843     14.5710     64.7760
  1876.0000      0.0000    729.5062     14.0634     65.8680
  1876.2500      0.0000    725.5885     13.5466     64.7724
  1876.5000      0.0000    720.7467     13.0508     62.6918
  1876.7500      0.0000    714.0846     12.6259     61.3895
  1877.0000      0.0000    707.7443     12.3214     61.3428
  1877.2500      0.0000    706.5325     12.1768     61.5661
  1877.5000      0.0000    714.4661     12.2031     60.8155
  1877.7500      0.0000    731.2172     12.3545     58.6881
  1878.0000      0.0000    751.5677     12.5412     55.6974
  1878.2500      0.0000    768.8929     12.6890     52.5812
  1878.5000      0.0000    780.0646     12.7810     49.7409
  1878.7500      0.0000    787.0332     12.8303     47.3336
  1879.0000      0.0000    793.3409     12.8321     45.6089
  1879.2500      0.0000    799.2242     12.7605     44.8839
  1879.5000      0.0000    800.5447     12.5986     45.2316
  1879.7500      0.0000    792.7635     12.3393     46.3192
  1880.0000      0.0000    776.0895     11.9566     47.5826
  1880.2500      0.0000    756.7462     11.4034     48.5945
  1880.5000      0.0000    743.0601     10.6604     49.3883
  1880.7500      0.0000    739.9424      9.7830     50.4324
  1881.0000      0.0000    746.2877      8.8946     52.1650
  1881.2500      0.0000    756.3383      8.1244     54.5480
  1881.5000      0.0000    763.1088      7.5354     57.2794
  1881.7500      0.0000    761.9304      7.1009     60.6767
  1882.0000      0.0000    752.7127      6.7542     66.3472
  1882.2500      0.0000    739.5585      6.4573     76.6695
  1882.5000      0.0000    727.8244      6.2186     93.0323
  1882.7500      0.0000    721.0007      6.0608    113.9850
  1883.0000      0.0000    719.6879      5.9968    134.9813
  1883.2500      0.0000    722.5524      6.0329    150.5059
  1883.5000      0.0000    727.8760      6.1752    157.3732
  1883.7500      0.0000    734.8018      6.4216    156.5580
  1884.0000      0.0000    743.6677      6.7492    152.0277
  1884.2500      0.0000    754.8871      7.1105    147.9916
  1884.5000      0.0000    767.3315      7.4449    147.0079
  1884.7500      0.0000    778.3627      7.7032    149.7094
  1885.0000      0.0000    785.6010      7.8731    155.3305
  1885.2500      0.0000    788.2491      7.9786    162.2764
  1885.5000      0.0000    786.7849      8.0562    168.6677
  1885.7500      0.0000    781.8525      8.1331    172.9603
  1886.0000      0.0000    773.4292      8.2265    174.4944
  1886.2500      0.0000    761.1887      8.3534    173.5537
  1886.5000      0.0000    746.5300      8.5422    170.8501
  1886.7500      0.0000    734.2938      8.8393    167.0702
  1887.0000      0.0000    730.9250      9.2950    162.9146
  1887.2500      0.0000    739.5211      9.9187    159.2983
  1887.5000      0.0000    756.4107     10.6502    157.2583
  1887.7500      0.0000    772.5193     11.3862    157.2879
  1888.0000      0.0000    777.3120     12.0408    158.4530
  1888.2500      0.0000    761.6321     12.5873    158.5807
  1888.5000      0.0000    720.8569     13.0533    156.0804
  1888.7500      0.0000    659.9157     13.4768    151.8082
  1889.0000      0.0000    593.3551     13.8751    148.7252
  1889.2500      0.0000    534.5297     14.2604    149.4519
  1889.5000      0.0000    484.8578     14.6740    154.1609
  1889.7500      0.0000    438.1421     15.1815    160.5142
  1890.0000      0.0000    392.9690     15.8196    165.0319
  1890.2500      0.0000    355.1172     16.5577    164.7083
  1890.5000      0.0000    329.7297     17.3287    158.5004
  1890.7500      0.0000    316.2551     18.1089    148.0705
  1891.0000      0.0000    310.5099     18.9638    136.8637
  1891.2500      0.0000    308.4578     20.0018    128.0468
  1891.5000      0.0000    307.7201     21.2653    122.9594
  1891.7500      0.0000    307.2975     22.6590    120.9022
  1892.0000      0.0000    306.8998     23.9977    120.0026
  1892.2500      0.0000    306.4771     25.1425    118.4312
  1892.5000      0.0000    306.0610     26.0967    115.1402
  1892.7500      0.0000    305.6823     26.9633    110.0739
  1893.0000      0.0000    305.3578     27.8237    104.2434
  1893.2500      0.0000    305.0922     28.6719     99.4411
  1893.5000      0.0000    304.8883     29.4516     97.2066
  1893.7500      0.0000    304.7518     30.1158     97.8009
  1894.0000      0.0000    304.6877     30.6295    100.2947
  1894.2500      0.0000    304.6950     30.9516    103.5673
  1894.5000      0.0000    304.7648     31.0551    106.9436
  1894.7500      0.0000    304.8826     30.9647    109.9153
  1895.0000      0.0000    305.0291     30.7715    111.7097
  1895.2500      0.0000    305.1787     30.6158    111.4537
  1895.5000      0.0000    305.3048     30.6284    108.8350
  1895.7500      0.0000    305.3907     30.8641    104.6204
  1896.0000      0.0000    305.4361     31.2908    100.2367
  1896.2500      0.0000    305.4555     31.8348     96.5064
  1896.5000      0.0000    305.5063     32.3988     93.1216
  1896.7500      0.0000    305.7599     32.8099     89.7169
  1897.0000      0.0000    306.6256     32.7792     87.0163
