~Version Information
VERS.                      2.0: CWLS Log ASCII Standard - VERSION 2.0
WRAP.                       NO: One line per depth step
~Well Information Block
STRT.FT               265.0000: 
STOP.FT              1214.0000: 
STEP.FT                 0.2500: 
NULL.                -999.2500: 
COMP.          Pioneer Natural Resources: COMPANY
WELL.          Pacheco 33-27 Tr: WELL
FLD.           Purgatoire River: FIELD
LOC.           2251' FSL & 2342' FEL: LOCATION
PROV.                 Colorado: PROVINCE
CNTY.               Las Animas: COUNTRY
SRVC.                Patterson: SERVICE COMPANY
DATE.          Fri Jun 10 13:29:04 2005: LOG DATE
UWI.           05 071 08384 00: UNIQUE WELL ID
~Curve Information Block
DEPT.FT            0 000 00 00: Depth
SN.Ohm-m                      : IEL Short Normal
SP.mV                         : IEL Spontaneous Potential
DIR.Ohm-m                     : IEL Induction Resistivity
GR.GAPI                       : Gamma Ray
~Parameter Information Block
~A  Depth        SN          SP         DIR          GR     
   265.0000   2000.0000   2000.0000     65.7587    142.6523
   265.2500   2000.0000   2000.0000     65.6117    141.3363
   265.5000   2000.0000   2000.0000     65.4169    139.8421
   265.7500   2000.0000   2000.0000     65.2626    138.8660
   266.0000   2000.0000   2000.0000     65.1723    136.3044
   266.2500   2000.0000   2000.0000     65.1111    133.6207
   266.5000   2000.0000   2000.0000     65.0526    129.0329
   266.7500   2000.0000   2000.0000     65.0287    126.4721
   267.0000   2000.0000   2000.0000     65.1021    124.3421
   267.2500   2000.0000   2000.0000     65.2905    124.0947
   267.5000   2000.0000   2000.0000     65.5221    125.0540
   267.7500   2000.0000   2000.0000     65.6743    126.3821
   268.0000   2000.0000   2000.0000     65.6768    129.2940
   268.2500   2000.0000   2000.0000     65.5823    131.6778
   268.5000   2000.0000   2000.0000     65.5261    135.1327
   268.7500   2000.0000   2000.0000     65.6077    136.8012
   269.0000   2000.0000   2000.0000     65.8051    138.0007
   269.2500   2000.0000   2000.0000     65.9980    138.2636
   269.5000   2000.0000   2000.0000     66.0702    138.7360
   269.7500   2000.0000   2000.0000     65.9910    139.2704
   270.0000   2000.0000   2000.0000     65.8018    139.9965
   270.2500   2000.0000   2000.0000     65.5443    140.2967
   270.5000   2000.0000   2000.0000     65.2239    140.8884
   270.7500   2000.0000   2000.0000     64.8348    141.5641
   271.0000   2000.0000   2000.0000     64.3958    142.4385
   271.2500   2000.0000   2000.0000     63.9347    142.3207
   271.5000   2000.0000   2000.0000     63.4408    140.3797
   271.7500   2000.0000   2000.0000     62.8561    137.6418
   272.0000   2000.0000   2000.0000     62.1444    130.8375
   272.2500   2000.0000   2000.0000     61.3780    124.4350
   272.5000   2000.0000   2000.0000     60.7545    113.0655
   272.7500   2000.0000   2000.0000     60.5087    105.3899
   273.0000   2000.0000   2000.0000     60.7983     95.3053
   273.2500   2000.0000   2000.0000     61.6554     89.9532
   273.5000   2000.0000   2000.0000     63.0220     84.0739
   273.7500   2000.0000   2000.0000     64.7934     81.5505
   274.0000   2000.0000   2000.0000     66.7807     79.8729
   274.2500   2000.0000   2000.0000     68.6172     80.0823
   274.5000   2000.0000   2000.0000     69.7830     81.5244
   274.7500   2000.0000   2000.0000     69.8803     82.2078
   275.0000   2000.0000   2000.0000     68.9481     81.1628
   275.2500   2000.0000   2000.0000     67.4314     79.0643
   275.5000   2000.0000   2000.0000     65.8293     75.7167
   275.7500   2000.0000   2000.0000     64.4321     74.6777
   276.0000   2000.0000   2000.0000     63.3286     75.4303
   276.2500   2000.0000   2000.0000     62.5368     76.5796
   276.5000   2000.0000   2000.0000     62.0754     77.3198
   276.7500   2000.0000   2000.0000     61.9134     76.7119
   277.0000   2000.0000   2000.0000     61.8812     74.8796
   277.2500   2000.0000   2000.0000     61.6704     73.9234
   277.5000   2000.0000   2000.0000     60.9902     74.2388
   277.7500   2000.0000   2000.0000     59.7934     75.9507
   278.0000   2000.0000   2000.0000     58.3541     80.4391
   278.2500   2000.0000   2000.0000     57.0953     84.2277
   278.5000   2000.0000   2000.0000     56.3074     90.2223
   278.7500   2000.0000   2000.0000     55.9472     93.9132
   279.0000   2000.0000   2000.0000     55.6046     98.0648
   279.2500   2000.0000   2000.0000     54.6806     99.4502
   279.5000   2000.0000   2000.0000     52.7406     99.2428
   279.7500   2000.0000   2000.0000     49.8176     98.0035
   280.0000   2000.0000   2000.0000     46.4246     95.9733
   280.2500   2000.0000   2000.0000     43.3608     95.3089
   280.5000   2000.0000   2000.0000     41.5520     95.7120
   280.7500   2000.0000   2000.0000     42.0763     96.5497
   281.0000   2000.0000   2000.0000     46.5660     97.8800
   281.2500   2000.0000   2000.0000     58.5203     98.6930
   281.5000   2000.0000   2000.0000     87.8499    100.1966
   281.7500   2000.0000   2000.0000    173.0840    101.6551
   282.0000   2000.0000   2000.0000    616.7834    104.6120
   282.2500   2000.0000   2000.0000 100000.0000    106.9769
   282.5000   2000.0000   2000.0000 100000.0000    110.8391
   282.7500   2000.0000   2000.0000 100000.0000    113.3678
   283.0000   2000.0000   2000.0000   1593.6138    116.3084
   283.2500   2000.0000   2000.0000    944.3550    117.1725
   283.5000   2000.0000   2000.0000   1133.8475    116.4124
   283.7500   2000.0000   2000.0000 100000.0000    114.7796
   284.0000   2000.0000   2000.0000 100000.0000    111.5994
   284.2500   2000.0000   2000.0000 100000.0000    109.4834
   284.5000   2000.0000   2000.0000 100000.0000    106.5669
   284.7500   2000.0000   2000.0000 100000.0000     97.8952
   285.0000   2000.0000   2000.0000 100000.0000     95.2199
   285.2500   2000.0000   2000.0000 100000.0000     93.9725
   285.5000   2000.0000   2000.0000 100000.0000     94.5631
   285.7500   2000.0000   2000.0000 100000.0000     90.7266
   286.0000   2000.0000   2000.0000 100000.0000     98.6648
   286.2500   2000.0000   2000.0000 100000.0000    106.3205
   286.5000   2000.0000   2000.0000 100000.0000    120.3337
   286.7500   2000.0000   2000.0000 100000.0000    120.7689
   287.0000   2000.0000   2000.0000 100000.0000    134.0501
   287.2500   2000.0000   2000.0000 100000.0000    141.5314
   287.5000   2000.0000   2000.0000 100000.0000    150.0501
   287.7500   2000.0000   2000.0000 100000.0000    141.7801
   288.0000   2000.0000   2000.0000     14.0405    145.9889
   288.2500   2000.0000   2000.0000      5.4334    148.3965
   288.5000   2000.0000   2000.0000      3.6669    151.8250
   288.7500   2000.0000   2000.0000      3.1714    140.4640
   289.0000   2000.0000   2000.0000      3.1996    142.4770
   289.2500   2000.0000   2000.0000      3.5711    143.4439
   289.5000   2000.0000   2000.0000      4.2745    145.3481
   289.7500   2000.0000   2000.0000      5.4589    147.5151
   290.0000   2000.0000   2000.0000      7.6250    151.9777
   290.2500   2000.0000   2000.0000     12.2905    154.8506
   290.5000   2000.0000   2000.0000     24.8960    156.9373
   290.7500   2000.0000   2000.0000     70.2408    156.0586
   291.0000   2000.0000   2000.0000    160.0398    151.4622
   291.2500   2000.0000   2000.0000     74.9535    147.1124
   291.5000   2000.0000   2000.0000     34.7461    140.9417
   291.7500   2000.0000   2000.0000     22.2856    138.2391
   292.0000   2000.0000   2000.0000     17.6963    136.9008
   292.2500   2000.0000   2000.0000     15.9881    137.0762
   292.5000   2000.0000   2000.0000     15.5143    136.6924
   292.7500   2000.0000   2000.0000     15.5666    135.0846
   293.0000   2000.0000   2000.0000     15.8071    130.8663
   293.2500   2000.0000   2000.0000     16.0998    127.7933
   293.5000   2000.0000   2000.0000     16.4380    124.7647
   293.7500   2000.0000   2000.0000     16.9205    124.8421
   294.0000   2000.0000   2000.0000     17.7253    129.2855
   294.2500   2000.0000   2000.0000     19.0622    135.0676
   294.5000   2000.0000   2000.0000     21.0726    146.2496
   294.7500   2000.0000   2000.0000     23.6759    153.8369
   295.0000   2000.0000   2000.0000     26.4180    162.8004
   295.2500   2000.0000   2000.0000     28.5608    165.7737
   295.5000   2000.0000   2000.0000     29.5647    163.6794
   295.7500   2000.0000   2000.0000     29.4577    157.3828
   296.0000   2000.0000   2000.0000     28.6152    141.7383
   296.2500   2000.0000   2000.0000     27.3815    128.8538
   296.5000   2000.0000   2000.0000     25.9878    108.9723
   296.7500   2000.0000   2000.0000     24.6511     96.7849
   297.0000   2000.0000   2000.0000     23.6139     81.9503
   297.2500   2000.0000   2000.0000     23.0910     75.1947
   297.5000   2000.0000   2000.0000     23.2044     70.5473
   297.7500   2000.0000   2000.0000     23.9535     71.0556
   298.0000   2000.0000   2000.0000     25.2063     76.3945
   298.2500   2000.0000   2000.0000     26.7082     82.1522
