~Version Information
VERS.                      2.0: CWLS Log ASCII Standard - VERSION 2.0
WRAP.                       NO: One line per depth step
~Well Information Block
STRT.FT               475.0000: 
STOP.FT              2336.7000: 
STEP.FT                 0.1000: 
NULL.                -999.2500: 
COMP.          Pioneer Natural Resources: COMPANY
WELL.              Bobsy 34-11: WELL
FLD.           Purgatoire River: FIELD
LOC.           1937' FEL & 451' FSL----: LOCATION
PROV.                 Colorado: PROVINCE
CNTY.               Las Animas: COUNTRY
SRVC.                Patterson: SERVICE COMPANY
DATE.          Fri Apr 08 11:07:54 2005: LOG DATE
UWI.           05 071 08330 00: UNIQUE WELL ID
~Curve Information Block
DEPT.FT            0 000 00 00: Depth
DCAL.in                       : CDL Caliper
RHOB.g/cc                     : CDL Bulk Density
RHOC.g/cc                     : CDL Density Correction
DPOR.pu                       : CDL Density Porosity
NPOR.pu                       : Neutron Porosity
GR.GAPI                       : Gamma Ray
~Parameter Information Block
~A  Depth       DCAL        RHOB        RHOC        DPOR        NPOR         GR     
# ...
  1204.6000      8.0607      2.6438      0.0469      0.3756     19.7308     86.9573
  1204.7000      8.0607      2.6362      0.0164      0.8391     19.8836     85.1812
  1204.8000      8.0617      2.6242      0.0743      1.5649     18.5246     87.8781
  1204.9000      8.0617      2.6017      0.0109      2.9244     16.5821     89.6530
  1205.0000      8.0600      2.5842      0.0222      3.9859     15.5491     89.6908
  1205.1000      8.0600      2.5938      0.0214      3.4082     15.5850     90.9641
  1205.2000      8.0600      2.6315      0.0011      1.1199     15.6645     90.6708
  1205.3000      8.0572      2.6711      0.0872     -1.2801     15.4281     85.5634
  1205.4000      8.0572      2.6904      0.0476     -2.4494     15.1633     81.1557
  1205.5000      8.0579      2.6964      0.0489     -2.8095     14.8842     82.8490
  1205.6000      8.0579      2.6976      0.0541     -2.8873     14.3787     84.7800
  1205.7000      8.0579      2.6917      0.0675     -2.5264     13.7044     80.4309
  1205.8000      8.0613      2.6776      0.0778     -1.6754     13.3080     75.2127
  1205.9000      8.0613      2.6591      0.0511     -0.5514     13.0227     73.7202
  1206.0000      8.0629      2.6424     -0.0031      0.4605     12.4245     74.1971
  1206.1000      8.0629      2.6352     -0.0213      0.8964     12.1503     76.3046
  1206.2000      8.0629      2.6352     -0.0312      0.8988     12.7032     77.4657
  1206.3000      8.0630      2.6330      0.0020      1.0286     13.4651     76.4165
  1206.4000      8.0630      2.6343     -0.0211      0.9487     13.8233     77.5124
  1206.5000      8.0631      2.6483      0.0414      0.1040     13.6698     82.4086
  1206.6000      8.0631      2.6563      0.0840     -0.3825     13.1553     85.8179
  1206.7000      8.0631      2.6440      0.0371      0.3614     13.0844     83.2311
  1206.8000      8.0623      2.6286      0.0575      1.2964     14.0472     78.5398
  1206.9000      8.0623      2.6225      0.0246      1.6696     15.4035     78.0913
  1207.0000      8.0616      2.6205      0.0277      1.7901     16.4447     80.8945
  1207.1000      8.0616      2.6109      0.0392      2.3685     17.1266     82.8597
  1207.2000      8.0616      2.5902      0.0192      3.6223     17.2444     82.5975
  1207.3000      8.0608      2.5698      0.0032      4.8636     16.6547     81.2397
  1207.4000      8.0608      2.5577      0.0060      5.5928     16.0358     84.0456
  1207.5000      8.0595      2.5515      0.0079      5.9727     15.9703     89.5372
  1207.6000      8.0595      2.5486     -0.0020      6.1458     16.2912     88.6792
  1207.7000      8.0595      2.5461      0.0347      6.2971     16.9812     84.1677
  1207.8000      8.0600      2.5457      0.0045      6.3240     17.8822     84.6339
  1207.9000      8.0600      2.5580      0.0234      5.5755     18.2940     91.4848
  1208.0000      8.0603      2.5749      0.0980      4.5521     17.8357     97.5299
  1208.1000      8.0603      2.5816      0.0338      4.1427     17.0563     98.3724
  1208.2000      8.0603      2.5915      0.0700      3.5458     16.7191     98.5803
  1208.3000      8.0584      2.6162      0.1320      2.0513     16.4640    100.1526
  1208.4000      8.0584      2.6425      0.1899      0.4544     15.8401    100.4190
  1208.5000      8.0562      2.6458      0.1998      0.2528     15.2038     97.1089
  1208.6000      8.0562      2.6205      0.1403      1.7880     15.2777     91.1294
  1208.7000      8.0562      2.5969      0.0511      3.2208     16.2352     88.8931
  1208.8000      8.0557      2.5976      0.1339      3.1738     16.9865     92.2581
  1208.9000      8.0557      2.6044      0.1199      2.7637     16.9142     93.9659
  1209.0000      8.0588      2.5971      0.0696      3.2067     17.0589     90.3642
  1209.1000      8.0588      2.5906      0.0197      3.6026     18.1265     86.6755
  1209.2000      8.0588      2.6041      0.0708      2.7819     19.3617     87.9760
  1209.3000      8.0664      2.6214      0.1109      1.7352     19.7903     91.7946
  1209.4000      8.0664      2.6224      0.0646      1.6734     19.5969     92.5094
  1209.5000      8.0756      2.6165      0.0596      2.0324     19.2667     92.4708
  1209.6000      8.0756      2.6115      0.0615      2.3358     18.7074     97.8341
  1209.7000      8.0756      2.6014      0.0353      2.9482     18.2586    104.7135
  1209.8000      8.0802      2.5885      0.0211      3.7251     18.6759    105.7523
  1209.9000      8.0802      2.5761      0.0387      4.4795     19.8047    103.2479
  1210.0000      8.0816      2.5615     -0.0162      5.3661     20.4111    102.0753
  1210.1000      8.0816      2.5493     -0.0025      6.1007     20.2202    102.3322
  1210.2000      8.0816      2.5456      0.0004      6.3246     20.3730    106.9266
  1210.3000      8.0831      2.5515      0.0083      5.9694     21.0386    117.6441
  1210.4000      8.0831      2.5580      0.0815      5.5765     21.4215    123.2190
  1210.5000      8.0827      2.5505      0.0743      6.0274     21.3016    117.0911
  1210.6000      8.0827      2.5330      0.0170      7.0938     21.2113    110.8658
  1210.7000      8.0827      2.5215      0.0306      7.7849     21.5934    113.3053
  1210.8000      8.0815      2.5182      0.0451      7.9855     22.2210    122.3237
  1210.9000      8.0815      2.5111      0.0509      8.4189     22.9230    130.5287
  1211.0000      8.0855      2.4908      0.0424      9.6515     23.9668    133.0128
  1211.1000      8.0855      2.4611     -0.0024     11.4492     25.4626    134.0733
  1211.2000      8.0855      2.4326     -0.0053     13.1739     27.0819    134.7475
  1211.3000      8.0980      2.4056     -0.0111     14.8105     28.2409    130.5066
  1211.4000      8.0980      2.3750     -0.0018     16.6644     28.5809    124.7756
  1211.5000      8.1145      2.3452     -0.0374     18.4709     28.4759    124.6813
  1211.6000      8.1145      2.3238     -0.0178     19.7697     28.7380    127.5826
  1211.7000      8.1145      2.3028      0.0069     21.0414     29.3058    124.3956
  1211.8000      8.1324      2.2622      0.0137     23.5012     29.4747    116.2996
  1211.9000      8.1324      2.1938     -0.0460     27.6455     29.0845    112.1683
  1212.0000      8.1470      2.1085     -0.0388     32.8169     28.5361    113.0553
  1212.1000      8.1470      2.0202     -0.0719     38.1709     28.1244    113.5736
  1212.2000      8.1470      1.9333     -0.0479     43.4341     28.0427    111.0728
  1212.3000      8.1530      1.8418     -0.0423     48.9845     28.2279    106.3294
  1212.4000      8.1530      1.7422     -0.1197     55.0167     28.7041    100.4457
  1212.5000      8.1518      1.6369     -0.1434     61.4000     29.3776     94.5182
  1212.6000      8.1518      1.5300     -0.1851     67.8765     29.6990     90.8149
  1212.7000      8.1518      1.4397     -0.2040     73.3532     29.5467     89.5520
  1212.8000      8.1482      1.3855     -0.1575     76.6345     29.0785     84.7894
  1212.9000      8.1482      1.3700     -0.0804     77.5755     28.0353     74.3679
  1213.0000      8.1501      1.3901     -0.0092     76.3589     26.6235     65.3981
  1213.1000      8.1501      1.4509      0.0215     72.6746     26.1931     63.2118
  1213.2000      8.1501      1.5546      0.0677     66.3898     27.2249     64.6128
  1213.3000      8.1558      1.6823      0.1254     58.6508     28.5519     65.3071
  1213.4000      8.1558      1.8064      0.1664     51.1247     29.2920     66.1739
  1213.5000      8.1451      1.9249      0.1639     43.9446     29.2759     70.4142
  1213.6000      8.1451      2.0501      0.2247     36.3579     28.6578     77.4200
  1213.7000      8.1451      2.1718      0.2861     28.9813     28.2061     87.8239
  1213.8000      8.1194      2.2740      0.2758     22.7863     28.4464    100.9312
  1213.9000      8.1194      2.3597      0.2502     17.5958     28.7527    110.1248
  1214.0000      8.1063      2.4213      0.2401     13.8587     28.3864    113.0496
  1214.1000      8.1063      2.4349      0.1991     13.0368     27.7712    114.6522
