~Version Information
VERS.                      2.0: CWLS Log ASCII Standard - VERSION 2.0
WRAP.                       NO: One line per depth step
~Well Information Block
STRT.FT               483.0000: 
STOP.FT              1701.5000: 
STEP.FT                 0.1000: 
NULL.                -999.2500: 
COMP.          Pioneer Natural Resources: COMPANY
WELL.            Mad Dog 42-31: WELL
FLD.           Purgatorie River: FIELD
LOC.           2064' FNL & 479' FEL: LOCATION
PROV.                 Colorado: PROVINCE
CNTY.               Las Animas: COUNTRY
SRVC.                         : SERVICE COMPANY
DATE.          Sun Oct 10 04:38:02 2004: LOG DATE
UWI.           05 071 08195 00: UNIQUE WELL ID
~Curve Information Block
DEPT.FT            0 000 00 00: Depth
LTEN.lb                       : Surface Line Tension
DCAL.in                       : CDL Caliper
RHOB.g/cc                     : CDL Bulk Density
RHOC.g/cc                     : CDL Density Correction
DPOR.pu                       : CDL Density Porosity
GR.GAPI                       : Gamma Ray
NPOR.pu                       : Neutron Porosity
~Parameter Information Block
~A  Depth       LTEN        DCAL        RHOB        RHOC        DPOR         GR         NPOR    
# ...
  1533.0000   1094.8550      7.8597      2.4368      0.0056     12.9200     84.0506     24.2494
  1533.1000   1094.8550      7.8597      2.4456      0.0799     12.3905     88.8017     23.6373
  1533.2000   1094.8550      7.8597      2.4443      0.0694     12.4651     93.8952     23.4919
  1533.3000   1098.5858      7.8589      2.4365      0.0588     12.9376     93.8930     23.8833
  1533.4000   1098.5858      7.8589      2.4327      0.0203     13.1712     89.0791     24.4197
  1533.5000   1104.5717      7.8612      2.4326      0.0550     13.1762     84.1706     24.5305
  1533.6000   1104.5717      7.8612      2.4279      0.0602     13.4599     75.6196     24.0737
  1533.7000   1104.5717      7.8612      2.4190      0.0067     13.9975     65.6935     23.6002
  1533.8000   1099.9454      7.8654      2.4135      0.0324     14.3309     64.0183     23.6531
  1533.9000   1099.9454      7.8654      2.4146      0.0110     14.2660     68.6169     24.1885
  1534.0000   1107.1569      7.8668      2.4228      0.0319     13.7708     70.9363     24.8169
  1534.1000   1107.1569      7.8668      2.4342      0.0715     13.0808     70.4423     25.1018
  1534.2000   1107.1569      7.8668      2.4418      0.0280     12.6172     71.5949     25.1158
  1534.3000   1094.3718      7.8698      2.4376      0.0800     12.8710     75.9648     25.1049
  1534.4000   1094.3718      7.8698      2.4237     -0.0275     13.7175     81.7229     24.8656
  1534.5000   1102.3848      7.8671      2.4188      0.0414     14.0138     84.3935     24.3404
  1534.6000   1102.3848      7.8671      2.4238      0.0570     13.7115     79.7372     24.1143
  1534.7000   1102.3848      7.8671      2.4262      0.0221     13.5665     72.4936     24.6431
  1534.8000   1079.6078      7.8682      2.4249      0.0268     13.6398     71.0033     25.1645
  1534.9000   1079.6078      7.8682      2.4186      0.0102     14.0224     74.3676     24.7568
  1535.0000   1086.9369      7.8686      2.4072      0.0108     14.7167     75.8541     24.0314
  1535.1000   1086.9369      7.8686      2.3991      0.0154     15.2087     74.0708     24.0344
  1535.2000   1086.9369      7.8686      2.4005      0.0016     15.1194     72.3167     24.6513
  1535.3000   1075.7346      7.8668      2.4109      0.0118     14.4885     71.6283     25.0152
  1535.4000   1075.7346      7.8668      2.4258      0.0190     13.5856     68.6486     24.6865
  1535.5000   1073.8329      7.8672      2.4419      0.0298     12.6095     63.1797     23.8823
  1535.6000   1073.8329      7.8672      2.4596      0.0383     11.5369     62.1417     23.0351
  1535.7000   1073.8329      7.8672      2.4837      0.0327     10.0791     67.0236     22.5999
  1535.8000   1087.5072      7.8651      2.5112      0.0523      8.4121     70.4632     22.7875
  1535.9000   1087.5072      7.8651      2.5281      0.0466      7.3870     69.5479     23.5393
  1536.0000   1080.8102      7.8656      2.5353     -0.0124      6.9509     69.3804     24.6658
  1536.1000   1080.8102      7.8656      2.5405      0.0471      6.6367     71.3217     25.4834
  1536.2000   1080.8102      7.8656      2.5350     -0.0057      6.9697     71.4523     25.3760
  1536.3000   1093.3342      7.8653      2.5174      0.0312      8.0345     70.2001     24.7486
  1536.4000   1093.3342      7.8653      2.4998     -0.0187      9.1003     72.0448     24.2266
  1536.5000   1087.5670      7.8652      2.5003     -0.0876      9.0736     77.0982     23.7857
  1536.6000   1087.5670      7.8652      2.5195      0.0426      7.9111     80.8107     23.4815
  1536.7000   1087.5670      7.8652      2.5228      0.0789      7.7070     78.3400     23.4276
  1536.8000   1108.1862      7.8646      2.4949      0.0106      9.4026     71.7485     23.4101
  1536.9000   1108.1862      7.8646      2.4683     -0.0668     11.0091     68.3040     23.2234
  1537.0000   1107.1698      7.8638      2.4706     -0.0091     10.8749     68.8300     22.6148
  1537.1000   1107.1698      7.8638      2.4856      0.0238      9.9609     69.3536     22.0218
  1537.2000   1107.1698      7.8638      2.4899      0.0625      9.7010     68.4671     22.4452
  1537.3000   1092.7098      7.8662      2.4815      0.0118     10.2104     66.7697     23.6989
  1537.4000   1092.7098      7.8662      2.4670      0.0452     11.0936     65.5181     24.6052
  1537.5000   1109.5083      7.8709      2.4518      0.0302     12.0124     66.5431     24.7845
  1537.6000   1109.5083      7.8709      2.4430      0.0325     12.5438     69.7429     24.7170
  1537.7000   1109.5083      7.8709      2.4337      0.0389     13.1101     72.8569     24.6080
  1537.8000   1095.1475      7.8732      2.4099      0.0264     14.5529     72.5694     24.4564
  1537.9000   1095.1475      7.8732      2.3852     -0.0449     16.0492     67.5968     24.4358
  1538.0000   1106.1522      7.8742      2.3913     -0.0303     15.6818     62.1308     24.6021
  1538.1000   1106.1522      7.8742      2.4317      0.0082     13.2323     61.3614     24.8458
  1538.2000   1106.1522      7.8742      2.4695      0.0803     10.9364     64.8835     24.9923
  1538.3000   1092.7347      7.8704      2.4667      0.0536     11.1105     68.6629     24.9473
  1538.4000   1092.7347      7.8704      2.4284      0.0198     13.4285     69.5298     24.9242
  1538.5000   1104.5874      7.8727      2.3933     -0.0152     15.5563     67.9413     25.0493
  1538.6000   1104.5874      7.8727      2.3881     -0.0490     15.8754     66.6559     25.2495
  1538.7000   1104.5874      7.8727      2.4095      0.0006     14.5780     64.4101     25.4411
  1538.8000   1094.8269      7.8759      2.4366      0.0075     12.9358     62.5262     25.5654
  1538.9000   1094.8269      7.8759      2.4577      0.0400     11.6528     68.0380     25.5543
  1539.0000   1103.1334      7.8728      2.4782      0.0459     10.4106     77.2390     25.4257
  1539.1000   1103.1334      7.8728      2.4952      0.0687      9.3825     80.2214     25.2641
  1539.2000   1103.1334      7.8728      2.4987      0.0376      9.1702     78.1254     24.8561
  1539.3000   1109.0732      7.8711      2.4955      0.0673      9.3661     75.8569     24.3631
  1539.4000   1109.0732      7.8711      2.4950      0.0417      9.3962     73.2261     24.3330
  1539.5000   1095.9901      7.8725      2.4919      0.0997      9.5826     70.4538     24.6023
  1539.6000   1095.9901      7.8725      2.4842      0.0656     10.0474     70.4456     24.7742
  1539.7000   1095.9901      7.8725      2.4829      0.0082     10.1254     74.5805     24.7238
  1539.8000   1107.6970      7.8726      2.4850      0.0481     10.0000     78.2776     24.2677
  1539.9000   1107.6970      7.8726      2.4717      0.1029     10.8075     77.5938     23.4663
  1540.0000   1101.4894      7.8644      2.4452      0.0436     12.4113     76.2502     22.6411
  1540.1000   1101.4894      7.8644      2.4286      0.0054     13.4200     78.6552     22.2489
  1540.2000   1101.4894      7.8644      2.4339      0.0277     13.0999     82.7511     22.4578
  1540.3000   1094.6075      7.8587      2.4574      0.0424     11.6709     85.1783     22.7544
  1540.4000   1094.6075      7.8587      2.4867      0.0477      9.8944     87.5649     22.5669
  1540.5000   1092.3755      7.8589      2.5098      0.0689      8.4955     90.0926     22.2513
  1540.6000   1092.3755      7.8589      2.5223      0.0757      7.7418     89.1131     22.3197
  1540.7000   1092.3755      7.8589      2.5313      0.0495      7.1932     84.8546     22.5316
  1540.8000   1089.8510      7.8580      2.5460      0.0791      6.3043     80.5154     22.4969
  1540.9000   1089.8510      7.8580      2.5600      0.0790      5.4546     77.4530     22.1673
  1541.0000   1088.7383      7.8572      2.5593      0.0519      5.4974     76.1441     21.6565
  1541.1000   1088.7383      7.8572      2.5395      0.0261      6.6945     76.0716     21.1888
  1541.2000   1088.7383      7.8572      2.5131     -0.0145      8.2966     73.5335     20.9673
  1541.3000   1087.9473      7.8553      2.5003     -0.0531      9.0707     67.4345     21.0364
