~Version Information
VERS.                      2.0: CWLS Log ASCII Standard - VERSION 2.0
WRAP.                       NO: One line per depth step
~Well Information Block
STRT.FT              1882.7500: 
STOP.FT              2400.5000: 
STEP.FT                 0.2500: 
NULL.                -999.2500: 
COMP.          Pioneer Natural Resources: COMPANY
WELL.          Flying Horse 12-11: WELL
FLD.           Purgatoire River: FIELD
LOC.           2,428' FNL & 308' FWL------: LOCATION
PROV.                 Colorado: PROVINCE
CNTY.               Las Animas: COUNTRY
SRVC.                         : SERVICE COMPANY
DATE.          Fri Jun 10 06:52:30 2005: LOG DATE
UWI.                          : UNIQUE WELL ID
~Curve Information Block
DEPT.FT            0 000 00 00: Depth
CCL.                          : Casing Collar Locator
TT3.usec                      : CBL 3' Travel Time
AMP3.mV                       : CBL 3' Amplitude
AMP5.mV                       : CBL 5' Amplitude
GR.GAPI                       : Gamma Ray
~Parameter Information Block
~A  Depth       CCL         TT3         AMP3        AMP5         GR     
# ...
  1966.7500      0.0000    259.4021     66.5457     90.6543    151.8183
  1967.0000      0.0000    259.4264     66.4551     89.8709    153.8024
  1967.2500      0.0000    259.4576     66.3395     89.6968    155.1506
  1967.5000      0.0000    259.4852     66.2233     89.6097    156.6428
  1967.7500      0.0000    259.4961     66.1391     90.8284    159.7150
  1968.0000      0.0000    259.4839     66.1137     90.3932    164.0398
  1968.2500      0.0000    259.4526     66.1584     90.9154    167.2719
  1968.5000      0.0000    259.4138     66.2605     90.4802    167.6892
  1968.7500      0.0000    259.3810     66.3818     90.5672    166.0505
  1969.0000      0.0000    259.3652     66.4771     91.1766    164.1449
  1969.2500      0.0000    259.3712     66.5228     90.4802    162.4594
  1969.5000      0.0000    259.3957     66.5263     90.6543    160.1477
  1969.7500      0.0000    259.4294     66.5067     90.0450    156.6042
  1970.0000      0.0000    259.4608     66.4710     90.0450    152.2729
  1970.2500      0.0000    259.4813     66.4127     90.4802    148.1622
  1970.5000      0.0000    259.4876     66.3308     90.8284    145.1530
  1970.7500      0.0000    259.4825     66.2463     90.6543    143.7823
  1971.0000      0.0000    259.4722     66.1965     90.8284    144.3383
  1971.2500      0.0000    259.4620     66.2118     90.6543    146.8521
  1971.5000      0.0000    259.4520     66.2951     90.7413    150.9997
  1971.7500      0.0000    259.4391     66.4198     90.7413    156.0660
  1972.0000      0.0000    259.4222     66.5454     90.7413    160.6961
  1972.2500      0.0000    259.4046     66.6376     90.3061    162.7886
  1972.5000      0.0000    259.3926     66.6796     89.9579    160.6753
  1972.7500      0.0000    259.3919     66.6721     90.3061    155.0400
  1973.0000      0.0000    259.4019     66.6319     91.0895    148.8749
  1973.2500      0.0000    259.4142     66.5895     90.4802    144.9630
  1973.5000      0.0000    259.4201     66.5807     90.7413    143.9403
  1973.7500      0.0000    259.4179     66.6288     90.4802    144.9077
  1974.0000      0.0000    259.4138     66.7296     89.9579    146.9989
  1974.2500      0.0000    259.4126     66.8511     90.2191    149.8763
  1974.5000      0.0000    259.4107     66.9527     90.9154    153.3320
  1974.7500      0.0000    259.3994     67.0116     90.2191    156.9507
  1975.0000      0.0000    259.3749     67.0324     90.2191    160.1898
  1975.2500      0.0000    259.3431     67.0337     90.0450    162.8642
  1975.5000      0.0000    259.3140     67.0286     89.8709    165.4534
  1975.7500      0.0000    259.2941     67.0229     90.2191    168.3439
  1976.0000      0.0000    259.2824     67.0270     89.9579    170.6763
  1976.2500      0.0000    259.2744     67.0621     89.9579    170.6460
  1976.5000      0.0000    259.2671     67.1470     89.8709    167.2664
  1976.7500      0.0000    259.2622     67.2760     89.6097    161.3788
  1977.0000      0.0000    259.2622     67.4146     90.0450    154.8370
  1977.2500      0.0000    259.2678     67.5215     90.0450    149.1210
  1977.5000      0.0000    259.2775     67.5762     90.3061    144.4615
  1977.7500      0.0000    259.2908     67.5868     91.0025    139.7192
  1978.0000      0.0000    259.3082     67.5764     90.2191    133.4314
  1978.2500      0.0000    259.3295     67.5658     90.6543    125.5982
  1978.5000      0.0000    259.3503     67.5682     90.7413    118.2488
  1978.7500      0.0000    259.3620     67.5897     90.2191    113.8817
  1979.0000      0.0000    259.3575     67.6263     90.1320    113.5509
  1979.2500      0.0000    259.3391     67.6635     90.3061    116.4219
  1979.5000      0.0000    259.3193     67.6832     90.1320    120.5959
  1979.7500      0.0000    259.3120     67.6726     90.3061    124.3111
  1980.0000      0.0000    259.3213     67.6296     89.5227    126.8821
  1980.2500      0.0000    259.3393     67.5601     90.2191    128.7985
  1980.5000      0.0000    259.3554     67.4726     89.9579    131.0834
  1980.7500      0.0000    259.3651     67.3744     90.3932    134.5851
  1981.0000      0.0000    259.3697     67.2652     90.9154    139.4803
  1981.2500      0.0000    259.3712     67.1238     88.2170    144.9710
  1981.5000      0.0000    259.3713     66.8878     85.7797    149.5207
  1981.7500      0.0000    259.3740     66.4551     84.9092    151.6834
  1982.0000      0.0000    259.3864     65.7344     85.5185    150.9814
  1982.2500      0.0000    259.4149     64.7327     84.7351    148.4258
  1982.5000      0.0000    259.4597     63.5994     84.2129    146.2394
  1982.7500      0.0000    259.5132     62.5623     85.9538    146.4035
  1983.0000      0.0000    259.5609     61.8052     84.6481    149.0560
  1983.2500      0.0000    259.5898     61.3931     85.2574    152.5762
  1983.5000      0.0000    259.5976     61.2799     84.9092    155.2255
  1983.7500      0.0000    259.5945     61.3574     85.4315    156.3254
  1984.0000      0.0000    259.5936     61.4992     85.8667    156.1112
  1984.2500      0.0000    259.6009     61.5891     87.4336    155.1269
  1984.5000      0.0000    259.6161     61.5253     86.7372    153.8304
  1984.7500      0.0000    259.6370     61.2211     87.6947    152.5641
  1985.0000      0.0000    259.6608     60.6343     86.9113    151.9323
  1985.2500      0.0000    259.6842     59.8172     87.8688    152.8890
  1985.5000      0.0000    259.7058     58.9203     87.4336    155.8805
  1985.7500      0.0000    259.7267     58.1353     90.2191    159.9594
  1986.0000      0.0000    259.7455     57.6371     90.6543    163.2175
  1986.2500      0.0000    259.7542     57.5497     86.9983    164.2268
  1986.5000      0.0000    259.7444     57.9011     86.4761    163.0062
  1986.7500      0.0000    259.7160     58.5867     85.8667    160.6495
  1987.0000      0.0000    259.6788     59.4116     85.8667    157.9464
  1987.2500      0.0000    259.6436     60.2016     84.3869    154.2740
  1987.5000      0.0000    259.6145     60.8700     83.9517    147.9280
  1987.7500      0.0000    259.5909     61.3879     84.4740    137.8943
  1988.0000      0.0000    259.5726     61.7302     84.6481    125.6442
  1988.2500      0.0000    259.5612     61.8767     83.8647    115.0758
  1988.5000      0.0000    259.5567     61.8561     84.1258    110.1390
  1988.7500      0.0000    259.5562     61.7726     85.0833    111.9604
  1989.0000      0.0000    259.5549     61.7791     85.9538    118.0262
  1989.2500      0.0000    259.5485     62.0077     86.3890    124.2002
  1989.5000      0.0000    259.5357     62.4978     86.4761    127.7749
  1989.7500      0.0000    259.5207     63.1687     85.9538    128.8947
  1990.0000      0.0000    259.5110     63.8617     85.6926    129.4908
  1990.2500      0.0000    259.5121     64.4257     86.6502    131.3407
  1990.5000      0.0000    259.5230     64.7811     86.3890    134.9844
  1990.7500      0.0000    259.5366     64.9282     89.4356    139.4123
  1991.0000      0.0000    259.5448     64.9152     90.3932    142.3114
  1991.2500      0.0000    259.5433     64.8044     90.4802    141.5205
  1991.5000      0.0000    259.5327     64.6519     90.6543    137.0090
  1991.7500      0.0000    259.5161     64.5013     91.7859    131.2230
  1992.0000      0.0000    259.4970     64.3863     91.7859    127.3062
  1992.2500      0.0000    259.4773     64.3312     90.8284    127.1084
  1992.5000      0.0000    259.4576     64.3374     90.7413    130.5531
  1992.7500      0.0000    259.4390     64.3669     88.0429    136.1187
  1993.0000      0.0000    259.4242     64.3429     87.1724    141.6308
  1993.2500      0.0000    259.4170     64.1764     86.7372    145.0525
  1993.5000      0.0000    259.4204     63.8118     85.7797    145.2142
  1993.7500      0.0000    259.4352     63.2631     85.1704    142.2160
  1994.0000      0.0000    259.4596     62.6123     86.1279    137.3243
  1994.2500      0.0000    259.4916     61.9627     85.1704    132.4298
  1994.5000      0.0000    259.5298     61.3942     87.0854    129.3407
