~Version Information
VERS.                      2.0: CWLS Log ASCII Standard - VERSION 2.0
WRAP.                       NO: One line per depth step
~Well Information Block
STRT.FT               275.0000: 
STOP.FT              1682.2000: 
STEP.FT                 0.1000: 
NULL.                -999.2500: 
COMP.          Pioneer Natural Resources: COMPANY
WELL.               Elmo 14-21: WELL
FLD.           Purgatoire River: FIELD
LOC.           623' FSL & 450' FWL----: LOCATION
PROV.                 Colorado: PROVINCE
CNTY.               Las Animas: COUNTRY
SRVC.                Patterson: SERVICE COMPANY
DATE.          Wed May 18 08:17:30 2005: LOG DATE
UWI.           05 071 08360 00: UNIQUE WELL ID
~Curve Information Block
DEPT.FT            0 000 00 00: Depth
DCAL.in                       : CDL Caliper
RHOB.g/cc                     : CDL Bulk Density
RHOC.g/cc                     : CDL Density Correction
DPOR.pu                       : CDL Density Porosity
NPOR.pu                       : Neutron Porosity
GR.GAPI                       : Gamma Ray
~Parameter Information Block
~A  Depth       DCAL        RHOB        RHOC        DPOR        NPOR         GR     
# ...
   918.2000      8.0225      2.6154      0.0848      2.0961     23.3212    135.5954
   918.3000      8.0222      2.6133      0.1064      2.2217     23.4011    137.5079
   918.4000      8.0222      2.6042      0.0663      2.7780     24.0928    137.1271
   918.5000      8.0210      2.5913      0.0704      3.5547     25.1596    132.9171
   918.6000      8.0210      2.5770      0.0556      4.4221     25.9044    131.7135
   918.7000      8.0210      2.5694      0.0173      4.8873     26.0708    137.6721
   918.8000      8.0199      2.5722      0.0605      4.7132     25.5698    142.6743
   918.9000      8.0199      2.5735      0.0380      4.6381     24.4318    140.3011
   919.0000      8.0209      2.5705      0.0394      4.8186     23.3843    135.7514
   919.1000      8.0209      2.5760      0.0079      4.4846     22.9234    134.7398
   919.2000      8.0209      2.5922      0.0357      3.5013     22.6967    135.3666
   919.3000      8.0211      2.6044      0.0702      2.7628     22.7542    134.3923
   919.4000      8.0211      2.6031      0.0850      2.8443     23.2805    134.7939
   919.5000      8.0204      2.5901      0.0595      3.6303     23.6565    139.4288
   919.6000      8.0204      2.5716      0.0221      4.7544     23.3904    143.8623
   919.7000      8.0204      2.5590      0.0156      5.5161     22.9926    142.9961
   919.8000      8.0213      2.5552      0.0454      5.7471     23.2719    136.5690
   919.9000      8.0213      2.5501      0.0340      6.0575     23.9449    127.6120
   920.0000      8.0233      2.5479     -0.0095      6.1866     24.1953    123.0785
   920.1000      8.0233      2.5604      0.0425      5.4301     24.3623    127.0113
   920.2000      8.0233      2.5778      0.0742      4.3771     24.9561    136.6164
   920.3000      8.0239      2.5862      0.0482      3.8644     25.4966    148.6471
   920.4000      8.0239      2.5861      0.0685      3.8749     25.6926    157.9065
   920.5000      8.0236      2.5810      0.0385      4.1843     25.7804    160.0587
   920.6000      8.0236      2.5762      0.0110      4.4737     25.9632    158.9313
   920.7000      8.0236      2.5718      0.0934      4.7383     26.2124    158.5797
   920.8000      8.0220      2.5610      0.0547      5.3953     26.2103    157.3738
   920.9000      8.0220      2.5501      0.0354      6.0545     26.0921    153.3457
   921.0000      8.0198      2.5459      0.0564      6.3068     26.2315    148.4387
   921.1000      8.0198      2.5406      0.0691      6.6330     26.4228    147.3797
   921.2000      8.0198      2.5319      0.0611      7.1595     26.3174    153.7869
   921.3000      8.0196      2.5305      0.0634      7.2402     26.1922    164.6405
   921.4000      8.0196      2.5394      0.0877      6.7047     26.5594    175.4130
   921.5000      8.0181      2.5519      0.0703      5.9482     27.2714    182.2817
   921.6000      8.0181      2.5671      0.0986      5.0239     27.8617    183.4556
   921.7000      8.0181      2.5852      0.0999      3.9280     28.0171    185.0824
   921.8000      8.0165      2.6008      0.0604      2.9842     27.6395    189.8696
   921.9000      8.0165      2.6012      0.1177      2.9562     27.3850    193.8658
   922.0000      8.0168      2.5862      0.0205      3.8695     27.7198    193.0439
   922.1000      8.0168      2.5746      0.0422      4.5698     28.0451    185.5284
   922.2000      8.0168      2.5711      0.0399      4.7795     27.9661    175.6869
   922.3000      8.0194      2.5681      0.0533      4.9662     27.6409    169.5227
   922.4000      8.0194      2.5648      0.0484      5.1629     27.4612    165.3286
   922.5000      8.0241      2.5628      0.0712      5.2824     27.7772    155.9536
   922.6000      8.0241      2.5568      0.0541      5.6464     28.1100    144.9698
   922.7000      8.0241      2.5389      0.0693      6.7341     27.8326    142.2878
   922.8000      8.0276      2.5124     -0.0077      8.3387     26.9195    149.8297
   922.9000      8.0276      2.4922      0.0179      9.5629     25.6826    159.8006
   923.0000      8.0252      2.4901     -0.0175      9.6933     24.3536    161.2305
   923.1000      8.0252      2.5122      0.0374      8.3509     23.4934    153.7836
   923.2000      8.0252      2.5545      0.0885      5.7896     23.6399    144.9562
   923.3000      8.0200      2.6036      0.1066      2.8096     24.1849    137.5304
   923.4000      8.0200      2.6420      0.1347      0.4834     24.0917    128.9798
   923.5000      8.0180      2.6542      0.1515     -0.2524     23.3715    117.5987
   923.6000      8.0180      2.6467      0.1155      0.2029     22.7712    106.7806
   923.7000      8.0180      2.6409      0.1126      0.5485     22.4715     97.8354
   923.8000      8.0187      2.6434      0.1312      0.4002     21.9311     89.1558
   923.9000      8.0187      2.6478      0.0993      0.1346     20.7567     79.7478
   924.0000      8.0189      2.6538      0.0737     -0.2294     19.3761     69.4599
   924.1000      8.0189      2.6627      0.0848     -0.7686     18.4615     61.9568
   924.2000      8.0189      2.6702      0.0579     -1.2252     18.1692     59.1016
   924.3000      8.0174      2.6673      0.0851     -1.0456     18.2929     58.5907
   924.4000      8.0174      2.6453      0.0529      0.2875     18.7602     58.1812
   924.5000      8.0157      2.6154      0.0268      2.0974     19.5861     56.6439
   924.6000      8.0157      2.6028      0.0105      2.8616     20.4373     53.8687
   924.7000      8.0157      2.6072      0.0640      2.5918     20.7842     50.5461
   924.8000      8.0157      2.6042      0.0844      2.7777     20.4605     48.1453
   924.9000      8.0157      2.5866      0.0227      3.8420     19.8477     50.1684
   925.0000      8.0162      2.5708      0.0304      4.8002     19.3338     57.7283
   925.1000      8.0162      2.5720      0.0007      4.7273     18.8375     67.0003
   925.2000      8.0162      2.5856      0.0594      3.9008     18.3648     73.3408
   925.3000      8.0168      2.5857      0.0691      3.8981     18.2087     72.4822
   925.4000      8.0168      2.5647      0.0477      5.1671     18.2841     63.6592
   925.5000      8.0178      2.5473      0.0011      6.2237     18.1017     54.6448
   925.6000      8.0178      2.5518      0.0132      5.9517     17.6598     53.3343
   925.7000      8.0178      2.5709      0.0235      4.7938     17.6160     58.9094
   925.8000      8.0193      2.5909      0.0602      3.5794     17.9307     65.7022
   925.9000      8.0193      2.5992      0.1096      3.0794     18.1225     70.7950
   926.0000      8.0201      2.5882      0.0738      3.7468     18.3080     75.1694
   926.1000      8.0201      2.5715      0.0430      4.7584     18.4877     77.8713
   926.2000      8.0201      2.5666      0.0321      5.0576     18.4874     76.5158
   926.3000      8.0210      2.5780      0.0323      4.3613     18.6259     71.5120
   926.4000      8.0210      2.5980      0.0927      3.1504     19.1912     65.0839
   926.5000      8.0246      2.6154      0.0734      2.0955     19.6504     62.2464
   926.6000      8.0246      2.6321      0.0449      1.0854     19.4426     66.4726
   926.7000      8.0246      2.6494      0.0636      0.0357     18.8392     72.1501
   926.8000      8.0263      2.6595      0.0811     -0.5783     18.5182     73.7704
   926.9000      8.0263      2.6595      0.0750     -0.5747     18.4908     74.0709
   927.0000      8.0244      2.6557      0.0749     -0.3429     18.0770     77.7423
   927.1000      8.0244      2.6611      0.0748     -0.6744     17.4069     82.2718
   927.2000      8.0244      2.6849      0.0836     -2.1127     17.4383     81.5869
   927.3000      8.0212      2.7106      0.1282     -3.6702     18.3816     78.8920
   927.4000      8.0212      2.7115      0.0700     -3.7263     19.7682     81.0257
   927.5000      8.0179      2.6926      0.0370     -2.5818     21.2356     89.9625
   927.6000      8.0179      2.6758      0.0517     -1.5617     22.3441    106.2110
   927.7000      8.0179      2.6592      0.0693     -0.5551     22.7085    127.0387
