~Version Information
VERS.                      2.0: CWLS Log ASCII Standard - VERSION 2.0
WRAP.                       NO: One line per depth step
~Well Information Block
STRT.FT                -8.0000: 
STOP.FT              2410.0000: 
STEP.FT                 0.2500: 
NULL.                -999.2500: 
COMP.          Petrogulf Corporation: COMPANY
WELL.            Torcom 17-33V: WELL
FLD.           Purgatorie River: FIELD
LOC.           1544' FSL & 1746' FEL--: LOCATION
PROV.                       CO: PROVINCE
CNTY.               Las Animas: COUNTRY
SRVC.          Patterson Wireline: SERVICE COMPANY
DATE.          Wed Dec 10 17:24:27 2003: LOG DATE
UWI.                          : UNIQUE WELL ID
~Curve Information Block
DEPT.FT            0 000 00 00: Depth
CCL.                          : Casing Collar Locator
TT3.usec                      : CBL 3' Travel Time
AMP3.mV                       : CBL 3' Amplitude
GR.GAPI                       : Gamma Ray
~Parameter Information Block
~A  Depth       CCL         TT3         AMP3         GR     
# ...
  1901.5000      0.0000    711.3265      1.0760     44.9670
  1901.7500      0.0000    709.9909      1.0931     40.2789
  1902.0000      0.0000    708.5909      1.0696     37.1904
  1902.2500      0.0000    710.6660      1.0664     35.2453
  1902.5000      0.0000    717.9055      1.1380     34.6367
  1902.7500      0.0000    728.9109      1.2806     35.8321
  1903.0000      0.0000    740.8326      1.4415     38.5679
  1903.2500      0.0000    751.1725      1.5703     41.7347
  1903.5000      0.0000    757.8673      1.6533     44.2541
  1903.7500      0.0000    759.0322      1.7057     45.7603
  1904.0000      0.0000    754.2745      1.7441     46.4791
  1904.2500      0.0000    746.0126      1.7681     46.8381
  1904.5000      0.0000    738.1367      1.7620     47.2653
  1904.7500      0.0000    733.0488      1.7105     48.0033
  1905.0000      0.0000    730.5358      1.6156     48.9022
  1905.2500      0.0000    729.1737      1.5009     49.5894
  1905.5000      0.0000    727.9960      1.3958     50.0567
  1905.7500      0.0000    726.8818      1.3092     50.9938
  1906.0000      0.0000    726.0984      1.2210     53.3170
  1906.2500      0.0000    725.7465      1.1027     57.3627
  1906.5000      0.0000    725.2894      0.9500     62.5991
  1906.7500      0.0000    723.2031      0.7925     67.9969
  1907.0000      0.0000    717.2946      0.6769     72.4699
  1907.2500      0.0000    706.2521      0.6451     75.1345
  1907.5000      0.0000    691.4845      0.7206     75.5401
  1907.7500      0.0000    676.9661      0.8966     73.8378
  1908.0000      0.0000    666.7344      1.1304     70.6880
  1908.2500      0.0000    662.6632      1.3577     66.9521
  1908.5000      0.0000    664.3151      1.5239     63.3242
  1908.7500      0.0000    669.8268      1.6069     60.0415
  1909.0000      0.0000    676.6069      1.6185     56.9429
  1909.2500      0.0000    682.1450      1.5891     53.9697
  1909.5000      0.0000    685.0834      1.5505     51.4871
  1909.7500      0.0000    685.6836      1.5211     49.7634
  1910.0000      0.0000    685.1376      1.4983     48.2549
  1910.2500      0.0000    684.3978      1.4617     45.9543
  1910.5000      0.0000    683.5543      1.3890     42.6212
  1910.7500      0.0000    682.1855      1.2776     39.2983
  1911.0000      0.0000    680.1203      1.1490     37.3777
  1911.2500      0.0000    677.7442      1.0336     37.3536
  1911.5000      0.0000    675.6599      0.9490     38.5983
  1911.7500      0.0000    674.2339      0.8943     40.1272
  1912.0000      0.0000    673.4778      0.8676     41.3808
  1912.2500      0.0000    673.1915      0.8847     42.3281
  1912.5000      0.0000    673.1204      0.9695     43.0478
  1912.7500      0.0000    673.0299      1.1206     43.4377
  1913.0000      0.0000    672.7399      1.2972     43.4037
  1913.2500      0.0000    672.1671      1.4443     43.1429
  1913.5000      0.0000    671.3414      1.5251     43.0117
  1913.7500      0.0000    670.3468      1.5292     43.1087
  1914.0000      0.0000    669.2394      1.4615     43.1559
  1914.2500      0.0000    668.0463      1.3385     42.8681
  1914.5000      0.0000    666.8172      1.1899     42.5735
  1914.7500      0.0000    665.6213      1.0497     43.6140
  1915.0000      0.0000    664.4855      0.9374     47.8644
  1915.2500      0.0000    663.3618      0.8535     56.2519
  1915.5000      0.0000    662.1678      0.7912     67.6871
  1915.7500      0.0000    660.8599      0.7497     79.7448
  1916.0000      0.0000    659.4742      0.7353     90.1949
  1916.2500      0.0000    658.1131      0.7629     97.6215
  1916.5000      0.0000    656.9145      0.8531    101.2524
  1916.7500      0.0000    656.0237      1.0141    101.0652
  1917.0000      0.0000    655.5381      1.2217     98.1076
  1917.2500      0.0000    655.4366      1.4287     94.2540
  1917.5000      0.0000    655.6351      1.5920     91.2156
  1917.7500      0.0000    656.2989      1.6911     89.6067
  1918.0000      0.0000    658.3378      1.7283     88.9811
  1918.2500      0.0000    663.6610      1.7252     88.6331
  1918.5000      0.0000    674.4435      1.7140     88.3419
  1918.7500      0.0000    691.0533      1.7190     88.7850
  1919.0000      0.0000    709.9758      1.7384     91.4456
  1919.2500      0.0000    724.4764      1.7477     97.6584
  1919.5000      0.0000    728.8787      1.7268    107.3667
  1919.7500      0.0000    723.0339      1.6888    118.8805
  1920.0000      0.0000    712.5001      1.6747    129.8710
  1920.2500      0.0000    704.2578      1.7105    138.5359
  1920.5000      0.0000    702.0654      1.7675    144.2454
  1920.7500      0.0000    704.9213      1.7803    147.5407
  1921.0000      0.0000    708.8273      1.7093    149.3837
  1921.2500      0.0000    710.0876      1.5780    150.1203
  1921.5000      0.0000    707.8970      1.4429    149.2549
  1921.7500      0.0000    704.2841      1.3338    146.2953
  1922.0000      0.0000    701.5309      1.2315    141.5964
  1922.2500      0.0000    699.9785      1.1008    136.2674
  1922.5000      0.0000    698.7701      0.9362    131.3175
  1922.7500      0.0000    697.9780      0.7707    126.7872
  1923.0000      0.0000    698.5197      0.6512    121.6219
  1923.2500      0.0000    699.9418      0.6130    114.7137
  1923.5000      0.0000    699.7534      0.6668    106.3143
  1923.7500      0.0000    695.7321      0.7915     98.2190
  1924.0000      0.0000    688.2744      0.9412     92.2793
  1924.2500      0.0000    680.0760      1.0774     88.7555
  1924.5000      0.0000    673.9645      1.2001     86.3331
  1924.7500      0.0000    671.2224      1.3368     83.9144
  1925.0000      0.0000    671.2579      1.5005     82.2189
  1925.2500      0.0000    672.1939      1.6645     83.1117
  1925.5000      0.0000    671.9502      1.7839     87.2683
  1925.7500      0.0000    669.3978      1.8343     93.0978
  1926.0000      0.0000    664.9576      1.8251     98.2776
  1926.2500      0.0000    660.1976      1.7817    101.9058
  1926.5000      0.0000    656.6852      1.7227    104.7483
  1926.7500      0.0000    655.0495      1.6553    107.7937
  1927.0000      0.0000    654.9294      1.5870    111.1464
  1927.2500      0.0000    655.5278      1.5311    114.1719
  1927.5000      0.0000    656.1876      1.4980    116.1747
  1927.7500      0.0000    656.7926      1.4851    116.8332
  1928.0000      0.0000    657.9657      1.4819    116.1146
  1928.2500      0.0000    660.8443      1.4756    113.8381
  1928.5000      0.0000    666.1398      1.4482    109.6412
  1928.7500      0.0000    672.9537      1.3805    103.8089
  1929.0000      0.0000    678.7941      1.2750     97.7917
  1929.2500      0.0000    681.5508      1.1730     93.1561
  1929.5000      0.0000    681.3894      1.1333     90.0909
  1929.7500      0.0000    679.9181      1.1817     87.5964
  1930.0000      0.0000    677.7709      1.2808     85.1079
  1930.2500      0.0000    674.1960      1.3561     83.3757
  1930.5000      0.0000    668.9438      1.3541     83.5751
  1930.7500      0.0000    663.2807      1.2762     85.8987
  1931.0000      0.0000    658.8328      1.1612     89.0450
  1931.2500      0.0000    656.2612      1.0452     90.8689
  1931.5000      0.0000    655.3384      0.9446     89.7092
  1931.7500      0.0000    655.7740      0.8688     85.6805
  1932.0000      0.0000    657.5837      0.8369     80.9455
  1932.2500      0.0000    660.7330      0.8754     78.3726
  1932.5000      0.0000    664.7388      0.9991     79.3859
  1932.7500      0.0000    669.0255      1.1925     82.9199
  1933.0000      0.0000    673.7007      1.4058     86.4238
  1933.2500      0.0000    679.3914      1.5807     87.7769
  1933.5000      0.0000    686.0393      1.6882     86.4369
  1933.7500      0.0000    692.4666      1.7418     83.4090
  1934.0000      0.0000    697.4875      1.7708     80.4921
  1934.2500      0.0000    700.9907      1.7909     79.1769
  1934.5000      0.0000    703.6368      1.8023     79.6961
  1934.7500      0.0000    705.8113      1.8057     81.0623
