~Version Information
VERS.                      2.0: CWLS Log ASCII Standard - VERSION 2.0
WRAP.                       NO: One line per depth step
~Well Information Block
STRT.FT                -8.2500: 
STOP.FT              2209.7500: 
STEP.FT                 0.2500: 
NULL.                -999.2500: 
COMP.          Petrogulf Corporation: COMPANY
WELL.          Alexander 9-43V: WELL
FLD.           Purgatorie River: FIELD
LOC.                          : LOCATION
CNTY.               Las Animas: COUNTY
SRVC.                         : SERVICE COMPANY
DATE.          Wed May 28 09:25:28 2003: LOG DATE
UWI.           05 071 07727 00: UNIQUE WELL ID
STAT.                 Colorado: STATE
~Curve Information Block
DEPT.FT            0 000 00 00: Depth
CCL.                          : Casing Collar Locator
TT3.usec                      : CBL 3' Travel Time
AMP3.mV                       : CBL 3' Amplitude
GR.GAPI                       : Gamma Ray
~Parameter Information Block
~A  Depth       CCL         TT3         AMP3         GR     
# ...
   862.7500      0.0000    522.6185      5.4846    146.9144
   863.0000      0.0000    523.0863      5.4265    145.2698
   863.2500      0.0000    534.6490      5.5441    144.0021
   863.5000      0.0000    551.5223      5.7273    143.0717
   863.7500      0.0000    566.0956      5.8382    142.0914
   864.0000      0.0000    571.9934      5.8552    140.9540
   864.2500      0.0000    566.7919      5.8629    140.0959
   864.5000      0.0000    552.2808      5.9062    139.9724
   864.7500      0.0000    532.8666      5.9110    140.2806
   865.0000      0.0000    513.6049      5.7842    140.0634
   865.2500      0.0000    498.2575      5.5556    138.6545
   865.5000      0.0000    488.0660      5.3738    136.2114
   865.7500      0.0000    482.1769      5.3737    133.2514
   866.0000      0.0000    479.2155      5.5739    130.0193
   866.2500      0.0000    478.3044      5.8782    126.5288
   866.5000      0.0000    478.5950      6.1375    123.0071
   866.7500      0.0000    478.2119      6.2340    120.0073
   867.0000      0.0000    474.5913      6.1668    117.9703
   867.2500      0.0000    466.7498      6.0687    116.7376
   867.5000      0.0000    456.9619      6.0942    115.8050
   867.7500      0.0000    449.5382      6.2692    115.2146
   868.0000      0.0000    448.6766      6.4663    115.6621
   868.2500      0.0000    458.1286      6.5370    117.1541
   868.5000      0.0000    480.7260      6.4595    118.0074
   868.7500      0.0000    515.2172      6.3574    116.2489
   869.0000      0.0000    553.6737      6.3749    111.9604
   869.2500      0.0000    583.7557      6.5325    107.1053
   869.5000      0.0000    594.3295      6.7014    102.9906
   869.7500      0.0000    580.4020      6.7197     99.3333
   870.0000      0.0000    545.9081      6.5324     96.2056
   870.2500      0.0000    503.3340      6.2371     95.4116
   870.5000      0.0000    468.2663      6.0138     98.8427
   870.7500      0.0000    450.9060      5.9933    106.1266
   871.0000      0.0000    451.0882      6.1495    114.7062
   871.2500      0.0000    460.6132      6.3143    121.9815
   871.5000      0.0000    470.1743      6.3295    127.0248
   871.7500      0.0000    475.0245      6.1958    130.6091
   872.0000      0.0000    475.6300      6.0488    133.8664
   872.2500      0.0000    474.4774      5.9911    136.7670
   872.5000      0.0000    473.1392      5.9929    137.9703
   872.7500      0.0000    471.8487      5.9718    136.3152
   873.0000      0.0000    470.5670      5.9115    132.0172
   873.2500      0.0000    469.7281      5.8604    126.2351
   873.5000      0.0000    470.2115      5.8549    120.3258
   873.7500      0.0000    472.9103      5.8816    116.0437
   874.0000      0.0000    478.0497      5.8977    115.4321
   874.2500      0.0000    484.4298      5.8719    119.4473
   874.5000      0.0000    489.4498      5.8153    126.8783
   874.7500      0.0000    490.6664      5.7656    135.0870
   875.0000      0.0000    487.7738      5.7377    141.6123
   875.2500      0.0000    482.8189      5.7041    145.0760
   875.5000      0.0000    478.4231      5.6280    145.2381
   875.7500      0.0000    476.0320      5.5071    142.8934
   876.0000      0.0000    475.6184      5.3776    139.5770
   876.2500      0.0000    476.3719      5.2858    136.6139
   876.5000      0.0000    477.4086      5.2593    134.1395
   876.7500      0.0000    478.1544      5.2939    131.4931
   877.0000      0.0000    478.4540      5.3590    128.6644
   877.2500      0.0000    478.4614      5.4269    126.7333
   877.5000      0.0000    478.4105      5.4925    126.5557
   877.7500      0.0000    478.4308      5.5568    127.5650
   878.0000      0.0000    478.5186      5.6034    128.3782
   878.2500      0.0000    478.6129      5.6024    128.4763
   878.5000      0.0000    478.6513      5.5392    128.8449
   878.7500      0.0000    478.5709      5.4352    130.7964
   879.0000      0.0000    478.3285      5.3361    134.4556
   879.2500      0.0000    477.9611      5.2771    138.6049
   879.5000      0.0000    477.6074      5.2615    141.6218
   879.7500      0.0000    477.4227      5.2718    142.3665
   880.0000      0.0000    477.4450      5.2983    140.7542
   880.2500      0.0000    477.5316      5.3447    137.9760
   880.5000      0.0000    477.4123      5.4088    135.8187
   880.7500      0.0000    476.8155      5.4689    135.2352
   881.0000      0.0000    475.6086      5.4881    135.4923
   881.2500      0.0000    473.9193      5.4300    134.9079
   881.5000      0.0000    472.2741      5.2841    132.5715
   881.7500      0.0000    471.8791      5.0864    129.3480
   882.0000      0.0000    474.8841      4.9042    127.0466
   882.2500      0.0000    483.9172      4.7812    126.6348
   882.5000      0.0000    500.1206      4.6953    127.4864
   882.7500      0.0000    520.9062      4.5871    128.3986
   883.0000      0.0000    540.8576      4.4270    128.9067
   883.2500      0.0000    556.7821      4.2375    129.1633
   883.5000      0.0000    571.4186      4.0622    128.6913
   883.7500      0.0000    590.0153      3.9338    126.0049
   884.0000      0.0000    613.4381      3.8564    119.8305
   884.2500      0.0000    636.9258      3.8032    110.3500
   884.5000      0.0000    655.5715      3.7350     99.2517
   884.7500      0.0000    668.7274      3.6315     89.0618
   885.0000      0.0000    678.7874      3.5196     82.1718
   885.2500      0.0000    687.9236      3.4719     79.6078
   885.5000      0.0000    697.2165      3.5565     80.5091
   885.7500      0.0000    707.4525      3.7764     83.2267
   886.0000      0.0000    718.7568      4.0643     86.9642
   886.2500      0.0000    729.1528      4.3251     92.1821
   886.5000      0.0000    734.7034      4.4834     99.6552
   886.7500      0.0000    731.9405      4.5294    109.4050
   887.0000      0.0000    719.8241      4.5402    120.4924
   887.2500      0.0000    699.5579      4.6276    131.6871
   887.5000      0.0000    674.1925      4.8402    142.0345
   887.7500      0.0000    648.8979      5.1265    150.5549
   888.0000      0.0000    629.5180      5.3948    155.7774
   888.2500      0.0000    618.7522      5.5888    156.2810
   888.5000      0.0000    613.1759      5.7058    151.9662
   888.7500      0.0000    604.5114      5.7702    144.4795
   889.0000      0.0000    585.3277      5.7980    136.3518
   889.2500      0.0000    554.8995      5.7782    129.8872
   889.5000      0.0000    520.0007      5.6842    126.4713
   889.7500      0.0000    490.3228      5.5113    126.1398
   890.0000      0.0000    472.6713      5.3095    127.6748
   890.2500      0.0000    467.5370      5.1638    129.4818
   890.5000      0.0000    470.0856      5.1195    130.5110
   890.7500      0.0000    475.0896      5.1418    130.3966
   891.0000      0.0000    480.8697      5.1737    128.9481
   891.2500      0.0000    488.0670      5.2005    125.7581
   891.5000      0.0000    496.4407      5.2346    120.5952
   891.7500      0.0000    504.8575      5.2716    114.3829
   892.0000     -5.0000    513.6591      5.2884    109.3716
   892.2500      0.0000    525.2514      5.2646    107.7372
   892.5000      0.0000    541.3560      5.2014    109.9625
   892.7500      0.0000    559.0297      5.1439    114.7804
   893.0000      0.0000    569.9853      5.1741    120.4359
   893.2500      0.0000    566.1698      5.3355    125.7804
   893.5000      0.0000    547.2753      5.5640    130.4883
   893.7500      0.0000    521.6572      5.7413    134.5726
   894.0000      0.0000    499.5801      5.8097    138.0999
   894.2500      0.0000    486.6199      5.8006    141.5153
   894.5000      0.0000    482.5742      5.7680    145.5309
   894.7500      0.0000    483.8269      5.7288    150.0105
   895.0000      0.0000    486.0253      5.6679    153.3712
   895.2500      0.0000    486.3559      5.5849    153.7528
   895.5000      0.0000    484.6667      5.5190    150.7564
   895.7500      0.0000    482.5822      5.5111    145.8458
   896.0000      0.0000    481.7917      5.5527    141.1515
