~Version Information
VERS.                      2.0: CWLS Log ASCII Standard - VERSION 2.0
WRAP.                       NO: One line per depth step
~Well Information Block
STRT.FT               665.0000: 
STOP.FT              1972.5000: 
STEP.FT                 0.1000: 
NULL.                -999.2500: 
COMP.          Petrogulf Corporation: COMPANY
WELL.          Great Plains 22-21V: WELL
FLD.           Purgatorie River: FIELD
LOC.           63' FNL & 1895' FWL: LOCATION
PROV.                 Colorado: PROVINCE
CNTY.               Las Animas: COUNTRY
SRVC.                Patterson: SERVICE COMPANY
DATE.          Thu Sep 01 07:39:43 2005: LOG DATE
UWI.                          : UNIQUE WELL ID
~Curve Information Block
DEPT.FT            0 000 00 00: Depth
DCAL.in                       : CDL Caliper
RHOB.g/cc                     : CDL Bulk Density
RHOC.g/cc                     : CDL Density Correction
DPOR.pu                       : CDL Density Porosity
GR.GAPI                       : Gamma Ray
NPOR.pu                       : Neutron Porosity
~Parameter Information Block
~A  Depth       DCAL        RHOB        RHOC        DPOR         GR         NPOR    
# ...
  1442.6000      8.1481      2.4707      0.0219     10.8662    135.2328     27.5380
  1442.7000      8.1481      2.4655      0.0556     11.1843    138.5635     27.6634
  1442.8000      8.1370      2.4594      0.0456     11.5493    139.0577     27.8640
  1442.9000      8.1370      2.4569      0.0302     11.7034    139.9145     27.8803
  1443.0000      8.1680      2.4596      0.0712     11.5367    143.8919     27.9944
  1443.1000      8.1680      2.4641      0.0465     11.2669    149.6355     28.2373
  1443.2000      8.1680      2.4753      0.0489     10.5863    153.7961     28.2057
  1443.3000      8.2000      2.4986      0.0585      9.1778    152.6837     28.0697
  1443.4000      8.2000      2.5292      0.0667      7.3208    147.0649     28.2966
  1443.5000      8.1517      2.5568      0.0957      5.6482    138.4783     28.6882
  1443.6000      8.1517      2.5731      0.0695      4.6635    128.7760     28.9536
  1443.7000      8.1517      2.5822      0.0478      4.1104    122.0178     29.1484
  1443.8000      8.1408      2.5923      0.0818      3.4981    118.6048     29.0098
  1443.9000      8.1408      2.6029      0.0683      2.8569    115.5705     28.5928
  1444.0000      8.1461      2.6132      0.0752      2.2303    110.2256     28.4095
  1444.1000      8.1461      2.6256      0.0507      1.4806    101.3566     28.3592
  1444.2000      8.1461      2.6381      0.0414      0.7188     91.1824     27.8568
  1444.3000      8.1131      2.6408      0.0646      0.5604     83.2255     26.8977
  1444.4000      8.1131      2.6254      0.0756      1.4894     78.3855     25.9898
  1444.5000      8.0956      2.6046      0.0309      2.7523     76.9801     25.4262
  1444.6000      8.0956      2.5947      0.0532      3.3519     78.9839     25.1397
  1444.7000      8.0956      2.5884      0.0672      3.7318     79.9358     24.8325
  1444.8000      8.0884      2.5686      0.0596      4.9342     77.4874     24.4223
  1444.9000      8.0884      2.5372      0.0050      6.8378     75.8515     24.0805
  1445.0000      8.1111      2.5117      0.0087      8.3814     77.4777     23.6868
  1445.1000      8.1111      2.4997     -0.0058      9.1115     80.6258     23.3088
  1445.2000      8.1111      2.5004     -0.0000      9.0678     85.9796     23.2950
  1445.3000      8.1001      2.5063      0.0391      8.7102     97.2403     23.5317
  1445.4000      8.1001      2.5011      0.0689      9.0265    110.2876     23.7617
  1445.5000      8.1238      2.4873      0.0178      9.8583    118.8909     24.1148
  1445.6000      8.1238      2.4844      0.0647     10.0362    126.9518     24.9083
  1445.7000      8.1238      2.4906      0.1257      9.6607    136.6824     26.1259
  1445.8000      8.1933      2.4859      0.1184      9.9424    143.9639     27.3959
  1445.9000      8.1933      2.4623      0.1129     11.3771    149.5265     28.2863
  1446.0000      8.2750      2.4274      0.0865     13.4908    158.7149     28.5288
  1446.1000      8.2750      2.3941      0.0458     15.5085    169.5514     28.3734
  1446.2000      8.2750      2.3709      0.0879     16.9140    172.8040     28.2717
  1446.3000      8.2477      2.3592      0.0462     17.6250    167.2939     28.3720
  1446.4000      8.2477      2.3631      0.0624     17.3889    160.5705     28.7886
  1446.5000      8.2165      2.3805      0.0771     16.3359    155.7458     29.4980
  1446.6000      8.2165      2.3963      0.1102     15.3751    151.5238     30.0082
  1446.7000      8.2165      2.4080      0.0578     14.6675    150.0664     30.1011
  1446.8000      8.2283      2.4296      0.0480     13.3561    153.3846     30.0937
  1446.9000      8.2283      2.4581      0.1391     11.6308    157.5416     30.0709
  1447.0000      8.2241      2.4748      0.1432     10.6172    158.0732     29.8951
  1447.1000      8.2241      2.4809      0.1628     10.2504    156.4017     29.7414
  1447.2000      8.2241      2.4872      0.1881      9.8662    155.4991     29.8952
  1447.3000      8.2504      2.4900      0.1880      9.6978    154.7932     30.2391
  1447.4000      8.2504      2.4799      0.1825     10.3118    153.9191     30.4385
  1447.5000      8.2338      2.4604      0.1373     11.4907    154.0580     30.4460
  1447.6000      8.2338      2.4415      0.1376     12.6367    155.9815     30.3659
  1447.7000      8.2338      2.4228      0.0930     13.7705    158.1058     30.3074
  1447.8000      8.2189      2.4027      0.0632     14.9882    158.0584     30.4273
  1447.9000      8.2189      2.3856      0.0650     16.0216    157.3821     30.5901
  1448.0000      8.2432      2.3745      0.0431     16.6961    159.5788     30.6139
  1448.1000      8.2432      2.3703      0.0476     16.9495    163.8886     30.7253
  1448.2000      8.2432      2.3701      0.0633     16.9613    164.9520     31.2291
  1448.3000      8.1983      2.3685      0.0623     17.0577    161.9285     31.8925
  1448.4000      8.1983      2.3698      0.0564     16.9838    157.1331     32.1182
  1448.5000      8.2281      2.3850      0.0561     16.0613    151.0517     31.9268
  1448.6000      8.2281      2.4145      0.0951     14.2700    145.4784     31.8175
  1448.7000      8.2281      2.4475      0.0954     12.2705    142.0368     31.7175
  1448.8000      8.2073      2.4742      0.1310     10.6566    139.7472     31.2188
  1448.9000      8.2073      2.4894      0.1008      9.7350    138.1685     30.6320
  1449.0000      8.1966      2.4951      0.1046      9.3909    138.3976     30.5476
  1449.1000      8.1966      2.4970      0.1018      9.2747    137.4790     30.7568
  1449.2000      8.1966      2.5063      0.0469      8.7075    131.7180     30.7331
  1449.3000      8.2150      2.5288      0.0864      7.3473    123.4561     30.4350
  1449.4000      8.2150      2.5506      0.0807      6.0247    116.5315     30.0037
  1449.5000      8.1866      2.5623      0.0428      5.3163    111.7949     29.5616
  1449.6000      8.1866      2.5724      0.0291      4.7052    109.3541     29.1514
  1449.7000      8.1866      2.5864      0.0726      3.8568    107.9993     28.6918
  1449.8000      8.1580      2.5978      0.0565      3.1615    104.0467     28.2195
  1449.9000      8.1580      2.6035      0.0510      2.8204     96.2996     27.7369
  1450.0000      8.1905      2.6034      0.0745      2.8223     89.0065     27.1698
  1450.1000      8.1905      2.5969      0.0385      3.2181     86.4159     26.6329
  1450.2000      8.1905      2.5903      0.0603      3.6193     87.2109     26.2563
  1450.3000      8.1757      2.5888      0.0842      3.7088     87.9356     25.9568
  1450.4000      8.1757      2.5873      0.1114      3.8016     87.2064     25.6769
  1450.5000      8.1831      2.5862      0.0498      3.8673     86.7133     25.6040
  1450.6000      8.1831      2.5933      0.0845      3.4343     88.6935     25.8943
  1450.7000      8.1831      2.5983      0.1059      3.1338     91.5249     26.4260
  1450.8000      8.2073      2.5883      0.0715      3.7387     94.0574     26.9795
  1450.9000      8.2073      2.5684      0.0884      4.9445     99.4263     27.5323
  1451.0000      8.1833      2.5459      0.0420      6.3064    107.9265     28.0751
  1451.1000      8.1833      2.5268      0.0528      7.4691    115.7831     28.3851
  1451.2000      8.1833      2.5198      0.0176      7.8890    121.7663     28.4002
  1451.3000      8.2052      2.5340      0.0111      7.0311    127.2493     28.4458
  1451.4000      8.2052      2.5589      0.0716      5.5216    131.2142     28.7189
  1451.5000      8.2023      2.5675      0.0883      5.0030    132.5577     29.0573
  1451.6000      8.2023      2.5523      0.0379      5.9185    134.8444     29.3729
  1451.7000      8.2023      2.5262      0.0379      7.5019    139.9780     29.6061
  1451.8000      8.2367      2.4989      0.0123      9.1553    144.4809     29.5308
  1451.9000      8.2367      2.4773      0.0284     10.4685    144.1225     29.1150
  1452.0000      8.2880      2.4606      0.0425     11.4788    138.7094     28.6481
  1452.1000      8.2880      2.4421      0.0531     12.6007    133.7902     28.2710
