~Version Information
VERS.                      2.0: CWLS Log ASCII Standard - VERSION 2.0
WRAP.                       NO: One line per depth step
~Well Information Block
STRT.FT               -10.0000: 
STOP.FT              2544.2500: 
STEP.FT                 0.2500: 
NULL.                -999.2500: 
COMP.          Pioneer Natural Resources: COMPANY
WELL.            Cortina 23-25: WELL
FLD.           Purgatorie River: FIELD
LOC.           2344' FWL  & 2526' FSL------: LOCATION
PROV.                       CO: PROVINCE
CNTY.               Las Animas: COUNTRY
SRVC.          Patterson Wireline: SERVICE COMPANY
DATE.          Fri Apr 01 11:50:55 2005: LOG DATE
UWI.           05 071 08340 00: UNIQUE WELL ID
~Curve Information Block
DEPT.FT            0 000 00 00: Depth
CCL.                          : Casing Collar Locator
TT3.usec                      : CBL 3' Travel Time
AMP3.mV                       : CBL 3' Amplitude
GR.GAPI                       : Gamma Ray
~Parameter Information Block
~A  Depth       CCL         TT3         AMP3         GR     
# ...
  2335.0000      0.0000    663.9841      6.3979     82.7649
  2335.2500      0.0000    669.8328      6.4010     82.9836
  2335.5000      0.0000    671.1306      6.3325     84.2221
  2335.7500      0.0000    670.6869      6.2634     84.7506
  2336.0000      0.0000    670.5317      6.2627     83.2654
  2336.2500      0.0000    672.2888      6.3333     80.0217
  2336.5000      0.0000    677.4196      6.4234     76.2757
  2336.7500      0.0000    686.9144      6.4943     72.9539
  2337.0000      0.0000    700.7662      6.5617     70.1938
  2337.2500      0.0000    717.5943      6.6532     67.8380
  2337.5000      0.0000    734.4448      6.7553     65.8137
  2337.7500      0.0000    747.1671      6.8428     64.0382
  2338.0000      0.0000    752.0369      6.9190     62.3950
  2338.2500      0.0000    748.1110      6.9826     60.9561
  2338.5000      0.0000    738.8205      6.9976     60.0582
  2338.7500      0.0000    731.0123      6.9510     60.0724
  2339.0000      0.0000    730.8188      6.9017     61.1088
  2339.2500      0.0000    738.9059      6.9174     62.8706
  2339.5000      0.0000    749.7181      6.9866     64.6912
  2339.7500      0.0000    755.8793      7.0398     65.7936
  2340.0000      0.0000    753.5592      7.0347     65.6815
  2340.2500      0.0000    744.3329      6.9929     64.3112
  2340.5000      0.0000    732.9904      6.9760     61.8896
  2340.7500      0.0000    723.8975      7.0341     58.7659
  2341.0000      0.0000    718.9385      7.1406     55.7179
  2341.2500      0.0000    718.2170      7.1902     54.0378
  2341.5000      0.0000    721.8815      7.1055     54.7539
  2341.7500      0.0000    730.6348      6.9391     57.5648
  2342.0000      0.0000    744.2178      6.8178     60.8131
  2342.2500      0.0000    759.5087      6.8008     62.8494
  2342.5000      0.0000    770.8679      6.8429     63.4634
  2342.7500      0.0000    773.3328      6.8871     63.8073
  2343.0000      0.0000    766.2372      6.9271     65.0432
  2343.2500      0.0000    753.9561      6.9757     67.3614
  2343.5000      0.0000    742.7774      7.0408     69.9695
  2343.7500      0.0000    736.2596      7.1445     71.4350
  2344.0000      0.0000    733.2570      7.2994     70.3239
  2344.2500      0.0000    730.3726      7.4508     66.3298
  2344.5000      0.0000    725.8647      7.5121     60.8779
  2344.7500      0.0000    720.9178      7.4810     56.2184
  2345.0000      0.0000    717.9949      7.4618     53.8809
  2345.2500      0.0000    718.8320      7.5311     54.0715
  2345.5000      0.0000    723.5375      7.6273     56.1095
  2345.7500      0.0000    730.5116      7.6268     58.9362
  2346.0000      0.0000    737.2254      7.5106     61.2978
  2346.2500      0.0000    741.6543      7.3920     62.0718
  2346.5000      0.0000    743.0497      7.3740     60.9904
  2346.7500      0.0000    741.5496      7.4351     59.1012
  2347.0000      0.0000    737.8723      7.4864     58.0808
  2347.2500      0.0000    733.4214      7.4874     58.7615
  2347.5000      0.0000    729.7458      7.4483     60.3557
  2347.7500      0.0000    727.5381      7.3538     61.2105
  2348.0000      0.0000    726.4575      7.1664     60.3065
  2348.2500      0.0000    725.7420      6.9201     58.1090
  2348.5000      0.0000    724.8304      6.7533     56.2193
  2348.7500      0.0000    723.8318      6.7994     56.2254
  2349.0000      0.0000    723.5518      7.0495     58.5712
  2349.2500      0.0000    724.6037      7.3365     62.2699
  2349.5000      0.0000    726.4893      7.4567     65.7143
  2349.7500      0.0000    727.9453      7.3236     67.9214
  2350.0000      0.0000    727.8658      7.0301     69.2122
  2350.2500      0.0000    724.9850      6.7705     70.7398
  2350.5000      0.0000    715.7971      6.6794     73.1587
  2350.7500      0.0000    693.1674      6.7351     75.7175
  2351.0000      0.0000    649.4952      6.8271     76.8772
  2351.2500      0.0000    584.3775      6.9097     75.8540
  2351.5000      0.0000    509.4142      7.0571     73.2349
  2351.7500      0.0000    442.7514      7.3606     70.1383
  2352.0000      0.0000    397.3654      7.7993     67.3214
  2352.2500      0.0000    374.9316      8.2222     65.2036
  2352.5000      0.0000    369.5286      8.4394     64.1239
  2352.7500      0.0000    374.5913      8.3338     63.9843
  2353.0000      0.0000    387.0472      7.9325     63.8348
  2353.2500      0.0000    408.4511      7.4061     62.5161
  2353.5000      0.0000    443.5368      6.9860     59.8949
  2353.7500      0.0000    495.2230      6.8332     56.9682
  2354.0000      0.0000    558.5352      6.9471     54.6606
  2354.2500      0.0000    620.2911      7.1825     53.0749
  2354.5000      0.0000    666.5714      7.3536     52.0377
  2354.7500      0.0000    690.9842      7.3482     51.7200
  2355.0000      0.0000    696.6132      7.1938     52.3355
  2355.2500      0.0000    692.5179      7.0444     53.6044
  2355.5000      0.0000    688.6000      7.0809     54.8519
  2355.7500      0.0000    690.6104      7.3804     55.5434
  2356.0000      0.0000    697.8837      7.8613     55.5961
  2356.2500      0.0000    706.0526      8.3409     55.2086
  2356.5000      0.0000    711.7756      8.6362     54.4928
  2356.7500      0.0000    714.6041      8.6346     53.4120
  2357.0000      0.0000    715.6489      8.3198     52.1412
  2357.2500      0.0000    715.9236      7.7674     51.2794
  2357.5000      0.0000    715.8620      7.1226     51.5109
  2357.7500      0.0000    715.5616      6.5599     53.0990
  2358.0000      0.0000    715.0355      6.2293     55.6932
  2358.2500      0.0000    714.3209      6.1987     58.5586
  2358.5000      0.0000    713.6022      6.4184     61.1982
  2358.7500      0.0000    713.5144      6.7303     63.9157
  2359.0000      0.0000    715.2664      6.9317     67.3855
  2359.2500      0.0000    720.2435      6.8709     71.2872
  2359.5000      0.0000    729.3538      6.5175     73.7646
  2359.7500      0.0000    742.2878      5.9600     72.8382
  2360.0000      0.0000    756.3727      5.3463     68.2849
  2360.2500      0.0000    766.1568      4.8157     61.8528
  2360.5000      0.0000    766.2786      4.4535     55.8052
  2360.7500      0.0000    756.4308      4.2740     51.4860
  2361.0000      0.0000    742.7465      4.2366     49.0456
  2361.2500      0.0000    733.3282      4.2796     47.9232
  2361.5000      0.0000    732.6963      4.3485     47.3369
  2361.7500      0.0000    740.2070      4.4079     46.7242
  2362.0000      0.0000    751.7927      4.4386     46.1232
  2362.2500      0.0000    762.1384      4.4243     46.0568
  2362.5000      0.0000    767.1119      4.3366     46.9574
  2362.7500      0.0000    767.1157      4.1443     48.7476
  2363.0000      0.0000    768.5290      3.8585     50.9003
  2363.2500      0.0000    779.3143      3.5703     52.8267
  2363.5000      0.0000    801.1000      3.4211     54.3509
  2363.7500      0.0000    826.5156      3.5144     55.8316
  2364.0000      0.0000    845.7216      3.8550     57.8054
  2364.2500      0.0000    854.5663      4.3660     60.7263
  2364.5000      0.0000    855.4081      4.9492     65.0841
  2364.7500      0.0000    851.8072      5.5342     71.2913
  2365.0000      0.0000    844.4864      6.0939     79.2743
  2365.2500      0.0000    831.9276      6.6308     88.3166
  2365.5000      0.0000    813.2609      7.1457     97.0713
  2365.7500      0.0000    790.0760      7.6114    103.7783
  2366.0000      0.0000    765.9866      7.9784    107.3645
  2366.2500      0.0000    744.9785      8.2077    108.7029
  2366.5000      0.0000    729.8878      8.2955    109.9565
  2366.7500      0.0000    721.8589      8.2659    112.1744
  2367.0000      0.0000    720.8372      8.1489    114.1909
  2367.2500      0.0000    726.2480      7.9746    114.2967
  2367.5000      0.0000    736.8278      7.7798    112.2886
  2367.7500      0.0000    750.1694      7.6000    109.2142
  2368.0000      0.0000    763.4332      7.4513    105.5354
  2368.2500      0.0000    774.9434      7.3281    100.4435
