~Version Information
VERS.                      2.0: CWLS Log ASCII Standard - VERSION 2.0
WRAP.                       NO: One line per depth step
~Well Information Block
STRT.FT               950.0000: 
STOP.FT              2417.7000: 
STEP.FT                 0.1000: 
NULL.                -999.2500: 
COMP.          Pioneer Natural Resources: COMPANY
WELL.            Chevron 13-13: WELL
FLD.           Purgatoire River: FIELD
LOC.           1560' FSL & 711' FWL--: LOCATION
CNTY.               Las Animas: COUNTY
SRVC.          Superior Well Services: SERVICE COMPANY
DATE.          Mon Feb 12 14:55:24 2007: LOG DATE
UWI.           05 071 08319 00: UNIQUE WELL ID
STAT.                 Colorado: STATE
~Curve Information Block
DEPT.FT            0 000 00 00: Depth
DCAL.in                       : CDL Caliper
RHOB.g/cc                     : CDL Bulk Density
RHOC.g/cc                     : CDL Density Correction
DPOR.pu                       : CDL Density Porosity
GR.GAPI                       : Gamma Ray
~Parameter Information Block
~A  Depth       DCAL        RHOB        RHOC        DPOR         GR     
# ...
  2193.2000      7.8994      2.4909      0.0431      9.6394     99.4352
  2193.3000      7.9001      2.5027      0.0696      8.9294    101.4470
  2193.4000      7.9001      2.5152      0.0613      8.1711    106.4861
  2193.5000      7.9012      2.5273      0.0659      7.4378    109.2062
  2193.6000      7.9012      2.5340      0.1000      7.0303    111.3547
  2193.7000      7.9012      2.5307      0.0325      7.2298    118.1700
  2193.8000      7.8996      2.5247      0.0541      7.5925    125.7541
  2193.9000      7.8996      2.5259      0.0447      7.5183    126.5962
  2194.0000      7.8974      2.5357      0.0130      6.9296    121.0635
  2194.1000      7.8974      2.5411      0.0919      6.5974    112.8685
  2194.2000      7.8974      2.5342      0.0260      7.0191    103.8606
  2194.3000      7.8967      2.5296      0.0428      7.2994     95.3618
  2194.4000      7.8967      2.5390      0.0642      6.7250     88.8887
  2194.5000      7.8960      2.5532      0.0775      5.8646     87.7968
  2194.6000      7.8960      2.5564      0.0641      5.6747     92.8619
  2194.7000      7.8960      2.5412      0.0671      6.5960     98.6412
  2194.8000      7.8948      2.5143      0.0121      8.2212    103.6412
  2194.9000      7.8948      2.4912      0.0300      9.6222    112.0860
  2195.0000      7.8943      2.4788      0.0071     10.3781    121.1688
  2195.1000      7.8943      2.4791     -0.0071     10.3604    122.6998
  2195.2000      7.8943      2.4954      0.0182      9.3676    118.0703
  2195.3000      7.8927      2.5176      0.0503      8.0262    114.4769
  2195.4000      7.8927      2.5239      0.0438      7.6418    113.3425
  2195.5000      7.8908      2.5144      0.0006      8.2191    112.1245
  2195.6000      7.8908      2.5084      0.0558      8.5809    109.3858
  2195.7000      7.8908      2.5120      0.0290      8.3611    107.2297
  2195.8000      7.8912      2.5187      0.0643      7.9596    110.3833
  2195.9000      7.8912      2.5266      0.0317      7.4794    117.6775
  2196.0000      7.8921      2.5429      0.0325      6.4879    124.0120
  2196.1000      7.8921      2.5597      0.1286      5.4707    126.1696
  2196.2000      7.8921      2.5559      0.1080      5.7044    124.5483
  2196.3000      7.8933      2.5411      0.0351      6.5978    123.6971
  2196.4000      7.8933      2.5394      0.0758      6.7028    126.3069
  2196.5000      7.8954      2.5412      0.0963      6.5918    126.2594
  2196.6000      7.8954      2.5252      0.0789      7.5646    116.6856
  2196.7000      7.8954      2.4923      0.0561      9.5559    101.1313
  2196.8000      7.8952      2.4545      0.0645     11.8489     89.7654
  2196.9000      7.8952      2.4232     -0.0200     13.7477     87.0197
  2197.0000      7.8928      2.4104      0.0223     14.5201     90.8656
  2197.1000      7.8928      2.4157      0.0074     14.2010     96.0204
  2197.2000      7.8928      2.4295     -0.0084     13.3628     97.6921
  2197.3000      7.8927      2.4461      0.0474     12.3594     97.2508
  2197.4000      7.8927      2.4583      0.0494     11.6207     98.5626
  2197.5000      7.8944      2.4624      0.0421     11.3726    102.5011
  2197.6000      7.8944      2.4671      0.0204     11.0862    107.5248
  2197.7000      7.8944      2.4809      0.0417     10.2487    109.7165
  2197.8000      7.8947      2.4970      0.0503      9.2755    108.0404
  2197.9000      7.8947      2.4977      0.0607      9.2307    104.4506
  2198.0000      7.8938      2.4788      0.0438     10.3730     99.7850
  2198.1000      7.8938      2.4613      0.0537     11.4351     96.6961
  2198.2000      7.8938      2.4641      0.0506     11.2643     99.4396
  2198.3000      7.8937      2.4818      0.0666     10.1965    106.6947
  2198.4000      7.8937      2.4957      0.0926      9.3530    111.6752
  2198.5000      7.8938      2.4966      0.0773      9.2981    112.5714
  2198.6000      7.8938      2.4931      0.0706      9.5079    112.0237
  2198.7000      7.8938      2.5015      0.0457      9.0023    108.3469
  2198.8000      7.8933      2.5232      0.0883      7.6832     99.6913
  2198.9000      7.8933      2.5426      0.0796      6.5115     92.2651
  2199.0000      7.8927      2.5450      0.1019      6.3612     90.3690
  2199.1000      7.8927      2.5288      0.0367      7.3455     94.6325
  2199.2000      7.8927      2.5075      0.0514      8.6390    104.7113
  2199.3000      7.8925      2.4983      0.0277      9.1930    112.3554
  2199.4000      7.8925      2.5042      0.0640      8.8376    112.3937
  2199.5000      7.8918      2.5088      0.0915      8.5588    112.0361
  2199.6000      7.8918      2.5020      0.0408      8.9676    112.5962
  2199.7000      7.8918      2.4886      0.0538      9.7809    109.1493
  2199.8000      7.8929      2.4757     -0.0022     10.5617    104.7794
  2199.9000      7.8929      2.4772     -0.0249     10.4743    100.6403
  2200.0000      7.8938      2.4918      0.0729      9.5887     93.5303
  2200.1000      7.8938      2.5022      0.0180      8.9596     89.1478
  2200.2000      7.8938      2.5105      0.0118      8.4550     92.4035
  2200.3000      7.8926      2.5207      0.0508      7.8380    101.1395
  2200.4000      7.8926      2.5194      0.0579      7.9143    112.1977
  2200.5000      7.8928      2.5044      0.0142      8.8269    117.3113
  2200.6000      7.8928      2.4906      0.0451      9.6589    110.6620
  2200.7000      7.8928      2.4928     -0.0038      9.5270    100.6380
  2200.8000      7.8950      2.5161      0.0587      8.1171     99.0671
  2200.9000      7.8950      2.5384      0.1254      6.7612    105.3097
  2201.0000      7.8956      2.5367      0.0571      6.8653    110.6352
  2201.1000      7.8956      2.5234      0.0388      7.6713    113.2690
  2201.2000      7.8956      2.5175      0.0660      8.0320    115.1284
  2201.3000      7.8948      2.5154      0.0771      8.1550    114.8225
  2201.4000      7.8948      2.5026      0.1179      8.9344    111.2686
  2201.5000      7.8945      2.4827      0.0415     10.1406    107.0753
  2201.6000      7.8945      2.4815      0.0593     10.2149    107.8990
  2201.7000      7.8945      2.5029      0.0765      8.9134    113.5814
  2201.8000      7.8941      2.5227      0.0738      7.7152    118.7733
  2201.9000      7.8941      2.5240      0.1008      7.6363    124.2769
  2202.0000      7.8947      2.5099      0.1033      8.4879    130.8160
  2202.1000      7.8947      2.4959      0.0736      9.3416    132.4185
  2202.2000      7.8947      2.4915      0.0665      9.6082    122.5418
  2202.3000      7.8941      2.4885      0.0689      9.7889    104.9618
  2202.4000      7.8941      2.4815      0.0360     10.2097     91.6888
  2202.5000      7.8927      2.4827      0.0499     10.1396     89.9147
  2202.6000      7.8927      2.4962      0.0372      9.3222     98.3908
  2202.7000      7.8927      2.5105      0.0486      8.4519    109.6870
  2202.8000      7.8921      2.5182      0.0531      7.9891    116.5071
  2202.9000      7.8921      2.5239      0.0176      7.6433    117.3770
  2203.0000      7.8920      2.5301      0.0543      7.2670    115.8975
  2203.1000      7.8920      2.5260      0.0414      7.5126    114.9751
  2203.2000      7.8920      2.5119      0.0494      8.3689    114.0240
  2203.3000      7.8923      2.5098      0.0053      8.4951    112.6574
  2203.4000      7.8923      2.5293      0.0835      7.3173    112.6719
  2203.5000      7.8908      2.5502      0.0871      6.0468    113.7798
  2203.6000      7.8908      2.5539      0.0926      5.8239    113.6210
  2203.7000      7.8908      2.5367      0.0711      6.8646    112.1096
  2203.8000      7.8864      2.5106      0.0358      8.4501    109.5650
  2203.9000      7.8864      2.4973      0.0259      9.2519    104.5717
  2204.0000      7.8845      2.5021      0.0608      8.9609     98.6912
  2204.1000      7.8845      2.5097      0.0354      8.5048     96.3683
  2204.2000      7.8845      2.5150      0.0270      8.1843    101.1112
  2204.3000      7.8835      2.5185      0.0804      7.9712    110.0023
