~Version Information
VERS.                      2.0: CWLS Log ASCII Standard - VERSION 2.0
WRAP.                       NO: One line per depth step
~Well Information Block
STRT.FT               770.0000: 
STOP.FT              1718.7000: 
STEP.FT                 0.1000: 
NULL.                -999.2500: 
COMP.          Pioneer Natural Resources: COMPANY
WELL.            Salty 42-6 Tr: WELL
FLD.           Purgatoire River: FIELD
LOC.           2409' FNL & 599' FEL: LOCATION
PROV.                 Colorado: PROVINCE
CNTY.               Las Animas: COUNTRY
SRVC.                Patterson: SERVICE COMPANY
DATE.          Thu Dec 16 09:30:36 2004: LOG DATE
UWI.           05 071 08238 00: UNIQUE WELL ID
~Curve Information Block
DEPT.FT            0 000 00 00: Depth
DCAL.in                       : CDL Caliper
RHOB.g/cc                     : CDL Bulk Density
RHOC.g/cc                     : CDL Density Correction
DPOR.pu                       : CDL Density Porosity
NPOR.pu                       : Neutron Porosity
GR.GAPI                       : Gamma Ray
~Parameter Information Block
~A  Depth       DCAL        RHOB        RHOC        DPOR        NPOR         GR     
# ...
  1259.6000      7.9359      2.4904      0.0572      9.6731     24.8242    154.1351
  1259.7000      7.9359      2.4977      0.0026      9.2307     24.8923    164.1692
  1259.8000      7.9349      2.5172      0.0963      8.0496     24.6718    169.4699
  1259.9000      7.9349      2.5342      0.1016      7.0190     24.4243    168.1226
  1260.0000      7.9331      2.5447      0.1156      6.3798     24.4287    164.8506
  1260.1000      7.9331      2.5529      0.1030      5.8876     24.2469    164.6840
  1260.2000      7.9331      2.5631      0.0857      5.2695     23.2654    166.4424
  1260.3000      7.9263      2.5793      0.0987      4.2834     22.0019    166.6848
  1260.4000      7.9263      2.5847      0.1734      3.9561     21.3958    163.5160
  1260.5000      7.9193      2.5591      0.1148      5.5085     21.4370    157.4026
  1260.6000      7.9193      2.5255      0.0381      7.5468     21.5776    150.3500
  1260.7000      7.9193      2.5172      0.0718      8.0506     21.6163    140.4698
  1260.8000      7.9159      2.5308      0.0558      7.2247     21.5717    128.0701
  1260.9000      7.9159      2.5514      0.0664      5.9765     21.5804    121.6417
  1261.0000      7.9157      2.5609      0.1124      5.4024     21.7666    122.8727
  1261.1000      7.9157      2.5435      0.0659      6.4568     22.0280    123.6676
  1261.2000      7.9157      2.5143      0.0019      8.2260     22.3860    121.5280
  1261.3000      7.9170      2.5003      0.0242      9.0706     22.8594    117.1884
  1261.4000      7.9170      2.5137     -0.0327      8.2605     23.3189    110.4539
  1261.5000      7.9185      2.5472      0.0392      6.2315     23.8418    103.5964
  1261.6000      7.9185      2.5762      0.0697      4.4757     24.2921    100.3460
  1261.7000      7.9185      2.5877      0.0451      3.7782     24.3630    102.6170
  1261.8000      7.9198      2.5863      0.0754      3.8634     24.3706    107.3045
  1261.9000      7.9198      2.5768      0.0144      4.4361     24.9588    107.5985
  1262.0000      7.9222      2.5661      0.0825      5.0823     26.0768    102.9133
  1262.1000      7.9222      2.5611      0.0537      5.3873     26.9330    100.0484
  1262.2000      7.9222      2.5728      0.0563      4.6817     27.1138    102.7079
  1262.3000      7.9298      2.5955      0.0943      3.3020     26.9502    107.1982
  1262.4000      7.9298      2.6062      0.0725      2.6533     26.7857    109.7416
  1262.5000      7.9393      2.6036      0.0673      2.8093     26.5600    113.3312
  1262.6000      7.9393      2.6008      0.0853      2.9823     26.2750    121.0994
  1262.7000      7.9393      2.5988      0.0881      3.1042     26.1462    129.0478
  1262.8000      7.9440      2.5931      0.0711      3.4505     25.9829    131.6744
  1262.9000      7.9440      2.5810      0.0518      4.1829     25.5357    128.9046
  1263.0000      7.9447      2.5665      0.0347      5.0617     25.0878    125.2509
  1263.1000      7.9447      2.5595      0.0257      5.4852     24.8252    122.0493
  1263.2000      7.9447      2.5611      0.0665      5.3862     24.6232    117.3930
  1263.3000      7.9445      2.5610      0.0717      5.3932     24.5312    113.6335
  1263.4000      7.9445      2.5583      0.0432      5.5578     24.5067    114.8423
  1263.5000      7.9442      2.5627      0.0597      5.2895     24.3821    119.0510
  1263.6000      7.9442      2.5721      0.0274      4.7207     24.2583    121.3740
  1263.7000      7.9442      2.5728      0.0715      4.6794     24.2756    120.4526
  1263.8000      7.9451      2.5597      0.0762      5.4719     24.5725    117.8320
  1263.9000      7.9451      2.5513      0.0177      5.9815     25.1234    115.2903
  1264.0000      7.9467      2.5703      0.0396      4.8288     25.5870    115.5760
  1264.1000      7.9467      2.6028      0.0859      2.8605     25.7857    120.1478
  1264.2000      7.9467      2.6101      0.1175      2.4190     25.8919    128.1889
  1264.3000      7.9478      2.5859      0.0550      3.8854     26.1317    135.6176
  1264.4000      7.9478      2.5604      0.0582      5.4288     26.5216    136.6844
  1264.5000      7.9472      2.5468      0.0768      6.2544     26.8969    131.1473
  1264.6000      7.9472      2.5403      0.0379      6.6495     27.0532    124.3201
  1264.7000      7.9472      2.5462      0.0375      6.2888     26.9285    119.9202
  1264.8000      7.9446      2.5588      0.0911      5.5251     26.7173    118.3372
  1264.9000      7.9446      2.5599      0.0533      5.4614     26.6221    122.0184
  1265.0000      7.9404      2.5501      0.0278      6.0547     26.5770    129.8765
  1265.1000      7.9404      2.5373      0.0468      6.8311     26.4442    135.5447
  1265.2000      7.9404      2.5247      0.0418      7.5968     26.1029    137.7877
  1265.3000      7.9387      2.5204      0.0539      7.8545     25.3526    140.0019
  1265.4000      7.9387      2.5216      0.0909      7.7839     24.5635    140.8550
  1265.5000      7.9406      2.5225      0.0390      7.7297     24.3089    136.0255
  1265.6000      7.9406      2.5410      0.0351      6.6065     24.5710    131.2832
  1265.7000      7.9406      2.5899      0.0849      3.6430     25.0403    133.1090
  1265.8000      7.9430      2.6503      0.1019     -0.0177     25.5122    134.9089
  1265.9000      7.9430      2.6985      0.1258     -2.9368     25.9351    130.9555
  1266.0000      7.9478      2.7323      0.1366     -4.9887     26.3443    125.5890
  1266.1000      7.9478      2.7566      0.1413     -6.4607     26.5908    123.6575
  1266.2000      7.9478      2.7587      0.1528     -6.5878     26.3613    122.7450
  1266.3000      7.9538      2.7259      0.1083     -4.5974     25.9808    118.8117
  1266.4000      7.9538      2.6811      0.0027     -1.8818     26.2603    113.6472
  1266.5000      7.9521      2.6514      0.0163     -0.0867     27.0294    110.4497
  1266.6000      7.9521      2.6290     -0.0174      1.2737     27.3407    109.2568
  1266.7000      7.9521      2.6039     -0.0176      2.7936     27.1440    110.0785
  1266.8000      7.9474      2.5839     -0.0025      4.0059     26.9465    111.9491
  1266.9000      7.9474      2.5793     -0.0012      4.2838     26.6917    113.2459
  1267.0000      7.9463      2.5859      0.0607      3.8832     26.1287    115.1078
  1267.1000      7.9463      2.5868      0.0659      3.8287     25.4536    119.3432
  1267.2000      7.9463      2.5741      0.0861      4.5988     25.0686    126.0472
  1267.3000      7.9455      2.5538      0.0237      5.8302     25.2820    131.3297
  1267.4000      7.9455      2.5473      0.0236      6.2264     25.9149    131.1584
  1267.5000      7.9444      2.5731      0.0279      4.6624     26.1922    126.5748
  1267.6000      7.9444      2.6221      0.0682      1.6879     25.8055    121.0547
  1267.7000      7.9444      2.6735      0.0383     -1.4219     25.7005    118.2314
  1267.8000      7.9446      2.7181      0.0947     -4.1258     26.5624    118.8771
  1267.9000      7.9446      2.7449      0.1217     -5.7502     27.6265    121.4847
  1268.0000      7.9457      2.7327      0.1366     -5.0151     28.2321    124.4094
  1268.1000      7.9457      2.6830      0.0704     -2.0026     28.6481    124.7045
  1268.2000      7.9457      2.6315     -0.0052      1.1236     28.8769    121.3394
  1268.3000      7.9475      2.5942      0.0488      3.3791     28.6749    118.9013
  1268.4000      7.9475      2.5659     -0.0918      5.0981     28.4121    119.4187
  1268.5000      7.9499      2.5610     -0.0897      5.3936     28.5218    120.5578
  1268.6000      7.9499      2.5776     -0.1033      4.3850     28.7435    122.4460
  1268.7000      7.9499      2.5823     -0.1047      4.1010     28.7823    123.0714
  1268.8000      7.9512      2.5562     -0.0484      5.6830     28.6747    119.3871
  1268.9000      7.9512      2.5193     -0.0756      7.9237     28.2978    116.2564
  1269.0000      7.9550      2.5083     -0.0589      8.5851     27.6367    120.8459
  1269.1000      7.9550      2.5285      0.0669      7.3607     27.0051    130.6679
