~Version Information
VERS.                      2.0: CWLS Log ASCII Standard - VERSION 2.0
WRAP.                       NO: One line per depth step
~Well Information Block
STRT.FT                -3.2500: 
STOP.FT              2202.2500: 
STEP.FT                 0.2500: 
NULL.                -999.2500: 
COMP.          Pioneer Natural Resources: COMPANY
WELL.           Parklane 43-34: WELL
FLD.           Purgatorie River: FIELD
LOC.           1704' FSL & 1119' FEL--: LOCATION
PROV.                       CO: PROVINCE
CNTY.               Las Animas: COUNTRY
SRVC.                         : SERVICE COMPANY
DATE.          Thu Oct 14 14:49:09 2004: LOG DATE
UWI.           005 071 08162  : UNIQUE WELL ID
~Curve Information Block
DEPT.FT            0 000 00 00: Depth
GR.GAPI                       : Gamma Ray
CCL.                          : Casing Collar Locator
TT3.usec                      : CBL 3' Travel Time
AMP3.mV                       : CBL 3' Amplitude
~Parameter Information Block
~A  Depth        GR         CCL         TT3         AMP3    
# ...
   566.2500    108.4259      0.0000    831.0997      6.4916
   566.5000    111.0883      0.0000    830.9573      6.3516
   566.7500    113.1597      0.0000    822.6835      6.1817
   567.0000    114.3962      0.0000    813.0972      5.9899
   567.2500    114.5116      0.0000    806.1943      5.7784
   567.5000    113.5210      0.0000    801.1550      5.5488
   567.7500    112.0294      0.0000    796.8207      5.3146
   568.0000    110.7505      0.0000    794.7307      5.0989
   568.2500    110.1244      0.0000    796.3394      4.9134
   568.5000    110.5620      0.0000    799.9811      4.7433
   568.7500    112.3474      0.0000    802.5773      4.5604
   569.0000    114.9293      0.0000    802.5177      4.3515
   569.2500    116.7807      0.0000    799.2837      4.1348
   569.5000    116.2760      0.0000    792.3732      3.9505
   569.7500    112.7130      0.0000    782.5766      3.8356
   570.0000    106.7596      0.0000    772.7982      3.8001
   570.2500    100.2115      0.0000    765.9005      3.8212
   570.5000     95.2094      0.0000    762.4863      3.8586
   570.7500     93.5275      0.0000    761.3488      3.8805
   571.0000     96.2652      0.0000    761.1604      3.8806
   571.2500    103.5209      0.0000    761.2356      3.8725
   571.5000    114.0469      0.0000    761.4597      3.8702
   571.7500    125.7078      0.0000    762.1929      3.8752
   572.0000    136.6649      0.0000    764.3184      3.8799
   572.2500    145.9342      0.0000    768.8544      3.8784
   572.5000    152.8523      0.0000    775.7031      3.8745
   572.7500    156.5619      0.0000    782.4313      3.8824
   573.0000    156.4626      0.0000    785.2452      3.9197
   573.2500    153.0796      0.0000    782.2335      3.9938
   573.5000    148.1958      0.0000    775.3152      4.0925
   573.7500    143.9912      0.0000    768.3516      4.1869
   574.0000    141.9174      0.0000    763.8903      4.2461
   574.2500    142.0242      0.0000    762.1599      4.2576
   574.5000    143.2004      0.0000    762.3271      4.2389
   574.7500    144.2913      0.0000    763.8655      4.2280
   575.0000    144.9065      0.0000    766.8818      4.2573
   575.2500    144.9716      0.0000    771.4607      4.3332
   575.5000    144.1206      0.0000    776.6777      4.4340
   575.7500    142.2097      0.0000    780.5056      4.5236
   576.0000    140.0369      0.0000    781.4221      4.5677
   576.2500    138.9921      0.0000    780.2842      4.5453
   576.5000    140.0910      0.0000    779.9359      4.4562
   576.7500    143.4289      0.0000    782.6362      4.3234
   577.0000    148.2246      0.0000    788.2212      4.1866
   577.2500    153.1309      0.0000    794.7001      4.0886
   577.5000    156.7425      0.0000    800.1343      4.0535
   577.7500    158.2677      0.0000    804.2952      4.0752
   578.0000    157.9481      0.0000    809.2718      4.1339
   578.2500    156.8445      0.0000    817.6707      4.2248
   578.5000    156.0290      0.0000    829.0276      4.3605
   578.7500    155.7802      0.0000    838.6360      4.5401
   579.0000    155.4517      0.0000    840.9365      4.7279
   579.2500    154.0593      0.0000    833.6738      4.8731
   579.5000    151.0407      0.0000    818.8359      4.9481
   579.7500    146.6239      0.0000    800.9709      4.9632
   580.0000    141.6266      0.0000    784.9924      4.9489
   580.2500    136.9807      0.0000    774.3854      4.9310
   580.5000    133.5129      0.0000    770.5337      4.9195
   580.7500    131.9764      0.0000    773.1979      4.9127
   581.0000    132.7698      0.0000    780.1462      4.9044
   581.2500    135.4964      0.0000    785.6331      4.8863
   581.5000    139.1800      0.0000    781.5679      4.8492
   581.7500    143.0229      0.0000    764.0338      4.7890
   582.0000    146.7625      0.0000    738.9914      4.7150
   582.2500    150.3792      0.0000    718.0712      4.6432
   582.5000    153.7453      0.0000    707.6047      4.5816
   582.7500    156.7236      0.0000    704.6924      4.5291
   583.0000    159.4500      0.0000    704.5086      4.4877
   583.2500    162.1777      0.0000    706.8434      4.4624
   583.5000    164.5159      0.0000    713.1580      4.4499
   583.7500    165.0107      0.0000    721.2308      4.4394
   584.0000    161.9638      0.0000    726.3890      4.4299
   584.2500    155.0791      0.0000    726.5049      4.4319
   584.5000    146.4995      0.0000    723.4566      4.4520
   584.7500    139.9689      0.0000    720.4154      4.4856
   585.0000    138.2719      0.0000    719.2385      4.5253
   585.2500    141.1574      0.0000    720.1538      4.5675
   585.5000    145.9027      0.0000    722.4345      4.6101
   585.7500    149.6506      0.0000    724.8177      4.6493
   586.0000    150.9129      0.0000    725.9112      4.6794
   586.2500    149.4671      0.0000    725.0318      4.6918
   586.5000    145.8568      0.0000    722.6992      4.6786
   586.7500    141.1136      0.0000    720.0521      4.6450
   587.0000    136.4920      0.0000    717.8828      4.6149
   587.2500    133.0772      0.0000    716.3345      4.6137
   587.5000    131.2048      0.0000    715.2393      4.6390
   587.7500    130.1332      0.0000    714.4539      4.6568
   588.0000    128.7754      0.0000    713.9294      4.6332
   588.2500    127.1616      0.0000    713.6638      4.5701
   588.5000    126.6852      0.0000    713.6731      4.5056
   588.7500    128.4691      0.0000    713.9680      4.4777
   589.0000    131.8982      0.0000    714.5522      4.4937
   589.2500    135.2481      0.0000    715.4585      4.5337
   589.5000    137.3834      0.0000    716.8682      4.5777
   589.7500    138.2659      0.0000    719.1454      4.6190
   590.0000    138.0800      0.0000    722.5726      4.6558
   590.2500    136.5934      0.0000    726.9148      4.6844
   590.5000    133.6523      0.0000    731.4273      4.7072
   590.7500    129.8916      0.0000    735.5319      4.7394
   591.0000    126.5930      0.0000    739.3929      4.7970
   591.2500    124.7099      0.0000    743.5782      4.8754
   591.5000    123.9601      0.0000    748.1855      4.9446
   591.7500    122.9864      0.0000    752.5683      4.9698
   592.0000    120.5774      0.0000    756.1116      4.9383
   592.2500    116.5037      0.0000    759.3082      4.8673
   592.5000    111.2622      0.0000    764.2958      4.7859
   592.7500    105.8633      0.0000    774.4914      4.7055
   593.0000    101.8849      0.0000    792.7603      4.6059
   593.2500    100.6029      0.0000    818.3906      4.4567
   593.5000    101.6385      0.0000    845.6823      4.2594
   593.7500    103.1124      0.0000    867.0313      4.0613
   594.0000    103.2861      0.0000    878.4319      3.9186
   594.2500    101.5461      0.0000    881.4574      3.8502
   594.5000     98.1209     -2.0000    879.8577      3.8298
   594.7500     93.7496      0.0000    875.2273      3.8136
   595.0000     89.7040      0.0000    866.7172      3.7699
   595.2500     87.4036      0.0000    854.0251      3.6945
   595.5000     87.6259      0.0000    838.9127      3.6168
   595.7500     90.0707      0.0000    823.7217      3.5989
   596.0000     93.5891      0.0000    810.1449      3.7085
   596.2500     96.8536      0.0000    799.8554      3.9709
   596.5000     99.1256      0.0000    794.5690      4.3366
   596.7500    100.5793      0.0000    794.7407      4.7043
   597.0000    101.8314      0.0000    799.4474      4.9856
   597.2500    103.2229      0.0000    807.2595      5.1558
   597.5000    104.6909      0.0000    815.3874      5.2467
   597.7500    106.1279      0.0000    818.9106      5.3011
   598.0000    107.5375      0.0000    813.9154      5.3397
   598.2500    108.8892      0.0000    801.8668      5.3650
   598.5000    109.9754      0.0000    789.0497      5.3825
   598.7500    110.3980      0.0000    781.4860      5.4053
   599.0000    109.7696      0.0000    781.8220      5.4396
   599.2500    108.0559      0.0000    790.3464      5.4750
   599.5000    105.6556      0.0000    806.0400      5.4953
