~Version Information
VERS.                      2.0: CWLS Log ASCII Standard - VERSION 2.0
WRAP.                       NO: One line per depth step
~Well Information Block
STRT.FT               250.0000: 
STOP.FT              1017.5000: 
STEP.FT                 0.1000: 
NULL.                -999.2500: 
COMP.          Pioneer Natural Resources: COMPANY
WELL.              Oscar 41-31: WELL
FLD.           Purgatoire River: FIELD
LOC.           412' FNL & 1216' FEL: LOCATION
PROV.                 Colorado: PROVINCE
CNTY.               Las Animas: COUNTRY
SRVC.                Patterson: SERVICE COMPANY
DATE.          Thu Feb 24 15:11:09 2005: LOG DATE
UWI.           05 071 08290 00: UNIQUE WELL ID
~Curve Information Block
DEPT.FT            0 000 00 00: Depth
DCAL.in                       : CDL Caliper
RHOB.g/cc                     : CDL Bulk Density
RHOC.g/cc                     : CDL Density Correction
DPOR.pu                       : CDL Density Porosity
GR.GAPI                       : Gamma Ray
NPOR.pu                       : Neutron Porosity
~Parameter Information Block
~A  Depth       DCAL        RHOB        RHOC        DPOR         GR         NPOR    
# ...
   960.4000      7.8421      2.5032     -0.0107      8.8980     89.3816     17.3164
   960.5000      7.8432      2.5073      0.0604      8.6494     86.0271     17.6365
   960.6000      7.8432      2.5072     -0.0033      8.6536     80.7806     18.0087
   960.7000      7.8432      2.5156      0.0301      8.1431     78.4155     17.6276
   960.8000      7.8444      2.5415      0.0785      6.5747     79.6584     16.4866
   960.9000      7.8444      2.5675      0.1273      4.9996     80.0926     15.6466
   961.0000      7.8454      2.5778      0.0766      4.3761     78.6797     15.5100
   961.1000      7.8454      2.5812      0.0753      4.1705     78.9684     15.3851
   961.2000      7.8454      2.5815      0.0981      4.1542     79.5264     14.6906
   961.3000      7.8447      2.5694      0.0577      4.8858     77.2790     13.6021
   961.4000      7.8447      2.5509      0.0490      6.0072     75.9067     12.3474
   961.5000      7.8442      2.5392      0.0414      6.7127     77.7740     10.9414
   961.6000      7.8442      2.5329      0.0329      7.0980     80.1830      9.6505
   961.7000      7.8442      2.5233      0.0263      7.6771     83.2162      8.8051
   961.8000      7.8458      2.5100      0.0230      8.4876     84.3383      8.9579
   961.9000      7.8458      2.4962      0.0073      9.3233     78.2099     10.7742
   962.0000      7.8472      2.4868      0.0036      9.8897     69.8382     14.7247
   962.1000      7.8472      2.4868      0.0204      9.8918     68.1662     21.2838
   962.2000      7.8472      2.4931      0.0148      9.5106     71.9876     29.9549
   962.3000      7.8457      2.4992      0.0213      9.1373     74.4585     38.7903
   962.4000      7.8457      2.5035      0.0350      8.8763     74.7966     45.9180
   962.5000      7.8436      2.5082     -0.0013      8.5930     76.6644     50.9595
   962.6000      7.8436      2.5102      0.0183      8.4722     81.6069     54.2930
   962.7000      7.8436      2.4995      0.0117      9.1195     86.8474     56.5658
   962.8000      7.8427      2.4825     -0.0194     10.1515     89.3633     58.4398
   962.9000      7.8427      2.4739      0.0054     10.6717     90.0202     59.9385
   963.0000      7.8425      2.4654      0.0215     11.1870     89.6372     60.7725
   963.1000      7.8425      2.4476     -0.0231     12.2640     87.2149     61.0778
   963.2000      7.8425      2.4326     -0.0380     13.1781     83.4551     61.1828
   963.3000      7.8428      2.4260      0.0096     13.5778     78.5413     61.2480
   963.4000      7.8428      2.4269     -0.0156     13.5232     73.6214     61.2366
   963.5000      7.8430      2.4467     -0.0051     12.3210     72.4112     61.0642
   963.6000      7.8430      2.4836      0.0559     10.0855     73.3393     60.7794
   963.7000      7.8430      2.5161      0.0596      8.1158     73.2336     60.6265
   963.8000      7.8433      2.5289      0.1158      7.3380     75.2595     60.7501
   963.9000      7.8433      2.5225      0.0636      7.7293     81.3333     61.0069
   964.0000      7.8433      2.5112      0.0425      8.4133     85.4268     61.2500
   964.1000      7.8433      2.5136      0.0367      8.2691     84.6564     61.3873
   964.2000      7.8433      2.5402      0.0433      6.6564     84.1336     61.4945
   964.3000      7.8436      2.5798      0.0816      4.2540     85.7361     61.6470
   964.4000      7.8436      2.6072      0.0783      2.5932     87.2399     61.6367
   964.5000      7.8437      2.6127      0.0731      2.2620     87.0473     61.2688
   964.6000      7.8437      2.6099      0.0506      2.4288     85.8644     60.7812
   964.7000      7.8437      2.6083      0.0924      2.5246     87.4593     60.6905
   964.8000      7.8425      2.5976      0.0554      3.1734     91.9502     60.9919
   964.9000      7.8425      2.5748      0.0228      4.5560     94.0313     61.1974
   965.0000      7.8415      2.5541      0.0209      5.8151     92.7294     61.0065
   965.1000      7.8415      2.5465      0.0087      6.2721     93.5915     60.5675
   965.2000      7.8415      2.5464      0.0622      6.2781     98.4601     60.2555
   965.3000      7.8418      2.5368      0.0335      6.8609    103.5535     60.2822
   965.4000      7.8418      2.5094      0.0329      8.5241    104.9018     13.1566
   965.5000      7.8428      2.4692     -0.0049     10.9600    102.4459     13.2913
   965.6000      7.8428      2.4318     -0.0312     13.2244     98.0196     13.3548
   965.7000      7.8428      2.4111     -0.0252     14.4803     92.0140     14.1326
   965.8000      7.8437      2.4026      0.0033     14.9933     84.4484     14.8720
   965.9000      7.8437      2.3993     -0.0244     15.1926     77.9867     14.8063
   966.0000      7.8437      2.4090      0.0200     14.6050     78.1163     14.4915
   966.1000      7.8437      2.4368      0.0551     12.9206     85.8066     14.5277
   966.2000      7.8437      2.4669      0.1135     11.0943     96.0499     14.9712
   966.3000      7.8431      2.4830      0.0668     10.1239    101.7344     15.4351
   966.4000      7.8431      2.4943      0.0536      9.4335     99.1494     15.5629
   966.5000      7.8431      2.5172      0.0538      8.0490     94.5965     15.8549
   966.6000      7.8431      2.5473      0.0863      6.2227     95.8035     16.3776
   966.7000      7.8431      2.5681      0.0963      4.9613    100.7772     16.0984
   966.8000      7.8434      2.5722      0.0991      4.7133    103.2818     15.0805
   966.9000      7.8434      2.5614      0.0980      5.3689    100.8594     14.4591
   967.0000      7.8435      2.5400      0.0636      6.6690     96.6114     14.6719
   967.1000      7.8435      2.5174      0.0445      8.0378     96.4929     15.6128
   967.2000      7.8435      2.5022      0.0005      8.9589    100.3120     17.2478
   967.3000      7.8436      2.4953     -0.0189      9.3750    103.5509     19.1094
   967.4000      7.8436      2.4893      0.0094      9.7420    105.0680     20.0579
   967.5000      7.8434      2.4750      0.0068     10.6035    106.2926     19.5468
   967.6000      7.8434      2.4599      0.0022     11.5223    108.7326     18.7971
   967.7000      7.8434      2.4621     -0.0219     11.3860    113.2687     19.2162
   967.8000      7.8429      2.4858      0.0063      9.9517    117.7620     19.8921
   967.9000      7.8429      2.5138      0.0357      8.2550    119.3767     19.2344
   968.0000      7.8423      2.5231      0.0612      7.6918    118.5948     17.9156
   968.1000      7.8423      2.5099      0.0132      8.4938    116.0311     17.2538
   968.2000      7.8423      2.4951      0.0084      9.3870    111.0175     17.3956
   968.3000      7.8421      2.4992      0.0050      9.1405    105.6823     17.8928
   968.4000      7.8421      2.5185      0.0511      7.9670    107.2276     18.1098
   968.5000      7.8423      2.5346      0.0411      6.9943    116.4124     17.5295
   968.6000      7.8423      2.5358      0.0307      6.9185    122.0320     16.7235
   968.7000      7.8423      2.5232      0.0156      7.6849    120.3688     16.3145
   968.8000      7.8428      2.5130     -0.0115      8.3026    117.7821     16.0806
   968.9000      7.8428      2.5204      0.0237      7.8533    115.3679     15.6560
   969.0000      7.8429      2.5378      0.0370      6.7976    109.9444     15.1138
   969.1000      7.8429      2.5503      0.0244      6.0422    103.2183     14.8242
   969.2000      7.8429      2.5484      0.0562      6.1590    100.9188     15.0279
   969.3000      7.8426      2.5307      0.0087      7.2322    103.6693     15.2773
   969.4000      7.8426      2.5111     -0.0029      8.4199    105.4711     15.0691
   969.5000      7.8421      2.5014     -0.0139      9.0047    102.8514     14.5472
   969.6000      7.8421      2.4969      0.0173      9.2808     97.1955     13.7153
   969.7000      7.8421      2.4818      0.0317     10.1931     92.6997     12.8375
   969.8000      7.8417      2.4500     -0.0053     12.1219     92.6902     12.9164
   969.9000      7.8417      2.4264     -0.1422     13.5485     96.2078     14.2247
