~Version Information
VERS.                      2.0: CWLS Log ASCII Standard - VERSION 2.0
WRAP.                       NO: One line per depth step
~Well Information Block
STRT.FT               -12.2500: 
STOP.FT              1948.2500: 
STEP.FT                 0.2500: 
NULL.                -999.2500: 
COMP.          Petrogulf Corporation: COMPANY
WELL.            Torcom 17-33R: WELL
FLD.           Purgatorie River: FIELD
LOC.           1483' FSL & 1804' FEL--: LOCATION
PROV.                       CO: PROVINCE
CNTY.               Las Animas: COUNTRY
SRVC.          Patterson Wireline: SERVICE COMPANY
DATE.          Fri Sep 30 10:11:43 2005: LOG DATE
UWI.           05 071 08096 00: UNIQUE WELL ID
~Curve Information Block
DEPT.FT            0 000 00 00: Depth
CCL.                          : Casing Collar Locator
TT3.usec                      : CBL 3' Travel Time
AMP3.mV                       : CBL 3' Amplitude
GR.GAPI                       : Gamma Ray
~Parameter Information Block
~A  Depth       CCL         TT3         AMP3         GR     
# ...
  1930.7500      0.0000    670.9842      3.8324     90.2636
  1931.0000      0.0000    686.1263      3.9528     87.9327
  1931.2500      0.0000    701.3708      4.0657     81.9878
  1931.5000      0.0000    716.1333      4.1516     73.6971
  1931.7500      0.0000    728.8695      4.2044     65.5559
  1932.0000      0.0000    738.3976      4.2244     59.5543
  1932.2500      0.0000    743.5278      4.2100     55.9702
  1932.5000      0.0000    742.6338      4.1606     53.4960
  1932.7500      0.0000    734.7743      4.0845     50.5168
  1933.0000      0.0000    721.0739      3.9960     46.4991
  1933.2500      0.0000    704.3683      3.9042     42.2752
  1933.5000      0.0000    687.6013      3.8078     38.8444
  1933.7500      0.0000    672.8064      3.7060     35.9174
  1934.0000      0.0000    660.8318      3.6145     31.9487
  1934.2500      0.0000    650.5607      3.5629     25.7552
  1934.5000      0.0000    638.4280      3.5716     17.9197
  1934.7500      0.0000    620.6288      3.6302     10.4095
  1935.0000      0.0000    597.6295      3.7034      4.9401
  1935.2500      0.0000    575.9105      3.7657      1.8876
  1935.5000      0.0000    563.1599      3.8277      0.5752
  1935.7500      0.0000    561.4757      3.9219      0.1386
  1936.0000      0.0000    566.5304      4.0581      0.0260
  1936.2500      0.0000    572.8176      4.1999      0.0036
  1936.5000      0.0000    577.9686      4.2910      0.0000
  1936.7500      0.0000    582.3848      4.2999   -999.2500
  1937.0000      0.0000    587.0569      4.2344   -999.2500
  1937.2500      0.0000    593.0975      4.1209   -999.2500
  1937.5000      0.0000    602.4763      3.9812   -999.2500
  1937.7500      0.0000    617.2903      3.8290   -999.2500
  1938.0000      0.0000    637.0795      3.6798   -999.2500
  1938.2500      0.0000    657.0613      3.5539   -999.2500
  1938.5000      0.0000    669.9055      3.4664   -999.2500
  1938.7500      0.0000    669.0113      3.4164   -999.2500
  1939.0000      0.0000    648.4398      3.3824   -999.2500
  1939.2500      0.0000    600.0215      3.3280   -999.2500
  1939.5000      0.0000    515.4174      3.2168   -999.2500
  1939.7500      0.0000    396.6735      3.0380   -999.2500
  1940.0000      0.0000    264.1277      2.8218   -999.2500
  1940.2500      0.0000    147.8156      2.6233   -999.2500
  1940.5000      0.0000     68.0322      2.4833   -999.2500
  1940.7500      0.0000     25.3543      2.4071   -999.2500
  1941.0000      0.0000      7.5664      2.3749   -999.2500
  1941.2500      0.0000      1.7918      2.3644   -999.2500
  1941.5000      0.0000      0.3317      2.3617   -999.2500
  1941.7500      0.0000      0.0441      2.3612   -999.2500
  1942.0000      0.0000   -999.2500   -999.2500   -999.2500
  1942.2500      0.0000   -999.2500   -999.2500   -999.2500
  1942.5000      0.0000   -999.2500   -999.2500   -999.2500
  1942.7500      0.0000   -999.2500   -999.2500   -999.2500
  1943.0000      0.0000   -999.2500   -999.2500   -999.2500
  1943.2500      0.0000   -999.2500   -999.2500   -999.2500
  1943.5000      0.0000   -999.2500   -999.2500   -999.2500
  1943.7500      0.0000   -999.2500   -999.2500   -999.2500
  1944.0000      0.0000   -999.2500   -999.2500   -999.2500
  1944.2500      0.0000   -999.2500   -999.2500   -999.2500
  1944.5000      0.0000   -999.2500   -999.2500   -999.2500
  1944.7500      0.0000   -999.2500   -999.2500   -999.2500
  1945.0000      0.0000   -999.2500   -999.2500   -999.2500
  1945.2500      0.0000   -999.2500   -999.2500   -999.2500
  1945.5000      0.0000   -999.2500   -999.2500   -999.2500
  1945.7500      0.0000   -999.2500   -999.2500   -999.2500
  1946.0000      0.0000   -999.2500   -999.2500   -999.2500
  1946.2500      0.0000   -999.2500   -999.2500   -999.2500
  1946.5000      0.0000   -999.2500   -999.2500   -999.2500
  1946.7500      0.0000   -999.2500   -999.2500   -999.2500
  1947.0000      0.0000   -999.2500   -999.2500   -999.2500
  1947.2500      0.0000   -999.2500   -999.2500   -999.2500
  1947.5000      0.0000   -999.2500   -999.2500   -999.2500
  1947.7500   -999.2500   -999.2500   -999.2500   -999.2500
  1948.0000   -999.2500   -999.2500   -999.2500   -999.2500
  1948.2500   -999.2500   -999.2500   -999.2500   -999.2500
