~Version Information
VERS.                      2.0: CWLS Log ASCII Standard - VERSION 2.0
WRAP.                       NO: One line per depth step
~Well Information Block
STRT.FT               259.0000: 
STOP.FT              2382.0000: 
STEP.FT                 0.2500: 
NULL.                -999.2500: 
COMP.          Pioneer Natural Resources: COMPANY
WELL.          Foothills 12-36: WELL
FLD.           Purgatoire River: FIELD
LOC.           2450' FNL & 201' FWL: LOCATION
PROV.                 Colorado: PROVINCE
CNTY.               Las Animas: COUNTRY
SRVC.                Patterson: SERVICE COMPANY
DATE.          Thu Apr 21 03:00:58 2005: LOG DATE
UWI.           05 071 08339 00: UNIQUE WELL ID
~Curve Information Block
DEPT.FT            0 000 00 00: Depth
SN.Ohm-m                      : IEL Short Normal
SP.mV                         : IEL Spontaneous Potential
DIR.Ohm-m                     : IEL Induction Resistivity
GR.GAPI                       : Gamma Ray
~Parameter Information Block
~A  Depth        SN          SP         DIR          GR     
# ...
  2336.0000     24.3429     45.9040     23.6839     60.7013
  2336.2500     23.7694     45.8626     23.4144     60.5208
  2336.5000     23.2509     45.9000     23.2207     61.1448
  2336.7500     22.8545     45.9954     23.0743     62.1232
  2337.0000     22.5578     46.1085     22.9412     64.2980
  2337.2500     22.3894     46.2018     22.8073     65.9441
  2337.5000     22.3655     46.2621     22.6827     68.0131
  2337.7500     22.3696     46.3056     22.5888     68.8821
  2338.0000     22.2539     46.3580     22.5438     69.6188
  2338.2500     22.0376     46.4284     22.5548     70.0257
  2338.5000     21.9268     46.5003     22.6186     70.6734
  2338.7500     22.1005     46.5485     22.7278     70.8857
  2339.0000     22.5527     46.5594     22.8791     70.3155
  2339.2500     23.1575     46.5364     23.0780     69.2808
  2339.5000     23.7561     46.4907     23.3342     67.2225
  2339.7500     24.1991     46.4325     23.6494     65.8854
  2340.0000     24.4717     46.3668     24.0092     64.2084
  2340.2500     24.7266     46.2961     24.3882     63.1491
  2340.5000     25.0949     46.2264     24.7606     61.1141
  2340.7500     25.5608     46.1707     25.1079     59.4053
  2341.0000     25.9971     46.1380     25.4216     57.1211
  2341.2500     26.2603     46.1225     25.7037     56.4658
  2341.5000     26.3059     46.1069     25.9640     57.1708
  2341.7500     26.2287     46.0727     26.2098     58.3518
  2342.0000     26.1826     45.9987     26.4349     60.2495
  2342.2500     26.2615     45.8557     26.6207     61.4871
  2342.5000     26.4237     45.6151     26.7520     63.9197
  2342.7500     26.5533     45.2711     26.8306     66.2342
  2343.0000     26.5742     44.8554     26.8760     70.1723
  2343.2500     26.4556     44.4171     26.9139     72.1919
  2343.5000     26.2609     43.9821     26.9646     73.0220
  2343.7500     26.1563     43.5352     27.0400     72.1899
  2344.0000     26.2197     43.0450     27.1451     70.2847
  2344.2500     26.3717     42.4988     27.2756     69.3870
  2344.5000     26.5033     41.9093     27.4147     68.8289
  2344.7500     26.5571     41.3000     27.5342     68.5593
  2345.0000     26.5507     40.6989     27.6077     67.6530
  2345.2500     26.5507     40.1379     27.6271     66.6927
  2345.5000     26.5727     39.6471     27.6111     65.2069
  2345.7500     26.5849     39.2498     27.5965     64.5528
  2346.0000     26.6037     38.9700     27.6187     64.3586
  2346.2500     26.6937     38.8337     27.6932     64.5804
  2346.5000     26.8789     38.8478     27.8101     64.8801
  2346.7500     27.1033     38.9779     27.9465     64.8858
  2347.0000     27.3088     39.1553     28.0917     64.7750
  2347.2500     27.5039     39.3086     28.2628     64.8581
  2347.5000     27.7053     39.3941     28.4968     65.5026
  2347.7500     27.8846     39.4059     28.8205     66.2029
  2348.0000     28.0246     39.3641     29.2203     67.0619
  2348.2500     28.1610     39.2941     29.6328     67.2018
  2348.5000     28.3190     39.2146     29.9719     67.1128
  2348.7500     28.4816     39.1363     30.1835     67.5733
  2349.0000     28.6337     39.0642     30.2902     70.1445
  2349.2500     28.7589     39.0028     30.3817     73.1937
  2349.5000     28.8209     38.9626     30.5514     78.9788
  2349.7500     28.8200     38.9506     30.8344     82.9190
  2350.0000     28.8382     38.9515     31.1936     87.7717
  2350.2500     28.9776     38.9180     31.5614     89.9266
  2350.5000     29.2438     38.7930     31.8948     91.6919
  2350.7500     29.4758     38.5455     32.1888     92.1738
  2351.0000     29.4827     38.1918     32.4276     91.8092
  2351.2500     29.2871     37.7871     32.5207     90.4163
  2351.5000     29.0653     37.3979     32.3050     85.9438
  2351.7500     28.9005     37.0705     31.6566     81.5005
  2352.0000     28.7739     36.8194     30.6271     73.9981
  2352.2500     28.6589     36.6454     29.4489     69.6462
  2352.5000     28.5068     36.5574     28.3922     65.8924
  2352.7500     28.2546     36.5697     27.6257     65.5418
  2353.0000     27.8870     36.6839     27.1780     67.0723
  2353.2500     27.4654     36.8877     26.9773     68.2412
  2353.5000     27.0490     37.1686     26.9094     68.7144
  2353.7500     26.6198     37.5135     26.8685     68.1302
  2354.0000     26.1650     37.8935     26.7806     66.8423
  2354.2500     25.7709     38.2517     26.6040     66.2833
  2354.5000     25.5366     38.5153     26.3196     66.2260
  2354.7500     25.4170     38.6265     25.9366     66.5258
  2355.0000     25.2796     38.5750     25.5080     66.9734
  2355.2500     25.1084     38.4069     25.1292     67.0876
  2355.5000     24.9965     38.2015     24.9011     66.9252
  2355.7500     24.9854     38.0299     24.8781     66.6381
  2356.0000     25.0495     37.9242     25.0395     66.1865
  2356.2500     25.1743     37.8760     25.3046     66.1789
  2356.5000     25.3692     37.8572     25.5835     67.1534
  2356.7500     25.6479     37.8411     25.8309     68.5115
  2357.0000     25.9927     37.8076     26.0677     71.0399
  2357.2500     26.3381     37.7343     26.3543     72.4795
  2357.5000     26.6427     37.5951     26.7456     73.3475
  2357.7500     26.9404     37.3719     27.2564     72.8452
  2358.0000     27.2858     37.0707     27.8530     70.9543
  2358.2500     27.6641     36.7256     28.4699     69.5843
  2358.5000     28.0085     36.3860     29.0376     68.4432
  2358.7500     28.3194     36.0913     29.5071     68.6219
  2359.0000     28.6617     35.8548     29.8555     70.1663
  2359.2500     29.0244     35.6718     30.0750     71.5881
  2359.5000     29.3079     35.5398     30.1609     73.3605
  2359.7500     29.4441     35.4706     30.1089     74.0801
  2360.0000     29.4131     35.4866     29.9154     74.8156
  2360.2500     29.1904     35.6112     29.5726     75.3314
  2360.5000     28.7650     35.8637     29.0599     76.0838
  2360.7500     28.1819     36.2585     28.3479     76.3058
  2361.0000     27.5276     36.8030     27.4214     75.7495
  2361.2500     26.8690     37.4897     26.3071     74.6747
  2361.5000     26.2063     38.2833     25.0804     72.2385
  2361.7500     25.5046     39.1165     23.8453     70.1823
  2362.0000     24.7494     39.9032     22.7001     65.5325
  2362.2500     23.9424     40.5656     21.7109     60.1052
  2362.5000     23.0765     41.0605     20.9042     46.9475
  2362.7500     22.1462     41.3912     20.2752     35.6770
  2363.0000     21.1877     41.5994     19.8054     19.2224
  2363.2500     20.2930     41.7376     19.4769     10.9011
  2363.5000     19.5499     41.8335     19.2742      3.6178
  2363.7500     18.9647     41.8726     19.1751      1.4540
  2364.0000     18.4700     41.8141     19.1419      0.2811
  2364.2500     18.0191     41.6253     19.1256      0.0773
  2364.5000     17.7057     41.3075     19.0857      0.0071
  2364.7500     17.7432     40.8984     19.0126      0.0000
  2365.0000     18.2818     40.4581     18.9378   -999.2500
  2365.2500     19.3139     40.0446     18.9225   -999.2500
  2365.5000     20.7052     39.6902     19.0353   -999.2500
  2365.7500     22.2169     39.3960     19.3300   -999.2500
  2366.0000     23.5980     39.1543     19.8286   -999.2500
  2366.2500     24.7049     38.9739     20.5130   -999.2500
  2366.5000     25.5330     38.8743     21.3289   -999.2500
  2366.7500     26.1920     38.8530     22.2001   -999.2500
  2367.0000     26.7636     38.8676     23.0443   -999.2500
  2367.2500     27.1732     38.8591     23.7834   -999.2500
  2367.5000     27.3158     38.7866     24.3482   -999.2500
  2367.7500     27.2358     38.6398     24.6949   -999.2500
  2368.0000     27.0780     38.4320     24.8280   -999.2500
  2368.2500     26.9571     38.1888     24.8062   -999.2500
  2368.5000     26.9121     37.9414     24.7176   -999.2500
  2368.7500     26.9169     37.7179     24.6436   -999.2500
  2369.0000     26.9245     37.5327     24.4929   -999.2500
  2369.2500     26.9109     37.3812     24.5754   -999.2500
