~Version Information
VERS.                      2.0: CWLS Log ASCII Standard - VERSION 2.0
WRAP.                       NO: One line per depth step
~Well Information Block
STRT.FT               650.0000: 
STOP.FT              2000.5000: 
STEP.FT                 0.1000: 
NULL.                -999.2500: 
COMP.          Pioneer Natural Resources: COMPANY
WELL.           Firehawk 34-26: WELL
FLD.           Purgatoire River: FIELD
LOC.           1196' FSL & 1595' FEL--: LOCATION
STAT.                 Colorado: State
CNTY.               Las Animas: COUNTY
CTRY. USA : Country
SECT. 26 : Section
TOWN. 32S : Township
RANG. 66W : Range
SRVC.                Patterson: SERVICE COMPANY
DATE.          Mon Oct 17 07:23:34 2005: LOG DATE
API.           05 071 08389 00: UNIQUE WELL ID
~Curve Information Block
DEPT.FT            0 000 00 00: Depth
DCAL.in                       : CDL Caliper
RHOB.g/cc                     : CDL Bulk Density
RHOC.g/cc                     : CDL Density Correction
DPOR.pu                       : CDL Density Porosity
NPOR.pu                       : Neutron Porosity
GR.GAPI                       : Gamma Ray
~Parameter Information Block
~A  Depth       DCAL        RHOB        RHOC        DPOR        NPOR         GR     
   650.0000      1.2634      1.8682      0.5006     47.3822     47.5905    104.4206
   650.1000      1.2634      1.8773      0.5132     46.8303     47.8303    108.4529
   650.2000      1.2634      1.8873      0.5111     46.2216     47.8169    109.5666
   650.3000      1.2613      1.8813      0.5445     46.5877     47.4632    108.2303
   650.4000      1.2613      1.8543      0.4818     48.2214     46.8211    106.1404
   650.5000      1.2621      1.8316      0.4847     49.5980     46.3347    100.7191
   650.6000      1.2621      1.8290      0.4895     49.7583     46.3824     93.5106
   650.7000      1.2621      1.8404      0.4999     49.0662     46.7824     91.0226
   650.8000      1.2641      1.8639      0.4981     47.6450     47.1900     94.4127
   650.9000      1.2641      1.8982      0.5250     45.5646     47.3946    101.4879
   651.0000      1.2650      1.9227      0.5478     44.0793     47.2406    109.6115
   651.1000      1.2650      1.9113      0.5372     44.7678     46.9802    112.3372
   651.2000      1.2650      1.8666      0.5112     47.4770     46.9642    106.9298
   651.3000      1.2647      1.8180      0.4830     50.4222     47.0351     99.5913
   651.4000      1.2647      1.7912      0.4902     52.0495     46.9376     97.5528
   651.5000      1.2649      1.7908      0.4705     52.0726     46.7622    100.7134
   651.6000      1.2649      1.8034      0.5048     51.3065     46.7268    101.9557
   651.7000      1.2649      1.8105      0.5051     50.8759     46.8617     98.7226
   651.8000      1.2662      1.8073      0.5027     51.0713     46.9310     96.1227
   651.9000      1.2662      1.8020      0.4953     51.3918     46.8251     97.1991
   652.0000      1.2663      1.7998      0.4892     51.5250     46.6935     99.4975
   652.1000      1.2663      1.7941      0.5133     51.8706     46.5315     98.5845
   652.2000      1.2663      1.7758      0.5079     52.9837     46.2736     92.9134
   652.3000      1.2651      1.7520      0.4699     54.4262     46.0249     86.9355
   652.4000      1.2651      1.7404      0.4734     55.1272     45.7782     84.1453
   652.5000      1.2641      1.7465      0.4699     54.7598     45.5024     83.1597
   652.6000      1.2641      1.7572      0.5021     54.1073     45.3093     81.5300
   652.7000      1.2641      1.7586      0.4928     54.0270     45.1497     78.1852
   652.8000      1.2634      1.7528      0.4692     54.3734     44.7154     74.6597
   652.9000      1.2634      1.7486      0.4736     54.6278     44.0381     73.3577
   653.0000      1.2639      1.7458      0.4805     54.8006     43.7931     74.5186
   653.1000      1.2639      1.7420      0.4731     55.0305     44.2656     76.8207
   653.2000      1.2639      1.7389      0.4704     55.2203     44.9476     79.6603
   653.3000      1.2645      1.7369      0.4756     55.3370     45.2104     80.0688
   653.4000      1.2645      1.7333      0.4801     55.5561     44.8356     75.2159
   653.5000      1.2663      1.7296      0.4640     55.7847     44.2607     69.0419
   653.6000      1.2663      1.7327      0.4722     55.5942     43.8471     64.3354
   653.7000      1.2663      1.7383      0.4914     55.2554     43.6257     62.0076
   653.8000      1.2673      1.7348      0.4767     55.4660     43.5457     64.4375
   653.9000      1.2673      1.7259      0.4643     56.0065     43.3838     70.3798
   654.0000      1.2655      1.7236      0.4626     56.1468     43.1638     75.5322
   654.1000      1.2655      1.7287      0.4686     55.8357     43.2532     76.8290
   654.2000      1.2655      1.7332      0.4891     55.5633     43.7096     76.7937
   654.3000      1.2627      1.7336      0.4829     55.5391     44.3386     81.0770
   654.4000      1.2627      1.7333      0.4673     55.5553     44.9057     86.6536
   654.5000      1.2623      1.7361      0.4772     55.3906     45.0130     86.1608
   654.6000      1.2623      1.7426      0.4665     54.9966     44.6857     84.1825
   654.7000      1.2623      1.7477      0.4984     54.6875     44.4273     86.6225
   654.8000      1.2638      1.7412      0.4833     55.0760     44.5176     86.9036
   654.9000      1.2638      1.7210      0.4748     56.3008     44.6903     77.5744
   655.0000      1.2638      1.6920      0.4725     58.0598     44.6457     62.6511
   655.1000      1.2638      1.6611      0.4457     59.9333     44.4779     53.4018
   655.2000      1.2638      1.6338      0.4627     61.5882     44.4058     53.4754
   655.3000      1.2630      1.6111      0.4371     62.9664     44.4815     56.8913
   655.4000      1.2630      1.5959      0.4189     63.8844     44.5865     59.1463
   655.5000      1.2650      1.5926      0.4215     64.0829     44.5061     58.7664
   655.6000      1.2650      1.5988      0.4372     63.7075     44.2583     54.8948
   655.7000      1.2650      1.6053      0.4473     63.3160     44.2185     49.6550
   655.8000      1.2676      1.6049      0.4352     63.3375     44.3528     46.3224
   655.9000      1.2676      1.5997      0.4327     63.6536     44.4786     45.1361
   656.0000      1.2676      1.5950      0.4393     63.9374     44.8070     44.6003
   656.1000      1.2676      1.5933      0.4301     64.0424     45.2689     44.4532
   656.2000      1.2676      1.5940      0.4290     63.9993     45.5163     46.5968
   656.3000      1.2673      1.5949      0.4390     63.9430     45.6110     51.0211
   656.4000      1.2673      1.5930      0.4362     64.0600     45.8437     55.0428
   656.5000      1.2686      1.5873      0.4357     64.4076     46.1354     57.3689
   656.6000      1.2686      1.5810      0.4184     64.7855     46.2825     57.0901
   656.7000      1.2686      1.5765      0.4202     65.0589     46.2990     55.4779
   656.8000      1.2690      1.5704      0.4305     65.4307     46.2375     57.0995
   656.9000      1.2690      1.5590      0.4161     66.1217     45.9943     63.2123
   657.0000      1.2680      1.5443      0.4036     67.0096     45.6376     68.7911
   657.1000      1.2680      1.5324      0.4140     67.7351     45.6259     70.0185
   657.2000      1.2680      1.5278      0.4064     68.0099     46.1324     67.9294
   657.3000      1.2671      1.5285      0.4290     67.9668     46.7207     64.4218
   657.4000      1.2671      1.5267      0.4156     68.0762     46.9546     61.9827
   657.5000      1.2662      1.5196      0.4133     68.5106     46.8195     62.0671
   657.6000      1.2662      1.5107      0.4044     69.0511     46.5908     64.7600
   657.7000      1.2662      1.5041      0.4074     69.4467     46.3943     71.3904
   657.8000      1.2650      1.5006      0.4049     69.6632     46.1017     78.2783
   657.9000      1.2650      1.4969      0.4127     69.8862     45.5709     79.1710
   658.0000      1.2644      1.4906      0.3987     70.2671     44.8563     75.6147
   658.1000      1.2644      1.4832      0.3937     70.7141     44.2490     73.5213
   658.2000      1.2644      1.4786      0.3841     70.9944     43.9349     73.4348
   658.3000      1.2656      1.4784      0.3986     71.0072     43.7683     71.3938
   658.4000      1.2656      1.4812      0.3885     70.8393     43.6344     68.5637
   658.5000      1.2664      1.4848      0.3977     70.6174     43.7211     69.0402
   658.6000      1.2664      1.4861      0.3897     70.5386     44.0387     69.9302
   658.7000      1.2664      1.4852      0.3743     70.5919     44.0386     67.7439
   658.8000      1.2667      1.4858      0.3814     70.5567     43.6602     63.6887
   658.9000      1.2667      1.4891      0.3729     70.3557     43.6584     59.8268
   659.0000      1.2677      1.4955      0.3786     69.9687     44.1009     58.2322
   659.1000      1.2677      1.5081      0.3861     69.2043     44.3240     58.2429
   659.2000      1.2677      1.5350      0.3790     67.5731     44.2801     57.9928
   659.3000      1.2677      1.5885      0.4010     64.3361     44.3619     56.9091
   659.4000      1.2677      1.6823      0.4179     58.6512     44.4057     54.2769
   659.5000      1.2649      1.8281      0.4542     49.8149     44.1666     52.6245
