~Version Information
VERS.                      2.0: CWLS Log ASCII Standard - VERSION 2.0
WRAP.                       NO: One line per depth step
~Well Information Block
STRT.FT               240.0000: 
STOP.FT              1453.0000: 
STEP.FT                 0.2500: 
NULL.                -999.2500: 
COMP.          Petrogulf Corporation: COMPANY
WELL.          Robinson 15-12R: WELL
FLD.           Purgatorie River: FIELD
LOC.           1752' FNL & 561' FWL: LOCATION
PROV.                 Colorado: PROVINCE
CNTY.               Las Animas: COUNTRY
SRVC.                Patterson: SERVICE COMPANY
DATE.          Tue Sep 13 15:11:42 2005: LOG DATE
UWI.                          : UNIQUE WELL ID
~Curve Information Block
DEPT.FT            0 000 00 00: Depth
SP.mV                         : DIL Spontaneous Potential
RILD.Ohm-m                    : DIL Deep Resistivity
RILM.Ohm-m                    : DIL Medium Resistivity
RLL3.Ohm-m                    : DIL Shallow Resistivity
GR.GAPI                       : Gamma Ray
~Parameter Information Block
~A  Depth        SP         RILD        RILM        RLL3         GR     
# ...
  1024.0000    182.5955      9.4187      8.7059      9.3322    161.9413
  1024.2500    182.7429      9.4263      8.8670      9.6483    174.8465
  1024.5000    182.7511      9.4843      9.1088      9.6280    154.6194
  1024.7500    182.3967      9.8321      9.5462      9.9311    150.9187
  1025.0000    181.7738      9.9304     10.1351     10.2840    153.8802
  1025.2500    181.1702     10.0067     10.8540     11.2485    152.1114
  1025.5000    180.6804     10.0104     11.5168     13.1842    137.4146
  1025.7500    180.1705      9.9855     12.0297     15.4667    130.5645
  1026.0000    179.3980      9.9419     12.7350     17.3804    127.5846
  1026.2500    178.9658      9.7562     12.7567     19.2984    129.3722
  1026.5000    178.8935      9.7598     12.9010     20.2152    116.7419
  1026.7500    178.7455      9.6748     12.3318     19.6367     98.9081
  1027.0000    178.2417      9.6353     11.8697     17.4051    127.2412
  1027.2500    177.7416      9.4142     11.3592     14.3646    136.2850
  1027.5000    177.2593      9.4157     10.6693     11.6082    154.4493
  1027.7500    176.8105      9.4820      9.9143     10.1402    179.2525
  1028.0000    176.3175      9.2686      9.4766      9.5913    177.8911
  1028.2500    175.2829      9.1129      9.2014      9.0559    165.1835
  1028.5000    174.3793      9.1160      8.7956      9.4109    153.4335
  1028.7500    173.7611      9.1060      8.6050      9.9537    149.6998
  1029.0000    173.2014      9.2928      8.4686      9.8864    158.9384
  1029.2500    172.5949      9.4740      8.3959      9.3112    170.9234
  1029.5000    171.5463      9.7209      8.5671      8.4986    174.4219
  1029.7500    170.7146      9.9071      8.8950      8.2445    158.8662
  1030.0000    170.2941     10.1699      9.6944      9.0548    137.6468
  1030.2500    169.9356     10.4823     10.4873     13.4324    125.0808
  1030.5000    169.3990     10.7915     11.9353     25.7631    108.4721
  1030.7500    169.2421     11.7375     13.5622     43.9678     88.6310
  1031.0000    169.3076     12.2133     15.4566     53.9044     74.2301
  1031.2500    169.8131     13.0891     17.1682     50.2736     75.2457
  1031.5000    170.5333     13.8862     19.0991     50.8775     61.4014
  1031.7500    170.9418     14.7900     21.3351     56.2388     44.5112
  1032.0000    171.4588     16.0159     25.1174     58.8732     49.9052
  1032.2500    172.4656     17.1942     28.7202     60.4880     48.6859
  1032.5000    173.6319     17.5776     31.8297     62.4439     52.4908
  1032.7500    174.5985     17.8069     35.7391     62.2625     55.7941
  1033.0000    175.3756     18.3829     37.5795     62.9820     60.1193
  1033.2500    176.5723     17.6486     38.3008     65.2791     68.2418
  1033.5000    178.3077     16.3680     33.2858     66.3451     72.8971
  1033.7500    180.0161     15.7520     29.0121     63.4959     80.5651
  1034.0000    181.5628     14.9519     24.9402     52.8689     90.8888
  1034.2500    183.1625     14.4265     20.5153     32.2147    106.1344
  1034.5000    184.5452     13.4531     16.5006     16.1177    144.4088
  1034.7500    185.4259     12.8565     14.8889     10.8163    151.2233
  1035.0000    185.0428     12.1713     13.2305     10.2945    168.1622
  1035.2500    184.2777     11.4074     12.1038     10.7223    177.3135
  1035.5000    184.0670     11.1426     11.4954     10.5665    188.5200
  1035.7500    184.3265     10.9960     10.9916     10.2103    182.0173
  1036.0000    184.5148     10.4398     10.6046      9.8082    184.5207
  1036.2500    184.1380     10.1427     10.3557      9.4665    161.0569
  1036.5000    184.1014      9.9695     10.2231      9.3947    168.3223
  1036.7500    184.4061      9.8065     10.0335      9.7705    169.6890
  1037.0000    184.9417      9.7719      9.8305     10.6126    159.4877
  1037.2500    184.9105      9.5989     10.1418     11.3860    149.6252
  1037.5000    184.6028      9.4106     10.3257     12.0836    165.3962
  1037.7500    184.7430      9.4096     10.4348     13.3248    164.9671
  1038.0000    185.3328      9.4250     10.3366     14.2153    166.1157
  1038.2500    186.3850      9.4511     10.3601     14.3221    173.7605
  1038.5000    186.9556      9.4500     10.3424     12.9158    155.0494
  1038.7500    187.2886      9.5870     10.2612     11.4314    161.9613
  1039.0000    187.6200      9.6476     10.4289     10.8205    181.9373
  1039.2500    188.1084      9.6687     10.3878     10.4523    172.1085
  1039.5000    188.2195      9.7154     10.4753     10.5341    179.6217
  1039.7500    188.0896      9.6874     10.6162     11.0031    185.4514
  1040.0000    188.2304      9.7635     10.5632     11.5149    164.0786
  1040.2500    188.4680      9.6569     10.4438     11.4235    164.8159
  1040.5000    188.6509      9.6713     10.3040     10.7774    173.5006
  1040.7500    187.9901      9.4275     10.1432     10.5145    189.3023
  1041.0000    187.0917      9.3475     10.1316     10.4998    159.7449
  1041.2500    186.5115      9.3565     10.2236     10.5913    157.8243
  1041.5000    186.2247      9.3572     10.2540     10.7891    190.9335
  1041.7500    185.3078      9.4292     10.1091     11.1962    175.6119
  1042.0000    183.9868      9.0703     10.1743     11.7764    179.8824
  1042.2500    183.0644      9.0268     10.1255     12.3292    162.8245
  1042.5000    182.9176      8.8979      9.8693     12.2357    159.2554
  1042.7500    182.9678      9.0075      9.6139     11.7324    167.4816
  1043.0000    182.5897      9.0230      9.4517     10.9312    171.2893
  1043.2500    182.2874      9.0939      9.2456     10.3165    164.0015
  1043.5000    181.7619      9.2759      9.1948      9.7301    172.2689
  1043.7500    181.5432      9.2023      9.0612      8.7452    170.9548
  1044.0000    181.2451      9.5943      9.3253      8.7228    181.6568
  1044.2500    180.2880      9.6392      9.4193      9.2901    150.0812
  1044.5000    179.0449      9.9138      9.8958      9.8835    130.0933
  1044.7500    178.1842     10.2506     10.4420     10.8215    142.1983
  1045.0000    177.6723     10.4459     10.8519     12.4862    126.9694
  1045.2500    176.7402     10.6453     11.2857     13.6879    117.5957
  1045.5000    176.0205     11.0354     11.8910     14.1842    123.1828
  1045.7500    175.5875     11.3078     13.1112     15.1056    122.3680
  1046.0000    175.5302     11.8268     13.8828     15.7879    110.8730
  1046.2500    175.6419     12.3590     15.0565     17.5154    121.0514
  1046.5000    175.4272     12.9852     16.0526     23.6000    113.8241
  1046.7500    175.2050     13.0954     17.2327     32.5060    108.3546
  1047.0000    175.1663     13.4269     18.3079     34.8280    102.3243
  1047.2500    175.4663     13.8538     18.9197     31.5855    121.9033
  1047.5000    175.7804     13.9705     19.7054     26.1451    142.8433
  1047.7500    176.0747     14.1568     18.8053     21.6778    129.9272
  1048.0000    176.3130     14.0069     18.7998     19.0086    139.1702
  1048.2500    176.6096     13.8326     17.9486     18.2299    152.9944
  1048.5000    176.8476     13.3484     17.2917     20.2593    115.1360
  1048.7500    176.8306     12.9802     16.0688     23.3847    116.8726
  1049.0000    176.6790     13.1937     14.8602     18.9110    133.0325
  1049.2500    176.4702     13.0001     13.5610     13.7217    149.8752
  1049.5000    176.3914     12.8526     12.6389     11.1840    172.2619
  1049.7500    176.2793     12.7662     12.0235      9.8100    165.5761
  1050.0000    176.4665     12.6745     11.9317      9.2936    156.9540
  1050.2500    176.8473     12.8826     12.1533      9.2900    179.9365
  1050.5000    177.4830     12.5780     12.7542     10.3550    169.5002
  1050.7500    178.2077     12.3843     13.7899     12.4852    154.1681
  1051.0000    178.9860     11.8319     14.7629     16.9608    135.1301
  1051.2500    180.1165     11.4321     15.3969     24.5361    122.4264
  1051.5000    181.3907     11.1370     15.0136     32.1793     99.8616
  1051.7500    182.6648     10.8096     14.5197     34.8631     92.5027
