~Version Information
VERS.                      2.0: CWLS Log ASCII Standard - VERSION 2.0
WRAP.                       NO: One line per depth step
~Well Information Block
STRT.FT               -13.5000: 
STOP.FT              2474.2500: 
STEP.FT                 0.2500: 
NULL.                -999.2500: 
COMP.          Pioneer Natural Resources: COMPANY
WELL.              Tiaga 23-14: WELL
FLD.           Purgatorie River: FIELD
LOC.           2168' FSL & 2030' FWL--: LOCATION
PROV.                       CO: PROVINCE
CNTY.               Las Animas: COUNTRY
SRVC.                         : SERVICE COMPANY
DATE.          Thu May 12 17:01:37 2005: LOG DATE
UWI.                          : UNIQUE WELL ID
~Curve Information Block
DEPT.FT            0 000 00 00: Depth
TT3.usec                      : CBL 3' Travel Time
AMP3.mV                       : CBL 3' Amplitude
GR.GAPI                       : Gamma Ray
CCL.                          : Casing Collar Locator
~Parameter Information Block
~A  Depth       TT3         AMP3         GR         CCL     
# ...
   958.0000    691.1011      7.8810     87.9685      0.0000
   958.2500    694.5560      7.8911     93.4642      0.0000
   958.5000    713.3946      7.9215     98.2833      0.0000
   958.7500    749.2023      7.9690     99.7769      0.0000
   959.0000    786.5902      8.0278     96.8488      0.0000
   959.2500    806.2324      8.0994     90.9578      0.0000
   959.5000    811.1328      8.1911     85.2150      0.0000
   959.7500    809.9880      8.2941     82.1821      0.0000
   960.0000    790.0197      8.3815     82.2726      0.0000
   960.2500    743.1465      8.4372     84.0999      0.0000
   960.5000    687.6337      8.4728     86.2226      0.0000
   960.7500    645.4245      8.5071     88.3886      0.0000
   961.0000    628.8879      8.5402     91.0781      0.0000
   961.2500    643.0394      8.5660     94.2285      0.0000
   961.5000    673.8879      8.5884     96.7725      0.0000
   961.7500    691.7480      8.6055     97.4657      0.0000
   962.0000    686.8527      8.6160     95.9990      0.0000
   962.2500    679.1626      8.6594     93.2145      0.0000
   962.5000    683.0616      8.8035     90.2799      0.0000
   962.7500    691.4435      9.0578     87.7676      0.0000
   963.0000    694.5805      9.3275     85.5413      0.0000
   963.2500    691.3874      9.4391     83.3642      0.0000
   963.5000    684.8715      9.2027     81.5133      0.0000
   963.7500    678.4601      8.6250     80.8630      0.0000
   964.0000    680.0774      8.0297     82.2039      0.0000
   964.2500    701.3563      7.6884     85.3722      0.0000
   964.5000    742.4808      7.5268     89.4416      0.0000
   964.7500    786.3077      7.3868     94.0160      0.0000
   965.0000    819.7795      7.2867     99.7078     -2.0000
   965.2500    847.9356      7.3190    106.8661      2.0000
   965.5000    871.9207      7.4646    114.3308      0.0000
   965.7500    874.1331      7.6077    120.0439      0.0000
   966.0000    843.1512      7.7343    122.6435      0.0000
   966.2500    794.9610      7.9332    122.1037      0.0000
   966.5000    756.5728      8.1498    119.1664      0.0000
   966.7500    741.3945      8.2488    114.8743      0.0000
   967.0000    749.3926      8.2583    110.6770      0.0000
   967.2500    776.9713      8.2503    108.1816      0.0000
   967.5000    815.3915      8.1893    108.1917      0.0000
   967.7500    850.4457      8.0535    110.2222      0.0000
   968.0000    870.1072      7.9232    113.2073      0.0000
   968.2500    867.2013      7.8966    116.3635      0.0000
   968.5000    841.0691      7.9740    119.1873      0.0000
   968.7500    803.3161      8.0409    121.1002      0.0000
   969.0000    771.6042      7.9922    121.5292      0.0000
   969.2500    752.3320      7.8511    120.1181      0.0000
   969.5000    737.8076      7.7126    116.6688      0.0000
   969.7500    721.5027      7.6118    111.3295      0.0000
   970.0000    709.2543      7.5042    105.0321      0.0000
   970.2500    710.0786      7.3501     99.1401      0.0000
   970.5000    720.2537      7.1660     94.3635      0.0000
   970.7500    728.4150      6.9889     90.6007      0.0000
   971.0000    732.1603      6.8380     87.9131      0.0000
   971.2500    737.1508      6.7241     86.8567      0.0000
   971.5000    744.3654      6.6560     87.6144      0.0000
   971.7500    745.9867      6.6180     89.5513      0.0000
   972.0000    733.1383      6.5732     91.9312      0.0000
   972.2500    707.0742      6.5023     94.5443      0.0000
   972.5000    678.9247      6.4228     97.4392      0.0000
   972.7500    658.9437      6.3662    100.5434      0.0000
   973.0000    651.4042      6.3496    103.7551      0.0000
   973.2500    655.3018      6.3709    106.9230      0.0000
   973.5000    665.0233      6.4243    109.4624      0.0000
   973.7500    673.8478      6.5060    110.4727      0.0000
   974.0000    679.0822      6.6039    109.6530      0.0000
   974.2500    682.6357      6.7021    107.8918      0.0000
   974.5000    687.4760      6.8017    106.6291      0.0000
   974.7500    693.8242      6.9079    106.6596      0.0000
   975.0000    698.1090      6.9922    107.5844      0.0000
   975.2500    697.6284      6.9967    108.2889      0.0000
   975.5000    694.6707      6.9089    107.8475      0.0000
   975.7500    692.7123      6.8121    106.1318      0.0000
   976.0000    692.1955      6.8045    103.8706      0.0000
   976.2500    691.7381      6.8797    102.2761      0.0000
   976.5000    690.2744      6.9507    102.2554      0.0000
   976.7500    687.8029      6.9540    103.6162      0.0000
   977.0000    685.2335      6.8954    105.2132      0.0000
   977.2500    683.4232      6.8415    106.1368      0.0000
   977.5000    682.4758      6.8779    106.5573      0.0000
   977.7500    682.0816      7.0482    107.2277      0.0000
   978.0000    682.0573      7.3236    108.5072      0.0000
   978.2500    682.2634      7.6294    110.1156      0.0000
   978.5000    682.2484      7.8801    111.4443      0.0000
   978.7500    681.1057      8.0010    111.7603      0.0000
   979.0000    678.1804      7.9789    110.4095      0.0000
   979.2500    675.8535      7.9049    107.1271      0.0000
   979.5000    681.2888      7.8888    102.1759      0.0000
   979.7500    700.0768      7.9502     96.3410      0.0000
   980.0000    727.4332      8.0504     90.9001      0.0000
   980.2500    750.9809      8.1655     87.1997      0.0000
   980.5000    762.1200      8.2902     85.9694      0.0000
   980.7500    764.1313      8.4209     87.2102      0.0000
   981.0000    769.9590      8.5445     90.5059      0.0000
   981.2500    788.0521      8.6333     94.9263      0.0000
   981.5000    807.8612      8.6667     98.9736      0.0000
   981.7500    807.2637      8.6750    101.4003      0.0000
   982.0000    782.2988      8.7440    102.2052      0.0000
   982.2500    755.1795      8.9228    102.6403      0.0000
   982.5000    747.3287      9.1516    104.1325      0.0000
   982.7500    761.1664      9.3341    106.8270      0.0000
   983.0000    784.9471      9.4453    109.1435      0.0000
   983.2500    804.5054      9.5513    109.3357      0.0000
   983.5000    812.4075      9.7473    107.5724      0.0000
   983.7500    807.3376     10.0638    105.8783      0.0000
   984.0000    791.4481     10.4307    106.1094      0.0000
   984.2500    773.4145     10.7528    108.5031      0.0000
   984.5000    762.5684     10.9881    111.8850      0.0000
   984.7500    756.0560     11.1476    114.6553      0.0000
   985.0000    745.4044     11.2584    115.7983      0.0000
   985.2500    732.0709     11.3244    115.4135      0.0000
   985.5000    723.2831     11.2912    114.2305      0.0000
   985.7500    720.3667     11.0450    112.5584      0.0000
   986.0000    719.8981     10.5213    109.8205      0.0000
   986.2500    723.2908      9.8426    105.0315      0.0000
   986.5000    739.0258      9.2748     97.8386      0.0000
   986.7500    768.6616      9.0343     89.4989      0.0000
   987.0000    800.5531      9.1475     82.6261      0.0000
   987.2500    830.5323      9.4603     79.4747      0.0000
   987.5000    862.5529      9.7694     80.5598      0.0000
   987.7500    883.5668      9.9621     85.1204      0.0000
   988.0000    877.4429     10.0682     92.3658      0.0000
   988.2500    849.8609     10.1979    101.7065      0.0000
   988.5000    813.9375     10.4176    112.0495      0.0000
   988.7500    777.4845     10.6988    121.5538      0.0000
   989.0000    749.6057     10.9548    128.4376      0.0000
   989.2500    737.4635     11.0655    131.9559      0.0000
   989.5000    740.0364     10.9393    132.3677      0.0000
   989.7500    749.7249     10.5995    130.0806      0.0000
   990.0000    755.0107     10.1698    125.3603      0.0000
   990.2500    749.2914      9.7901    118.9312      0.0000
   990.5000    738.9374      9.5618    112.1403      0.0000
   990.7500    736.2750      9.5014    106.1290      0.0000
   991.0000    747.0958      9.5252    101.2207      0.0000
   991.2500    762.8004      9.5196     97.3378      0.0000
