~Version Information
VERS.                      2.0: CWLS Log ASCII Standard - VERSION 2.0
WRAP.                       NO: One line per depth step
~Well Information Block
STRT.FT                 0.0000: 
STOP.FT              1916.0000: 
STEP.FT                 0.1000: 
NULL.                -999.2500: 
COMP.          Pioneer Natural Resources: COMPANY
WELL.          Blackjack 32-11 Tr: WELL
FLD.           Purgatorie River: FIELD
LOC.           2066' FNL & 1453' FEL: LOCATION
PROV.                 Colorado: PROVINCE
CNTY.               Las Animas: COUNTRY
SRVC.                Patterson: SERVICE COMPANY
DATE.          Tue Aug 16 12:08:23 2005: LOG DATE
UWI.                          : UNIQUE WELL ID
~Curve Information Block
DEPT.FT            0 000 00 00: Depth
DCAL.in                       : CDL Caliper
RHOB.g/cc                     : CDL Bulk Density
RHOC.g/cc                     : CDL Density Correction
DPOR.pu                       : CDL Density Porosity
GR.GAPI                       : Gamma Ray
NPOR.pu                       : Neutron Porosity
~Parameter Information Block
~A  Depth       DCAL        RHOB        RHOC        DPOR         GR         NPOR    
# ...
   873.6000      8.0919      2.6138      0.0317      2.1955    109.8766     26.1352
   873.7000      8.0919      2.5986      0.0579      3.1148    113.0103     26.2808
   873.8000      8.0670      2.5917      0.0296      3.5316    119.0869     26.6807
   873.9000      8.0670      2.5947      0.0348      3.3500    121.4061     26.9313
   874.0000      8.0128      2.5921      0.0998      3.5089    119.2052     26.8129
   874.1000      8.0128      2.5710      0.0474      4.7889    118.4641     26.5817
   874.2000      8.0128      2.5512      0.0146      5.9885    120.8488     26.4403
   874.3000      8.0000      2.5620     -0.0043      5.3311    123.1242     26.5352
   874.4000      8.0000      2.5948      0.0636      3.3466    123.2081     26.7718
   874.5000      8.0204      2.6133      0.0952      2.2255    122.6802     26.8376
   874.6000      8.0204      2.6081      0.0672      2.5402    122.5386     26.7969
   874.7000      8.0204      2.6014      0.0475      2.9436    121.2680     26.8896
   874.8000      8.0679      2.6108      0.0796      2.3746    119.5577     27.0737
   874.9000      8.0679      2.6283      0.1188      1.3155    119.0949     27.1891
   875.0000      8.0182      2.6315      0.1636      1.1202    119.9926     27.2076
   875.1000      8.0182      2.6151      0.0897      2.1159    122.6510     27.0138
   875.2000      8.0182      2.5986      0.0844      3.1128    125.0672     26.4134
   875.3000      7.9753      2.5942      0.1061      3.3793    124.3197     25.6416
   875.4000      7.9753      2.5937      0.0996      3.4097    122.0657     25.2506
   875.5000      8.0100      2.5885      0.1122      3.7283    120.7408     25.3166
   875.6000      8.0100      2.5788      0.0774      4.3147    121.7949     25.4331
   875.7000      8.0100      2.5707      0.0747      4.8089    124.8318     25.5572
   875.8000      7.9866      2.5682      0.0648      4.9600    127.1075     25.8843
   875.9000      7.9866      2.5680      0.1058      4.9674    129.0777     26.2102
   876.0000      7.9955      2.5623      0.1067      5.3131    131.9778     26.2189
   876.1000      7.9955      2.5454      0.1247      6.3389    134.5499     26.0619
   876.2000      7.9955      2.5214      0.0912      7.7927    136.5555     25.9345
   876.3000      7.9806      2.5074      0.0874      8.6412    138.4680     25.8166
   876.4000      7.9806      2.5137      0.1296      8.2588    139.6095     25.7562
   876.5000      7.9956      2.5330      0.1415      7.0904    138.8073     25.7869
   876.6000      7.9956      2.5554      0.1033      5.7326    135.7471     25.9068
   876.7000      7.9956      2.5775      0.1580      4.3963    132.0138     26.1990
   876.8000      7.9860      2.5967      0.1238      3.2294    128.4884     26.5716
   876.9000      7.9860      2.6085      0.1528      2.5125    124.3361     26.9242
   877.0000      8.0010      2.6074      0.1402      2.5830    119.6878     27.2857
   877.1000      8.0010      2.5945      0.1166      3.3606    114.7071     27.5245
   877.2000      8.0010      2.5774      0.1290      4.4022    109.2329     27.5171
   877.3000      8.0059      2.5633      0.0858      5.2566    105.2858     27.3026
   877.4000      8.0059      2.5608      0.0344      5.4085    105.7783     27.0216
   877.5000      7.9584      2.5708      0.0884      4.7983    110.0491     26.8814
   877.6000      7.9584      2.5839      0.0785      4.0044    113.4327     26.8358
   877.7000      7.9584      2.5938      0.0708      3.4070    113.0110     26.6330
   877.8000      7.9489      2.5926      0.0804      3.4791    109.8636     26.3038
   877.9000      7.9489      2.5707      0.1115      4.8076    108.2231     26.0614
   878.0000      8.0002      2.5407      0.0563      6.6214    109.9217     25.8942
   878.1000      8.0002      2.5304      0.0486      7.2481    111.3016     25.7027
   878.2000      8.0002      2.5432      0.0651      6.4744    111.7963     25.5897
   878.3000      7.9356      2.5620      0.1054      5.3355    113.6011     25.5935
   878.4000      7.9356      2.5803      0.1016      4.2249    113.9972     25.4964
   878.5000      7.9995      2.5984      0.2151      3.1289    112.0206     25.2834
   878.6000      7.9995      2.6097      0.2149      2.4436    111.9658     25.1537
   878.7000      7.9995      2.6190      0.1918      1.8817    116.0064     25.0221
   878.8000      7.9794      2.6330      0.2604      1.0313    121.6196     24.9278
   878.9000      7.9794      2.6465      0.2168      0.2151    124.6542     25.1043
   879.0000      7.9372      2.6565      0.2308     -0.3950    124.3947     25.4867
   879.1000      7.9372      2.6567      0.2361     -0.4075    122.3917     25.8383
   879.2000      7.9372      2.6399      0.2018      0.6142    119.1007     26.0019
   879.3000      7.9668      2.6102      0.1672      2.4129    114.3856     25.9646
   879.4000      7.9668      2.5770      0.1446      4.4272    109.6905     25.7827
   879.5000      7.9921      2.5485      0.0967      6.1505    107.3272     25.3794
   879.6000      7.9921      2.5285      0.0822      7.3628    107.6610     24.7781
   879.7000      7.9921      2.5166      0.0716      8.0856    110.0745     24.1362
   879.8000      8.0054      2.5148      0.1073      8.1935    112.7792     23.5919
   879.9000      8.0054      2.5219      0.1389      7.7640    114.2715     23.3001
   880.0000      8.0139      2.5339      0.1487      7.0379    115.7526     23.2824
   880.1000      8.0139      2.5511      0.1732      5.9941    117.4432     23.3906
   880.2000      8.0139      2.5703      0.1861      4.8279    117.3346     23.5387
   880.3000      7.9882      2.5816      0.1913      4.1439    115.7522     23.7238
   880.4000      7.9882      2.5758      0.1990      4.4967    113.9100     23.8213
   880.5000      7.9641      2.5588      0.1494      5.5246    110.4636     23.9158
   880.6000      7.9641      2.5488      0.0963      6.1309    104.3495     24.1699
   880.7000      7.9641      2.5508      0.1148      6.0109     97.4057     24.4620
   880.8000      7.9997      2.5586      0.0973      5.5393     92.9439     24.6915
   880.9000      7.9997      2.5687      0.1135      4.9269     92.6424     24.9094
   881.0000      7.9998      2.5754      0.1262      4.5189     94.2761     25.0757
   881.1000      7.9998      2.5736      0.0911      4.6278     95.0586     25.0226
   881.2000      7.9998      2.5640      0.0940      5.2109     95.7371     24.6140
   881.3000      7.9779      2.5514      0.0777      5.9743     95.9347     23.8104
   881.4000      7.9779      2.5421      0.1024      6.5423     91.7731     22.9130
   881.5000      8.0297      2.5431      0.0443      6.4785     83.4177     22.3262
   881.6000      8.0297      2.5572      0.1122      5.6260     76.1865     22.0133
   881.7000      8.0297      2.5703      0.1520      4.8274     74.0044     21.7257
   881.8000      8.0511      2.5710      0.1237      4.7886     76.4809     21.2943
   881.9000      8.0511      2.5617      0.1378      5.3544     79.7980     20.7003
   882.0000      7.9854      2.5429      0.1246      6.4891     80.9213     20.0747
   882.1000      7.9854      2.5195      0.1225      7.9092     80.1795     19.4678
   882.2000      7.9854      2.5038      0.0689      8.8581     79.2804     18.9597
   882.3000      7.9721      2.4959      0.1034      9.3404     78.8137     18.7487
   882.4000      7.9721      2.4874      0.0743      9.8543     77.9734     18.8785
   882.5000      7.9840      2.4786      0.0674     10.3888     76.8448     19.0887
   882.6000      7.9840      2.4703      0.0852     10.8916     76.0327     19.1004
   882.7000      7.9840      2.4643      0.0273     11.2562     74.7273     18.9866
   882.8000      8.0295      2.4650      0.0890     11.2128     74.1639     18.8897
   882.9000      8.0295      2.4657      0.0338     11.1719     75.0508     18.7603
   883.0000      8.1019      2.4495      0.0634     12.1524     74.6563     18.5485
   883.1000      8.1019      2.4049      0.0583     14.8567     73.9954     18.1909
