~Version Information
VERS.                      2.0: CWLS Log ASCII Standard - VERSION 2.0
WRAP.                       NO: One line per depth step
~Well Information Block
STRT.FT                -4.7500: 
STOP.FT              1784.7500: 
STEP.FT                 0.2500: 
NULL.                -999.2500: 
COMP.          Pioneer Natural Resources: COMPANY
WELL.          Buckeye 11-13 Tr: WELL
FLD.           Purgatorie River: FIELD
LOC.           211' FNL & 1054' FWL--: LOCATION
STAT.                       CO: State
CNTY.               Las Animas: COUNTY
CTRY. USA : Country
SECT. 13 : Section
TOWN. 33S : Township
RANG. 67W : range
SRVC.          Patterson Wireline: SERVICE COMPANY
DATE.          Wed Mar 16 09:19:21 2005: LOG DATE
API.           05 071 08317 00: UNIQUE WELL ID
~Curve Information Block
DEPT.FT            0 000 00 00: Depth
CCL.                          : Casing Collar Locator
TT3.usec                      : CBL 3' Travel Time
AMP3.mV                       : CBL 3' Amplitude
GR.GAPI                       : Gamma Ray
~Parameter Information Block
~A  Depth       CCL         TT3         AMP3         GR     
# ...
   933.2500      0.0000    761.6831      6.5252     59.8521
   933.5000      0.0000    754.6720      6.4565     60.2537
   933.7500      0.0000    751.7579      6.3622     59.4726
   934.0000      0.0000    753.3019      6.2549     58.1844
   934.2500      0.0000    758.1494      6.1553     56.7416
   934.5000      0.0000    763.9493      6.0811     55.0916
   934.7500      0.0000    768.0444      6.0448     53.2097
   935.0000      0.0000    768.8545      6.0456     51.2066
   935.2500      0.0000    766.8777      6.0574     49.1169
   935.5000      0.0000    764.2311      6.0441     46.9270
   935.7500      0.0000    762.8380      5.9977     44.9890
   936.0000      0.0000    762.9438      5.9515     44.3185
   936.2500      0.0000    763.5491      5.9425     46.1077
   936.5000      0.0000    764.0338      5.9656     50.5199
   936.7500      0.0000    764.8425      5.9787     56.0279
   937.0000      0.0000    766.6327      5.9488     60.3831
   937.2500      0.0000    769.1959      5.8772     62.4932
   937.5000      0.0000    771.3305      5.7832     63.3266
   937.7500      0.0000    771.6400      5.6835     64.9827
   938.0000      0.0000    769.5725      5.5962     68.9408
   938.2500      0.0000    766.0878      5.5448     75.2114
   938.5000      0.0000    763.4143      5.5407     82.9016
   938.7500      0.0000    763.6913      5.5661     91.1751
   939.0000      0.0000    767.3370      5.5907     99.6260
   939.2500      0.0000    772.6149      5.6015    108.1375
   939.5000      0.0000    776.8123      5.6078    116.5607
   939.7500      0.0000    778.1015      5.6180    124.2001
   940.0000      0.0000    776.7639      5.6265    129.5504
   940.2500      0.0000    774.7580      5.6233    130.9674
   940.5000      0.0000    773.8962      5.6054    127.8319
   940.7500      0.0000    774.3294      5.5796    121.0695
   941.0000      0.0000    774.7587      5.5575    112.7199
   941.2500      0.0000    773.9761      5.5426    104.9692
   941.5000      0.0000    772.1823      5.5267     99.3362
   941.7500      0.0000    770.7346      5.5073     96.5114
   942.0000      0.0000    770.5458      5.5021     96.5424
   942.2500      0.0000    771.0826      5.5277     98.9082
   942.5000      0.0000    771.1815      5.5703    102.6867
   942.7500      0.0000    770.4048      5.5953    106.9597
   943.0000      0.0000    769.3277      5.5883    110.9680
   943.2500      0.0000    768.7582      5.5721    114.0345
   943.5000      0.0000    768.8176      5.5798    115.7724
   943.7500      0.0000    768.8520      5.6207    116.3781
   944.0000      0.0000    768.2809      5.6783    116.4772
   944.2500      0.0000    767.1205      5.7381    116.7085
   944.5000      0.0000    765.5509      5.8019    117.4743
   944.7500      0.0000    763.5641      5.8640    118.8020
   945.0000      0.0000    761.3240      5.8856    120.2015
   945.2500      0.0000    759.1302      5.8151    120.6916
   945.5000      0.0000    756.7875      5.6430    119.3562
   945.7500      0.0000    753.8058      5.4304    116.4683
   946.0000      0.0000    750.5388      5.2669    114.0552
   946.2500      0.0000    748.3110      5.1911    114.4530
   946.5000      0.0000    747.8885      5.1671    117.7510
   946.7500      0.0000    748.5324      5.1506    121.2394
   947.0000      0.0000    749.3183      5.1469    121.9810
   947.2500      0.0000    750.8304      5.1790    119.6895
   947.5000      0.0000    754.5529      5.2314    116.7854
   947.7500      2.0000    760.5992      5.2629    115.9652
   948.0000      2.0000    766.8306      5.2634    118.1698
   948.2500      0.0000    770.9194      5.2769    122.5871
   948.5000      0.0000    773.1230      5.3674    127.6564
   948.7500      0.0000    775.9722      5.5582    131.6701
   949.0000      0.0000    780.9074      5.7903    133.1806
   949.2500      0.0000    786.3284      5.9496    131.7406
   949.5000      0.0000    789.5957      5.9634    128.3396
   949.7500      0.0000    789.9462      5.8684    124.8979
   950.0000      0.0000    788.7137      5.7660    123.1567
   950.2500      0.0000    787.5021      5.7215    123.7397
   950.5000      0.0000    786.9208      5.7236    126.0221
   950.7500      0.0000    786.5211      5.7223    128.8158
   951.0000      0.0000    784.9010      5.6828    131.1293
   951.2500      0.0000    779.2687      5.6111    132.6203
   951.5000      0.0000    765.2299      5.5405    133.8526
   951.7500      0.0000    738.6276      5.4946    135.9395
   952.0000      0.0000    699.6118      5.4620    139.5054
   952.2500      0.0000    655.1136      5.4117    144.0043
   952.5000      0.0000    615.5466      5.3334    148.0515
   952.7500      0.0000    588.0013      5.2596    150.0288
   953.0000      0.0000    572.8161      5.2445    148.4924
   953.2500      0.0000    565.9409      5.3177    142.9038
   953.5000      0.0000    563.0672      5.4513    134.4639
   953.7500      0.0000    561.6302      5.5708    125.7946
   954.0000      0.0000    560.6381      5.6039    119.3264
   954.2500      0.0000    559.8911      5.5307    115.8550
   954.5000      0.0000    559.5319      5.4014    114.5495
   954.7500      0.0000    560.0123      5.3061    114.2154
   955.0000      0.0000    562.4022      5.3135    114.3527
   955.2500      0.0000    568.4590      5.4226    114.9102
   955.5000      0.0000    579.8314      5.5678    115.4455
   955.7500      0.0000    596.7930      5.6679    115.1409
   956.0000      0.0000    618.0563      5.6744    113.5651
   956.2500      0.0000    641.9811      5.5948    110.8762
   956.5000      0.0000    667.4255      5.4879    107.4677
   956.7500      0.0000    693.3769      5.4273    104.1132
   957.0000      0.0000    718.3921      5.4562    102.2743
   957.2500      0.0000    740.3892      5.5678    103.4357
   957.5000      0.0000    756.8791      5.7188    107.9566
   957.7500      0.0000    766.2462      5.8533    114.7006
   958.0000      0.0000    769.4627      5.9269    121.5097
   958.2500      0.0000    770.0590      5.9268    125.9240
   958.5000      0.0000    771.6773      5.8722    126.0568
   958.7500      0.0000    775.5113      5.7965    121.3657
   959.0000      0.0000    780.2458      5.7297    112.7748
   959.2500      0.0000    784.0447      5.6885    102.1005
   959.5000      0.0000    786.1578      5.6759     91.0899
   959.7500      0.0000    786.9100      5.6902     80.6431
   960.0000      0.0000    786.9401      5.7370     71.0340
   960.2500      0.0000    786.7405      5.8273     62.8117
   960.5000      0.0000    786.5994      5.9682     56.8991
   960.7500      0.0000    786.6387      6.1556     53.7021
   961.0000      0.0000    786.8094      6.3744     52.7768
   961.2500      0.0000    786.8644      6.6064     53.6256
   961.5000      0.0000    786.3757      6.8456     56.2517
   961.7500      0.0000    784.9831      7.1066     60.5825
   962.0000      0.0000    782.9692      7.4155     65.7577
   962.2500      0.0000    781.7259      7.7926     70.4911
   962.5000      0.0000    783.2459      8.2430     74.1729
   962.7500      0.0000    788.4616      8.7477     77.3308
   963.0000      0.0000    795.8339      9.2455     80.8793
   963.2500      0.0000    801.9580      9.6283     85.0338
   963.5000      0.0000    804.0497      9.7776     89.0887
   963.7500      0.0000    802.0438      9.6334     92.1777
   964.0000      0.0000    798.3352      9.2363     94.1570
   964.2500      0.0000    795.7748      8.7048     95.7238
   964.5000      0.0000    796.0873      8.1671     97.7097
   964.7500      0.0000    799.6185      7.7091    100.4902
   965.0000      0.0000    805.6199      7.3614    104.2127
   965.2500      0.0000    812.5291      7.1096    109.2069
   965.5000      0.0000    818.5400      6.9145    115.7594
   965.7500      0.0000    822.4299      6.7361    123.7084
   966.0000      0.0000    823.8787      6.5500    132.6256
   966.2500      0.0000    823.1255      6.3474    142.1456
   966.5000      0.0000    820.6359      6.1255    151.6545
