~Version Information
VERS.                      2.0: CWLS Log ASCII Standard - VERSION 2.0
WRAP.                       NO: One line per depth step
~Well Information Block
STRT.FT               -12.5000: 
STOP.FT              2742.5000: 
STEP.FT                 0.2500: 
NULL.                -999.2500: 
COMP.          Pioneer Natural Resources: COMPANY
WELL.            Rangely 22-28: WELL
FLD.           Purgatorie River: FIELD
LOC.           720' FSL & 1036' FEL--: LOCATION
PROV.                       CO: PROVINCE
CNTY.               Las Animas: COUNTRY
SRVC.                         : SERVICE COMPANY
DATE.          Wed Nov 10 08:59:10 2004: LOG DATE
UWI.                          : UNIQUE WELL ID
~Curve Information Block
DEPT.FT            0 000 00 00: Depth
GR.GAPI                       : Gamma Ray
CCL.                          : Casing Collar Locator
TT3.usec                      : CBL 3' Travel Time
AMP3.mV                       : CBL 3' Amplitude
~Parameter Information Block
~A  Depth        GR         CCL         TT3         AMP3    
# ...
   724.5000     72.8253      0.0000    345.3885     23.2139
   724.7500     73.3660      0.0000    321.3701     23.2994
   725.0000     72.5585      0.0000    311.1761     23.2741
   725.2500     71.0122      0.0000    311.4160     23.1819
   725.5000     70.6284      0.0000    322.6912     23.0555
   725.7500     73.3367      0.0000    350.0497     22.9207
   726.0000     79.4233      0.0000    395.9044     22.8046
   726.2500     87.5161      0.0000    449.6915     22.7460
   726.5000     96.2558      0.0000    486.9144     22.7864
   726.7500    105.2459      0.0000    485.8176     22.9264
   727.0000    114.1279      0.0000    447.1411     23.0990
   727.2500    121.5183      0.0000    393.4901     23.2170
   727.5000    125.5769      0.0000    349.4903     23.2408
   727.7500    125.6432      0.0000    326.9383     23.1805
   728.0000    123.0578      0.0000    327.7799     23.0439
   728.2500    120.1749      0.0000    353.9863     22.8066
   728.5000    118.4745      0.0000    409.2685     22.4259
   728.7500    117.6805      0.0000    490.9833     21.8737
   729.0000    116.6369      0.0000    583.7976     21.1737
   729.2500    114.6600      0.0000    665.7345     20.4147
   729.5000    111.9559      0.0000    722.0049     19.7107
   729.7500    109.3768      0.0000    751.9788     19.1370
   730.0000    108.1217      0.0000    763.8895     18.7095
   730.2500    109.0553      0.0000    765.7025     18.4171
   730.5000    111.6176      0.0000    760.5411     18.2546
   730.7500    113.6640      0.0000    748.0302     18.2100
   731.0000    113.1171      0.0000    729.2465     18.2380
   731.2500    109.9040      0.0000    710.9625     18.2760
   731.5000    105.9394      0.0000    703.4246     18.2897
   731.7500    103.2497      0.0000    711.7444     18.2882
   732.0000    102.3094      0.0000    730.7747     18.2916
   732.2500    102.1853      0.0000    750.2500     18.3003
   732.5000    102.0880      0.0000    763.4828     18.2973
   732.7500    102.3707      0.0000    769.9637     18.2666
   733.0000    103.7145      0.0000    772.0541     18.2007
   733.2500    105.7254      0.0000    771.6548     18.0961
   733.5000    106.9231      0.0000    769.5270     17.9388
   733.7500    106.0358      0.0000    766.1072     17.6914
   734.0000    103.0374      0.0000    762.2249     17.3078
   734.2500     98.9629      0.0000    759.3233     16.7793
   734.5000     94.8220      0.0000    759.2271     16.1551
   734.7500     90.8758      0.0000    763.4227     15.4967
   735.0000     87.1093      0.0000    771.8438     14.8213
   735.2500     84.0542      0.0000    782.1335     14.1121
   735.5000     82.5863      0.0000    790.4079     13.3801
   735.7500     82.9956      0.0000    793.1063     12.6950
   736.0000     84.8502      0.0000    788.7514     12.1468
   736.2500     87.7846      0.0000    778.9494     11.7864
   736.5000     91.8468      0.0000    768.1213     11.6018
   736.7500     97.0407      0.0000    761.0272     11.5370
   737.0000    103.0204      0.0000    759.0186     11.5221
   737.2500    109.3951      0.0000    758.9916     11.4938
   737.5000    115.9944      0.0000    756.7953     11.4136
   737.7500    122.4339      0.0000    751.3590     11.2863
   738.0000    127.4638      0.0000    745.3421     11.1612
   738.2500    129.2965      0.0000    742.4111     11.0983
   738.5000    127.0214      0.0000    744.0315     11.1198
   738.7500    121.5596      0.0000    748.4744     11.1996
   739.0000    114.8649      0.0000    752.7355     11.2974
   739.2500    108.2994      0.0000    755.3408     11.3911
   739.5000    102.2654      0.0000    757.1029     11.4804
   739.7500     97.2669      0.0000    759.3660     11.5749
   740.0000     94.3104      0.0000    762.2867     11.6859
   740.2500     93.6609      0.0000    765.0225     11.8226
   740.5000     93.8232      0.0000    766.9283     11.9926
   740.7500     92.6454      0.0000    768.0619     12.2019
   741.0000     89.4903      0.0000    768.8102     12.4453
   741.2500     85.8688      0.0000    769.4553     12.6974
   741.5000     83.6639      0.0000    770.0888     12.9279
   741.7500     82.8349      0.0000    770.7159     13.1295
   742.0000     81.3152      0.0000    771.3181     13.3200
   742.2500     77.5057      0.0000    771.8512     13.5130
   742.5000     72.4086      0.0000    772.2423     13.6973
   742.7500     68.6765      0.0000    772.4272     13.8512
   743.0000     67.8219      0.0000    772.4022     13.9667
   743.2500     68.9156      0.0000    772.2544     14.0513
   743.5000     69.8264      0.0000    772.1245     14.1111
   743.7500     69.2343      0.0000    772.1143     14.1437
   744.0000     67.4860      0.0000    772.2355     14.1504
   744.2500     65.8842      0.0000    772.4418     14.1498
   744.5000     65.2007      0.0000    772.6745     14.1748
   744.7500     64.7476      0.0000    772.8693     14.2477
   745.0000     63.0772      0.0000    772.9692     14.3544
   745.2500     59.6835      0.0000    772.9663     14.4494
   745.5000     55.6554      0.0000    772.9205     14.4971
   745.7500     52.4590      0.0000    772.9197     14.5085
   746.0000     50.4578      0.0000    773.0176     14.5277
   746.2500     48.9374      0.0000    773.1959     14.5793
   746.5000     47.2930      0.0000    773.3699     14.6375
   746.7500     45.8192      0.0000    773.4323     14.6544
   747.0000     45.5333      0.0000    773.3221     14.6139
   747.2500     47.7084      0.0000    773.0574     14.5476
   747.5000     53.5595      0.0000    772.6918     14.4969
   747.7500     63.7345      0.0000    772.2578     14.4678
   748.0000     77.6778      0.0000    771.7750     14.4314
   748.2500     93.5086      0.0000    771.3023     14.3697
   748.5000    108.6044      0.0000    770.9436     14.3081
   748.7500    120.7636      0.0000    770.7838     14.2909
   749.0000    129.5815      0.0000    770.8070     14.3253
   749.2500    136.7234      0.0000    770.8815     14.3544
   749.5000    144.2249      0.0000    770.8423     14.2910
   749.7500    152.3685      0.0000    770.6068     14.0830
   750.0000    159.6348      0.0000    770.2292     13.7526
   750.2500    164.6519      0.0000    769.8511     13.3759
   750.5000    167.6489      0.0000    769.5923     13.0240
   750.7500    169.9082      0.0000    769.4760     12.7272
   751.0000    172.2724      0.0000    769.4412     12.4887
   751.2500    174.5404      0.0000    769.4190     12.3174
   751.5000    176.2584      0.0000    769.3984     12.2313
   751.7500    177.5619      0.0000    769.4201     12.2293
   752.0000    178.7496      0.0000    769.5122     12.2682
   752.2500    179.2903      0.0000    769.6537     12.2740
   752.5000    177.9057      0.0000    769.8036     12.1858
   752.7500    174.0733      0.0000    769.9296     12.0016
   753.0000    169.1733      0.0000    769.9899     11.7822
   753.2500    165.3883      0.0000    769.9219     11.6058
   753.5000    163.2342      0.0000    769.6819     11.5163
   753.7500    160.7458      0.0000    769.2902     11.5009
   754.0000    155.5045      0.0000    768.8201     11.5079
   754.2500    147.2961      0.0000    768.3512     11.4879
   754.5000    138.7376      0.0000    767.9366     11.4308
   754.7500    133.4844      0.0000    767.5938     11.3666
   755.0000    133.6105      0.0000    767.3120     11.3280
   755.2500    138.2474      0.0000    767.0455     11.3152
   755.5000    144.6280      0.0000    766.6744     11.2944
   755.7500    150.3198      0.0000    765.9161     11.2260
   756.0000    154.1555      0.0000    764.3132     11.0908
   756.2500    155.5361      0.0000    761.4800     10.9006
   756.5000    154.0619      0.0000    757.5234     10.6939
   756.7500    150.2063      0.0000    753.2579     10.5146
   757.0000    145.4088      0.0000    749.9799     10.3746
   757.2500    140.9305      0.0000    748.9216     10.2199
   757.5000    137.0621      0.0000    750.5908      9.9524
   757.7500    133.7284      0.0000    754.6165      9.5191
