~Version Information
VERS.                      2.0: CWLS Log ASCII Standard - VERSION 2.0
WRAP.                       NO: One line per depth step
~Well Information Block
STRT.FT               260.0000: 
STOP.FT              2610.0000: 
STEP.FT                 0.1000: 
NULL.                -999.2500: 
COMP.          Pioneer Natural Resources: COMPANY
WELL.           Costello 44-24: WELL
FLD.           Purgatoire River: FIELD
LOC.           327' FSL & 378' FEL: LOCATION
PROV.                 Colorado: PROVINCE
CNTY.               Las Animas: COUNTRY
SRVC.                Patterson: SERVICE COMPANY
DATE.          Mon Jul 11 10:42:19 2005: LOG DATE
UWI.           05 071 08413 00: UNIQUE WELL ID
~Curve Information Block
DEPT.FT            0 000 00 00: Depth
DCAL.in                       : CDL Caliper
RHOB.g/cc                     : CDL Bulk Density
RHOC.g/cc                     : CDL Density Correction
DPOR.pu                       : CDL Density Porosity
GR.GAPI                       : Gamma Ray
NPOR.pu                       : Neutron Porosity
~Parameter Information Block
~A  Depth       DCAL        RHOB        RHOC        DPOR         GR         NPOR    
# ...
  1191.2000      8.4510      2.2975      0.0848     21.3645    140.1967     23.0797
  1191.3000      8.4607      2.3507      0.2120     18.1399    139.4917     23.4010
  1191.4000      8.4607      2.4072      0.2687     14.7144    133.2183     23.2363
  1191.5000      8.4683      2.4185      0.2342     14.0310    128.7898     22.6809
  1191.6000      8.4683      2.3764      0.1700     16.5830    132.4164     22.1802
  1191.7000      8.4683      2.3137      0.1028     20.3790    137.6431     22.2381
  1191.8000      8.4646      2.2681      0.0980     23.1476    136.7087     22.6560
  1191.9000      8.4646      2.2434      0.1238     24.6446    132.6886     22.8997
  1192.0000      8.4535      2.2287      0.1118     25.5350    132.0384     22.6010
  1192.1000      8.4535      2.2287      0.1007     25.5351    136.2710     21.7115
  1192.2000      8.4535      2.2478      0.1136     24.3747    140.1032     20.8662
  1192.3000      8.4240      2.2783      0.1444     22.5243    142.1305     20.4889
  1192.4000      8.4240      2.3239      0.1489     19.7658    145.8406     20.4359
  1192.5000      8.4214      2.3986      0.2620     15.2366    150.6795     20.6281
  1192.6000      8.4214      2.4917      0.4174      9.5947    154.7941     21.0237
  1192.7000      8.4214      2.5644      0.4628      5.1849    156.5692     21.3788
  1192.8000      8.5372      2.5976      0.4352      3.1732    153.6805     21.5738
  1192.9000      8.5372      2.6049      0.3568      2.7354    147.7793     21.6127
  1193.0000      8.4756      2.6000      0.3090      3.0310    143.2400     21.4347
  1193.1000      8.4756      2.5873      0.2125      3.7996    142.0780     21.2649
  1193.2000      8.4756      2.5687      0.2581      4.9269    144.5141     21.5041
  1193.3000      8.4366      2.5394      0.2014      6.7017    147.9591     22.0049
  1193.4000      8.4366      2.5030      0.1662      8.9062    148.3664     22.0641
  1193.5000      8.4753      2.4708      0.1406     10.8609    144.9488     21.7618
  1193.6000      8.4753      2.4505      0.0617     12.0899    144.1097     21.5701
  1193.7000      8.4753      2.4460      0.0627     12.3645    151.6111     21.2097
  1193.8000      8.4747      2.4494      0.0632     12.1574    162.0329     20.5867
  1193.9000      8.4747      2.4489      0.0811     12.1850    167.0934     20.1306
  1194.0000      8.5311      2.4390      0.1025     12.7868    166.8008     20.1474
  1194.1000      8.5311      2.4257      0.0714     13.5932    166.5973     20.5752
  1194.2000      8.5311      2.4189      0.0442     14.0061    169.0986     21.0716
  1194.3000      8.5171      2.4063      0.0960     14.7683    171.4972     21.4946
  1194.4000      8.5171      2.3647      0.0983     17.2901    170.9123     21.9023
  1194.5000      8.4987      2.3004      0.0488     21.1864    166.8750     22.0681
  1194.6000      8.4987      2.2456      0.0029     24.5096    159.3873     22.0973
  1194.7000      8.4987      2.2234     -0.0058     25.8561    152.7844     22.4299
  1194.8000      8.5421      2.2362      0.0604     25.0765    152.5433     22.7110
  1194.9000      8.5421      2.2689      0.0922     23.0946    156.6026     22.5170
  1195.0000      8.5455      2.2976      0.1197     21.3571    160.6097     22.3761
  1195.1000      8.5455      2.3057      0.1828     20.8660    163.8042     22.5569
  1195.2000      8.5455      2.3053      0.1478     20.8904    164.6874     22.7003
  1195.3000      8.5069      2.3256      0.2055     19.6602    164.9733     23.0440
  1195.4000      8.5069      2.3667      0.2631     17.1708    165.9814     23.9789
  1195.5000      8.5105      2.4001      0.2865     15.1434    164.0082     25.0010
  1195.6000      8.5105      2.4066      0.3091     14.7495    162.3191     25.3737
  1195.7000      8.5105      2.3988      0.2196     15.2234    167.1440     25.2957
  1195.8000      8.4244      2.4136      0.1723     14.3243    173.3451     25.4927
  1195.9000      8.4244      2.4630      0.2200     11.3344    173.7327     25.9971
  1196.0000      8.4013      2.5103      0.2847      8.4679    171.2100     26.4294
  1196.1000      8.4013      2.5321      0.2261      7.1476    170.1098     26.8459
  1196.2000      8.4013      2.5549      0.1969      5.7615    166.6269     27.5344
  1196.3000      8.3758      2.5818      0.2655      4.1308    156.7964     28.4011
  1196.4000      8.3758      2.5745      0.1938      4.5758    145.1648     29.1325
  1196.5000      8.3208      2.5401      0.1204      6.6583    139.4176     29.5890
  1196.6000      8.3208      2.5294      0.0562      7.3094    140.1641     29.7502
  1196.7000      8.3208      2.5591      0.0905      5.5085    138.5276     29.8210
  1196.8000      8.3192      2.6035      0.0534      2.8194    129.7254     29.9474
  1196.9000      8.3192      2.6377      0.0595      0.7458    120.6531     29.8296
  1197.0000      8.2641      2.6473      0.0747      0.1641    118.7403     29.4479
  1197.1000      8.2641      2.6287      0.0455      1.2912    122.5872     29.2599
  1197.2000      8.2641      2.6027      0.0156      2.8673    125.7031     29.2137
  1197.3000      8.2104      2.5935      0.0290      3.4268    125.3345     28.6223
  1197.4000      8.2104      2.5990      0.0491      3.0907    124.5688     27.3548
  1197.5000      8.1941      2.6020      0.0470      2.9103    124.1086     26.0883
  1197.6000      8.1941      2.5990      0.0048      3.0927    121.4531     25.2257
  1197.7000      8.1941      2.5968      0.0127      3.2272    118.4019     24.6033
  1197.8000      8.1883      2.5924      0.0380      3.4918    118.6059     24.2838
  1197.9000      8.1883      2.5760      0.0429      4.4853    119.6255     24.5326
  1198.0000      8.1687      2.5533     -0.0064      5.8623    118.0504     25.0344
  1198.1000      8.1687      2.5437      0.0139      6.4424    118.0060     25.1571
  1198.2000      8.1687      2.5476      0.0313      6.2043    121.9493     24.6789
  1198.3000      8.1616      2.5527      0.0270      5.8951    123.1409     24.1274
  1198.4000      8.1616      2.5624     -0.0206      5.3067    119.8634     24.2158
  1198.5000      8.1618      2.5809      0.0214      4.1856    118.1139     25.0380
  1198.6000      8.1618      2.5960      0.0448      3.2703    118.4277     26.0845
  1198.7000      8.1618      2.6071      0.0241      2.5989    119.3083     26.7319
  1198.8000      8.1614      2.6247      0.0586      1.5320    120.9167     26.8785
  1198.9000      8.1614      2.6416      0.0710      0.5106    120.4545     26.9798
  1199.0000      8.1611      2.6520      0.0442     -0.1206    117.1683     27.3875
  1199.1000      8.1611      2.6701      0.0947     -1.2197    113.4850     27.9301
  1199.2000      8.1611      2.7039      0.0906     -3.2649    110.4452     28.0858
  1199.3000      8.1624      2.7403      0.0969     -5.4741    107.8656     27.7262
  1199.4000      8.1624      2.7697      0.0653     -7.2548    105.3193     27.3761
  1199.5000      8.1579      2.7972      0.0799     -8.9228    104.5741     27.4135
  1199.6000      8.1579      2.8194      0.0918    -10.2662    107.0954     27.5871
  1199.7000      8.1579      2.8142      0.0934     -9.9495    110.0136     27.5039
  1199.8000      8.1543      2.7760      0.0281     -7.6391    108.8174     27.1684
  1199.9000      8.1543      2.7249      0.0558     -4.5364    102.6856     26.9842
  1200.0000      8.1610      2.6762     -0.0667     -1.5903     96.0233     27.1630
  1200.1000      8.1610      2.6436     -0.0470      0.3864     93.0025     27.4100
  1200.2000      8.1610      2.6186     -0.0383      1.9011     94.8270     27.2147
  1200.3000      8.1713      2.5825     -0.0436      4.0907     98.4913     26.3164
  1200.4000      8.1713      2.5512     -0.0589      5.9903     97.3397     25.0624
  1200.5000      8.1595      2.5450      0.0039      6.3644     91.4681     23.8334
  1200.6000      8.1595      2.5509      0.0432      6.0086     87.8418     22.4708
  1200.7000      8.1595      2.5485      0.0476      6.1510     86.5842     21.0396
