~Version Information
VERS.                      2.0: CWLS Log ASCII Standard - VERSION 2.0
WRAP.                       NO: One line per depth step
~Well Information Block
STRT.FT               481.5000: 
STOP.FT              2033.5000: 
STEP.FT                 0.2500: 
NULL.                -999.2500: 
COMP.          Petrogulf Corporation: COMPANY
WELL.            Montoya 7-12R: WELL
FLD.           Purgatorie River: FIELD
LOC.           1769' FNL & 658' FWL: LOCATION
CNTY.               Las Animas: COUNTY
SRVC.                         : SERVICE COMPANY
DATE.          Sat Nov 20 02:31:05 2004: LOG DATE
UWI.           05 071 08240 00: UNIQUE WELL ID
STAT.                 Colorado: STATE
~Curve Information Block
DEPT.FT            0 000 00 00: Depth
SP.mV                         : DIL Spontaneous Potential
RILD.Ohm-m                    : DIL Deep Resistivity
RILM.Ohm-m                    : DIL Medium Resistivity
RLL3.Ohm-m                    : DIL Shallow Resistivity
GR.GAPI                       : Gamma Ray
~Parameter Information Block
~A  Depth        SP         RILD        RILM        RLL3         GR     
# ...
   705.5000   2000.0000     23.7626     23.4015   2000.0000    134.0545
   705.7500   2000.0000     25.0738     25.4166   2000.0000    128.7260
   706.0000   2000.0000     26.4678     27.7257   2000.0000    121.4596
   706.2500   2000.0000     27.9170     30.3370   2000.0000    117.4050
   706.5000   2000.0000     29.3962     33.2434   2000.0000    112.0948
   706.7500   2000.0000     30.8928     36.4173   2000.0000    108.4084
   707.0000   2000.0000     32.4130     39.8039   2000.0000    101.4923
   707.2500   2000.0000     33.9839     43.3222   2000.0000     95.5980
   707.5000   2000.0000     35.6498     46.8632   2000.0000     85.1269
   707.7500   2000.0000     37.4646     50.2961   2000.0000     77.7361
   708.0000   2000.0000     39.4810     53.4802   2000.0000     67.4892
   708.2500   2000.0000     41.7401     56.2796   2000.0000     61.8424
   708.5000   2000.0000     44.2626     58.5772   2000.0000     55.5580
   708.7500   2000.0000     47.0419     60.3019   2000.0000     52.7909
   709.0000   2000.0000     50.0468     61.4389   2000.0000     50.4430
   709.2500   2000.0000     53.2151     62.0347   2000.0000     49.7073
   709.5000   2000.0000     56.4578     62.1907   2000.0000     48.9625
   709.7500   2000.0000     59.6511     62.0390   2000.0000     48.2386
   710.0000   2000.0000     62.6335     61.7210   2000.0000     46.5033
   710.2500   2000.0000     65.1998     61.3603   2000.0000     45.0254
   710.5000   2000.0000     67.1249     61.0461   2000.0000     42.6405
   710.7500   2000.0000     68.2116     60.8273   2000.0000     41.0485
   711.0000   2000.0000     68.3596     60.7180   2000.0000     38.8442
   711.2500   2000.0000     67.6215     60.6983   2000.0000     37.6674
   711.5000   2000.0000     66.2059     60.7326   2000.0000     36.5150
   711.7500   2000.0000     64.4166     60.7796   2000.0000     36.0417
   712.0000   2000.0000     62.5631     60.8142   2000.0000     35.2760
   712.2500   2000.0000     60.8926     60.8353   2000.0000     34.4383
   712.5000   2000.0000     59.5489     60.8721   2000.0000     32.5767
   712.7500   2000.0000     58.5761     60.9729   2000.0000     31.2129
   713.0000   2000.0000     57.9296     61.1870   2000.0000     29.8972
   713.2500   2000.0000     57.5048     61.5438   2000.0000     29.9953
   713.5000   2000.0000     57.1667     62.0300   2000.0000     31.8260
   713.7500   2000.0000     56.7864     62.5810   2000.0000     33.8568
   714.0000   2000.0000     56.2746     63.0852   2000.0000     37.1692
   714.2500   2000.0000     55.5989     63.4081   2000.0000     39.1129
   714.5000   2000.0000     54.7862     63.4340   2000.0000     41.5265
   714.7500   2000.0000     53.9013     63.1097   2000.0000     42.9965
   715.0000   2000.0000     53.0186     62.4741   2000.0000     45.0892
   715.2500   2000.0000     52.2034     61.6483   2000.0000     46.1688
   715.5000   2000.0000     51.4984     60.8111   2000.0000     46.8564
   715.7500   2000.0000     50.9215     60.1467   2000.0000     46.7678
   716.0000   2000.0000     50.4770     59.8142   2000.0000     46.6462
   716.2500   2000.0000     50.1638     59.9254   2000.0000     47.1479
   716.5000   2000.0000     49.9829     60.5338   2000.0000     49.1366
   716.7500   2000.0000     49.9455     61.6383   2000.0000     50.9894
   717.0000   2000.0000     50.0659     63.1807   2000.0000     53.6769
   717.2500   2000.0000     50.3622     65.0521   2000.0000     55.1355
   717.5000   2000.0000     50.8448     67.1016   2000.0000     57.1097
   717.7500   2000.0000     51.5095     69.1665   2000.0000     58.5455
   718.0000   2000.0000     52.3326     71.0959   2000.0000     60.5795
   718.2500   2000.0000     53.2669     72.8012   2000.0000     61.2814
   718.5000   2000.0000     54.2509     74.2664   2000.0000     60.8378
   718.7500   2000.0000     55.2208     75.5523   2000.0000     59.9377
   719.0000   2000.0000     56.1296     76.7641   2000.0000     58.9007
   719.2500   2000.0000     56.9619     78.0072   2000.0000     58.7635
   719.5000   2000.0000     57.7423     79.3413   2000.0000     58.9380
   719.7500   2000.0000     58.5271     80.7457   2000.0000     58.8276
   720.0000   2000.0000     59.3859     82.0978   2000.0000     58.0681
   720.2500   2000.0000     60.3793     83.1783   2000.0000     57.4444
   720.5000   2000.0000     61.5313     83.7300   2000.0000     56.8964
   720.7500   2000.0000     62.8117     83.5265   2000.0000     56.7968
   721.0000   2000.0000     64.1316     82.4665   2000.0000     56.5357
   721.2500   2000.0000     65.3432     80.6130   2000.0000     56.0310
   721.5000   2000.0000     66.2652     78.1749   2000.0000     54.8913
   721.7500   2000.0000     66.7300     75.4329   2000.0000     54.1484
   722.0000   2000.0000     66.6102     72.6541   2000.0000     53.3299
   722.2500   2000.0000     65.8627     70.0290   2000.0000     52.9405
   722.5000   2000.0000     64.5165     67.6518   2000.0000     52.4541
   722.7500   2000.0000     62.6558     65.5233   2000.0000     52.1741
   723.0000   2000.0000     60.3756     63.5666   2000.0000     51.8326
   723.2500   2000.0000     57.7594     61.6521   2000.0000     51.7201
   723.5000   2000.0000     54.8736     59.6283   2000.0000     52.0814
   723.7500   2000.0000     51.7722     57.3485   2000.0000     52.9473
   724.0000   2000.0000     48.5171     54.7094   2000.0000     55.1429
   724.2500   2000.0000     45.1870     51.6718   2000.0000     56.6925
   724.5000   2000.0000     41.8741     48.2753   2000.0000     58.1099
   724.7500   2000.0000     38.6744     44.6251   2000.0000     58.4104
   725.0000   2000.0000     35.6723     40.8689   2000.0000     59.2090
   725.2500   2000.0000     32.9293     37.1614   2000.0000     61.1392
   725.5000   2000.0000     30.4828     33.6392   2000.0000     67.7033
   725.7500   2000.0000     28.3456     30.4041   2000.0000     74.7939
   726.0000   2000.0000     26.5137     27.5181   2000.0000     88.6246
   726.2500   2000.0000     24.9712     25.0077   2000.0000     98.8793
   726.5000   2000.0000     23.6942     22.8727   2000.0000    113.8112
   726.7500   2000.0000     22.6546     21.0955   2000.0000    122.6975
   727.0000   2000.0000     21.8216     19.6486   2000.0000    134.0018
   727.2500   2000.0000     21.1626     18.5008   2000.0000    140.2346
   727.5000   2000.0000     20.6455     17.6210   2000.0000    147.8148
   727.7500   2000.0000     20.2394     16.9799   2000.0000    151.8408
   728.0000   2000.0000     19.9176     16.5512   2000.0000    156.5350
   728.2500   2000.0000     19.6595     16.3118   2000.0000    158.6056
   728.5000   2000.0000     19.4524     16.2412   2000.0000    159.2865
   728.7500   2000.0000     19.2921     16.3207   2000.0000    157.6726
   729.0000   2000.0000     19.1817     16.5328   2000.0000    152.1272
   729.2500   2000.0000     19.1293     16.8591   2000.0000    146.7710
   729.5000   2000.0000     19.1451     17.2800   2000.0000    137.2209
   729.7500   2000.0000     19.2382     17.7728   2000.0000    130.3529
   730.0000   2000.0000     19.4139     18.3117   2000.0000    120.0514
   730.2500   2000.0000     19.6719     18.8690   2000.0000    113.6669
   730.5000   2000.0000     20.0056     19.4172   2000.0000    105.8739
   730.7500   2000.0000     20.4004     19.9336   2000.0000    102.5575
   731.0000   2000.0000     20.8348     20.4047   2000.0000    101.4078
   731.2500   2000.0000     21.2810     20.8279   2000.0000    103.5335
   731.5000   2000.0000     21.7060     21.2110   2000.0000    110.9161
   731.7500   2000.0000     22.0752     21.5669   2000.0000    117.8789
   732.0000   2000.0000     22.3556     21.9073   2000.0000    128.9032
   732.2500   2000.0000     22.5207     22.2356   2000.0000    134.9378
   732.5000   2000.0000     22.5544     22.5422   2000.0000    139.8129
   732.7500   2000.0000     22.4541     22.8031   2000.0000    139.8595
   733.0000   2000.0000     22.2312     22.9844   2000.0000    136.1905
   733.2500   2000.0000     21.9095     23.0485   2000.0000    132.5445
