~Version Information
VERS.                      2.0: CWLS Log ASCII Standard - VERSION 2.0
WRAP.                       NO: One line per depth step
~Well Information Block
STRT.FT                 5.0000: 
STOP.FT              1874.2500: 
STEP.FT                 0.2500: 
NULL.                -999.2500: 
COMP.          Pioneer Natural Resources: COMPANY
WELL.           Stampede 42-18: WELL
FLD.           Purgatoire River: FIELD
LOC.           2479' FNL & 160' FEL--: LOCATION
CNTY.               Las Animas: COUNTY
SRVC.          Superior Well Services: SERVICE COMPANY
DATE.          Mon Jun 25 12:19:16 2007: LOG DATE
UWI.                          : UNIQUE WELL ID
STAT.                 Colorado: STATE
~Curve Information Block
DEPT.FT            0 000 00 00: Depth
GR.GAPI                       : Gamma Ray
CCL.                          : Casing Collar Locator
TT3.usec                      : CBL 3' Travel Time
AMP3.mV                       : CBL 3' Amplitude
AMP5.mV                       : CBL 5' Amplitude
~Parameter Information Block
~A  Depth        GR         CCL         TT3         AMP3        AMP5    
# ...
  1601.0000    108.0139      0.0000    625.2094      5.0121      2.5599
  1601.2500    112.0805      0.0000    641.7695      5.0378      2.5446
  1601.5000    116.7394      0.0000    646.0552      5.0429      2.5301
  1601.7500    119.8984      0.0000    640.9072      5.0303      2.5221
  1602.0000    120.4768      0.0000    633.2055      5.0017      2.5280
  1602.2500    119.3284      0.0000    629.5860      4.9566      2.5479
  1602.5000    118.1447      0.0000    632.4944      4.8985      2.5705
  1602.7500    117.5252      0.0000    639.6873      4.8383      2.5803
  1603.0000    116.6027      0.0000    646.9328      4.7896      2.5710
  1603.2500    114.7376      0.0000    651.7101      4.7617      2.5516
  1603.5000    112.9749      0.0000    654.7670      4.7568      2.5369
  1603.7500    113.1487      0.0000    658.0861      4.7715      2.5335
  1604.0000    115.6412      0.0000    661.6848      4.7992      2.5374
  1604.2500    118.5722      0.0000    663.1719      4.8307      2.5417
  1604.5000    119.4550      0.0000    660.4704      4.8576      2.5461
  1604.7500    117.5419      0.0000    654.4580      4.8777      2.5556
  1605.0000    114.3058      0.0000    648.6125      4.8955      2.5727
  1605.2500    111.6459      0.0000    645.8824      4.9129      2.5915
  1605.5000    110.0779      0.0000    645.9498      4.9194      2.6003
  1605.7500    108.9309      0.0000    646.1763      4.9001      2.5931
  1606.0000    107.9227      0.0000    645.3439      4.8572      2.5783
  1606.2500    107.9393      0.0000    645.3885      4.8220      2.5717
  1606.5000    109.9710      0.0000    648.7715      4.8384      2.5806
  1606.7500    113.5122      0.0000    655.0371      4.9252      2.5962
  1607.0000    116.4647      0.0000    660.7571      5.0518      2.6027
  1607.2500    116.6786      0.0000    662.3503      5.1528      2.5934
  1607.5000    113.4094      0.0000    658.3261      5.1714      2.5786
  1607.7500    107.5250      0.0000    649.4171      5.0926      2.5776
  1608.0000    100.7872      0.0000    637.5255      4.9421      2.6025
  1608.2500     94.9247      0.0000    624.3055      4.7694      2.6481
  1608.5000     90.9592      0.0000    609.4998      4.6275      2.6959
  1608.7500     89.1585      0.0000    589.9951      4.5491      2.7294
  1609.0000     89.4321      0.0000    561.4357      4.5275      2.7454
  1609.2500     91.6142      0.0000    522.6292      4.5311      2.7521
  1609.5000     95.4822      0.0000    478.8774      4.5393      2.7571
  1609.7500    100.6888      0.0000    439.5630      4.5528      2.7599
  1610.0000    106.6182      0.5646    411.6176      4.5761      2.7551
  1610.2500    112.3671      1.9806    395.7734      4.6036      2.7426
  1610.5000    117.0843      0.5890    388.5597      4.6234      2.7295
  1610.7500    120.2731      0.0000    386.3187      4.6289      2.7238
  1611.0000    121.5617      0.0000    387.0399      4.6320      2.7260
  1611.2500    120.5308      0.0000    389.6225      4.6589      2.7291
  1611.5000    117.4388      0.0000    392.5804      4.7250      2.7256
  1611.7500    113.8495      0.0000    394.0063      4.8133      2.7119
  1612.0000    111.5797      0.0000    392.8416      4.8902      2.6868
  1612.2500    110.9984      0.0000    389.7462      4.9380      2.6481
  1612.5000    111.0211      0.0000    386.3193      4.9618      2.5921
  1612.7500    110.6624      0.0000    383.6555      4.9712      2.5192
  1613.0000    109.8342      0.0000    381.8043      4.9666      2.4395
  1613.2500    108.7138      0.0000    380.2443      4.9455      2.3709
  1613.5000    107.3752      0.0000    378.4846      4.9120      2.3280
  1613.7500    106.4193      0.0000    376.2956      4.8783      2.3146
  1614.0000    107.0017      0.0000    373.6765      4.8563      2.3233
  1614.2500    109.4190      0.0000    370.7738      4.8493      2.3420
  1614.5000    111.9782      0.0000    367.8169      4.8530      2.3604
  1614.7500    112.0371      0.0000    365.0698      4.8609      2.3746
  1615.0000    108.4112      0.0000    362.7679      4.8684      2.3857
  1615.2500    102.5836      0.0000    361.0818      4.8727      2.3965
  1615.5000     97.5501      0.0000    360.1494      4.8720      2.4091
  1615.7500     95.6189      0.0000    360.3294      4.8662      2.4244
  1616.0000     97.1903      0.0000    362.6313      4.8590      2.4435
  1616.2500    101.0820      0.0000    369.0151      4.8591      2.4676
  1616.5000    105.5358      0.0000    381.5823      4.8757      2.4955
  1616.7500    109.1337      0.0000    399.9771      4.9103      2.5205
  1617.0000    111.4131      0.0000    419.1567      4.9514      2.5314
  1617.2500    112.8570      0.0000    431.9200      4.9817      2.5206
  1617.5000    114.0432      0.0000    436.2246      4.9922      2.4925
  1617.7500    114.9357      0.0000    439.2806      4.9900      2.4639
  1618.0000    115.3689      0.0000    452.1181      4.9924      2.4524
  1618.2500    115.8612      0.0000    479.7050      5.0130      2.4627
  1618.5000    117.2786      0.0000    516.7843      5.0503      2.4861
  1618.7500    119.7139      0.0000    552.3088      5.0893      2.5111
  1619.0000    122.0045      0.0000    576.2500      5.1135      2.5334
  1619.2500    122.4050      0.0000    582.3510      5.1161      2.5553
  1619.5000    119.8988      0.0000    567.7103      5.1011      2.5772
  1619.7500    115.0558      0.0000    534.0226      5.0762      2.5932
  1620.0000    109.5442      0.0000    489.7426      5.0462      2.5951
  1620.2500    104.8939      0.0000    447.4926      5.0110      2.5802
  1620.5000    101.8096      0.0000    416.7141      4.9681      2.5555
  1620.7500    100.2287      0.0000    399.1205      4.9196      2.5331
  1621.0000     99.6424      0.0000    390.8875      4.8742      2.5199
  1621.2500     99.6458      0.0000    387.4475      4.8421      2.5107
  1621.5000    100.3951      0.0000    386.1029      4.8261      2.4930
  1621.7500    102.2773      0.0000    385.8835      4.8214      2.4599
  1622.0000    105.0001      0.0000    386.3538      4.8249      2.4198
  1622.2500    107.2289      0.0000    386.6667      4.8402      2.3929
  1622.5000    107.2883      0.0000    385.6221      4.8715      2.3971
  1622.7500    104.3570      0.0000    382.5988      4.9145      2.4351
  1623.0000     99.1470      0.0000    378.1192      4.9537      2.4930
  1623.2500     93.2543      0.0000    373.2961      4.9707      2.5493
  1623.5000     87.6877      0.0000    368.9470      4.9579      2.5882
  1623.7500     82.2853      0.0000    365.5802      4.9257      2.6080
  1624.0000     76.6571      0.0000    364.3258      4.8971      2.6187
  1624.2500     71.2291      0.0000    367.9741      4.8902      2.6315
  1624.5000     67.0362      0.0000    380.6996      4.9063      2.6471
  1624.7500     64.6900      0.0000    404.6760      4.9334      2.6539
  1625.0000     63.7788      0.0000    434.9403      4.9599      2.6399
  1625.2500     63.3282      0.0000    459.1810      4.9829      2.6065
  1625.5000     62.7616      0.0000    467.0189      5.0065      2.5707
  1625.7500     62.3453      0.0000    460.1500      5.0350      2.5512
  1626.0000     62.6763      0.0000    449.6519      5.0656      2.5525
  1626.2500     63.8877      0.0000    442.8522      5.0883      2.5643
  1626.5000     65.4477      0.0000    437.0458      5.0930      2.5733
  1626.7500     66.5463      0.0000    426.9018      5.0776      2.5748
  1627.0000     66.5757      0.0000    413.3114      5.0506      2.5715
  1627.2500     65.4719      0.0000    402.6272      5.0264      2.5686
  1627.5000     63.6702      0.0000    400.4744      5.0147      2.5680
  1627.7500     61.5684      0.0000    409.0641      5.0138      2.5667
  1628.0000     59.1935      0.0000    428.8361      5.0124      2.5585
  1628.2500     56.6012      0.0000    459.6404      4.9993      2.5391
  1628.5000     54.3110      0.0000    498.9605      4.9712      2.5097
  1628.7500     52.9594      0.0000    539.9000      4.9343      2.4793
