~Version Information
VERS.                      2.0: CWLS Log ASCII Standard - VERSION 2.0
WRAP.                       NO: One line per depth step
~Well Information Block
STRT.FT               235.0000: 
STOP.FT              1634.5000: 
STEP.FT                 0.2500: 
NULL.                -999.2500: 
COMP.          Petrogulf Corporation: COMPANY
WELL.             State 16-41R: WELL
FLD.           Purgatorie River: FIELD
LOC.           280' FNL & 907' FEL: LOCATION
SECT.                       16: SECTION
TOWN.                      33S: TOWNSHIP
RANG.                      67W: RANGE
STAT.                 Colorado: STATE
CNTY.               Las Animas: COUNTY
CTRY.                      USA: COUNTRY
SRVC.                Patterson: SERVICE COMPANY
DATE.         Tue Oct 18 15:59:41 2005: LOG DATE
API.              05-071-08345: UNIQUE WELL ID
~Curve Information Block
DEPT.FT            0 000 00 00: Depth
SP.mV                         : DIL Spontaneous Potential
RILD.Ohm-m                    : DIL Deep Resistivity
RILM.Ohm-m                    : DIL Medium Resistivity
RLL3.Ohm-m                    : DIL Shallow Resistivity
GR.GAPI                       : Gamma Ray
~Parameter Information Block
~A  Depth        SP         RILD        RILM        RLL3         GR     
# ...
   795.0000    151.1693     15.3269     16.0605     22.7327    115.7029
   795.2500    151.9186     15.0953     15.5581     21.4215    114.2382
   795.5000    152.7187     14.9251     15.0635     19.7596    114.6331
   795.7500    153.5666     14.8295     14.6139     18.1858    116.1515
   796.0000    154.4652     14.8165     14.2438     16.9368    118.4602
   796.2500    155.4259     14.8866     13.9828     15.9903    119.4391
   796.5000    156.4710     15.0305     13.8556     15.2139    121.0358
   796.7500    157.6337     15.2291     13.8818     14.6223    122.9887
   797.0000    158.9566     15.4546     14.0752     14.6532    126.6215
   797.2500    160.4866     15.6726     14.4411     16.3902    127.9954
   797.5000    162.2673     15.8467     14.9705     21.5729    126.2231
   797.7500    164.3306     15.9467     15.6329     32.0760    122.2135
   798.0000    166.6879     15.9580     16.3670     48.6645    112.6477
   798.2500    169.3242     15.8886     17.0776     69.5630    104.3120
   798.5000    172.1947     15.7672     17.6468     90.0452     89.7087
   798.7500    175.2272     15.6339     17.9628    103.8430     79.7313
   799.0000    178.3269     15.5255     17.9608    105.9293     67.5396
   799.2500    181.3862     15.4613     17.6474     95.2466     62.9484
   799.5000    184.2952     15.4359     17.0945     75.6139     62.7062
   799.7500    186.9556     15.4211     16.4054     53.7454     66.9650
   800.0000    189.2919     15.3776     15.6781     35.5506     79.4114
   800.2500    191.2609     15.2703     14.9845     23.5952     91.0439
   800.5000    192.8530     15.0815     14.3658     17.2890    111.0636
   800.7500    194.0862     14.8139     13.8383     14.6731    124.0988
   801.0000    194.9958     14.4870     13.4026     13.9278    139.8652
   801.2500    195.6225     14.1304     13.0517     13.9098    146.7464
   801.5000    196.0042     13.7774     12.7769     14.0738    151.8792
   801.7500    196.1741     13.4594     12.5715     14.2344    153.0351
   802.0000    196.1616     13.2016     12.4318     14.3677    153.7467
   802.2500    195.9949     13.0195     12.3562     14.4977    154.2424
   802.5000    195.7023     12.9193     12.3444     14.6583    154.6096
   802.7500    195.3116     12.8984     12.3944     14.9031    153.9325
   803.0000    194.8482     12.9474     12.5019     15.2990    150.9565
   803.2500    194.3314     13.0515     12.6586     15.8738    147.9338
   803.5000    193.7719     13.1937     12.8525     16.5681    142.9593
   803.7500    193.1705     13.3590     13.0685     17.2550    140.0086
   804.0000    192.5183     13.5368     13.2904     17.8175    136.6026
   804.2500    191.7983     13.7204     13.5030     18.1954    134.7738
   804.5000    190.9892     13.9045     13.6945     18.3584    132.1010
   804.7500    190.0693     14.0822     13.8576     18.2702    130.5612
   805.0000    189.0213     14.2442     13.9899     17.9128    129.7382
   805.2500    187.8352     14.3807     14.0928     17.3484    130.2872
   805.5000    186.5101     14.4851     14.1700     16.7284    130.9117
   805.7500    185.0548     14.5576     14.2267     16.2220    129.9913
   806.0000    183.4855     14.6058     14.2687     15.9262    127.2348
   806.2500    181.8239     14.6399     14.3021     15.8284    126.3750
   806.5000    180.0945     14.6679     14.3330     15.8384    129.1053
   806.7500    178.3241     14.6917     14.3670     15.8549    133.3117
   807.0000    176.5417     14.7074     14.4083     15.8239    140.5055
   807.2500    174.7790     14.7077     14.4576     15.7648    144.4475
   807.5000    173.0706     14.6851     14.5114     15.7653    148.2079
   807.7500    171.4522     14.6346     14.5602     15.9487    149.3591
   808.0000    169.9573     14.5542     14.5890     16.4107    149.0012
   808.2500    168.6127     14.4448     14.5798     17.1393    147.1348
   808.5000    167.4338     14.3103     14.5160     17.9673    141.9908
   808.7500    166.4219     14.1580     14.3879     18.6067    137.6175
   809.0000    165.5639     13.9986     14.1973     18.7694    131.2179
   809.2500    164.8337     13.8439     13.9579     18.3105    127.9516
   809.5000    164.1960     13.7025     13.6922     17.3136    125.7360
   809.7500    163.6098     13.5772     13.4259     16.0612    126.2358
   810.0000    163.0324     13.4654     13.1817     14.9005    129.0756
   810.2500    162.4223     13.3621     12.9758     14.0838    131.5759
   810.5000    161.7436     13.2626     12.8164     13.6882    135.6009
   810.7500    160.9694     13.1638     12.7044     13.6523    138.5498
   811.0000    160.0875     13.0643     12.6353     13.8681    143.2484
   811.2500    159.1031     12.9651     12.6010     14.2480    145.8664
   811.5000    158.0397     12.8698     12.5921     14.7420    147.0930
   811.7500    156.9356     12.7847     12.5989     15.3210    145.3825
   812.0000    155.8373     12.7183     12.6135     15.9376    139.8564
   812.2500    154.7914     12.6791     12.6305     16.4914    135.6000
   812.5000    153.8371     12.6756     12.6477     16.8469    130.0758
   812.7500    153.0016     12.7157     12.6670     16.9104    126.8890
   813.0000    152.2980     12.8070     12.6940     16.6953    122.0908
   813.2500    151.7271     12.9555     12.7376     16.3093    119.1033
   813.5000    151.2810     13.1637     12.8088     15.8904    116.8218
   813.7500    150.9464     13.4293     12.9190     15.5573    117.9219
   814.0000    150.7081     13.7440     13.0790     15.3979    123.4878
   814.2500    150.5492     14.0963     13.2981     15.4724    128.2336
   814.5000    150.4512     14.4751     13.5834     15.8159    133.1366
   814.7500    150.3924     14.8760     13.9399     16.4414    133.5431
   815.0000    150.3490     15.3047     14.3716     17.3433    130.1525
   815.2500    150.2976     15.7772     14.8822     18.5004    126.5067
   815.5000    150.2204     16.3157     15.4775     19.8737    121.2479
   815.7500    150.1103     16.9431     16.1677     21.3759    118.5726
   816.0000    149.9753     17.6796     16.9699     22.8292    115.8230
   816.2500    149.8391     18.5408     17.9099     24.0084    114.4894
   816.5000    149.7381     19.5363     19.0236     24.8374    112.6089
   816.7500    149.7160     20.6672     20.3568     25.6342    111.3114
   817.0000    149.8171     21.9200     21.9626     27.1966    109.6229
   817.2500    150.0800     23.2604     23.8963     30.6078    108.7550
   817.5000    150.5345     24.6282     26.2049     36.8348    106.7580
   817.7500    151.2010     25.9385     28.9077     46.3321    103.6501
   818.0000    152.0918     27.0870     31.9633     58.8706     94.3030
   818.2500    153.2136     27.9603     35.2194     73.6200     84.7381
   818.5000    154.5687     28.4525     38.3570     89.3121     67.2050
   818.7500    156.1541     28.4904     40.8703    104.3568     55.3327
   819.0000    157.9577     28.0612     42.1576    116.9745     40.6879
   819.2500    159.9532     27.2220     41.7650    125.3544     34.3713
   819.5000    162.0950     26.0782     39.6581    127.7406     30.6124
   819.7500    164.3158     24.7431     36.2767    122.6462     31.4571
   820.0000    166.5294     23.3076     32.2976    109.5972     36.5085
   820.2500    168.6397     21.8369     28.3247     90.1342     41.8276
   820.5000    170.5542     20.3827     24.7315     67.9645     52.4155
   820.7500    172.2004     18.9910     21.6705     47.5926     61.3033
   821.0000    173.5397     17.6994     19.1524     32.2494     77.1347
   821.2500    174.5746     16.5285     17.1202     22.7137     88.5302
   821.5000    175.3473     15.4825     15.4956     17.7605    104.5857
   821.7500    175.9307     14.5572     14.2030     15.5260    113.4061
   822.0000    176.4145     13.7500     13.1783     14.5902    122.9128
   822.2500    176.8910     13.0646     12.3712     14.2370    126.8726
   822.5000    177.4434     12.5083     11.7441     14.1700    130.1886
   822.7500    178.1372     12.0848     11.2703     14.1969    131.5588
