~Version Information
 VERS.                                  2.0 : CWLS LAS VERSION
 WRAP.                                   NO : WRAPING MODE
 SWARE .                 MController 2.5.0J : SOFTWARE VERSION
~Well Information
 WELL.                      McDaniel 09-34V : WELL
 COMP.                Petrogulf Corporation : COMPANY
 FLD.                      Purgatoire River : FIELD
 LOC.                SW/SE Sec 09 T33S R67W : LOCATION
 DATE.                             09/27/05 : DATE(S) LOGGED
 SRVC.       BLANCO Geological Services LLC : SERVICE COMPANY
 STAT.                                   CO : STATE
 CNTY.                           Las Animas : COUNTY
 CTRY.                                  USA : COUNTRY
 API.                       05-071-08333-00 : API NUMBER
 STRT.FT                               0.00 : START DEPTH
 STOP.FT                             2433.0 : STOP DEPTH 775.00
 STEP.FT                               1.00 : DEPTH INCREMENT
 NULL.                                -9999 : NULL VALUE
~Curve information
 DEPTH.FT                                   :
 ROP.MIN/FT                                 :
 GAS.UNITS                                  :
~ASCII Log data
# ...
      2200.0         0.27       1059.9 
      2201.0         0.18       1091.9 
      2202.0         0.23       1092.9 
      2203.0         0.53       1079.6 
      2204.0         0.53        935.5 
      2205.0         0.37        808.5 
      2206.0         0.37        813.3 
      2207.0         0.40        848.5 
      2208.0         0.37        857.4 
      2209.0         0.42        864.7 
      2210.0         0.43        871.7 
      2211.0         0.43        859.3 
      2212.0         0.33        832.0 
      2213.0         0.30        781.9 
      2214.0         0.47        728.2 
      2215.0         0.53        660.9 
      2216.0         0.53        649.5 
      2217.0         0.52        647.3 
      2218.0         0.43        633.3 
      2219.0         0.33        624.4 
      2220.0         0.40        624.1 
      2221.0         0.43        621.3 
      2222.0         0.50        626.0 
      2223.0         0.43        625.4 
      2224.0         2.55       1426.2 
      2225.0         0.40       1470.0 
      2226.0         0.57       1464.9 
      2227.0         0.45       1391.9 
      2228.0         0.43       1248.7 
      2229.0         0.43       1125.6 
      2230.0         0.40       1035.5 
      2231.0         0.50       1023.7 
      2232.0         0.53        983.4 
      2233.0         0.57        882.8 
      2234.0         0.58        796.8 
      2235.0         0.50        770.1 
      2236.0         0.47        768.9 
      2237.0         0.47        772.0 
      2238.0         0.47        772.7 
      2239.0         0.43        773.0 
      2240.0         0.55        766.9 
      2241.0         0.53        788.8 
      2242.0         0.50        786.9 
      2243.0         0.50        817.1 
      2244.0         0.57        818.7 
      2245.0         0.53        800.9 
      2246.0         0.55        743.5 
      2247.0         0.53        690.8 
      2248.0         0.53        690.8 
      2249.0         0.60        660.6 
      2250.0         0.53        661.3 
      2251.0         0.57        653.3 
      2252.0         0.65        626.0 
      2253.0         0.50        900.6 
      2254.0         1.60       1540.1 
      2255.0         0.67       1454.7 
      2256.0         0.55       1204.3 
      2257.0         0.50       1030.4 
      2258.0         0.30        894.2 
      2259.0         0.27        950.1 
      2260.0         0.17        986.3 
      2261.0         0.17       1008.8 
      2262.0         0.20       1023.4 
      2263.0         0.40       1022.1 
      2264.0         0.57        962.5 
      2265.0         0.58        871.7 
      2266.0         0.60        839.3 
      2267.0         0.50        833.0 
      2268.0         0.40        820.9 
      2269.0         0.33        800.0 
      2270.0         0.37        856.5 
      2271.0         0.27        879.9 
      2272.0         0.37        902.8 
      2273.0         0.48        897.4 
      2274.0         0.47        859.3 
      2275.0         0.57        829.8 
      2276.0         0.53        813.6 
      2277.0         0.60        743.8 
      2278.0         0.65        679.4 
      2279.0         0.47        663.5 
      2280.0         0.30        658.1 
      2281.0         0.33        658.4 
      2282.0         0.37        653.3 
      2283.0         0.33        639.7 
      2284.0         2.42       1489.6 
      2285.0         0.60       1548.7 
      2286.0         0.50       1510.9 
      2287.0         0.40       1335.4 
      2288.0         0.53       1182.7 
      2289.0         0.55       1008.8 
      2290.0         0.50        952.3 
      2291.0         0.60        944.7 
      2292.0         0.53        844.7 
      2293.0         0.47        760.6 
      2294.0         0.53        745.4 
      2295.0         0.48        774.2 
      2296.0         0.53        789.5 
      2297.0         0.50        795.8 
      2298.0         0.53        809.5 
      2299.0         0.53        839.6 
      2300.0         0.43        841.9 
      2301.0         0.47        831.4 
      2302.0         0.45        804.7 
      2303.0         0.47        795.2 
      2304.0         0.43        793.6 
      2305.0         0.50        808.2 
      2306.0         0.47        825.7 
      2307.0         0.50        825.3 
      2308.0         0.53        823.4 
      2309.0         0.52        819.6 
      2310.0         0.53        808.5 
      2311.0         0.53        795.2 
      2312.0         0.47        757.1 
      2313.0         0.50        685.4 
      2314.0         1.95       1471.2 
      2315.0         0.90       1534.4 
      2316.0         0.60       1418.5 
      2317.0         0.68       1142.1 
      2318.0         0.70        913.9 
      2319.0         0.67        967.2 
      2320.0         0.83        932.0 
      2321.0         0.53        851.1 
      2322.0         0.62        852.6 
      2323.0         0.80        876.1 
      2324.0         0.50        875.8 
      2325.0         0.53        859.6 
      2326.0         0.60        823.8 
      2327.0         0.60        830.1 
      2328.0         0.65        816.8 
      2329.0         0.63        811.1 
      2330.0         0.67        821.9 
      2331.0         0.67        828.5 
      2332.0         0.60        832.0 
      2333.0         0.65        817.7 
      2334.0         0.73        808.5 
      2335.0         0.73        799.0 
      2336.0         0.73        797.7 
      2337.0         0.78        770.1 
      2338.0         0.87        718.1 
      2339.0         0.83        647.0 
      2340.0         0.87        657.1 
      2341.0         0.92        682.2 
      2342.0         1.10        687.6 
      2343.0         1.35        639.0 
      2344.0         3.48       1365.2 
      2345.0         0.63       1334.1 
      2346.0         0.73       1205.9 
      2347.0         0.70       1092.3 
      2348.0         0.82       1089.4 
      2349.0         0.70        982.1 
      2350.0         0.57        904.4 
      2351.0         0.60        869.1 
      2352.0         0.53        877.4 
      2353.0         0.58        878.0 
      2354.0         0.53        870.7 
      2355.0         0.53        878.7 
      2356.0         0.57        875.5 
      2357.0         0.57        873.6 
      2358.0         0.65        863.1 
      2359.0         0.57        855.8 
      2360.0         0.60        858.7 
      2361.0         0.67        858.7 
      2362.0         0.82        846.9 
      2363.0         0.47        843.4 
      2364.0         0.60        853.3 
      2365.0         0.70        856.8 
      2366.0         0.50        851.7 
      2367.0         0.55        840.3 
      2368.0         0.87        832.3 
      2369.0         0.53        812.7 
      2370.0         0.80        807.6 
      2371.0         1.05        719.3 
      2372.0         0.83        659.4 
      2373.0         0.73        655.2 
      2374.0         3.52       1541.7 
      2375.0         0.63       1491.5 
      2376.0         0.65       1289.0 
      2377.0         0.67       1095.1 
      2378.0         0.77       1053.9 
      2379.0         1.18        987.2 
      2380.0         0.70        799.0 
      2381.0         0.60        833.0 
      2382.0         0.70        881.8 
      2383.0         0.53        893.3 
      2384.0         0.58        905.3 
      2385.0         0.67        904.4 
      2386.0         0.60        882.2 
      2387.0         0.63        876.8 
      2388.0         0.63        874.2 
      2389.0         0.58        864.1 
      2390.0         0.87        857.4 
      2391.0         0.87        859.9 
      2392.0         0.60        856.1 
      2393.0         0.63        859.9 
      2394.0         1.32        855.8 
      2395.0         0.83        825.3 
      2396.0         0.97        801.2 
      2397.0         1.35        793.6 
      2398.0         0.83        708.9 
      2399.0         0.73        660.6 
