~Version Information
VERS.                      2.0: CWLS Log ASCII Standard - VERSION 2.0
WRAP.                       NO: One line per depth step
~Well Information Block
STRT.FT               350.0000: 
STOP.FT              2264.0000: 
STEP.FT                 0.1000: 
NULL.                -999.2500: 
COMP.          Pioneer Natural Resources: COMPANY
WELL.             Warrior 32-1: WELL
FLD.           Purgatoire River: FIELD
LOC.           2624' FNL & 2392' FEL: LOCATION
PROV.                 Colorado: PROVINCE
CNTY.               Las Animas: COUNTRY
SRVC.                Patterson: SERVICE COMPANY
DATE.          Tue Oct 05 06:54:20 2004: LOG DATE
UWI.           05 071 08176 00: UNIQUE WELL ID
~Curve Information Block
DEPT.FT            0 000 00 00: Depth
DCAL.in                       : CDL Caliper
RHOB.g/cc                     : CDL Bulk Density
RHOC.g/cc                     : CDL Density Correction
DPOR.pu                       : CDL Density Porosity
NPOR.pu                       : Neutron Porosity
GR.GAPI                       : Gamma Ray
~Parameter Information Block
~A  Depth       DCAL        RHOB        RHOC        DPOR        NPOR         GR     
# ...
   724.4000      8.2952      2.4932      0.0656      9.5052     33.7819    115.9497
   724.5000      8.3203      2.4733      0.0665     10.7079     33.5549    120.2432
   724.6000      8.3203      2.4537      0.0097     11.8989     33.5048    130.1455
   724.7000      8.3203      2.4632      0.0488     11.3208     32.9626    138.6342
   724.8000      8.3601      2.4968      0.1231      9.2821     31.7499    143.9474
   724.9000      8.3601      2.5290      0.0843      7.3322     30.6135    148.4975
   725.0000      8.4347      2.5459      0.1171      6.3070     29.9161    148.7200
   725.1000      8.4347      2.5442      0.1070      6.4109     29.5893    143.4849
   725.2000      8.4347      2.5214      0.1051      7.7958     29.4320    138.3927
   725.3000      8.6257      2.4617      0.1000     11.4103     29.1641    139.4646
   725.4000      8.6257      2.3471      0.0616     18.3574     28.8020    146.6850
   725.5000      8.9454      2.1883     -0.0328     27.9794     28.9359    152.9693
   725.6000      8.9454      2.0095     -0.0463     38.8190     29.9339    152.3772
   725.7000      8.9454      1.8178     -0.1102     50.4365     30.9553    146.7901
   725.8000      9.2203      1.6226     -0.2238     62.2675     30.9864    145.4123
   725.9000      9.2203      1.4681     -0.3005     71.6293     30.4190    151.7896
   726.0000      9.4650      1.4145     -0.2639     74.8761     30.1206    157.8591
   726.1000      9.4650      1.4841     -0.1678     70.6591     29.9407    156.7547
   726.2000      9.4650      1.6474      0.0333     60.7649     29.5762    148.8373
   726.3000     10.0203      1.8171      0.4554     50.4767     29.1619    139.0826
   726.4000     10.0203      1.8757      0.6001     46.9261     28.5751    133.7497
   726.5000     11.0273      1.8158      0.4302     50.5552     27.9299    129.4296
   726.6000     11.0273      1.8381      0.2585     49.2038     27.6723    122.7312
   726.7000     11.0273      2.2249      0.3381     25.7619     27.6849    120.8142
   726.8000     12.2780      3.0527      0.5943    -24.4084     27.7362    126.3846
   726.9000     12.2780      3.9074      1.0155    -76.2034     28.0235    133.2338
   727.0000     13.3952      4.1827      1.9494    -92.8888     28.4866    137.2800
   727.1000     13.3952      4.2001      0.0400    -93.9442     28.7129    137.5249
   727.2000     13.3952      4.5183      2.2316   -113.2298     28.7585    132.4502
   727.3000     13.9926      4.3875      1.6890   -105.3001     28.8373    124.3827
   727.4000     13.9926      3.3475      0.9833    -42.2750     28.5567    120.0881
   727.5000     14.0266      2.1232      0.4166     31.9261     27.9170    122.3605
   727.6000     14.0266      1.3734      0.2167     77.3706     27.2085    127.1562
   727.7000     14.0266      1.1501      0.2833     90.9043     26.4326    131.0330
   727.8000     13.6515      1.1948      0.3824     88.1927     25.7641    135.4212
   727.9000     13.6515      1.2799      0.4188     83.0378     25.2999    140.8929
   728.0000     12.9788      1.3227      0.4241     80.4440     24.8731    142.3730
   728.1000     12.9788      1.3340      0.3781     79.7593     24.4551    135.4921
   728.2000     12.9788      1.3597      0.3510     78.2028     24.3076    123.1712
   728.3000     12.3084      1.4507      0.3413     72.6828     24.5798    113.0743
   728.4000     12.3084      1.6196      0.4298     62.4474     25.0308    108.7372
   728.5000     11.5022      1.8211      0.5360     50.2379     25.3424    110.0116
   728.6000     11.5022      1.9917      0.6506     39.8940     25.3833    115.6403
   728.7000     11.5022      2.0855      0.7038     34.2103     24.9884    120.2711
   728.8000     10.4264      2.0850      0.6850     34.2402     24.1866    122.0823
   728.9000     10.4264      2.0021      0.6287     39.2681     23.4743    122.3266
   729.0000      9.6245      1.8800      0.4076     46.6657     23.0744    119.6693
   729.1000      9.6245      1.7756      0.3258     52.9926     22.3593    118.0020
   729.2000      9.6245      1.7120      0.2764     56.8491     20.8223    120.4766
   729.3000      9.2621      1.6911      0.2347     58.1142     18.9897    124.8261
   729.4000      9.2621      1.7358      0.2525     55.4054     17.6156    127.8612
   729.5000      9.0710      1.8625      0.4065     47.7257     16.7497    125.9796
   729.6000      9.0710      2.0395      0.5311     37.0023     15.9857    120.6846
   729.7000      9.0710      2.2096      0.5858     26.6936     15.3361    117.9472
   729.8000      8.9528      2.3360      0.6199     19.0328     15.3127    120.5446
   729.9000      8.9528      2.4130      0.6092     14.3632     16.1550    122.6855
   730.0000      8.9069      2.4559      0.5463     11.7646     17.4393    116.9001
   730.1000      8.9069      2.4888      0.4766      9.7721     18.6348    108.6029
   730.2000      8.9069      2.5165      0.4764      8.0931     19.6696    107.8089
   730.3000      8.8987      2.5168      0.3712      8.0703     20.7939    114.8211
   730.4000      8.8987      2.4828      0.2095     10.1347     22.2810    122.7831
   730.5000      8.8995      2.4406      0.1185     12.6914     23.7946    124.8988
   730.6000      8.8995      2.4207      0.0537     13.8994     24.6630    121.5535
   730.7000      8.8995      2.4319      0.1060     13.2172     24.9389    117.9832
   730.8000      8.9047      2.4648      0.0878     11.2223     25.1173    118.9815
   730.9000      8.9047      2.5059      0.0866      8.7307     25.2694    124.6153
   731.0000      8.9124      2.5336      0.1347      7.0536     25.3411    127.0416
   731.1000      8.9124      2.5272      0.1682      7.4403     25.3729    123.1440
   731.2000      8.9124      2.4939      0.0998      9.4586     25.2955    118.0218
   731.3000      8.9148      2.4648      0.0895     11.2271     25.3542    113.8237
   731.4000      8.9148      2.4717      0.0792     10.8033     25.7460    111.8349
   731.5000      8.9146      2.5126      0.2062      8.3258     26.1334    116.6761
   731.6000      8.9146      2.5369      0.1912      6.8560     26.2712    129.3144
   731.7000      8.9146      2.5086      0.0814      8.5681     26.1990    142.2898
   731.8000      8.9258      2.4496     -0.0023     12.1480     26.0945    147.8911
   731.9000      8.9258      2.4006     -0.0687     15.1166     26.4854    145.4110
   732.0000      8.9372      2.3829     -0.0262     16.1892     27.5146    139.9739
   732.1000      8.9372      2.3871      0.0343     15.9355     28.5480    136.5395
   732.2000      8.9372      2.3863      0.0630     15.9803     29.2310    134.6400
   732.3000      8.9287      2.3615      0.0466     17.4823     29.7139    132.4247
   732.4000      8.9287      2.3081      0.0602     20.7232     30.2071    129.8213
   732.5000      8.9060      2.2257      0.0102     25.7154     30.5647    128.0001
   732.6000      8.9060      2.1141     -0.0259     32.4772     30.3350    128.5974
   732.7000      8.9060      1.9850     -0.1015     40.3034     29.4971    130.3937
   732.8000      8.8930      1.8628     -0.1115     47.7062     28.1343    132.5099
   732.9000      8.8930      1.7711     -0.1467     53.2637     26.0387    134.2045
   733.0000      8.9113      1.7238     -0.0688     56.1363     23.2986    136.0043
   733.1000      8.9113      1.6997      0.0300     57.5944     20.3492    139.3325
   733.2000      8.9113      1.6614      0.0365     59.9181     17.3862    138.0507
   733.3000      9.0294      1.6136      0.0528     62.8137     14.6068    130.3730
   733.4000      9.0294      1.5974      0.1254     63.7944     12.4560    127.9291
   733.5000      9.3733      1.6447      0.2485     60.9290     11.2230    135.3157
   733.6000      9.3733      1.7462      0.4606     54.7776     11.0044    140.7238
   733.7000      9.3733      1.8429      0.4944     48.9175     11.9181    136.1414
   733.8000      9.9441      1.8759      0.3782     46.9143     13.7897    129.2355
   733.9000      9.9441      1.8371      0.2603     49.2695     15.7707    128.8773
