~Version Information
VERS.                      2.0: CWLS Log ASCII Standard - VERSION 2.0
WRAP.                       NO: One line per depth step
~Well Information Block
STRT.FT               830.0000: 
STOP.FT              3122.7000: 
STEP.FT                 0.1000: 
NULL.                -999.2500: 
COMP.          Pioneer Natural Resources: COMPANY
WELL.              Stones 24-8: WELL
FLD.           Purgatoire River: FIELD
LOC.           648' FSL & 2264' FWL: LOCATION
PROV.                 Colorado: PROVINCE
CNTY.               Las Animas: COUNTRY
SRVC.                Patterson: SERVICE COMPANY
DATE.          Wed Jan 19 15:33:00 2005: LOG DATE
UWI.           05 071 07945 00: UNIQUE WELL ID
~Curve Information Block
DEPT.FT            0 000 00 00: Depth
DCAL.in                       : CDL Caliper
RHOB.g/cc                     : CDL Bulk Density
RHOC.g/cc                     : CDL Density Correction
DPOR.pu                       : CDL Density Porosity
NPOR.pu                       : Neutron Porosity
GR.GAPI                       : Gamma Ray
~Parameter Information Block
~A  Depth       DCAL        RHOB        RHOC        DPOR        NPOR         GR     
# ...
  3095.6000      7.6601      2.4893      0.0762      9.7423     14.5590   -999.2500
  3095.7000      7.6601      2.4921      0.0788      9.5708     12.8527   -999.2500
  3095.8000      7.6604      2.5031      0.0643      8.9042     11.7051   -999.2500
  3095.9000      7.6604      2.5234      0.0919      7.6706     13.7873   -999.2500
  3096.0000      7.6626      2.5320      0.1300      7.1537     23.2313   -999.2500
  3096.1000      7.6626      2.5165      0.0813      8.0894     38.6987   -999.2500
  3096.2000      7.6626      2.4954      0.0734      9.3678     49.4490   -999.2500
  3096.3000      7.6656      2.4899      0.0476      9.7027     53.1113   -999.2500
  3096.4000      7.6656      2.5002      0.0615      9.0769     53.8067   -999.2500
  3096.5000      7.6668      2.5126      0.0884      8.3281     53.8795   -999.2500
  3096.6000      7.6668      2.5206      0.0918      7.8451     53.8836   -999.2500
  3096.7000      7.6668      2.5289      0.0763      7.3398   -999.2500   -999.2500
  3096.8000      7.6665      2.5362      0.1028      6.8955   -999.2500   -999.2500
  3096.9000      7.6665      2.5349      0.0960      6.9748   -999.2500   -999.2500
  3097.0000      7.6657      2.5337      0.0529      7.0469   -999.2500   -999.2500
  3097.1000      7.6657      2.5494      0.0882      6.0969   -999.2500   -999.2500
  3097.2000      7.6657      2.5720      0.1276      4.7256   -999.2500   -999.2500
  3097.3000      7.6594      2.5824      0.0763      4.0945   -999.2500   -999.2500
  3097.4000      7.6594      2.5796      0.1039      4.2643   -999.2500   -999.2500
  3097.5000      7.6538      2.5664      0.0632      5.0680   -999.2500   -999.2500
  3097.6000      7.6538      2.5478      0.0449      6.1959   -999.2500   -999.2500
  3097.7000      7.6538      2.5386      0.0288      6.7530   -999.2500   -999.2500
  3097.8000      7.6608      2.5481      0.0657      6.1756   -999.2500   -999.2500
  3097.9000      7.6608      2.5661      0.0814      5.0869   -999.2500   -999.2500
  3098.0000      7.6737      2.5744      0.0867      4.5794   -999.2500   -999.2500
  3098.1000      7.6737      2.5704      0.0979      4.8246   -999.2500   -999.2500
  3098.2000      7.6737      2.5658      0.0896      5.1051   -999.2500   -999.2500
  3098.3000      7.6809      2.5716      0.0912      4.7496   -999.2500   -999.2500
  3098.4000      7.6809      2.5864      0.1077      3.8528   -999.2500   -999.2500
  3098.5000      7.6743      2.5950      0.1176      3.3356   -999.2500   -999.2500
  3098.6000      7.6743      2.5883      0.0813      3.7383   -999.2500   -999.2500
  3098.7000      7.6743      2.5691      0.1102      4.9054   -999.2500   -999.2500
  3098.8000      7.6651      2.5382      0.0725      6.7728   -999.2500   -999.2500
  3098.9000      7.6651      2.5025      0.0415      8.9397   -999.2500   -999.2500
  3099.0000      7.6627      2.4740     -0.0189     10.6696   -999.2500   -999.2500
  3099.1000      7.6627      2.4554      0.0245     11.7921   -999.2500   -999.2500
  3099.2000      7.6627      2.4380      0.0301     12.8464   -999.2500   -999.2500
  3099.3000      7.6627      2.4190      0.0364     14.0010   -999.2500   -999.2500
  3099.4000      7.6627      2.4089      0.0063     14.6120   -999.2500   -999.2500
  3099.5000      7.6611      2.4104      0.0831     14.5198   -999.2500   -999.2500
  3099.6000      7.6611      2.4160      0.0727     14.1835   -999.2500   -999.2500
  3099.7000      7.6611      2.4359      0.1180     12.9734   -999.2500   -999.2500
  3099.8000      7.6558      2.4784      0.1770     10.4023   -999.2500   -999.2500
  3099.9000      7.6558      2.5251      0.1881      7.5682   -999.2500   -999.2500
  3100.0000      7.6372      2.5631      0.1848      5.2693   -999.2500   -999.2500
  3100.1000      7.6372      2.5996      0.2157      3.0560   -999.2500   -999.2500
  3100.2000      7.6372      2.6347      0.2582      0.9267   -999.2500   -999.2500
  3100.3000      7.6056      2.6566      0.2112     -0.3980   -999.2500   -999.2500
  3100.4000      7.6056      2.6594      0.1794     -0.5699   -999.2500   -999.2500
  3100.5000      7.5811      2.6476      0.1499      0.1478   -999.2500   -999.2500
  3100.6000      7.5811      2.6337      0.1186      0.9891   -999.2500   -999.2500
  3100.7000      7.5811      2.6209      0.1692      1.7617   -999.2500   -999.2500
  3100.8000      7.5696      2.6007      0.0893      2.9868   -999.2500   -999.2500
  3100.9000      7.5696      2.5742      0.0780      4.5969   -999.2500   -999.2500
  3101.0000      7.5723      2.5443      0.0794      6.4050   -999.2500   -999.2500
  3101.1000      7.5723      2.5219     -0.0131      7.7636   -999.2500   -999.2500
  3101.2000      7.5723      2.5198      0.0294      7.8923   -999.2500   -999.2500
  3101.3000      7.5784      2.5239      0.0636      7.6408   -999.2500   -999.2500
  3101.4000      7.5784      2.5230      0.0469      7.6965   -999.2500   -999.2500
  3101.5000      7.5823      2.5304      0.0640      7.2487   -999.2500   -999.2500
  3101.6000      7.5823      2.5478      0.0818      6.1914   -999.2500   -999.2500
  3101.7000      7.5823      2.5577      0.0772      5.5940   -999.2500   -999.2500
  3101.8000      7.5870      2.5559      0.0758      5.7000   -999.2500   -999.2500
  3101.9000      7.5870      2.5526      0.0621      5.9041   -999.2500   -999.2500
  3102.0000      7.5895      2.5495      0.0833      6.0911   -999.2500   -999.2500
  3102.1000      7.5895      2.5437      0.1019      6.4399   -999.2500   -999.2500
  3102.2000      7.5895      2.5409      0.0731      6.6106   -999.2500   -999.2500
  3102.3000      7.5851      2.5474      0.0988      6.2198   -999.2500   -999.2500
  3102.4000      7.5851      2.5563      0.1090      5.6781   -999.2500   -999.2500
  3102.5000      7.5812      2.5633      0.0578      5.2534   -999.2500   -999.2500
  3102.6000      7.5812      2.5729      0.0739      4.6721   -999.2500   -999.2500
  3102.7000      7.5812      2.5825      0.0857      4.0930   -999.2500   -999.2500
  3102.8000      7.5795      2.5835      0.0965      4.0319   -999.2500   -999.2500
  3102.9000      7.5795      2.5714      0.0889      4.7620   -999.2500   -999.2500
  3103.0000      7.5593      2.5483      0.0455      6.1628   -999.2500   -999.2500
  3103.1000      7.5593      2.5121      0.0597      8.3549   -999.2500   -999.2500
  3103.2000      7.5593      2.4496      0.0699     12.1461   -999.2500   -999.2500
  3103.3000      7.4462      2.3649      0.0093     17.2812   -999.2500   -999.2500
  3103.4000      7.4462      2.3100     -0.0469     20.6043   -999.2500   -999.2500
  3103.5000      7.0954      2.3553     -0.0583     17.8578   -999.2500   -999.2500
  3103.6000      7.0954      2.3994     -0.0008     15.1882   -999.2500   -999.2500
  3103.7000      7.0954      2.0315      0.5736     37.4821   -999.2500   -999.2500
  3103.8000      6.3360      1.1633      0.0500     90.1004   -999.2500   -999.2500
  3103.9000      6.3360      0.3964      0.0500    136.5846   -999.2500   -999.2500
  3104.0000      4.7303      0.0755   -999.2500    156.0331   -999.2500   -999.2500
  3104.1000      4.7303      0.0078   -999.2500    160.1340   -999.2500   -999.2500
  3104.2000      4.7303      0.0004   -999.2500    160.5804   -999.2500   -999.2500
  3104.3000      2.5004      0.0000   -999.2500    160.6061   -999.2500   -999.2500
  3104.4000      2.5004      0.0000   -999.2500    160.6061   -999.2500   -999.2500
  3104.5000      1.1920   -999.2500   -999.2500   -999.2500   -999.2500   -999.2500
  3104.6000      1.1920   -999.2500   -999.2500   -999.2500   -999.2500   -999.2500
  3104.7000      1.1920   -999.2500   -999.2500   -999.2500   -999.2500   -999.2500
  3104.8000      0.9022   -999.2500   -999.2500   -999.2500   -999.2500   -999.2500
  3104.9000      0.9022   -999.2500   -999.2500   -999.2500   -999.2500   -999.2500
  3105.0000      0.8785   -999.2500   -999.2500   -999.2500   -999.2500   -999.2500
  3105.1000      0.8785   -999.2500   -999.2500   -999.2500   -999.2500   -999.2500
