~Version Information
 VERS.                                  2.0 : CWLS LAS VERSION
 WRAP.                                   NO : WRAPING MODE
 SWARE .                 MController 2.5.0J : SOFTWARE VERSION
~Well Information
 WELL.                      Bucksnort 41-35 : WELL
 COMP.   Pioneer Natural Resources USA Inc. : COMPANY
 FLD.                      Purgatoire River : FIELD
 LOC.                NE/NE Sec 35 T32S R66W : LOCATION
 DATE.                              7/22/05 : DATE(S) LOGGED
 SRVC.       BLANCO Geological Services LLC : SERVICE COMPANY
 STAT.                             Colorado : STATE
 CNTY.                           Las Animas : COUNTY
 CTRY.                               U.S.A. : COUNTRY
 API.                                   N/A : API NUMBER
 STRT.FT                             581.00 : START DEPTH
 STOP.FT                            2010.00 : STOP DEPTH
 STEP.FT                               1.00 : DEPTH INCREMENT
 NULL.                                -9999 : NULL VALUE
~Curve information
 DEPTH.FT                                   :
 ROP.MIN/FT                                 :
 GAS.UNITS                                  :
~ASCII Log data
# ...
      1381.0        10.45        210.7 
      1382.0         0.33        234.1 
      1383.0         0.48        284.0 
      1384.0         0.60        394.5 
      1385.0         0.47        440.0 
      1386.0         0.77        447.7 
      1387.0         0.43        308.4 
      1388.0         0.37        137.5 
      1389.0         0.55         46.7 
      1390.0         0.50          5.7 
      1391.0         0.53         -2.7 
      1392.0         0.37         -4.2 
      1393.0         0.27         -4.2 
      1394.0         0.40         -2.1 
      1395.0         0.97          3.7 
      1396.0         0.45          4.8 
      1397.0         0.30          6.3 
      1398.0         0.67         11.2 
      1399.0         0.37         14.1 
      1400.0         0.20         16.2 
      1401.0         0.20         18.6 
      1402.0         0.27         19.7 
      1403.0         0.27         20.0 
      1404.0         0.27         19.6 
      1405.0         0.58         22.4 
      1406.0         0.50         22.6 
      1407.0         0.37         22.0 
      1408.0         0.53         21.1 
      1409.0         0.47         20.5 
      1410.0         0.40         21.5 
      1411.0         6.30        251.9 
      1412.0         0.27        253.7 
      1413.0         0.27        252.1 
      1414.0         0.10        242.4 
      1415.0         0.10        238.4 
      1416.0         0.10        236.8 
      1417.0         0.43        234.7 
      1418.0         0.38        206.0 
      1419.0         0.30        137.8 
      1420.0         0.23         73.3 
      1421.0         0.20         37.8 
      1422.0         0.20         18.3 
      1423.0         0.17          7.8 
      1424.0         0.20          2.3 
      1425.0         0.20         -1.1 
      1426.0         0.17         -3.2 
      1427.0         0.17         -3.6 
      1428.0         0.10         -3.7 
      1429.0         0.13         -4.0 
      1430.0         0.17         -4.1 
      1431.0         0.17         -4.6 
      1432.0         0.27         -4.8 
      1433.0         0.45         -2.1 
      1434.0         0.47          4.6 
      1435.0         0.17          7.8 
      1436.0         0.27          9.7 
      1437.0         0.53          9.1 
      1438.0         0.63          7.3 
      1439.0         0.70          6.9 
      1440.0         0.33          5.8 
      1441.0         7.35        182.2 
      1442.0         0.57        224.0 
      1443.0         0.40        256.4 
      1444.0         0.37        264.0 
      1445.0         0.47        262.4 
      1446.0         0.50        247.0 
      1447.0         0.47        215.6 
      1448.0         0.45        116.1 
      1449.0         0.43         32.8 
      1450.0         0.37          5.5 
      1451.0         0.43         -2.7 
      1452.0         0.37         -5.0 
      1453.0         0.30         -4.6 
      1454.0         0.27         -4.1 
      1455.0         0.27         -3.6 
      1456.0         0.27         -1.3 
      1457.0         0.35          8.8 
      1458.0         0.30         15.1 
      1459.0         0.30         17.4 
      1460.0         0.30         17.0 
      1461.0         0.27         17.5 
      1462.0         0.30         17.8 
      1463.0         0.30         18.0 
      1464.0         0.27         18.8 
      1465.0         0.30         20.0 
      1466.0         0.27         21.8 
      1467.0         0.13         23.0 
      1468.0         0.13         23.0 
      1469.0         0.17         24.4 
      1470.0         0.35         25.3 
      1471.0         5.62        130.9 
      1472.0         0.37        126.6 
      1473.0         0.27         92.7 
      1474.0         0.20         69.6 
      1475.0         0.28         57.4 
      1476.0         0.53         47.7 
      1477.0         0.43         40.4 
      1478.0         0.23         32.8 
      1479.0         0.37         21.9 
      1480.0         0.27          4.7 
      1481.0         0.27         -0.5 
      1482.0         0.37         -3.0 
      1483.0         0.20         -4.8 
      1484.0         0.17         -5.6 
      1485.0         0.13         -5.5 
      1486.0         0.20         -5.5 
      1487.0         0.28         -5.3 
      1488.0         0.23         -4.6 
      1489.0         0.27         -4.2 
      1490.0         0.27         -3.0 
      1491.0         0.20         -1.1 
      1492.0         0.13          0.1 
      1493.0         0.23          4.1 
      1494.0         0.17          7.9 
      1495.0         0.13          7.9 
      1496.0         0.20          9.6 
      1497.0         0.17         10.5 
      1498.0         0.13         10.5 
      1499.0         0.17         11.2 
      1500.0         0.23         11.4 
      1501.0         5.47        148.0 
      1502.0         0.20        168.3 
      1503.0         0.27        186.4 
      1504.0         0.23        186.5 
      1505.0         0.23        178.0 
      1506.0         0.20        161.5 
      1507.0         0.30        149.2 
      1508.0         0.38        136.0 
      1509.0         0.20        127.4 
      1510.0         0.20        125.9 
      1511.0         0.23        126.5 
      1512.0         0.20        125.2 
      1513.0         0.20        108.6 
      1514.0         0.33         77.5 
      1515.0         0.33         33.4 
      1516.0         0.30         12.0 
      1517.0         0.27          3.1 
      1518.0         0.23         -0.8 
      1519.0         0.23         -2.2 
      1520.0         0.17         -2.0 
      1521.0         0.17         -3.2 
      1522.0         0.13         -3.3 
      1523.0         0.18         -3.5 
      1524.0         0.17         -3.3 
      1525.0         0.13         -3.3 
      1526.0         0.17         -2.9 
      1527.0         0.23         -1.4 
      1528.0         0.23          0.8 
      1529.0         0.30          2.8 
      1530.0         0.27          4.6 
      1531.0         7.40        227.9 
      1532.0         0.30        250.6 
      1533.0         0.23        272.1 
      1534.0         0.23        295.9 
      1535.0         0.22        312.7 
      1536.0         0.20        314.0 
      1537.0         0.17        309.7 
      1538.0         0.17        296.4 
      1539.0         0.20        281.3 
      1540.0         0.23        261.7 
      1541.0         0.33        244.2 
      1542.0         0.27        228.9 
      1543.0         0.20        210.8 
      1544.0         0.27        194.5 
      1545.0         0.27        155.5 
      1546.0         0.27         92.3 
      1547.0         0.20         46.5 
      1548.0         0.23         26.2 
      1549.0         0.17         14.7 
      1550.0         0.22          9.4 
      1551.0         0.23          4.7 
      1552.0         0.23          2.5 
      1553.0         0.20          0.8 
      1554.0         0.23          0.7 
      1555.0         0.23          0.5 
      1556.0         0.30          0.5 
      1557.0         0.27          1.1 
      1558.0         0.20          2.1 
      1559.0         0.20          2.9 
      1560.0         0.13          4.4 
      1561.0         5.70        206.1 
      1562.0         0.27        234.8 
      1563.0         0.30        240.2 
      1564.0         0.33        233.5 
      1565.0         0.40        199.5 
      1566.0         0.63        162.4 
      1567.0         0.48        135.7 
      1568.0         0.43        119.9 
      1569.0         0.30         65.3 
      1570.0         0.30         29.4 
      1571.0         0.30         11.6 
      1572.0         0.23          4.7 
      1573.0         0.23          2.8 
      1574.0         0.27          1.6 
      1575.0         0.27          0.8 
      1576.0         0.27          2.0 
      1577.0         0.27          3.0 
      1578.0         0.32          5.4 
      1579.0         0.33          6.2 
      1580.0         0.27          7.3 
