~Version Information
 VERS.                                  2.0 : CWLS LAS VERSION
 WRAP.                                   NO : WRAPING MODE
 SWARE .                 MController 2.5.0J : SOFTWARE VERSION
~Well Information
 WELL.                      Warrior 33-1 Tr : WELL
 COMP.    Pioneer Natural Resources USA Inc : COMPANY
 FLD.                      Purgatoire River : FIELD
 LOC.                 NW/SE Sec 1 T33S R67W : LOCATION
 DATE.                            6/17/2005 : DATE(S) LOGGED
 SRVC.      Blanco Geological Services LLC  : SERVICE COMPANY
 STAT.                                   CO : STATE
 CNTY.                           Las Animas : COUNTY
 CTRY.                                  USA : COUNTRY
 API.                       05-071-08412-00 : API NUMBER
 STRT.FT                             383.00 : START DEPTH
 STOP.FT                            1751.00 : STOP DEPTH
 STEP.FT                               1.00 : DEPTH INCREMENT
 NULL.                                -9999 : NULL VALUE
~Curve information
 DEPTH.FT                                   :
 ROP.MIN/FT                                 :
 GAS.UNITS                                  :
~ASCII Log data
       383.0     -9999.00          9.6 
       384.0         1.67         10.3 
       385.0         2.35         10.5 
       386.0         0.43         10.3 
       387.0         0.73         10.5 
       388.0         0.20         10.1 
       389.0         0.20         10.2 
       390.0         0.10          9.9 
       391.0         0.37         10.3 
       392.0         1.82         10.6 
       393.0         0.67         10.5 
       394.0         6.57         10.6 
       395.0         1.33         10.6 
       396.0         0.58         10.4 
       397.0         0.73         10.5 
       398.0         0.40         10.4 
       399.0         0.33         10.7 
       400.0         0.87         10.6 
       401.0         0.78         11.0 
       402.0         0.67         11.0 
       403.0         0.67         10.9 
       404.0         0.40         11.0 
       405.0         0.43         10.9 
       406.0         0.20         10.8 
       407.0         0.50         11.0 
       408.0         0.68         11.1 
       409.0         0.23         10.7 
       410.0         0.40         11.2 
       411.0         0.13         11.3 
       412.0         1.03         11.4 
       413.0         0.43          8.2 
       414.0         0.62          8.7 
       415.0         0.23          8.5 
       416.0         0.47          8.4 
       417.0         0.30          8.4 
       418.0         0.33          8.3 
       419.0         0.23          8.7 
       420.0         0.27          8.1 
       421.0         0.43          8.2 
       422.0         1.18          8.3 
       423.0         1.07          8.5 
       424.0         2.45          1.6 
       425.0         0.20          1.4 
       426.0         1.70          1.7 
       427.0         0.07          0.9 
       428.0         0.33          1.1 
       429.0         0.30          1.3 
       430.0         0.10          1.0 
       431.0         0.68          1.1 
       432.0         0.77          1.2 
       433.0         0.20          1.0 
       434.0         0.20          0.9 
       435.0         0.07          0.8 
       436.0         0.33          1.1 
       437.0         0.13          1.2 
       438.0         0.90          1.3 
       439.0         0.82          1.5 
       440.0         0.17          1.2 
       441.0         0.10          1.1 
       442.0         0.43          1.2 
       443.0         0.20          1.2 
       444.0         0.17          1.3 
       445.0         0.17          1.2 
       446.0         0.07          1.2 
       447.0         0.27          1.3 
       448.0         0.47          1.4 
       449.0         0.20          1.2 
       450.0         0.33          1.2 
       451.0         0.45          1.1 
       452.0         0.70          1.3 
       453.0         0.43          1.2 
       454.0         0.43          1.3 
       455.0         0.17          1.1 
       456.0         0.80          1.2 
       457.0         0.37          1.1 
       458.0         0.23          1.1 
       459.0         0.18          0.9 
       460.0         0.17          1.2 
       461.0         0.17          1.1 
       462.0         0.17          1.3 
       463.0         0.13          1.2 
       464.0         0.17          1.2 
       465.0         0.17          1.1 
       466.0         0.13          1.3 
       467.0         0.20          1.1 
       468.0         0.20          0.9 
       469.0         0.13          1.3 
       470.0         0.13          1.3 
       471.0         0.13          1.3 
       472.0         0.13          1.3 
       473.0         0.17          1.2 
       474.0         0.20          1.2 
       475.0         0.17          0.1 
       476.0         0.33          3.7 
       477.0         0.13          1.9 
       478.0         0.13          2.0 
       479.0         0.15          5.1 
       480.0         0.13         21.5 
       481.0         0.67        120.9 
       482.0         0.37        258.8 
       483.0         0.20        285.9 
       484.0         0.27        272.2 
       485.0         0.23        140.5 
       486.0         0.37         77.6 
       487.0         0.43         20.3 
       488.0         0.20          7.2 
       489.0         0.17          8.1 
       490.0         0.23          9.6 
       491.0         0.25         10.0 
       492.0         0.20         10.7 
       493.0         0.33         11.4 
       494.0         0.13         11.5 
       495.0         0.13         11.1 
       496.0         0.13         11.1 
       497.0         0.10         11.5 
       498.0         0.17         10.9 
       499.0         0.13         10.5 
       500.0         0.20         10.6 
       501.0         0.20         10.5 
       502.0         0.20         10.4 
       503.0         0.23         10.1 
       504.0         0.20          8.6 
       505.0         0.20          5.8 
       506.0         0.17          3.9 
       507.0         0.20          3.3 
       508.0         0.20          6.3 
       509.0         0.22         14.9 
       510.0         1.87        131.3 
       511.0         0.43         27.8 
       512.0         0.27         13.1 
       513.0         0.20          9.5 
       514.0         0.17          8.2 
       515.0         0.20          7.9 
       516.0         0.22          7.1 
       517.0         0.20          4.5 
       518.0         0.20          5.7 
       519.0         0.23          9.2 
       520.0         0.27         11.6 
       521.0         0.10         12.0 
       522.0         0.47         12.0 
       523.0         0.27         10.0 
       524.0         0.20          8.7 
       525.0         0.23          8.4 
       526.0         0.23          8.8 
       527.0         0.20          8.3 
       528.0         0.23          8.6 
       529.0         0.20          9.1 
       530.0         0.15          8.7 
       531.0         0.13          8.8 
       532.0         0.20          8.8 
       533.0         0.23          8.9 
       534.0         0.20          8.5 
       535.0         0.23          8.7 
       536.0         0.20          8.3 
       537.0         0.20          7.4 
       538.0         0.20          6.6 
       539.0         0.20          6.4 
       540.0         3.32         85.2 
       541.0         0.17         44.9 
       542.0         0.47         35.2 
       543.0         0.23         12.4 
       544.0         0.23          8.9 
       545.0         0.27          6.9 
       546.0         0.13          5.7 
       547.0         0.18          5.4 
       548.0         0.17          5.3 
       549.0         0.17          5.5 
       550.0         0.17          5.9 
       551.0         0.13          6.1 
       552.0         0.17          6.4 
       553.0         0.20          7.2 
       554.0         0.17          7.3 
       555.0         0.20          7.0 
       556.0         0.17          7.0 
       557.0         0.17          6.9 
       558.0         0.20          7.0 
       559.0         0.17          7.1 
       560.0         0.20          7.3 
       561.0         0.17          7.3 
       562.0         0.20          7.6 
       563.0         0.20          7.3 
       564.0         0.17          7.0 
       565.0         0.22          6.8 
       566.0         0.20          5.2 
       567.0         0.20          3.6 
       568.0         0.20          2.9 
       569.0         0.23          5.5 
       570.0         1.73         71.9 
       571.0         0.10         38.7 
       572.0         0.20         35.4 
       573.0         0.33         22.1 
       574.0         0.25         16.3 
       575.0         0.20         11.2 
       576.0         0.23          8.7 
       577.0         0.20          7.8 
       578.0         0.20          6.8 
       579.0         0.23          6.2 
       580.0         0.17          6.4 
       581.0         0.17          6.6 
       582.0         0.20          6.3 
