~Version Information
 VERS.                                  2.0 : CWLS LAS VERSION
 WRAP.                                   NO : WRAPING MODE
 SWARE .                 MController 2.5.0J : SOFTWARE VERSION
~Well Information
 WELL.                       Montoya 12-41R : WELL
 COMP.                       Petrogulf Corp : COMPANY
 FLD.                      Purgatorie River : FIELD
 LOC.                NW/NW Sec 12 T33S R68W : LOCATION
 DATE.                             11/17/04 : DATE(S) LOGGED
 SRVC.       Blanco Geological Services LLC : SERVICE COMPANY
 STAT.                                   CO : STATE
 CNTY.                           Las Animas : COUNTY
 CTRY.                                  USA : COUNTRY
 API.                       05-071-08241-00 : API NUMBER
 STRT.FT                             536.00 : START DEPTH
 STOP.FT                            1530.00 : STOP DEPTH
 STEP.FT                               1.00 : DEPTH INCREMENT
 NULL.                                -9999 : NULL VALUE
~Curve information
 DEPTH.FT                                   :
 ROP.MIN/FT                                 :
 GAS.UNITS                                  :
~ASCII Log data
# ...
       736.0         0.20          8.0 
       737.0         0.23          8.4 
       738.0         0.20          8.8 
       739.0         0.23          7.9 
       740.0         0.25          7.7 
       741.0         0.20          8.0 
       742.0         0.20          7.8 
       743.0         0.23          8.4 
       744.0         0.17          9.1 
       745.0         0.23          9.2 
       746.0         0.33          7.7 
       747.0         0.40         16.0 
       748.0         0.33         48.4 
       749.0         0.30         46.9 
       750.0         0.27         36.4 
       751.0         0.20         27.9 
       752.0         0.23         19.8 
       753.0         0.20         15.2 
       754.0         0.33         10.5 
       755.0         0.17          9.7 
       756.0         0.20          8.5 
       757.0         0.20          7.8 
       758.0         0.20          8.1 
       759.0         0.18          7.7 
       760.0         0.17          7.6 
       761.0         0.23          8.0 
       762.0         0.17          8.1 
       763.0         0.17          7.9 
       764.0         0.13          8.2 
       765.0         0.27          8.1 
       766.0         0.20          8.1 
       767.0         0.13          8.1 
       768.0         0.13          8.8 
       769.0         0.23          8.2 
       770.0         0.13          8.3 
       771.0         0.13          7.5 
       772.0         0.17          8.0 
       773.0         0.17          8.3 
       774.0         0.17          8.4 
       775.0         0.27          8.6 
       776.0         0.27          9.8 
       777.0         0.30         12.8 
       778.0         0.32         22.9 
       779.0         0.23         23.4 
       780.0         0.30         18.4 
       781.0         0.27         15.2 
       782.0         0.23         13.5 
       783.0         0.23         12.0 
       784.0         0.20         11.4 
       785.0         0.17         10.5 
       786.0         0.17          9.7 
       787.0         0.23          9.8 
       788.0         0.17          9.6 
       789.0         0.23          9.6 
       790.0         0.20          9.4 
       791.0         0.20          9.9 
       792.0         0.25         10.5 
       793.0         0.17         10.0 
       794.0         0.23          9.7 
       795.0         0.20          9.4 
       796.0         0.20          9.6 
       797.0         0.20         10.0 
       798.0         0.20         10.2 
       799.0         0.23         10.6 
       800.0         0.20         10.5 
       801.0         0.20          9.8 
       802.0         0.20          9.8 
       803.0         0.20         10.0 
       804.0         0.20         10.5 
       805.0         0.20         10.5 
       806.0         0.20         10.3 
       807.0         0.27          9.9 
       808.0         0.37          9.9 
       809.0         0.23          9.9 
       810.0         0.27         10.2 
       811.0         0.17         10.0 
       812.0         0.17         10.0 
       813.0         0.25         10.2 
       814.0         0.23         10.4 
       815.0         0.23         10.4 
       816.0         0.20          9.9 
       817.0         0.27          9.7 
       818.0         0.27          9.8 
       819.0         0.20         10.1 
       820.0         0.27          9.9 
       821.0         0.20          9.5 
       822.0         0.20         10.1 
       823.0         0.27          9.4 
       824.0         0.23          9.5 
       825.0         0.20          9.4 
       826.0         0.23         10.0 
       827.0         0.23          9.6 
       828.0         0.22          9.7 
       829.0         0.27          9.7 
       830.0         0.23          8.8 
       831.0         0.30          8.4 
       832.0         0.30          8.8 
       833.0         0.27         10.4 
       834.0         0.30         10.5 
       835.0         0.27          9.8 
       836.0         0.27          9.5 
       837.0         0.37          9.2 
       838.0         0.40          9.8 
       839.0         0.33          9.5 
       840.0         0.37          9.2 
       841.0         0.22          9.5 
       842.0         0.30          9.2 
       843.0         0.37          9.4 
       844.0         0.30          9.3 
       845.0         0.37          8.3 
       846.0         0.37          9.1 
       847.0         0.43          9.1 
       848.0         0.40          9.3 
       849.0         0.37          9.0 
       850.0         0.52         53.6 
       851.0         0.57         27.8 
       852.0         0.40         13.9 
       853.0         0.23          9.6 
       854.0         0.33          5.8 
       855.0         0.37          4.4 
       856.0         0.40          5.2 
       857.0         0.40          7.5 
       858.0         0.52          6.9 
       859.0         0.43          6.0 
       860.0         0.33          7.1 
       861.0         0.37          7.6 
       862.0         0.33          7.5 
       863.0         0.33          7.3 
       864.0         0.30          8.0 
       865.0         0.27          8.2 
       866.0         0.27          9.4 
       867.0         0.27         10.3 
       868.0         0.33         10.3 
       869.0         0.47          9.5 
       870.0         0.45         10.1 
       871.0         0.40          9.8 
       872.0         0.40          9.5 
       873.0         0.40          8.8 
       874.0         0.43          9.9 
       875.0         0.43          9.8 
       876.0         0.43         10.1 
       877.0         0.43          8.6 
       878.0         0.28          8.7 
       879.0         0.30          9.4 
       880.0         0.27         10.0 
       881.0         0.33          9.7 
       882.0         0.33         10.0 
       883.0         0.30          9.2 
       884.0         0.33          9.3 
       885.0         0.27          9.2 
       886.0         0.27          9.0 
       887.0         0.27          8.9 
       888.0         0.30         10.1 
       889.0         0.25          9.8 
       890.0         0.23          9.4 
       891.0         0.27          9.5 
       892.0         0.20         10.0 
       893.0         0.23         10.3 
       894.0         0.20         10.0 
       895.0         0.17          9.4 
       896.0         0.17          9.9 
       897.0         0.17         10.4 
       898.0         0.17         10.5 
       899.0         0.13         10.8 
       900.0         0.13         11.2 
       901.0         0.17         92.4 
       902.0         0.13        131.2 
       903.0         0.23         41.1 
       904.0         0.23         15.5 
       905.0         0.20         12.2 
       906.0         0.23         10.7 
       907.0         0.13         10.2 
       908.0         0.10          9.5 
       909.0         0.23          7.3 
       910.0         0.27          6.6 
       911.0         0.22          6.4 
       912.0         0.20          6.3 
       913.0         0.17          7.2 
       914.0         0.23          6.8 
       915.0         0.20          7.0 
       916.0         0.20          6.7 
       917.0         0.10          7.2 
       918.0         0.17          7.2 
       919.0         0.20          7.9 
       920.0         0.23          8.4 
       921.0         0.20          8.5 
       922.0         0.20          8.3 
       923.0         0.20          7.9 
       924.0         0.20          8.2 
       925.0         0.20          8.1 
       926.0         0.27          9.0 
       927.0         0.27          9.1 
       928.0         0.40          8.6 
       929.0         0.43          8.5 
       930.0         0.23          8.7 
       931.0         0.20          8.5 
       932.0         0.32          8.2 
       933.0         0.27          8.4 
       934.0         0.23          8.7 
       935.0         0.23          7.9 
