~Version Information
VERS.                      2.0: CWLS Log ASCII Standard - VERSION 2.0
WRAP.                       NO: One line per depth step
~Well Information Block
STRT.FT               430.0000: 
STOP.FT              2417.0000: 
STEP.FT                 0.1000: 
NULL.                -999.2500: 
COMP.          Evergreen Operating Corporation: COMPANY
WELL.          McCullough 34-32: WELL
FLD.           Purgatorie River: FIELD
LOC.           261' FSL & 2098' FEL: LOCATION
PROV.                 Colorado: PROVINCE
CNTY.               Las Animas: COUNTRY
SRVC.                Patterson: SERVICE COMPANY
DATE.          Mon May 17 11:25:23 2004: LOG DATE
UWI.           05 071 07953 00: UNIQUE WELL ID
~Curve Information Block
DEPT.FT            0 000 00 00: Depth
DCAL.in                       : CDL Caliper
RHOB.g/cc                     : CDL Bulk Density
RHOC.g/cc                     : CDL Density Correction
DPOR.pu                       : CDL Density Porosity
NPOR.pu                       : Neutron Porosity
GR.GAPI                       : Gamma Ray
~Parameter Information Block
~A  Depth       DCAL        RHOB        RHOC        DPOR        NPOR         GR     
# ...
  2388.4000      7.8632      2.5219      0.2525      7.7634     41.3362   -999.2500
  2388.5000      7.8512      2.5864      0.2610      3.8522     46.8270   -999.2500
  2388.6000      7.8512      2.6342      0.2668      0.9557     48.8461   -999.2500
  2388.7000      7.8512      2.6493      0.2789      0.0404     49.2470   -999.2500
  2388.8000      7.5771      2.6296      0.2356      1.2363     49.2895   -999.2500
  2388.9000      7.5771      2.5875      0.2076      3.7897     49.2919   -999.2500
  2389.0000      7.4879      2.5395      0.1264      6.6971   -999.2500   -999.2500
  2389.1000      7.4879      2.5039      0.0757      8.8534   -999.2500   -999.2500
  2389.2000      7.4879      2.4880      0.0821      9.8172   -999.2500   -999.2500
  2389.3000      7.4769      2.4823      0.0714     10.1659   -999.2500   -999.2500
  2389.4000      7.4769      2.4794      0.0486     10.3380   -999.2500   -999.2500
  2389.5000      7.4315      2.4786      0.0938     10.3873   -999.2500   -999.2500
  2389.6000      7.4315      2.4727      0.0661     10.7436   -999.2500   -999.2500
  2389.7000      7.4315      2.4542      0.0717     11.8679   -999.2500   -999.2500
  2389.8000      7.3856      2.4301      0.0392     13.3279   -999.2500   -999.2500
  2389.9000      7.3856      2.4173      0.0322     14.1033   -999.2500   -999.2500
  2390.0000      7.3645      2.4186      0.0935     14.0214   -999.2500   -999.2500
  2390.1000      7.3645      2.4213      0.0656     13.8633   -999.2500   -999.2500
  2390.2000      7.3645      2.4234      0.0444     13.7336   -999.2500   -999.2500
  2390.3000      7.2994      2.4308      0.0983     13.2839   -999.2500   -999.2500
  2390.4000      7.2994      2.4349      0.1476     13.0380   -999.2500   -999.2500
  2390.5000      7.2517      2.4285      0.1285     13.4269   -999.2500   -999.2500
  2390.6000      7.2517      2.4235      0.1054     13.7280   -999.2500   -999.2500
  2390.7000      7.2517      2.4281      0.1663     13.4477   -999.2500   -999.2500
  2390.8000      7.2224      2.4308      0.2208     13.2833   -999.2500   -999.2500
  2390.9000      7.2224      2.4216      0.1898     13.8440   -999.2500   -999.2500
  2391.0000      7.1897      2.4027      0.1624     14.9899   -999.2500   -999.2500
  2391.1000      7.1897      2.3810      0.1397     16.3030   -999.2500   -999.2500
  2391.2000      7.1897      2.3685      0.1078     17.0594   -999.2500   -999.2500
  2391.3000      7.1164      2.3751      0.1381     16.6600   -999.2500   -999.2500
  2391.4000      7.1164      2.3957      0.1307     15.4109   -999.2500   -999.2500
  2391.5000      7.0956      2.4162      0.1681     14.1704   -999.2500   -999.2500
  2391.6000      7.0956      2.4271      0.1720     13.5081   -999.2500   -999.2500
  2391.7000      7.0956      2.4307      0.1592     13.2939   -999.2500   -999.2500
  2391.8000      7.1124      2.4292      0.1667     13.3798   -999.2500   -999.2500
  2391.9000      7.1124      2.4193      0.1472     13.9817   -999.2500   -999.2500
  2392.0000      7.0877      2.4037      0.1328     14.9284   -999.2500   -999.2500
  2392.1000      7.0877      2.3931      0.1134     15.5695   -999.2500   -999.2500
  2392.2000      7.0877      2.3963      0.1005     15.3748   -999.2500   -999.2500
  2392.3000      7.0653      2.4117      0.1144     14.4426   -999.2500   -999.2500
  2392.4000      7.0653      2.4279      0.1136     13.4594   -999.2500   -999.2500
  2392.5000      7.0212      2.4353      0.1397     13.0142   -999.2500   -999.2500
  2392.6000      7.0212      2.4340      0.1584     13.0902   -999.2500   -999.2500
  2392.7000      7.0212      2.4299      0.1591     13.3389   -999.2500   -999.2500
  2392.8000      6.9424      2.4266      0.1697     13.5419   -999.2500   -999.2500
  2392.9000      6.9424      2.4275      0.1612     13.4863   -999.2500   -999.2500
  2393.0000      6.9095      2.4383      0.1882     12.8293   -999.2500   -999.2500
  2393.1000      6.9095      2.4564      0.1856     11.7351   -999.2500   -999.2500
  2393.2000      6.9095      2.4673      0.1848     11.0719   -999.2500   -999.2500
  2393.3000      6.9585      2.4619      0.1625     11.4027   -999.2500   -999.2500
  2393.4000      6.9585      2.4445      0.1416     12.4519   -999.2500   -999.2500
  2393.5000      6.9485      2.4226      0.1110     13.7796   -999.2500   -999.2500
  2393.6000      6.9485      2.4018      0.0717     15.0406   -999.2500   -999.2500
  2393.7000      6.9485      2.3902      0.0701     15.7458   -999.2500   -999.2500
  2393.8000      6.9054      2.3934      0.0838     15.5517   -999.2500   -999.2500
  2393.9000      6.9054      2.4043      0.1073     14.8916   -999.2500   -999.2500
  2394.0000      6.8799      2.4066      0.1265     14.7530   -999.2500   -999.2500
  2394.1000      6.8799      2.3891      0.1264     15.8094   -999.2500   -999.2500
  2394.2000      6.8799      2.3403      0.1107     18.7704   -999.2500   -999.2500
  2394.3000      6.8289      2.2196      0.1190     26.0824   -999.2500   -999.2500
  2394.4000      6.8289      1.9746      0.0297     40.9318   -999.2500   -999.2500
  2394.5000      6.5826      1.6222     -0.1243     62.2923   -999.2500   -999.2500
  2394.6000      6.5826      1.2776     -0.2910     83.1734   -999.2500   -999.2500
  2394.7000      6.5826      1.0594     -0.3317     96.3974   -999.2500   -999.2500
  2394.8000      5.4301      0.9958     -0.3243    100.2543   -999.2500   -999.2500
  2394.9000      5.4301      1.0488     -0.2370     97.0417   -999.2500   -999.2500
  2395.0000      4.6232      1.1597     -0.0300     90.3196   -999.2500   -999.2500
  2395.1000      4.6232      1.2625      0.1387     84.0912   -999.2500   -999.2500
  2395.2000      4.6232      1.3181      0.1427     80.7240   -999.2500   -999.2500
  2395.3000      4.5197      1.3355      0.1333     79.6690   -999.2500   -999.2500
  2395.4000      4.5197      1.3394      0.1424     79.4291   -999.2500   -999.2500
  2395.5000      4.5249      1.3411      0.1404     79.3266   -999.2500   -999.2500
  2395.6000      4.5249      1.3430      0.1412     79.2119   -999.2500   -999.2500
  2395.7000      4.5249      1.3501      0.1418     78.7804   -999.2500   -999.2500
  2395.8000      4.5181      1.3962      0.1525     75.9904   -999.2500   -999.2500
  2395.9000      4.5181      1.6277      0.1375     61.9570   -999.2500   -999.2500
  2396.0000      4.5200      2.3020      0.1648     21.0885   -999.2500   -999.2500
  2396.1000      4.5200      3.2265      0.7300    -34.9395   -999.2500   -999.2500
  2396.2000      4.5200      3.3033      2.2709    -39.5961   -999.2500   -999.2500
  2396.3000      4.1065      2.0718      0.0500     35.0446   -999.2500   -999.2500
  2396.4000      4.1065      0.7361   -999.2500    115.9955   -999.2500   -999.2500
  2396.5000      1.0597      0.1429   -999.2500    151.9428   -999.2500   -999.2500
  2396.6000      1.0597      0.0149   -999.2500    159.7026   -999.2500   -999.2500
  2396.7000      1.0597      0.0008   -999.2500    160.5565   -999.2500   -999.2500
  2396.8000      0.6474      0.0000   -999.2500    160.6061   -999.2500   -999.2500
  2396.9000      0.6474   -999.2500   -999.2500   -999.2500   -999.2500   -999.2500
  2397.0000   -999.2500   -999.2500   -999.2500   -999.2500   -999.2500   -999.2500
  2397.1000   -999.2500   -999.2500   -999.2500   -999.2500   -999.2500   -999.2500
  2397.2000   -999.2500   -999.2500   -999.2500   -999.2500   -999.2500   -999.2500
  2397.3000   -999.2500   -999.2500   -999.2500   -999.2500   -999.2500   -999.2500
  2397.4000   -999.2500   -999.2500   -999.2500   -999.2500   -999.2500   -999.2500
  2397.5000   -999.2500   -999.2500   -999.2500   -999.2500   -999.2500   -999.2500
  2397.6000   -999.2500   -999.2500   -999.2500   -999.2500   -999.2500   -999.2500
  2397.7000   -999.2500   -999.2500   -999.2500   -999.2500   -999.2500   -999.2500
  2397.8000   -999.2500   -999.2500   -999.2500   -999.2500   -999.2500   -999.2500
  2397.9000   -999.2500   -999.2500   -999.2500   -999.2500   -999.2500   -999.2500
