~Version Information
VERS.                      2.0: CWLS Log ASCII Standard - VERSION 2.0
WRAP.                       NO: One line per depth step
~Well Information Block
STRT.FT               964.2000: 
STOP.FT              2596.7000: 
STEP.FT                 0.1000: 
NULL.                -999.2500: 
COMP.          Petrogulf Corporation: COMPANY
WELL.             Valejo 8-12V: WELL
FLD.           Purgatorie River: FIELD
LOC.           1510' FNL & 1460' FWL: LOCATION
CNTY.               Las Animas: COUNTY
SRVC.                         : SERVICE COMPANY
DATE.          Sat Nov 15 12:30:37 2003: LOG DATE
UWI.                          : UNIQUE WELL ID
STAT.                 Colorado: STATE
~Curve Information Block
DEPT.FT            0 000 00 00: Depth
DCAL.in                       : CDL Caliper
RHOB.g/cc                     : CDL Bulk Density
RHOC.g/cc                     : CDL Density Correction
DPOR.pu                       : CDL Density Porosity
GR.GAPI                       : Gamma Ray
NPOR.pu                       : Neutron Porosity
~Parameter Information Block
~A  Depth       DCAL        RHOB        RHOC        DPOR         GR         NPOR    
# ...
  2481.0000      8.2508      2.1649     -0.0805     29.4016     55.4380     25.9465
  2481.1000      8.2508      2.0622     -0.0940     35.6229     54.1460     25.1054
  2481.2000      8.2508      1.9865     -0.1216     40.2135     53.8207     24.4778
  2481.3000      8.2494      1.9329     -0.1031     43.4608     52.4817     24.3714
  2481.4000      8.2494      1.8827     -0.0788     46.5038     48.8488     24.7233
  2481.5000      8.2493      1.8329     -0.0378     49.5193     46.2450     24.7183
  2481.6000      8.2493      1.7989     -0.0148     51.5819     47.1072     24.1687
  2481.7000      8.2493      1.7829      0.0055     52.5537     46.0784     23.5473
  2481.8000      8.2505      1.7718      0.0090     53.2263     41.1406     22.7173
  2481.9000      8.2505      1.7621      0.0419     53.8149     38.3068     21.7820
  2482.0000      8.2520      1.7632      0.0102     53.7472     39.3388     21.1942
  2482.1000      8.2520      1.7775      0.0596     52.8793     40.9590     20.9912
  2482.2000      8.2520      1.7999      0.0399     51.5218     40.7617     21.1474
  2482.3000      8.2526      1.8412      0.0330     49.0201     38.7887     21.3944
  2482.4000      8.2526      1.9156      0.0393     44.5111     38.5961     21.1248
  2482.5000      8.2515      2.0078      0.0905     38.9225     40.7977     20.4483
  2482.6000      8.2515      2.0885      0.0751     34.0314     40.7523     20.1555
  2482.7000      8.2515      2.1525      0.1160     30.1510     38.0445     20.5084
  2482.8000      8.2497      2.2130      0.1239     26.4872     36.0190     21.3991
  2482.9000      8.2497      2.2798      0.1039     22.4369     35.5078     22.2918
  2483.0000      8.2494      2.3532      0.0768     17.9855     35.2814     22.4478
  2483.1000      8.2494      2.4256      0.0812     13.6022     33.5647     22.2087
  2483.2000      8.2494      2.4915      0.1133      9.6071     30.3625     22.5172
  2483.3000      8.2522      2.5510      0.0783      6.0030     28.3021     23.5643
  2483.4000      8.2522      2.5979      0.0616      3.1600     29.5583     24.5314
  2483.5000      8.2577      2.6177      0.0568      1.9555     32.3995     24.7477
  2483.6000      8.2577      2.6078      0.0551      2.5584     32.2531     24.5237
  2483.7000      8.2577      2.5863      0.0204      3.8629     28.7576     24.1943
  2483.8000      8.2642      2.5745      0.0262      4.5752     27.0230     23.7152
  2483.9000      8.2642      2.5837      0.0450      4.0174     29.9280     23.4485
  2484.0000      8.2700      2.6127      0.0476      2.2603     34.4396     23.4074
  2484.1000      8.2700      2.6415      0.0880      0.5154     36.0645     23.1542
  2484.2000      8.2700      2.6464      0.0617      0.2174     33.3990     22.7940
  2484.3000      8.2738      2.6328      0.0525      1.0450     30.1136     22.4632
  2484.4000      8.2738      2.6250      0.0478      1.5146     30.4211     22.4354
  2484.5000      8.2746      2.6245      0.0625      1.5474     35.0630     23.2614
  2484.6000      8.2746      2.6110      0.0539      2.3662     42.9186     24.2669
  2484.7000      8.2746      2.5799      0.0202      4.2455     49.9296     24.1180
  2484.8000      8.2729      2.5512     -0.0099      5.9895     52.8862     23.3165
  2484.9000      8.2729      2.5428     -0.0082      6.4967     54.2572     23.2318
  2485.0000      8.2702      2.5448      0.0263      6.3758     57.1564     23.8010
  2485.1000      8.2702      2.5307      0.0317      7.2296     59.2974     24.3194
  2485.2000      8.2702      2.4892      0.0160      9.7471     59.1225     24.7080
  2485.3000      8.2683      2.4341     -0.0294     13.0825     59.1878     24.6092
  2485.4000      8.2683      2.3908     -0.0137     15.7070     60.4525     23.7113
  2485.5000      8.2684      2.3697      0.0151     16.9904     61.8519     22.9391
  2485.6000      8.2684      2.3599      0.0343     17.5832     62.1673     23.0208
  2485.7000      8.2684      2.3527      0.0181     18.0154     59.5970     23.4018
  2485.8000      8.2709      2.3539      0.0363     17.9439     53.6411     23.5269
  2485.9000      8.2709      2.3639      0.0673     17.3366     49.8120     23.6916
  2486.0000      8.2756      2.3756      0.0596     16.6285     52.6851     24.2228
  2486.1000      8.2756      2.3909      0.0649     15.7010     57.6678     24.9367
  2486.2000      8.2756      2.4127      0.0946     14.3815     58.2728     25.2691
  2486.3000      8.2810      2.4299      0.1090     13.3379     55.5327     25.2454
  2486.4000      8.2810      2.4294      0.0296     13.3725     54.7235     25.6100
  2486.5000      8.2853      2.4069      0.0129     14.7347     54.9927     26.2528
  2486.6000      8.2853      2.3567     -0.0143     17.7787     50.6973     26.7851
  2486.7000      8.2853      2.2701     -0.0218     23.0250     44.7812     27.2569
  2486.8000      8.2872      2.1608     -0.1124     29.6491     43.6631     27.4814
  2486.9000      8.2872      2.0716     -0.1432     35.0540     46.0661     27.5017
  2487.0000      8.2866      2.0342     -0.1251     37.3227     49.1450     27.4552
  2487.1000      8.2866      2.0458     -0.0833     36.6206     54.1359     26.8044
  2487.2000      8.2866      2.0896     -0.0472     33.9639     62.4581     25.4303
  2487.3000      8.2850      2.1551      0.0537     29.9954     72.7272     24.1159
  2487.4000      8.2850      2.2314      0.1661     25.3695     82.7808     23.4666
  2487.5000      8.2839      2.3000      0.2026     21.2138     87.8802     23.3992
  2487.6000      8.2839      2.3496      0.2014     18.2062     86.4127     23.4932
  2487.7000      8.2839      2.3861      0.1557     15.9952     85.2521     23.7020
  2487.8000      8.2840      2.4195      0.0856     13.9684     89.6464     24.1070
  2487.9000      8.2840      2.4530      0.0753     11.9412     98.7884     24.3785
  2488.0000      8.2853      2.4799      0.1091     10.3119    107.4830     23.9759
  2488.1000      8.2853      2.4964      0.0636      9.3085    111.4118     22.7969
  2488.2000      8.2853      2.5092      0.0788      8.5335    113.0086     21.5426
  2488.3000      8.2866      2.5179      0.0741      8.0075    113.7127     20.7657
  2488.4000      8.2866      2.5155      0.0778      8.1489    109.1350     20.5202
  2488.5000      8.2874      2.5060      0.0636      8.7267     97.9856     20.4786
  2488.6000      8.2874      2.5058      0.0047      8.7415     86.4229     19.9037
  2488.7000      8.2874      2.5243      0.0532      7.6180     81.7607     18.9318
  2488.8000      8.2877      2.5515      0.0684      5.9718     84.6933     18.6962
  2488.9000      8.2877      2.5709      0.1070      4.7951     92.5100     19.3355
  2489.0000      8.2883      2.5717      0.1000      4.7468     95.7161     19.5339
  2489.1000      8.2883      2.5598      0.0563      5.4665     84.9015     18.6497
  2489.2000      8.2883      2.5528      0.0487      5.8889     68.3884     17.5415
  2489.3000      8.2897      2.5570      0.0344      5.6382     59.4303     16.9365
  2489.4000      8.2897      2.5641      0.0616      5.2078     57.7551     16.8022
  2489.5000      8.2922      2.5704      0.0279      4.8259     58.1354     16.9436
  2489.6000      8.2922      2.5823      0.0573      4.1050     59.2532     16.9680
  2489.7000      8.2922      2.5971      0.0598      3.2051     61.6806     16.6060
  2489.8000      8.2953      2.6032      0.0561      2.8344     63.9219     16.2509
  2489.9000      8.2953      2.5939      0.0708      3.4008     62.7846     16.0662
  2490.0000      8.2987      2.5693      0.0368      4.8923     59.5290     15.4049
  2490.1000      8.2987      2.5347      0.0250      6.9854     56.4883     14.1375
  2490.2000      8.2987      2.5024      0.0034      8.9451     53.2978     13.2344
  2490.3000      8.3015      2.4918     -0.0490      9.5895     50.8492     13.1458
  2490.4000      8.3015      2.5077      0.0283      8.6215     51.2183     13.4445
  2490.5000      8.3032      2.5268      0.0565      7.4690     53.8752     13.7787
