~Version Information
VERS.                      2.0: CWLS Log ASCII Standard - VERSION 2.0
WRAP.                       NO: One line per depth step
~Well Information Block
STRT.FT               423.0000: 
STOP.FT              2308.2500: 
STEP.FT                 0.2500: 
NULL.                -999.2500: 
COMP.          Pioneer Natural Resources: COMPANY
WELL.             Culver 14-12: WELL
FLD.           Purgatoire River: FIELD
LOC.           913' FSL & 1140' FWL: LOCATION
PROV.                 Colorado: PROVINCE
CNTY.               Las Animas: COUNTRY
SRVC.                Patterson: SERVICE COMPANY
DATE.          Tue Jun 07 00:21:41 2005: LOG DATE
UWI.           05 071 08386 00: UNIQUE WELL ID
~Curve Information Block
DEPT.FT            0 000 00 00: Depth
SN.Ohm-m                      : IEL Short Normal
SP.mV                         : IEL Spontaneous Potential
DIR.Ohm-m                     : IEL Induction Resistivity
GR.GAPI                       : Gamma Ray
~Parameter Information Block
~A  Depth        SN          SP         DIR          GR     
# ...
  1394.5000     13.7216   -101.2213     10.7044    137.7405
  1394.7500     13.4036   -101.0976     10.7002    139.2571
  1395.0000     12.8887   -100.9728     10.6481    140.2858
  1395.2500     12.1202   -100.8436     10.5608    140.1857
  1395.5000     11.1698   -100.6931     10.4515    139.9041
  1395.7500     10.2109   -100.5024     10.3297    140.1847
  1396.0000      9.4146   -100.2646     10.2005    141.2677
  1396.2500      8.8896    -99.9914     10.0677    141.9194
  1396.5000      8.6782    -99.7095      9.9364    141.9377
  1396.7500      8.7557    -99.4525      9.8132    141.1315
  1397.0000      9.0483    -99.2475      9.7060    138.9437
  1397.2500      9.4881    -99.1045      9.6237    137.2355
  1397.5000     10.0467    -99.0148      9.5728    135.1514
  1397.7500     10.6929    -98.9613      9.5559    134.3484
  1398.0000     11.3283    -98.9275      9.5715    133.6898
  1398.2500     11.8140    -98.9006      9.6163    133.2309
  1398.5000     12.0790    -98.8693      9.6873    132.4523
  1398.7500     12.1615    -98.8268      9.7815    132.2515
  1399.0000     12.1459    -98.7759      9.8941    132.9177
  1399.2500     12.1008    -98.7311     10.0188    133.9108
  1399.5000     12.0657    -98.7136     10.1489    135.9417
  1399.7500     12.0599    -98.7407     10.2788    137.6564
  1400.0000     12.0860    -98.8171     10.4045    140.5827
  1400.2500     12.1329    -98.9316     10.5239    142.3385
  1400.5000     12.1872    -99.0622     10.6386    143.8240
  1400.7500     12.2419    -99.1870     10.7538    143.7689
  1401.0000     12.2954    -99.2948     10.8761    142.0831
  1401.2500     12.3465    -99.3891     11.0097    140.1055
  1401.5000     12.3981    -99.4837     11.1535    136.5662
  1401.7500     12.4655    -99.5929     11.3022    134.2395
  1402.0000     12.5722    -99.7245     11.4475    131.1590
  1402.2500     12.7294    -99.8796     11.5801    129.4025
  1402.5000     12.9272   -100.0607     11.6896    126.9876
  1402.7500     13.1459   -100.2798     11.7662    125.1793
  1403.0000     13.3604   -100.5588     11.8050    121.6348
  1403.2500     13.5307   -100.9251     11.8112    118.9699
  1403.5000     13.6180   -101.4062     11.8016    116.1351
  1403.7500     13.6148   -102.0248     11.7980    115.9886
  1404.0000     13.5361   -102.7894     11.8154    118.6309
  1404.2500     13.3948   -103.6839     11.8521    121.5053
  1404.5000     13.2065   -104.6655     11.8893    125.5787
  1404.7500     12.9978   -105.6761     11.9002    127.3159
  1405.0000     12.7907   -106.6606     11.8631    127.9013
  1405.2500     12.5938   -107.5810     11.7710    127.1153
  1405.5000     12.4442   -108.4191     11.6334    125.2043
  1405.7500     12.4354   -109.1704     11.4693    124.1320
  1406.0000     12.6137   -109.8337     11.2992    123.3545
  1406.2500     12.8851   -110.4068     11.1400    123.3311
  1406.5000     13.1182   -110.8879     11.0067    123.9029
  1406.7500     13.2584   -111.2794     10.9156    124.5585
  1407.0000     13.3097   -111.5862     10.8874    125.1943
  1407.2500     13.3047   -111.8091     10.9438    124.8559
  1407.5000     13.3018   -111.9379     11.1015    123.1260
  1407.7500     13.3602   -111.9509     11.3646    121.6698
  1408.0000     13.5129   -111.8227     11.7188    119.6641
  1408.2500     13.7784   -111.5383     12.1281    117.9863
  1408.5000     14.1875   -111.1043     12.5364    112.9279
  1408.7500     14.7820   -110.5474     12.8769    106.8436
  1409.0000     15.6207   -109.9030     13.0898     93.6993
  1409.2500     16.8596   -109.2028     13.1419     83.3805
  1409.5000     18.7473   -108.4707     13.0371     68.4768
  1409.7500     21.2844   -107.7265     12.8120     60.7534
  1410.0000     23.7864   -106.9900     12.5199     55.2024
  1410.2500     25.0750   -106.2791     12.2125     56.4609
  1410.5000     24.3753   -105.6053     11.9262     65.7112
  1410.7500     21.9360   -104.9732     11.6771     75.7140
  1411.0000     18.7190   -104.3876     11.4612     93.2996
  1411.2500     15.6668   -103.8629     11.2599    104.5516
  1411.5000     13.2878   -103.4227     11.0465    117.4954
  1411.7500     11.6771   -103.0880     10.7938    122.5199
  1412.0000     10.7084   -102.8644     10.4834    124.9539
  1412.2500     10.1918   -102.7378     10.1167    124.1933
  1412.5000      9.9581   -102.6802      9.7207    121.5953
  1412.7500      9.9002   -102.6580      9.3410    119.9165
  1413.0000      9.9636   -102.6416      9.0243    118.4870
  1413.2500     10.0976   -102.6166      8.8014    118.3910
  1413.5000     10.2488   -102.5918      8.6813    119.2460
  1413.7500     10.3955   -102.5921      8.6556    120.2291
  1414.0000     10.5444   -102.6378      8.7085    121.9638
  1414.2500     10.7081   -102.7273      8.8262    123.1281
  1414.5000     10.8878   -102.8352      8.9990    124.4599
  1414.7500     11.0766   -102.9258      9.2178    124.6167
  1415.0000     11.2760   -102.9696      9.4668    122.9371
  1415.2500     11.4993   -102.9550      9.7193    120.5445
  1415.5000     11.7666   -102.8908      9.9432    116.3504
  1415.7500     12.0946   -102.7968     10.1141    114.1942
  1416.0000     12.4631   -102.6890     10.2265    112.7863
  1416.2500     12.7832   -102.5694     10.2928    112.8470
  1416.5000     12.9288   -102.4287     10.3288    113.6989
  1416.7500     12.8378   -102.2569     10.3395    114.5914
  1417.0000     12.5595   -102.0512     10.3148    116.5385
  1417.2500     12.1823   -101.8176     10.2368    118.2482
  1417.5000     11.7424   -101.5697     10.0928    120.9139
  1417.7500     11.2330   -101.3257      9.8838    122.2789
  1418.0000     10.6642   -101.1045      9.6245    123.3240
  1418.2500     10.0783   -100.9187      9.3350    123.6582
  1418.5000      9.5414   -100.7680      9.0334    124.6142
  1418.7500      9.1013   -100.6386      8.7321    125.7934
  1419.0000      8.7235   -100.5120      8.4399    127.5993
  1419.2500      8.3274   -100.3766      8.1640    128.2267
  1419.5000      7.8904   -100.2336      7.9108    128.4677
  1419.7500      7.4693   -100.0938      7.6852    128.7748
  1420.0000      7.1557    -99.9704      7.4882    129.5801
  1420.2500      7.0129    -99.8739      7.3176    129.6055
  1420.5000      7.0154    -99.8119      7.1698    127.9506
  1420.7500      7.0817    -99.7897      7.0424    126.2505
  1421.0000      7.1520    -99.8092      6.9362    124.9775
  1421.2500      7.1883    -99.8635      6.8554    125.8982
  1421.5000      7.1633    -99.9354      6.8050    129.5415
  1421.7500      7.1067   -100.0042      6.7888    132.2971
  1422.0000      7.1092   -100.0561      6.8076    134.9313
  1422.2500      7.2381   -100.0910      6.8582    135.2762
  1422.5000      7.4526   -100.1196      6.9332    134.0836
  1422.7500      7.6266   -100.1540      7.0213    132.5151
  1423.0000      7.6844   -100.2002      7.1078    129.5359
  1423.2500      7.6892   -100.2564      7.1783    127.6000
  1423.5000      7.7371   -100.3163      7.2232    125.7929
  1423.7500      7.8286   -100.3752      7.2420    125.6943
  1424.0000      7.9188   -100.4404      7.2447    127.0753
  1424.2500      7.9898   -100.5393      7.2478    128.6324
  1424.5000      8.0367   -100.7200      7.2682    131.1960
  1424.7500      8.0678   -101.0376      7.3176    132.7394
  1425.0000      8.1119   -101.5349      7.4006    134.5599
  1425.2500      8.1846   -102.2258      7.5156    135.4747
  1425.5000      8.2737   -103.0930      7.6581    136.5072
  1425.7500      8.3699   -104.0990      7.8253    136.9124
  1426.0000      8.4857   -105.1999      8.0178    136.7292
  1426.2500      8.6399   -106.3544      8.2385    135.7755
  1426.5000      8.8520   -107.5241      8.4898    132.5636
  1426.7500      9.1449   -108.6759      8.7723    129.1050
  1427.0000      9.5251   -109.7843      9.0858    122.5702
  1427.2500      9.9790   -110.8330      9.4322    118.1432
  1427.5000     10.5046   -111.8141      9.8163    112.6049
  1427.7500     11.1286   -112.7243     10.2450    109.7413
