~Version Information
VERS.                      2.0: CWLS Log ASCII Standard - VERSION 2.0
WRAP.                       NO: One line per depth step
~Well Information Block
STRT.FT                -6.7500: 
STOP.FT               983.2500: 
STEP.FT                 0.2500: 
NULL.                -999.2500: 
COMP.          Pioneer Natural Resources: COMPANY
WELL.          Run-Away-Train 43-26: WELL
FLD.           Purgatorie River: FIELD
LOC.           1693' FSL & 1195' FWL------------: LOCATION
PROV.                       CO: PROVINCE
CNTY.               Las Animas: COUNTRY
SRVC.          Patterson Wireline: SERVICE COMPANY
DATE.          Thu Apr 14 12:30:00 2005: LOG DATE
UWI.           05 071 08188 00: UNIQUE WELL ID
~Curve Information Block
DEPT.FT            0 000 00 00: Depth
CCL.                          : Casing Collar Locator
TT3.usec                      : CBL 3' Travel Time
AMP3.mV                       : CBL 3' Amplitude
GR.GAPI                       : Gamma Ray
~Parameter Information Block
~A  Depth       CCL         TT3         AMP3         GR     
# ...
   261.2500      0.0000    802.2596      5.1535     76.0698
   261.5000      0.0000    803.0999      5.3042     74.6804
   261.7500      0.0000    804.7049      5.3017     72.8267
   262.0000      0.0000    807.0479      5.1598     71.4060
   262.2500      0.0000    809.2867      4.9957     70.6704
   262.5000      0.0000    810.7906      4.9357     70.4207
   262.7500      0.0000    811.5131      5.0169     70.6203
   263.0000      0.0000    811.6017      5.1579     71.4129
   263.2500      0.0000    811.0079      5.2343     72.6327
   263.5000      0.0000    809.5436      5.1986     73.6440
   263.7500      0.0000    807.3144      5.1265     73.9378
   264.0000      0.0000    805.0649      5.1423     73.7379
   264.2500      0.0000    803.8332      5.2996     73.7451
   264.5000      0.0000    803.9437      5.5398     74.4245
   264.7500      0.0000    804.5382      5.7588     75.7899
   265.0000      0.0000    804.5147      5.8924     77.7364
   265.2500      0.0000    803.8705      5.9424     80.3449
   265.5000      0.0000    803.7220      5.9451     83.7887
   265.7500      0.0000    804.9644      5.9305     87.7829
   266.0000      0.0000    807.2955      5.9038     91.1289
   266.2500      0.0000    809.6690      5.8525     92.2371
   266.5000      0.0000    811.2928      5.7698     90.4964
   266.7500      0.0000    811.9066      5.6694     86.9172
   267.0000      0.0000    811.3149      5.5781     83.1607
   267.2500      0.0000    808.9915      5.5148     80.2364
   267.5000      0.0000    804.3447      5.4750     78.5080
   267.7500      0.0000    797.5217      5.4364     78.5452
   268.0000      0.0000    789.9180      5.3803     81.1289
   268.2500      0.0000    783.6593      5.3033     86.2037
   268.5000      0.0000    780.3618      5.2126     92.3398
   268.7500      0.0000    780.2295      5.1187     97.5996
   269.0000      0.0000    782.1510      5.0354    100.8464
   269.2500      0.0000    784.6688      4.9781    102.0667
   269.5000      0.0000    787.0873      4.9529    101.8251
   269.7500      0.0000    789.7119      4.9525    100.8558
   270.0000      0.0000    793.0577      4.9626     99.8841
   270.2500      0.0000    796.9711      4.9709     99.2811
   270.5000      0.0000    800.5095      4.9728     98.9313
   270.7500      0.0000    802.6854      4.9734     98.6654
   271.0000      0.0000    803.4984      4.9841     98.6866
   271.2500      0.0000    804.1249      5.0115     99.3863
   271.5000      0.0000    805.8321      5.0494    100.8785
   271.7500      0.0000    808.9628      5.0830    103.0126
   272.0000      0.0000    813.1669      5.0995    105.6655
   272.2500      0.0000    818.1104      5.0931    108.4833
   272.5000      0.0000    823.4802      5.0642    110.3500
   272.7500      0.0000    828.5610      5.0155    109.7086
   273.0000      0.0000    832.1923      4.9452    105.7845
   273.2500      0.0000    833.1754      4.8425     99.3544
   273.5000      0.0000    830.9503      4.6948     92.3949
   273.7500      0.0000    826.2198      4.5043     87.1403
   274.0000      0.0000    820.7944      4.2971     85.0878
   274.2500      0.0000    816.5157      4.1085     86.2569
   274.5000      0.0000    814.3472      3.9599     89.1850
   274.7500      0.0000    814.5163      3.8539     91.7478
   275.0000      0.0000    817.3625      3.7876     92.0984
   275.2500      0.0000    823.9916      3.7620     89.2361
   275.5000      0.0000    836.2819      3.7782     83.3277
   275.7500      0.0000    856.1619      3.8294     75.6863
   276.0000      0.0000    884.1937      3.9036     68.0507
   276.2500      0.0000    917.7314      3.9913     61.5696
   276.5000      0.0000    950.3808      4.0889     56.4843
   276.7500      0.0000    974.5724      4.1946     52.6864
   277.0000      0.0000    985.8629      4.3059     50.3118
   277.2500      0.0000    984.2912      4.4228     49.6585
   277.5000      0.0000    971.1572      4.5503     50.5854
   277.7500      0.0000    946.2813      4.6916     52.1316
   278.0000      0.0000    910.4958      4.8392     52.9210
   278.2500      0.0000    869.8216      4.9715     52.1581
   278.5000      0.0000    834.0211      5.0626     50.3622
   278.7500      0.0000    810.1779      5.0986     49.0607
   279.0000      0.0000    799.1613      5.0856     49.4269
   279.2500      0.0000    797.9660      5.0437     51.0650
   279.5000      0.0000    803.2206      4.9960     52.2940
   279.7500      0.0000    812.3821      4.9628     51.7734
   280.0000      0.0000    823.4517      4.9600     49.8087
   280.2500      0.0000    834.3224      4.9946     47.8939
   280.5000      0.0000    842.4359      5.0595     47.0288
   280.7500      0.0000    845.4370      5.1305     46.8615
   281.0000      0.0000    842.6752      5.1717     46.6323
   281.2500      0.0000    836.5270      5.1434     46.4648
   281.5000      0.0000    832.6406      5.0065     47.2310
   281.7500      0.0000    837.6414      4.7323     49.3362
   282.0000      0.0000    853.9572      4.3337     52.0919
   282.2500      0.0000    875.8821      3.8990     54.3149
   282.5000      0.0000    892.8611      3.5702     55.2787
   282.7500      0.0000    898.6139      3.4559     55.0662
   283.0000      0.0000    895.3011      3.5535     54.2413
   283.2500      2.0000    888.2075      3.7637     53.2980
   283.5000      0.0000    880.0361      3.9788     52.3193
   283.7500     -2.0000    871.2693      4.1687     51.1314
   284.0000      0.0000    862.0835      4.4028     49.7718
   284.2500      0.0000    852.7352      4.7861     48.6273
   284.5000      0.0000    844.5687      5.3475     48.1514
   284.7500      0.0000    840.7541      5.9919     48.6813
   285.0000      0.0000    843.8605      6.5932     50.4241
   285.2500      0.0000    852.6756      7.1256     53.3487
   285.5000      0.0000    862.8551      7.6556     57.2106
   285.7500      0.0000    870.4479      8.2076     61.8894
   286.0000      0.0000    873.8912      8.6929     67.3689
   286.2500      0.0000    873.2589      8.9866     73.0959
   286.5000      0.0000    868.9906      9.0299     77.9154
   286.7500      0.0000    861.8080      8.8483     81.1587
   287.0000      0.0000    853.1599      8.5072     83.3248
   287.2500      0.0000    844.8814      8.0792     84.9965
   287.5000      0.0000    838.0165      7.6402     85.4819
   287.7500      0.0000    831.8763      7.2601     83.4724
   288.0000      0.0000    824.3051      6.9762     78.9603
   288.2500      0.0000    813.3417      6.7785     73.4940
   288.5000      0.0000    799.6185      6.6334     68.5362
   288.7500      0.0000    787.4322      6.5221     64.6268
   289.0000      0.0000    782.3812      6.4583     62.2136
   289.2500      0.0000    786.6351      6.4683     62.0646
   289.5000      0.0000    796.3929      6.5541     64.2563
   289.7500      0.0000    804.7908      6.6722     67.4040
   290.0000      0.0000    807.8871      6.7532     69.5278
   290.2500      0.0000    807.5872      6.7510     69.6741
   290.5000      0.0000    808.4142      6.6751     68.5433
   290.7500      0.0000    812.1001      6.5788     67.5487
   291.0000      0.0000    816.3062      6.5163     67.3821
   291.2500      0.0000    818.1373      6.5066     67.6026
   291.5000      0.0000    817.5311      6.5259     67.4071
   291.7500      0.0000    816.8829      6.5334     66.3451
   292.0000      0.0000    818.2060      6.5089     64.3783
   292.2500      0.0000    821.3641      6.4762     61.7914
   292.5000      0.0000    824.8749      6.4971     59.1683
   292.7500      0.0000    827.6500      6.6382     57.1864
   293.0000      0.0000    829.7136      6.9269     56.4907
   293.2500      0.0000    831.8103      7.3229     57.7758
   293.5000      0.0000    834.7784      7.7244     61.4159
   293.7500      0.0000    839.0710      8.0066     66.6685
   294.0000      0.0000    844.5009      8.0793     71.7373
   294.2500      0.0000    850.3704      7.9362     75.0404
   294.5000      0.0000    855.8120      7.6682     76.1700
