~Version Information
VERS.                      2.0: CWLS Log ASCII Standard - VERSION 2.0
WRAP.                       NO: One line per depth step
~Well Information Block
STRT.FT               275.0000: 
STOP.FT              1682.2000: 
STEP.FT                 0.1000: 
NULL.                -999.2500: 
COMP.          Pioneer Natural Resources: COMPANY
WELL.               Elmo 14-21: WELL
FLD.           Purgatoire River: FIELD
LOC.           623' FSL & 450' FWL----: LOCATION
PROV.                 Colorado: PROVINCE
CNTY.               Las Animas: COUNTRY
SRVC.                Patterson: SERVICE COMPANY
DATE.          Wed May 18 08:17:30 2005: LOG DATE
UWI.           05 071 08360 00: UNIQUE WELL ID
~Curve Information Block
DEPT.FT            0 000 00 00: Depth
DCAL.in                       : CDL Caliper
RHOB.g/cc                     : CDL Bulk Density
RHOC.g/cc                     : CDL Density Correction
DPOR.pu                       : CDL Density Porosity
NPOR.pu                       : Neutron Porosity
GR.GAPI                       : Gamma Ray
~Parameter Information Block
~A  Depth       DCAL        RHOB        RHOC        DPOR        NPOR         GR     
   275.0000      8.0999      2.2676     -0.2320     23.1773     43.4887     70.7922
   275.1000      8.0999      2.2954     -0.2115     21.4880     43.5404     73.3033
   275.2000      8.0999      2.3158     -0.1624     20.2554     43.5372     77.1711
   275.3000      8.1000      2.3042     -0.1979     20.9595     43.8919     80.1923
   275.4000      8.1000      2.2614     -0.2267     23.5504     44.5009     79.7573
   275.5000      8.1007      2.2172     -0.2523     26.2330     44.8471     77.2437
   275.6000      8.1007      2.2013     -0.2847     27.1936     44.8587     77.2865
   275.7000      8.1007      2.2159     -0.2335     26.3100     44.8107     78.4686
   275.8000      8.0996      2.2409     -0.2222     24.7930     44.7706     77.4943
   275.9000      8.0996      2.2653     -0.1915     23.3169     44.6705     77.4991
   276.0000      8.0983      2.2859     -0.1763     22.0694     44.4021     80.8566
   276.1000      8.0983      2.2983     -0.1740     21.3124     44.0194     83.0822
   276.2000      8.0983      2.3025     -0.1916     21.0610     43.8210     80.3126
   276.3000      8.0992      2.3022     -0.2120     21.0780     43.9852     75.5472
   276.4000      8.0992      2.2977     -0.1915     21.3522     44.1957     72.4899
   276.5000      8.0997      2.2858     -0.2221     22.0708     44.2342     70.0521
   276.6000      8.0997      2.2725     -0.2244     22.8797     44.3997     66.2131
   276.7000      8.0997      2.2645     -0.2149     23.3618     44.7644     62.5685
   276.8000      8.1008      2.2666     -0.2249     23.2349     44.9667     62.4315
   276.9000      8.1008      2.2862     -0.2552     22.0505     44.8214     65.2667
   277.0000      8.1025      2.3172     -0.1847     20.1718     44.6387     68.1388
   277.1000      8.1025      2.3400     -0.1649     18.7898     44.6113     70.8991
   277.2000      8.1025      2.3503     -0.2088     18.1625     44.5831     75.3576
   277.3000      8.1039      2.3598     -0.2068     17.5875     44.5387     79.3643
   277.4000      8.1039      2.3710     -0.1904     16.9107     44.5667     80.0352
   277.5000      8.1033      2.3743     -0.1882     16.7061     44.6617     78.3225
   277.6000      8.1033      2.3604     -0.1960     17.5501     44.8570     74.5474
   277.7000      8.1033      2.3320     -0.2564     19.2730     44.9161     70.2113
   277.8000      8.1016      2.3046     -0.2283     20.9330     44.5845     71.0064
   277.9000      8.1016      2.2939     -0.2796     21.5809     44.2689     77.5658
   278.0000      8.1031      2.3035     -0.2172     20.9997     44.1912     81.3302
   278.1000      8.1031      2.3203     -0.1794     19.9838     44.2139     76.9968
   278.2000      8.1031      2.3360     -0.2133     19.0280     44.3880     68.7258
   278.3000      8.1053      2.3479     -0.1790     18.3065     44.6191     61.8648
   278.4000      8.1053      2.3469     -0.1932     18.3705     44.5471     58.0303
   278.5000      8.1053      2.3338     -0.2050     19.1622     44.1198     58.8111
   278.6000      8.1053      2.3211     -0.2504     19.9353     43.7964     64.3196
   278.7000      8.1053      2.3222     -0.2889     19.8690     43.7808     69.6210
   278.8000      8.1043      2.3404     -0.2461     18.7607     43.8303     70.8347
   278.9000      8.1043      2.3587     -0.2161     17.6575     43.7741     69.8898
   279.0000      8.1026      2.3639     -0.2241     17.3412     43.6716     68.2143
   279.1000      8.1026      2.3631     -0.2262     17.3908     43.8598     67.3962
   279.2000      8.1026      2.3624     -0.2513     17.4292     44.3191     71.5959
   279.3000      8.1021      2.3564     -0.2043     17.7945     44.6754     78.8694
   279.4000      8.1021      2.3450     -0.2387     18.4823     44.9494     80.8115
   279.5000      8.1040      2.3420     -0.2300     18.6647     45.1730     75.7769
   279.6000      8.1040      2.3512     -0.2372     18.1104     45.1976     70.7220
   279.7000      8.1040      2.3564     -0.1948     17.7914     45.0613     70.0337
   279.8000      8.1047      2.3459     -0.2388     18.4303     45.0537     72.1837
   279.9000      8.1047      2.3355     -0.2522     19.0599     45.2677     72.0618
   280.0000      8.1033      2.3491     -0.2611     18.2360     45.6120     68.2333
   280.1000      8.1033      2.3792     -0.1923     16.4133     46.0312     67.1219
   280.2000      8.1033      2.3861     -0.1376     15.9917     46.2457     72.6755
   280.3000      8.1026      2.3580     -0.2282     17.6990     46.0419     78.1002
   280.4000      8.1026      2.3312     -0.2574     19.3222     45.7844     76.7348
   280.5000      8.1044      2.3242     -0.1937     19.7441     45.8484     72.3239
   280.6000      8.1044      2.3284     -0.2540     19.4914     46.0977     70.0794
   280.7000      8.1044      2.3452     -0.2068     18.4735     46.1364     69.1834
   280.8000      8.1061      2.3608     -0.1558     17.5268     45.8490     70.1369
   280.9000      8.1061      2.3578     -0.2645     17.7068     45.5281     75.8935
   281.0000      8.1063      2.3492     -0.2048     18.2279     45.4868     82.2878
   281.1000      8.1063      2.3500     -0.1992     18.1813     45.6597     83.7429
   281.2000      8.1063      2.3655     -0.2209     17.2443     45.7999     82.6831
   281.3000      8.1060      2.3904     -0.1661     15.7318     45.8740     82.3246
   281.4000      8.1060      2.4097     -0.1906     14.5642     45.7899     82.0913
   281.5000      8.1046      2.4163     -0.1510     14.1639     45.4728     80.2888
   281.6000      8.1046      2.4103     -0.1786     14.5286     45.1330     78.7453
   281.7000      8.1046      2.3972     -0.2192     15.3194     45.0032     82.4395
   281.8000      8.1034      2.3801     -0.2152     16.3554     45.1154     89.5352
   281.9000      8.1034      2.3696     -0.2663     16.9911     45.2700     93.2837
   282.0000      8.1035      2.3799     -0.2282     16.3672     45.3288     95.5889
   282.1000      8.1035      2.3862     -0.1695     15.9900     45.2831    100.0334
   282.2000      8.1035      2.3538     -0.2001     17.9532     44.9469    103.6662
   282.3000      8.1040      2.2890     -0.2688     21.8808     44.0244    105.6284
   282.4000      8.1040      2.2090     -0.2822     26.7285     42.5346    105.7763
   282.5000      8.1026      2.1259     -0.3507     31.7640     41.0325    101.7375
   282.6000      8.1026      2.0642     -0.3945     35.5025     39.9888     95.6964
   282.7000      8.1026      2.0392     -0.3560     37.0160     39.0904     90.1485
   282.8000      8.0996      2.0515     -0.3901     36.2736     37.6443     83.8863
   282.9000      8.0996      2.1039     -0.3061     33.0968     35.4397     76.9612
   283.0000      8.0965      2.1856     -0.2136     28.1473     32.6917     72.8753
   283.1000      8.0965      2.2589     -0.1122     23.7028     29.4694     74.4652
   283.2000      8.0965      2.2879     -0.0750     21.9470     25.9576     78.5389
   283.3000      8.0951      2.2790     -0.0844     22.4870     22.6774     81.8563
   283.4000      8.0951      2.2672     -0.0411     23.1991     20.1495     86.8642
   283.5000      8.0960      2.2761      0.0259     22.6625     18.4774     91.7556
   283.6000      8.0960      2.3049      0.1932     20.9124     17.4689     90.6149
   283.7000      8.0960      2.3377      0.2012     18.9295     16.8731     85.9405
   283.8000      8.0975      2.3589      0.2273     17.6419     16.5280     84.1083
   283.9000      8.0975      2.3557      0.2303     17.8353     16.4948     85.8193
   284.0000      8.0978      2.3258      0.1994     19.6511     16.6635     90.5275
   284.1000      8.0978      2.2899      0.1730     21.8241     16.8046     98.9569
   284.2000      8.0978      2.2701      0.1804     23.0261     16.8029    106.1033
   284.3000      8.0968      2.2620      0.1936     23.5148     16.6023    106.2842
   284.4000      8.0968      2.2544      0.1499     23.9763     16.3600    103.1906
   284.5000      8.0953      2.2530      0.1333     24.0606     16.0692    103.0546
