~Version Information
VERS.                      2.0: CWLS Log ASCII Standard - VERSION 2.0
WRAP.                       NO: One line per depth step
~Well Information Block
STRT.FT               -12.3000: 
STOP.FT              1768.7000: 
STEP.FT                 0.1000: 
NULL.                -999.2500: 
COMP.          Petrogulf Corporation: COMPANY
WELL.          Alexander 9-43R: WELL
FLD.           Purgatorie River: FIELD
LOC.           1652' FSL & 1049' FEL--: LOCATION
CNTY.               Las Animas: COUNTY
SRVC.                         : SERVICE COMPANY
DATE.          Tue Sep 28 14:27:54 2004: LOG DATE
UWI.                          : UNIQUE WELL ID
STAT.                       CO: STATE
~Curve Information Block
DEPT.FT            0 000 00 00: Depth
GR.GAPI                       : Gamma Ray
CCL.                          : Casing Collar Locator
TT3.usec                      : CBL 3' Travel Time
AMP3.mV                       : CBL 3' Amplitude
~Parameter Information Block
~A  Depth        GR         CCL         TT3         AMP3    
# ...
   805.1000     59.1970      0.0000    754.5957     14.2001
   805.2000     59.1970      0.0000    754.5957     14.2001
   805.3000     61.1774      0.0000    754.6326     14.2542
   805.4000     61.1774      0.0000    754.6326     14.2542
   805.5000     61.9560      0.0000    754.4510     14.2766
   805.6000     61.9560      0.0000    754.4510     14.2766
   805.7000     61.9560      0.0000    754.4510     14.2766
   805.8000     61.3852      0.0000    753.9978     14.2551
   805.9000     61.3852      0.0000    753.9978     14.2551
   806.0000     60.1150      0.0000    753.1241     14.1678
   806.1000     60.1150      0.0000    753.1241     14.1678
   806.2000     60.1150      0.0000    753.1241     14.1678
   806.3000     58.7254      0.0000    751.6600     14.0000
   806.4000     58.7254      0.0000    751.6600     14.0000
   806.5000     57.1832      0.0000    749.6912     13.7645
   806.6000     57.1832      0.0000    749.6912     13.7645
   806.7000     57.1832      0.0000    749.6912     13.7645
   806.8000     55.5942      0.0000    747.8697     13.4908
   806.9000     55.5942      0.0000    747.8697     13.4908
   807.0000     55.1144      0.0000    747.1896     13.1988
   807.1000     55.1144      0.0000    747.1896     13.1988
   807.2000     55.1144      0.0000    747.1896     13.1988
   807.3000     57.1476      0.0000    748.1450     12.9043
   807.4000     57.1476      0.0000    748.1450     12.9043
   807.5000     61.5023      0.0000    750.2018     12.6467
   807.6000     61.5023      0.0000    750.2018     12.6467
   807.7000     61.5023      0.0000    750.2018     12.6467
   807.8000     66.1211      0.0000    752.3088     12.4765
   807.9000     66.1211      0.0000    752.3088     12.4765
   808.0000     68.8925      0.0000    753.7950     12.4085
   808.1000     68.8925      0.0000    753.7950     12.4085
   808.2000     68.8925      0.0000    753.7950     12.4085
   808.3000     69.2564      0.0000    754.6476     12.4111
   808.4000     69.2564      0.0000    754.6476     12.4111
   808.5000     67.9063      0.0000    755.1606     12.4517
   808.6000     67.9063      0.0000    755.1606     12.4517
   808.7000     67.9063      0.0000    755.1606     12.4517
   808.8000     65.5453      0.0000    755.5623     12.5358
   808.9000     65.5453      0.0000    755.5623     12.5358
   809.0000     62.4297      0.0000    755.9108     12.6886
   809.1000     62.4297      0.0000    755.9108     12.6886
   809.2000     62.4297      0.0000    755.9108     12.6886
   809.3000     58.9725      0.0000    756.1284     12.9110
   809.4000     58.9725      0.0000    756.1284     12.9110
   809.5000     56.2109      0.0000    755.9972     13.1718
   809.6000     56.2109      0.0000    755.9972     13.1718
   809.7000     56.2109      0.0000    755.9972     13.1718
   809.8000     55.2791      0.0000    755.1014     13.4383
   809.9000     55.2791      0.0000    755.1014     13.4383
   810.0000     56.5094      0.0000    752.9044     13.6906
   810.1000     56.5094      0.0000    752.9044     13.6906
   810.2000     56.5094      0.0000    752.9044     13.6906
   810.3000     59.2539      0.0000    749.2328     13.9048
   810.4000     59.2539      0.0000    749.2328     13.9048
   810.5000     62.3039      0.0000    744.9709     14.0478
   810.6000     62.3039      0.0000    744.9709     14.0478
   810.7000     62.3039      0.0000    744.9709     14.0478
   810.8000     64.2299      0.0000    742.0302     14.1020
   810.9000     64.2299      0.0000    742.0302     14.1020
   811.0000     63.7833      0.0000    741.9997     14.0810
   811.1000     63.7833      0.0000    741.9997     14.0810
   811.2000     63.7833      0.0000    741.9997     14.0810
   811.3000     60.6228      0.0000    744.5836     14.0173
   811.4000     60.6228      0.0000    744.5836     14.0173
   811.5000     55.7755      0.0000    747.7279     13.9444
   811.6000     55.7755      0.0000    747.7279     13.9444
   811.7000     55.7755      0.0000    747.7279     13.9444
   811.8000     51.2700      0.0000    749.5120     13.8934
   811.9000     51.2700      0.0000    749.5120     13.8934
   812.0000     49.2522      0.0000    749.7734     13.8965
   812.1000     49.2522      0.0000    749.7734     13.8965
   812.2000     49.2522      0.0000    749.7734     13.8965
   812.3000     51.1557      0.0000    749.8270     13.9891
   812.4000     51.1557      0.0000    749.8270     13.9891
   812.5000     57.3413      0.0000    750.8420     14.1933
   812.6000     57.3413      0.0000    750.8420     14.1933
   812.7000     57.3413      0.0000    750.8420     14.1933
   812.8000     67.4610      0.0000    752.8023     14.4739
   812.9000     67.4610      0.0000    752.8023     14.4739
   813.0000     81.3389      0.0000    754.9708     14.7129
   813.1000     81.3389      0.0000    754.9708     14.7129
   813.2000     81.3389      0.0000    754.9708     14.7129
   813.3000     99.2464      0.0000    756.8286     14.7746
   813.4000     99.2464      0.0000    756.8286     14.7746
   813.5000    120.7081      0.0000    758.2467     14.6272
   813.6000    120.7081      0.0000    758.2467     14.6272
   813.7000    120.7081      0.0000    758.2467     14.6272
   813.8000    142.9537      0.0000    759.0565     14.3956
   813.9000    142.9537      0.0000    759.0565     14.3956
   814.0000    161.3867      0.0000    758.5432     14.2792
   814.1000    161.3867      0.0000    758.5432     14.2792
   814.2000    161.3867      0.0000    758.5432     14.2792
   814.3000    172.4357      0.0000    754.7952     14.4183
   814.4000    172.4357      0.0000    754.7952     14.4183
   814.5000    175.9157      0.0000    743.6427     14.8298
   814.6000    175.9157      0.0000    743.6427     14.8298
   814.7000    175.9157      0.0000    743.6427     14.8298
   814.8000    174.5420      0.0000    718.9526     15.4383
   814.9000    174.5420      0.0000    718.9526     15.4383
   815.0000    171.8289      0.0000    677.2950     16.1230
   815.1000    171.8289      0.0000    677.2950     16.1230
   815.2000    171.8289      0.0000    677.2950     16.1230
   815.3000    170.5361      0.0000    625.7662     16.7255
   815.4000    170.5361      0.0000    625.7662     16.7255
   815.5000    171.8291      0.0000    583.9307     17.0590
   815.6000    171.8291      0.0000    583.9307     17.0590
   815.7000    171.8291      0.0000    583.9307     17.0590
   815.8000    174.9332      0.0000    572.5980     16.9755
   815.9000    174.9332      0.0000    572.5980     16.9755
   816.0000    177.8669      0.0000    597.4968     16.4619
   816.1000    177.8669      0.0000    597.4968     16.4619
   816.2000    177.8669      0.0000    597.4968     16.4619
   816.3000    178.9012      0.0000    644.7965     15.6767
   816.4000    178.9012      0.0000    644.7965     15.6767
   816.5000    177.5294      0.0000    692.8743     14.8830
   816.6000    177.5294      0.0000    692.8743     14.8830
   816.7000    177.5294      0.0000    692.8743     14.8830
   816.8000    174.5247      0.0000    727.3065     14.3143
   816.9000    174.5247      0.0000    727.3065     14.3143
   817.0000    171.4090      0.0000    745.8692     14.0601
   817.1000    171.4090      0.0000    745.8692     14.0601
   817.2000    171.4090      0.0000    745.8692     14.0601
   817.3000    169.4965      0.0000    753.5691     14.0411
   817.4000    169.4965      0.0000    753.5691     14.0411
   817.5000    169.3064      0.0000    756.0246     14.0780
   817.6000    169.3064      0.0000    756.0246     14.0780
   817.7000    169.3064      0.0000    756.0246     14.0780
   817.8000    170.9256      0.0000    756.5762     13.9962
   817.9000    170.9256      0.0000    756.5762     13.9962
   818.0000    174.1918      0.0000    756.5712     13.6949
   818.1000    174.1918      0.0000    756.5712     13.6949
   818.2000    174.1918      0.0000    756.5712     13.6949
   818.3000    177.9599      0.0000    756.4674     13.1562
   818.4000    177.9599      0.0000    756.4674     13.1562
