~Version Information
VERS.                      2.0: CWLS Log ASCII Standard - VERSION 2.0
WRAP.                       NO: One line per depth step
~Well Information Block
STRT.FT                -8.0000: 
STOP.FT               973.2500: 
STEP.FT                 0.2500: 
NULL.                -999.2500: 
COMP.          Pioneer Natural Resources: COMPANY
WELL.              Oscar 41-31: WELL
FLD.           Purgatorie River: FIELD
LOC.           412' FNL & 1216' FEL--: LOCATION
PROV.                       CO: PROVINCE
CNTY.               Las Animas: COUNTRY
SRVC.          Patterson Wireline: SERVICE COMPANY
DATE.          Wed Mar 02 12:29:08 2005: LOG DATE
UWI.           05 071 08290 00: UNIQUE WELL ID
~Curve Information Block
DEPT.FT            0 000 00 00: Depth
CCL.                          : Casing Collar Locator
TT5.usec                      : CBL 5' Travel Time
AMP3.mV                       : CBL 3' Amplitude
GR.GAPI                       : Gamma Ray
~Parameter Information Block
~A  Depth       CCL         TT5         AMP3         GR     
# ...
   360.5000      0.0000   1200.0000      5.0613    141.3648
   360.7500      0.0000   1200.0000      5.1284    130.2302
   361.0000      0.0000   1200.0000      5.2288    119.3261
   361.2500      0.0000   1200.0000      5.3033    110.4353
   361.5000      0.0000   1200.0000      5.3083    103.7253
   361.7500      0.0000   1200.0000      5.2663     98.3332
   362.0000      0.0000   1200.0000      5.2403     93.6695
   362.2500      0.0000   1200.0000      5.2599     89.8584
   362.5000      0.0000   1200.0000      5.2905     87.0110
   362.7500      0.0000   1200.0000      5.2830     84.6439
   363.0000      0.0000   1200.0000      5.2369     82.2298
   363.2500      0.0000   1200.0000      5.1989     80.2535
   363.5000      0.0000   1200.0000      5.2054     80.2928
   363.7500      0.0000   1200.0000      5.2431     83.7529
   364.0000      0.0000   1200.0000      5.2689     90.6399
   364.2500      0.0000   1200.0000      5.2601     99.7164
   364.5000      0.0000   1200.0000      5.2377    109.4383
   364.7500      0.0000   1200.0000      5.2385    118.4319
   365.0000      0.0000   1200.0000      5.2696    125.6994
   365.2500      0.0000   1200.0000      5.2997    131.1898
   365.5000      0.0000   1200.0000      5.2989    136.0277
   365.7500      0.0000   1200.0000      5.2774    141.4379
   366.0000      0.0000   1200.0000      5.2746    147.2146
   366.2500      0.0000   1200.0000      5.3118    151.5825
   366.5000      0.0000   1200.0000      5.3654    152.7576
   366.7500      0.0000   1200.0000      5.3885    150.5067
   367.0000      0.0000   1200.0000      5.3519    146.3100
   367.2500      0.0000   1200.0000      5.2658    142.4020
   367.5000      0.0000   1200.0000      5.1711    140.5725
   367.7500      0.0000   1200.0000      5.1114    141.4544
   368.0000      0.0000   1200.0000      5.1037    144.7675
   368.2500      0.0000   1200.0000      5.1254    150.0249
   368.5000      0.0000   1200.0000      5.1338    156.5896
   368.7500      0.0000   1200.0000      5.1046    163.1879
   369.0000      0.0000   1200.0000      5.0559    168.0257
   369.2500      0.0000   1200.0000      5.0280    169.6133
   369.5000      0.0000   1200.0000      5.0411    167.4606
   369.7500      0.0000   1200.0000      5.0773    162.3399
   370.0000      0.0000   1200.0000      5.1052    156.0879
   370.2500      0.0000   1200.0000      5.1081    150.7686
   370.5000      0.0000   1200.0000      5.0888    147.7154
   370.7500      0.0000   1200.0000      5.0601    147.1988
   371.0000      0.0000   1200.0000      5.0347    148.5137
   371.2500      0.0000   1200.0000      5.0098    150.1877
   371.5000      0.0000   1200.0000      4.9628    150.7939
   371.7500      0.0000   1200.0000      4.8767    150.1978
   372.0000      0.0000   1200.0000      4.7663    149.7321
   372.2500      0.0000   1200.0000      4.6627    150.7968
   372.5000      0.0000   1200.0000      4.5743    153.5052
   372.7500      0.0000   1200.0000      4.4843    156.7902
   373.0000      0.0000   1200.0000      4.3887    159.4145
   373.2500      0.0000   1200.0000      4.3185    160.5410
   373.5000      0.0000   1200.0000      4.3098    159.5504
   373.7500      0.0000   1200.0000      4.3581    155.9398
   374.0000      0.0000   1200.0000      4.4191    149.8844
   374.2500      0.0000   1200.0000      4.4554    142.8154
   374.5000      0.0000   1200.0000      4.4712    137.0817
   374.7500      0.0000   1200.0000      4.4900    134.9021
   375.0000      0.0000   1200.0000      4.5094    137.3502
   375.2500      0.0000   1200.0000      4.4949    143.5801
   375.5000      0.0000   1200.0000      4.4208    150.7034
   375.7500      0.0000   1200.0000      4.3034    155.0796
   376.0000      0.0000   1200.0000      4.1876    154.2943
   376.2500      0.0000   1200.0000      4.1086    148.1082
   376.5000      0.0000   1200.0000      4.0752    138.1750
   376.7500      0.0000   1200.0000      4.0806    127.3657
   377.0000      0.0000   1200.0000      4.1112    118.6367
   377.2500      0.0000   1200.0000      4.1466    113.5181
   377.5000      0.0000   1200.0000      4.1718    111.6433
   377.7500      0.0000   1200.0000      4.1951    111.9043
   378.0000      0.0000   1200.0000      4.2353    113.9072
   378.2500      0.0000   1200.0000      4.2851    118.2793
   378.5000      0.0000   1200.0000      4.3062    125.6972
   378.7500      0.0000   1200.0000      4.2724    135.6074
   379.0000      0.0000   1200.0000      4.2039    145.9622
   379.2500      0.0000   1200.0000      4.1401    154.3572
   379.5000      0.0000   1200.0000      4.0841    159.6115
   379.7500      0.0000   1200.0000      3.9983    162.3033
   380.0000      0.0000   1200.0000      3.8619    163.5803
   380.2500      0.0000   1200.0000      3.7071    163.4811
   380.5000      0.0000   1200.0000      3.5868    161.0446
   380.7500      0.0000   1200.0000      3.5277    156.3076
   381.0000     -2.0000   1200.0000      3.5261    151.3625
   381.2500     -2.0000   1200.0000      3.5673    148.7367
   381.5000      0.0000   1200.0000      3.6431    149.1120
   381.7500      0.0000   1200.0000      3.7554    151.1846
   382.0000      0.0000   1200.0000      3.9048    153.6264
   382.2500      0.0000   1200.0000      4.0710    156.5300
   382.5000      0.0000   1200.0000      4.2137    160.3996
   382.7500      0.0000   1200.0000      4.3061    163.8510
   383.0000      0.0000   1200.0000      4.3576    163.3546
   383.2500      0.0000   1200.0000      4.3931    156.0610
   383.5000      0.0000   1200.0000      4.4168    142.4904
   383.7500      0.0000   1200.0000      4.4091    125.9481
   384.0000      0.0000   1200.0000      4.3541    109.9094
   384.2500      0.0000   1200.0000      4.2654     96.5272
   384.5000      0.0000   1200.0000      4.1859     86.7694
   384.7500      0.0000   1200.0000      4.1613     80.6333
   385.0000      0.0000   1200.0000      4.2070     77.1699
   385.2500      0.0000   1200.0000      4.2998     75.2269
   385.5000      0.0000   1200.0000      4.3976     74.5446
   385.7500      0.0000   1200.0000      4.4662     75.8567
   386.0000      0.0000   1200.0000      4.4904     79.8849
   386.2500      0.0000   1200.0000      4.4694     86.5015
   386.5000      0.0000   1200.0000      4.4081     94.8597
   386.7500      0.0000   1200.0000      4.3167    104.0959
   387.0000      0.0000   1200.0000      4.2136    113.8410
   387.2500      0.0000   1200.0000      4.1223    124.1012
   387.5000      0.0000   1200.0000      4.0595    134.6039
   387.7500      0.0000   1200.0000      4.0256    144.3026
   388.0000      0.0000   1200.0000      4.0056    151.6921
   388.2500      0.0000   1200.0000      3.9829    155.6454
   388.5000      0.0000   1200.0000      3.9535    155.9370
   388.7500      0.0000   1200.0000      3.9262    153.2713
   389.0000      0.0000   1200.0000      3.9143    149.0878
   389.2500      0.0000   1200.0000      3.9266    144.9129
   389.5000      0.0000   1200.0000      3.9625    141.2052
   389.7500      0.0000   1200.0000      4.0103    136.9131
   390.0000      0.0000   1200.0000      4.0547    130.7154
   390.2500      0.0000   1200.0000      4.0900    122.6646
   390.5000      0.0000   1200.0000      4.1233    114.2616
   390.7500      0.0000   1200.0000      4.1628    107.1813
   391.0000      0.0000   1200.0000      4.2056    102.2559
   391.2500      0.0000   1200.0000      4.2380     99.3456
   391.5000      0.0000   1200.0000      4.2438     97.6255
   391.7500      0.0000   1200.0000      4.2114     95.9388
   392.0000      0.0000   1200.0000      4.1422     93.3305
   392.2500      0.0000   1200.0000      4.0551     89.8373
   392.5000      0.0000   1200.0000      3.9819     86.8924
   392.7500      0.0000   1200.0000      3.9506     86.5795
   393.0000      0.0000   1200.0000      3.9655     90.1142
   393.2500      0.0000   1200.0000      3.9979     96.8625
   393.5000      0.0000   1200.0000      3.9992    104.6742
   393.7500      0.0000   1200.0000      3.9357    111.2136
