~Version Information
VERS.                      2.0: CWLS Log ASCII Standard - VERSION 2.0
WRAP.                       NO: One line per depth step
~Well Information Block
STRT.FT                -7.7500: 
STOP.FT              2394.2500: 
STEP.FT                 0.2500: 
NULL.                -999.2500: 
COMP.      PIONEER NATURAL RESOURCES  : COMPANY
WELL.         NOMAD 32-10  : WELL
FLD.                          : FIELD
LOC.      SWNE 10 32S 66W 6PM : LOCATION
PROV.                         : PROVINCE
CNTY.                         : COUNTRY
SRVC.                         : SERVICE COMPANY
DATE.          Thu Aug 26 13:45:47 2004: LOG DATE
UWI.      005 071 08127  : UNIQUE WELL ID
~Curve Information Block
DEPT.FT            0 000 00 00: Depth
CCL.                          : Casing Collar Locator
TT3.usec                      : CBL 3' Travel Time
AMP3.mV                       : CBL 3' Amplitude
GR.GAPI                       : Gamma Ray
~Parameter Information Block
~A  Depth       CCL         TT3         AMP3         GR     
# ...
   159.7500      0.0000    666.4915      9.1398     90.5669
   160.0000      0.0000    663.5218      8.8597     92.0317
   160.2500      0.0000    663.6580      8.5952     94.0998
   160.5000      0.0000    669.6097      8.3350     97.1846
   160.7500      0.0000    686.0645      8.0436    100.8009
   161.0000      0.0000    710.8111      7.7352    103.6594
   161.2500      0.0000    734.4671      7.4584    104.6679
   161.5000      0.0000    749.4501      7.2209    103.7730
   161.7500     -2.0000    754.9719      6.9903    101.5304
   162.0000     -2.0000    752.9125      6.7725     98.1164
   162.2500      0.0000    742.6127      6.6623     93.4020
   162.5000      0.0000    721.8694      6.8039     87.9631
   162.7500      0.0000    692.0934      7.2808     83.3946
   163.0000      0.0000    660.8599      8.0169     81.3886
   163.2500      0.0000    637.1210      8.7939     82.7425
   163.5000      0.0000    622.2182      9.3973     87.1101
   163.7500      0.0000    607.6647      9.7505     93.1807
   164.0000      0.0000    584.3782      9.9160     99.0765
   164.2500      0.0000    552.9466     10.0013    103.0682
   164.5000      0.0000    523.5161     10.0820    104.0322
   164.7500      0.0000    506.4415     10.1902    101.3992
   165.0000      0.0000    502.9725     10.3455     95.4747
   165.2500      0.0000    504.0897     10.5632     88.1160
   165.5000      0.0000    498.9330     10.8211     82.2971
   165.7500      0.0000    484.5616     11.0530     80.2434
   166.0000      0.0000    466.3000     11.2039     81.8162
   166.2500      0.0000    448.4796     11.2820     84.6314
   166.5000      0.0000    428.8379     11.3388     85.9110
   166.7500      0.0000    405.1280     11.4128     84.7257
   167.0000      0.0000    383.7571     11.4993     82.6729
   167.2500      0.0000    377.2784     11.5665     82.1940
   167.5000      0.0000    393.5817     11.5941     84.1792
   167.7500      0.0000    428.2865     11.6008     87.2359
   168.0000      0.0000    465.8668     11.6359     89.1644
   168.2500      0.0000    488.2332     11.7436     89.0796
   168.5000      0.0000    484.8072     11.9337     88.0958
   168.7500      0.0000    456.8839     12.1816     87.9242
   169.0000      0.0000    415.0537     12.4425     88.9794
   169.2500      0.0000    373.1522     12.6665     90.1634
   169.5000      0.0000    341.5847     12.8178     90.1943
   169.7500      0.0000    323.2787     12.8942     88.4293
   170.0000      0.0000    315.0959     12.9307     84.5477
   170.2500      0.0000    312.3154     12.9831     78.4185
   170.5000      0.0000    311.6519     13.0966     70.5455
   170.7500      0.0000    311.5742     13.2799     62.1319
   171.0000      0.0000    311.5271     13.5054     54.5745
   171.2500      0.0000    311.3907     13.7283     49.0002
   171.5000      0.0000    311.1985     13.9051     46.0675
   171.7500      0.0000    311.0431     14.0111     45.8132
   172.0000      0.0000    310.9738     14.0559     47.5802
   172.2500      0.0000    310.9851     14.0692     50.2203
   172.5000      0.0000    311.0620     14.0627     52.6064
   172.7500      0.0000    311.2166     14.0097     54.1406
   173.0000      0.0000    311.4759     13.8762     54.7597
   173.2500      0.0000    311.8327     13.6706     54.5418
   173.5000      0.0000    312.2044     13.4559     53.5542
   173.7500      0.0000    312.4541     13.3163     52.1815
   174.0000      0.0000    312.4875     13.3033     51.3136
   174.2500      0.0000    312.3353     13.3985     51.8036
   174.5000      0.0000    312.1176     13.5245     53.6301
   174.7500      0.0000    311.9274     13.6039     55.7931
   175.0000      0.0000    311.7693     13.6141     57.0615
   175.2500      0.0000    311.6117     13.5824     56.7373
   175.5000      0.0000    311.4615     13.5395     54.8452
   175.7500      0.0000    311.3692     13.4878     51.8457
   176.0000      0.0000    311.3777     13.4076     48.2853
   176.2500      0.0000    311.4850     13.2834     44.7606
   176.5000      0.0000    311.6477     13.1307     42.2171
   176.7500      0.0000    311.8037     13.0021     41.8631
   177.0000      0.0000    311.8936     12.9552     44.1434
   177.2500      0.0000    311.8781     13.0032     47.8466
   177.5000      0.0000    311.7554     13.0971     50.9182
   177.7500      0.0000    311.5793     13.1576     52.3471
   178.0000      0.0000    311.4544     13.1243     52.7290
   178.2500      0.0000    311.4881     12.9850     52.9748
   178.5000      0.0000    311.7272     12.7717     53.2077
   178.7500      0.0000    312.1298     12.5354     53.0906
   179.0000      0.0000    312.5953     12.3278     52.5486
   179.2500      0.0000    313.0208     12.1967     51.9428
   179.5000      0.0000    313.3719     12.1814     52.1174
   179.7500      0.0000    313.7955     12.2952     54.4136
   180.0000      0.0000    314.7685     12.5013     59.9319
   180.2500      0.0000    317.3590     12.7064     68.3545
   180.5000      0.0000    323.7237     12.8014     77.6789
   180.7500      0.0000    338.1846     12.7346     85.1823
   181.0000      0.0000    368.0497     12.5499     88.9117
   181.2500      0.0000    421.0934     12.3453     88.9408
   181.5000      0.0000    498.2881     12.1948     87.3341
   181.7500      0.0000    588.0425     12.1108     86.2609
   182.0000      0.0000    670.7083     12.0616     86.1571
   182.2500      0.0000    730.8257     12.0090     86.2352
   182.5000      0.0000    764.7643     11.9373     86.3249
   182.7500      0.0000    777.8629     11.8591     87.1953
   183.0000      0.0000    776.7425     11.7998     89.2379
   183.2500      0.0000    763.3701     11.7772     91.7664
   183.5000      0.0000    733.7571     11.7897     93.6718
   183.7500      0.0000    683.2713     11.8141     94.2129
   184.0000      0.0000    617.1118     11.8176     93.2309
   184.2500      0.0000    555.7988     11.7837     91.1231
   184.5000      0.0000    524.0306     11.7290     88.8019
   184.7500      0.0000    529.1847     11.6887     87.4130
   185.0000      0.0000    552.5738     11.6885     87.6106
   185.2500      0.0000    564.9938     11.7264     88.8098
   185.5000      0.0000    549.2620     11.7787     89.4978
   185.7500      0.0000    507.5018     11.8246     88.6610
   186.0000      0.0000    453.5843     11.8644     86.6884
   186.2500      0.0000    403.8006     11.9060     84.8483
   186.5000      0.0000    371.1871     11.9384     84.2853
   186.7500      0.0000    363.6726     11.9342     85.3062
   187.0000      0.0000    385.5414     11.8799     86.8975
   187.2500      0.0000    437.3807     11.7921     86.9516
   187.5000      0.0000    510.4258     11.7039     83.6772
   187.7500      0.0000    582.9394     11.6435     77.1105
   188.0000      0.0000    630.0189     11.6233     69.2107
   188.2500      0.0000    641.7582     11.6420     62.5305
   188.5000      0.0000    629.7445     11.6890     58.6198
   188.7500      0.0000    613.4973     11.7430     57.2561
   189.0000      0.0000    601.0178     11.7751     56.9416
   189.2500      0.0000    583.1295     11.7689     56.2914
   189.5000      0.0000    546.5284     11.7335     55.2711
   189.7500      0.0000    491.6486     11.6923     55.1082
   190.0000      0.0000    435.9480     11.6671     56.6955
   190.2500      0.0000    401.2254     11.6747     59.0703
   190.5000      0.0000    401.4743     11.7160     59.8892
   190.7500      0.0000    439.6466     11.7620     57.6496
   191.0000      0.0000    506.0402     11.7714     53.1563
   191.2500      0.0000    578.1877     11.7305     48.6925
   191.5000      0.0000    631.9811     11.6564     46.1463
   191.7500      0.0000    659.7839     11.5604     46.0300
   192.0000      0.0000    674.0636     11.4348     47.6411
   192.2500      0.0000    690.5820     11.2840     49.5574
   192.5000      0.0000    712.4871     11.1441     50.3623
   192.7500      0.0000    732.7128     11.0587     49.5638
   193.0000      0.0000    745.6916     11.0445     47.9317
