~Version Information
VERS.                      2.0: CWLS Log ASCII Standard - VERSION 2.0
WRAP.                       NO: One line per depth step
~Well Information Block
STRT.FT               765.4000: 
STOP.FT              2581.2000: 
STEP.FT                 0.1000: 
NULL.                -999.2500: 
COMP.          Petrogulf Corporation: COMPANY
WELL.            Montoya 7-12V: WELL
FLD.           Purgatorie River: FIELD
LOC.           728' FWL & 1764' FNL: LOCATION
CNTY.               Las Animas: COUNTY
SRVC.                         : SERVICE COMPANY
DATE.          Fri Feb 20 09:23:58 2004: LOG DATE
UWI.           05-071-07887-00: UNIQUE WELL ID
STAT.                 Colorado: STATE
~Curve Information Block
DEPT.FT            0 000 00 00: Depth
DCAL.in                       : CDL Caliper
RHOB.g/cc                     : CDL Bulk Density
RHOC.g/cc                     : CDL Density Correction
DPOR.pu                       : CDL Density Porosity
GR.GAPI                       : Gamma Ray
NPOR.pu                       : Neutron Porosity
~Parameter Information Block
~A  Depth       DCAL        RHOB        RHOC        DPOR         GR         NPOR    
# ...
  1850.2000      8.0256      2.5932      0.0059      3.4453     70.1258     19.2627
  1850.3000      8.0174      2.5681      0.0349      4.9635     63.9637     19.1645
  1850.4000      8.0174      2.5442      0.0142      6.4136     59.6851     19.2188
  1850.5000      8.0304      2.5245     -0.0367      7.6081     64.0471     19.2396
  1850.6000      8.0304      2.5242     -0.0630      7.6217     70.9622     19.2599
  1850.7000      8.0304      2.5494     -0.0277      6.0975     74.6719     19.4872
  1850.8000      8.0263      2.5867      0.0827      3.8369     76.7814     19.9501
  1850.9000      8.0263      2.6114      0.0997      2.3370     78.5120     20.3901
  1851.0000      8.0099      2.6213      0.0235      1.7367     75.9918     20.3887
  1851.1000      8.0099      2.6306      0.0515      1.1778     71.3732     19.9974
  1851.2000      8.0099      2.6334      0.1091      1.0055     68.6097     19.8787
  1851.3000      8.0151      2.6205      0.0808      1.7883     62.4915     20.5433
  1851.4000      8.0151      2.6103      0.0215      2.4038     53.4099     21.6958
  1851.5000      7.9841      2.6269      0.0885      1.4025     46.0307     22.6972
  1851.6000      7.9841      2.6598      0.1588     -0.5916     38.4191     23.2394
  1851.7000      7.9841      2.6781      0.1447     -1.7005     33.6376     23.3111
  1851.8000      7.9246      2.6726      0.1646     -1.3721     36.8974     22.9512
  1851.9000      7.9246      2.6571      0.1057     -0.4275     43.0716     22.5857
  1852.0000      7.9239      2.6423      0.1432      0.4690     44.4755     22.5200
  1852.1000      7.9239      2.6271      0.0973      1.3908     42.8757     22.4060
  1852.2000      7.9239      2.6031      0.1537      2.8429     44.5585     22.1282
  1852.3000      7.9407      2.5710      0.0568      4.7894     47.9975     21.9589
  1852.4000      7.9407      2.5480      0.0530      6.1836     48.3439     22.2456
  1852.5000      7.9809      2.5410      0.0209      6.6065     47.1388     23.0818
  1852.6000      7.9809      2.5415      0.0671      6.5740     45.4511     23.8662
  1852.7000      7.9809      2.5400      0.0943      6.6662     43.3705     23.7664
  1852.8000      7.9968      2.5310      0.0107      7.2094     43.2222     22.6044
  1852.9000      7.9968      2.5233      0.0322      7.6767     43.1361     21.3297
  1853.0000      8.0232      2.5303     -0.0021      7.2569     42.6776     20.9068
  1853.1000      8.0232      2.5488      0.0800      6.1331     44.6446     21.4192
  1853.2000      8.0232      2.5585      0.0619      5.5449     45.3796     22.2547
  1853.3000      8.0262      2.5411      0.1381      6.6027     42.6609     22.3175
  1853.4000      8.0262      2.5019      0.0043      8.9730     43.5991     21.2530
  1853.5000      8.0430      2.4709     -0.0022     10.8568     51.1215     20.3656
  1853.6000      8.0430      2.4646     -0.0280     11.2361     56.5989     20.6278
  1853.7000      8.0430      2.4752     -0.0070     10.5969     50.8404     21.1915
  1853.8000      8.0426      2.4933      0.0220      9.4990     38.2313     21.0977
  1853.9000      8.0426      2.5244     -0.0206      7.6141     33.0881     20.5313
  1854.0000      8.0418      2.5661      0.0889      5.0877     36.8079     19.9970
  1854.1000      8.0418      2.5946      0.0633      3.3560     39.8630     19.5761
  1854.2000      8.0418      2.5928      0.1353      3.4672     39.1114     19.5097
  1854.3000      8.0403      2.5636      0.0826      5.2373     35.0909     19.9826
  1854.4000      8.0403      2.5221      0.0248      7.7485     30.2806     20.4349
  1854.5000      8.0486      2.4767      0.0475     10.5027     30.2818     20.4985
  1854.6000      8.0486      2.4398     -0.0552     12.7408     35.7062     20.3041
  1854.7000      8.0486      2.4350     -0.0101     13.0292     43.2222     19.7072
  1854.8000      8.0446      2.4521      0.0826     11.9939     46.5026     18.9574
  1854.9000      8.0446      2.4548      0.0440     11.8275     40.5348     18.4066
  1855.0000      8.0316      2.4436      0.0222     12.5103     31.2006     17.9968
  1855.1000      8.0316      2.4535     -0.0040     11.9097     26.5701     17.8934
  1855.2000      8.0316      2.4954      0.0464      9.3680     28.0984     17.9004
  1855.3000      8.0236      2.5442      0.0905      6.4107     32.9931     17.4550
  1855.4000      8.0236      2.5793      0.0368      4.2822     35.8192     16.7409
  1855.5000      8.0033      2.5984      0.0965      3.1268     34.8966     16.4484
  1855.6000      8.0033      2.6040      0.1458      2.7902     35.9526     16.4208
  1855.7000      8.0033      2.5945      0.1242      3.3629     41.6198     15.8305
  1855.8000      8.0018      2.5730      0.0610      4.6662     46.5853     14.7106
  1855.9000      8.0018      2.5561      0.0383      5.6913     44.2599     13.9274
  1856.0000      7.9896      2.5500      0.0490      6.0614     37.5081     13.7515
  1856.1000      7.9896      2.5392      0.0587      6.7138     32.2526     13.8348
  1856.2000      7.9896      2.5174      0.0399      8.0337     27.9613     14.1848
  1856.3000      7.9769      2.5086     -0.0759      8.5725     25.0120     14.7738
  1856.4000      7.9769      2.5428     -0.0044      6.4968     24.7234     15.0656
  1856.5000      7.9732      2.5999      0.1008      3.0343     26.6428     14.9024
  1856.6000      7.9732      2.6241      0.1241      1.5693     32.3622     14.8466
  1856.7000      7.9732      2.6031      0.0492      2.8405     39.8299     15.1480
  1856.8000      7.9703      2.5710      0.0097      4.7884     44.8479     15.4006
  1856.9000      7.9703      2.5491      0.0355      6.1153     45.9207     15.3410
  1857.0000      7.9715      2.5322      0.0723      7.1422     38.9229     15.1712
  1857.1000      7.9715      2.5217     -0.0100      7.7739     27.9481     14.9426
  1857.2000      7.9715      2.5328     -0.0016      7.1047     24.8800     14.2682
  1857.3000      7.9766      2.5608      0.0501      5.4085     31.7103     13.5605
  1857.4000      7.9766      2.5769      0.1316      4.4276     39.9862     13.4635
  1857.5000      7.9796      2.5666     -0.0012      5.0547     39.9786     13.4710
  1857.6000      7.9796      2.5515      0.0109      5.9671     33.1272     13.2237
  1857.7000      7.9796      2.5543      0.0151      5.8022     29.8974     13.3655
  1857.8000      7.9771      2.5696      0.0931      4.8739     32.5095     14.1825
  1857.9000      7.9771      2.5858      0.0359      3.8890     34.7108     15.1109
  1858.0000      7.9761      2.6077      0.0413      2.5636     33.2111     15.6427
  1858.1000      7.9761      2.6452      0.0471      0.2901     31.8396     15.6984
  1858.2000      7.9761      2.7007      0.1427     -3.0706     35.2674     15.4747
  1858.3000      7.9788      2.7560      0.1461     -6.4218     38.7620     15.1775
  1858.4000      7.9788      2.7769      0.1445     -7.6884     35.1958     14.7461
  1858.5000      7.9791      2.7411      0.1266     -5.5199     31.4105     14.3743
  1858.6000      7.9791      2.6741      0.0575     -1.4586     35.5393     14.5417
  1858.7000      7.9791      2.6294      0.0224      1.2465     40.6706     15.0579
  1858.8000      7.9789      2.6170      0.0781      1.9982     41.3618     15.1596
  1858.9000      7.9789      2.6088      0.0754      2.4973     43.8891     14.8349
  1859.0000      7.9766      2.5877      0.0996      3.7730     49.6680     14.8627
  1859.1000      7.9766      2.5600      0.0172      5.4556     52.8298     15.1903
  1859.2000      7.9766      2.5534     -0.0043      5.8534     51.8494     15.0102
  1859.3000      7.9728      2.5771      0.1039      4.4191     51.4966     14.5247
  1859.4000      7.9728      2.6057      0.0659      2.6839     52.4521     14.4778
  1859.5000      7.9735      2.6224      0.1038      1.6739     47.5996     14.5775
  1859.6000      7.9735      2.6345      0.0199      0.9383     37.4532     14.3491
  1859.7000      7.9735      2.6525      0.0808     -0.1492     32.4190     13.9029
