~Version Information
VERS.                      2.0: CWLS Log ASCII Standard - VERSION 2.0
WRAP.                       NO: One line per depth step
~Well Information Block
STRT.FT               745.2500: 
STOP.FT              2003.5000: 
STEP.FT                 0.2500: 
NULL.                -999.2500: 
COMP.          Petrogulf Corporation: COMPANY
WELL.            Montoya 6-14V: WELL
FLD.           Purgatorie River: FIELD
LOC.           318' FSL & 882' FWL: LOCATION
CNTY.               Las Animas: COUNTY
SRVC.                         : SERVICE COMPANY
DATE.          Fri Aug 13 04:55:06 2004: LOG DATE
UWI.           05 071 08020 00: UNIQUE WELL ID
STAT.                 Colorado: STATE
~Curve Information Block
DEPT.FT            0 000 00 00: Depth
SP.mV                         : DIL Spontaneous Potential
RILD.Ohm-m                    : DIL Deep Resistivity
RILM.Ohm-m                    : DIL Medium Resistivity
RLL3.Ohm-m                    : DIL Shallow Resistivity
GR.GAPI                       : Gamma Ray
~Parameter Information Block
~A  Depth        SP         RILD        RILM        RLL3         GR     
# ...
   857.2500   1970.0000     21.3965     53.5475   1998.0000     65.5657
   857.5000   1970.0000     20.8969     49.4647   1998.0000     71.1900
   857.7500   1970.0000     20.2677     44.3536   1998.0000     74.8595
   858.0000   1970.0000     19.5774     39.0398   1998.0000     83.5126
   858.2500   1970.0000     18.8784     34.1129   1998.0000     92.7616
   858.5000   1970.0000     18.2024     29.8710   1998.0000    111.3256
   858.7500   1970.0000     17.5663     26.3941   1998.0000    125.0813
   859.0000   1970.0000     16.9791     23.6397   1998.0000    144.8790
   859.2500   1970.0000     16.4460     21.5149   1998.0000    156.8991
   859.5000   1970.0000     15.9694     19.9157   1998.0000    173.1245
   859.7500   1970.0000     15.5475     18.7440   1998.0000    182.2370
   860.0000   1970.0000     15.1758     17.9137   1998.0000    191.5728
   860.2500   1970.0000     14.8490     17.3505   1998.0000    194.3269
   860.5000   1970.0000     14.5643     16.9907   1998.0000    194.0062
   860.7500   1970.0000     14.3220     16.7804   1998.0000    191.7206
   861.0000   1970.0000     14.1259     16.6745   1998.0000    186.4067
   861.2500   1970.0000     13.9809     16.6371   1998.0000    182.4297
   861.5000   1970.0000     13.8911     16.6402   1998.0000    178.1657
   861.7500   1970.0000     13.8581     16.6638   1998.0000    177.7360
   862.0000   1970.0000     13.8782     16.6942   1998.0000    180.4334
   862.2500   1970.0000     13.9418     16.7244   1998.0000    182.7094
   862.5000   1970.0000     14.0348     16.7536   1998.0000    183.7177
   862.7500   1970.0000     14.1419     16.7873   1998.0000    182.2253
   863.0000   1970.0000     14.2536     16.8357   1998.0000    177.5389
   863.2500   1970.0000     14.3700     16.9099   1998.0000    173.2407
   863.5000   1970.0000     14.5006     17.0179   1998.0000    165.2578
   863.7500   1970.0000     14.6600     17.1596   1998.0000    159.2520
   864.0000   1970.0000     14.8610     17.3237   1998.0000    150.6125
   864.2500   1970.0000     15.1105     17.4892   1998.0000    145.9659
   864.5000   1970.0000     15.4070     17.6289   1998.0000    141.3932
   864.7500   1970.0000     15.7398     17.7176   1998.0000    140.0213
   865.0000   1970.0000     16.0888     17.7401   1998.0000    140.6572
   865.2500   1970.0000     16.4251     17.6972   1998.0000    142.9880
   865.5000   1970.0000     16.7155     17.6055   1998.0000    148.9461
   865.7500   1970.0000     16.9313     17.4939   1998.0000    153.9058
   866.0000   1970.0000     17.0595     17.3955   1998.0000    161.5342
   866.2500   1970.0000     17.1086     17.3418   1998.0000    166.1066
   866.5000   1970.0000     17.1051     17.3579   1998.0000    171.2518
   866.7500   1970.0000     17.0796     17.4612   1998.0000    173.0692
   867.0000   1970.0000     17.0525     17.6617   1998.0000    173.0193
   867.2500   1970.0000     17.0259     17.9630   1998.0000    171.3347
   867.5000   1970.0000     16.9859     18.3650   1998.0000    167.0948
   867.7500   1970.0000     16.9141     18.8645   1998.0000    163.4069
   868.0000   1970.0000     16.8002     19.4579   1998.0000    156.4002
   868.2500   1970.0000     16.6486     20.1402   1998.0000    150.6337
   868.5000   1970.0000     16.4760     20.9034   1998.0000    141.3524
   868.7500   1970.0000     16.3031     21.7334   1998.0000    136.1519
   869.0000   1970.0000     16.1475     22.6047   1998.0000    132.0060
   869.2500   1970.0000     16.0211     23.4755   1998.0000    131.6152
   869.5000   1970.0000     15.9301     24.2848   1998.0000    132.0614
   869.7500   1970.0000     15.8759     24.9561   1998.0000    131.5389
   870.0000   1970.0000     15.8536     25.4093   1998.0000    129.4544
   870.2500   1970.0000     15.8511     25.5805   1998.0000    128.5405
   870.5000   1970.0000     15.8486     25.4426   1998.0000    130.1082
   870.7500   1970.0000     15.8216     25.0158   1998.0000    133.3219
   871.0000   1970.0000     15.7484     24.3621   1998.0000    140.0186
   871.2500   1970.0000     15.6188     23.5673   1998.0000    144.5782
   871.5000   1970.0000     15.4414     22.7185   1998.0000    149.9430
   871.7500   1970.0000     15.2420     21.8889   1998.0000    152.0978
   872.0000   1970.0000     15.0551     21.1310   1998.0000    153.5394
   872.2500   1970.0000     14.9124     20.4777   1998.0000    153.9102
   872.5000   1970.0000     14.8350     19.9473   1998.0000    154.5058
   872.7500   1970.0000     14.8325     19.5498   1998.0000    155.1755
   873.0000   1970.0000     14.9048     19.2916   1998.0000    156.6678
   873.2500   1970.0000     15.0461     19.1792   1998.0000    157.9433
   873.5000   1970.0000     15.2477     19.2218   1998.0000    160.0059
   873.7500   1970.0000     15.4993     19.4317   1998.0000    161.1804
   874.0000   1970.0000     15.7914     19.8243   1998.0000    161.9745
   874.2500   1970.0000     16.1159     20.4162   1998.0000    161.3095
   874.5000   1970.0000     16.4653     21.2233   1998.0000    157.1364
   874.7500   1970.0000     16.8308     22.2563   1998.0000    151.5622
   875.0000   1970.0000     17.2012     23.5147   1998.0000    139.3923
   875.2500   1970.0000     17.5638     24.9797   1998.0000    130.0632
   875.5000   1970.0000     17.9074     26.6044   1998.0000    117.1921
   875.7500   1970.0000     18.2257     28.3069   1998.0000    110.5901
   876.0000   1970.0000     18.5162     29.9678   1998.0000    104.2134
   876.2500   1970.0000     18.7752     31.4376   1998.0000    102.0296
   876.5000   1970.0000     18.9910     32.5577   1998.0000    101.2945
   876.7500   1970.0000     19.1403     33.1902   1998.0000    102.4214
   877.0000   1970.0000     19.1900     33.2481   1998.0000    106.7756
   877.2500   1970.0000     19.1043     32.7140   1998.0000    111.5550
   877.5000   1970.0000     18.8557     31.6406   1998.0000    120.9022
   877.7500   1970.0000     18.4339     30.1339   1998.0000    127.5344
   878.0000   1970.0000     17.8508     28.3289   1998.0000    135.9953
   878.2500   1970.0000     17.1405     26.3644   1998.0000    140.1657
   878.5000   1970.0000     16.3534     24.3646   1998.0000    145.4284
   878.7500   1970.0000     15.5465     22.4283   1998.0000    149.5419
   879.0000   1970.0000     14.7718     20.6256   1998.0000    157.7619
   879.2500   1970.0000     14.0678     18.9997   1998.0000    164.1556
   879.5000   1970.0000     13.4550     17.5716   1998.0000    173.3365
   879.7500   1970.0000     12.9375     16.3464   1998.0000    178.4180
   880.0000   1970.0000     12.5086     15.3187   1998.0000    184.2026
   880.2500   1970.0000     12.1568     14.4773   1998.0000    186.9285
   880.5000   1970.0000     11.8716     13.8087   1998.0000    189.3094
   880.7500   1970.0000     11.6462     13.2996   1998.0000    189.7208
   881.0000   1970.0000     11.4780     12.9379   1998.0000    188.7107
   881.2500   1970.0000     11.3672     12.7144   1998.0000    187.0964
   881.5000   1970.0000     11.3156     12.6220   1998.0000    183.6550
   881.7500   1970.0000     11.3252     12.6568   1998.0000    181.0972
   882.0000   1970.0000     11.3975     12.8167   1998.0000    177.4589
   882.2500   1970.0000     11.5331     13.1015   1998.0000    175.0687
   882.5000   1970.0000     11.7316     13.5117   1998.0000    170.9240
   882.7500   1970.0000     11.9914     14.0473   1998.0000    167.7544
   883.0000   1970.0000     12.3104     14.7065   1998.0000    163.1459
   883.2500   1970.0000     12.6863     15.4839   1998.0000    160.5847
   883.5000   1970.0000     13.1190     16.3694   1998.0000    157.4145
   883.7500   1970.0000     13.6116     17.3466   1998.0000    155.3681
   884.0000   1970.0000     14.1693     18.3927   1998.0000    151.9724
   884.2500   1970.0000     14.7954     19.4782   1998.0000    149.5782
   884.5000   1970.0000     15.4825     20.5692   1998.0000    146.3208
   884.7500   1970.0000     16.2033     21.6278   1998.0000    144.7430
   885.0000   1970.0000     16.9073     22.6140   1998.0000    143.9190
