~Version Information
VERS.                      2.0: CWLS Log ASCII Standard - VERSION 2.0
WRAP.                       NO: One line per depth step
~Well Information Block
STRT.FT               605.6000: 
STOP.FT              1938.0000: 
STEP.FT                 0.1000: 
NULL.                -999.2500: 
COMP.          Petrogulf Corporation: COMPANY
WELL.              Graff 9-31R: WELL
FLD.           Purgatorie River: FIELD
LOC.           707' FNL & 1713' FEL: LOCATION
CNTY.               Las Animas: COUNTY
SRVC.                         : SERVICE COMPANY
DATE.          Mon Oct 25 06:13:30 2004: LOG DATE
UWI.           05 071 08037 00: UNIQUE WELL ID
STAT.                 Colorado: STATE
~Curve Information Block
DEPT.FT            0 000 00 00: Depth
DCAL.in                       : CDL Caliper
RHOB.g/cc                     : CDL Bulk Density
RHOC.g/cc                     : CDL Density Correction
DPOR.pu                       : CDL Density Porosity
GR.GAPI                       : Gamma Ray
NPOR.pu                       : Neutron Porosity
~Parameter Information Block
~A  Depth       DCAL        RHOB        RHOC        DPOR         GR         NPOR    
# ...
  1316.0000      7.8768      2.5560      0.0648      5.6970    108.6080     21.6988
  1316.1000      7.8768      2.5543      0.1105      5.8004    103.2647     21.1549
  1316.2000      7.8768      2.5525      0.0136      5.9101     97.8510     20.2794
  1316.3000      7.8833      2.5595      0.0619      5.4864     97.9735     19.2743
  1316.4000      7.8833      2.5698      0.0633      4.8594    100.0676     18.5273
  1316.5000      7.8843      2.5738      0.0546      4.6197     97.2722     18.4592
  1316.6000      7.8843      2.5685      0.0524      4.9405     90.7789     18.9624
  1316.7000      7.8843      2.5445      0.0597      6.3964     85.7881     19.2920
  1316.8000      7.8818      2.5028      0.0076      8.9207     83.8955     19.1721
  1316.9000      7.8818      2.4709     -0.0094     10.8522     84.2373     18.9918
  1317.0000      7.8844      2.4684     -0.0024     11.0043     85.0602     19.0039
  1317.1000      7.8844      2.4831      0.0101     10.1139     84.7017     18.9444
  1317.2000      7.8844      2.4936      0.0280      9.4778     82.3216     18.6148
  1317.3000      7.8883      2.4941      0.0287      9.4508     77.7446     18.2678
  1317.4000      7.8883      2.4955     -0.0042      9.3654     73.7318     18.0334
  1317.5000      7.8838      2.5097      0.0384      8.5047     73.1804     17.7550
  1317.6000      7.8838      2.5361      0.0269      6.9015     76.0058     17.4877
  1317.7000      7.8838      2.5647      0.0486      5.1688     79.9464     17.6735
  1317.8000      7.8842      2.5791      0.0627      4.2945     83.6990     18.4432
  1317.9000      7.8842      2.5751      0.0520      4.5376     88.8576     19.2001
  1318.0000      7.8817      2.5673      0.0626      5.0112     96.3544     19.5515
  1318.1000      7.8817      2.5671      0.0399      5.0247    102.0552     19.6356
  1318.2000      7.8817      2.5743      0.0688      4.5901    101.6691     19.4935
  1318.3000      7.8831      2.5785      0.0621      4.3333     97.4673     19.2434
  1318.4000      7.8831      2.5765      0.0215      4.4523     94.4249     19.0505
  1318.5000      7.8831      2.5808      0.0176      4.1947     95.4246     18.9273
  1318.6000      7.8831      2.5878      0.0715      3.7675     99.9273     18.9015
  1318.7000      7.8831      2.5843      0.0360      3.9812    100.7347     18.7642
  1318.8000      7.8872      2.5769      0.0498      4.4277     93.5931     18.2088
  1318.9000      7.8872      2.5780      0.0333      4.3609     84.2002     17.5943
  1319.0000      7.8829      2.5901      0.0347      3.6300     77.7220     17.4167
  1319.1000      7.8829      2.5988      0.0817      3.1014     75.6524     17.6281
  1319.2000      7.8829      2.5829      0.0828      4.0675     76.9851     17.8269
  1319.3000      7.8783      2.5446      0.0295      6.3894     80.5050     17.7453
  1319.4000      7.8783      2.5128     -0.0033      8.3142     87.1491     17.6120
  1319.5000      7.8842      2.5107     -0.0226      8.4436     95.9322     17.6263
  1319.6000      7.8842      2.5301      0.0450      7.2644    103.0610     17.4405
  1319.7000      7.8842      2.5424      0.0369      6.5217    104.2053     17.0363
  1319.8000      7.8867      2.5315      0.0062      7.1840     99.5304     17.0060
  1319.9000      7.8867      2.5087      0.0018      8.5635     95.0643     17.2213
  1320.0000      7.8846      2.4890      0.0251      9.7582     93.4196     16.9522
  1320.1000      7.8846      2.4790      0.0227     10.3657     92.6719     16.1496
  1320.2000      7.8846      2.4852      0.0364      9.9909     92.3537     15.3906
  1320.3000      7.8818      2.5080     -0.0043      8.6037     90.0928     15.0840
  1320.4000      7.8818      2.5267      0.0848      7.4750     83.6845     15.3675
  1320.5000      7.8852      2.5158      0.0326      8.1356     78.9565     16.0242
  1320.6000      7.8852      2.4833      0.0388     10.1056     79.8344     16.5217
  1320.7000      7.8852      2.4538      0.0235     11.8885     79.4447     16.4672
  1320.8000      7.8948      2.4442     -0.0255     12.4755     73.3363     16.1891
  1320.9000      7.8948      2.4583      0.0224     11.6204     68.2909     16.2621
  1321.0000      7.8865      2.4828      0.0587     10.1329     71.6893     16.7831
  1321.1000      7.8865      2.5093      0.0522      8.5292     82.0760     17.6838
  1321.2000      7.8865      2.5343      0.1059      7.0130     92.2203     18.6739
  1321.3000      7.8833      2.5396      0.1078      6.6906     97.9013     19.1463
  1321.4000      7.8833      2.5258      0.0827      7.5256     99.0936     19.1276
  1321.5000      7.8805      2.5199      0.0508      7.8879     97.9483     19.0678
  1321.6000      7.8805      2.5294      0.1235      7.3089     99.6284     18.9199
  1321.7000      7.8805      2.5350      0.1010      6.9706    104.3297     18.6313
  1321.8000      7.8822      2.5292      0.0879      7.3192    105.6100     18.5229
  1321.9000      7.8822      2.5249      0.0899      7.5794     99.7588     18.7827
  1322.0000      7.8830      2.5323      0.0991      7.1335     90.9736     19.1053
  1322.1000      7.8830      2.5456      0.0959      6.3285     85.8978     18.9938
  1322.2000      7.8830      2.5503      0.0945      6.0454     85.0392     18.3035
  1322.3000      7.8807      2.5432      0.0640      6.4704     85.6796     17.4832
  1322.4000      7.8807      2.5367      0.0867      6.8640     86.6484     17.0539
  1322.5000      7.8839      2.5410      0.0980      6.6089     87.1549     17.1379
  1322.6000      7.8839      2.5476      0.1319      6.2048     83.1713     17.4030
  1322.7000      7.8839      2.5424      0.0592      6.5237     75.4896     17.4718
  1322.8000      7.8860      2.5335      0.0529      7.0627     69.5216     17.4265
  1322.9000      7.8860      2.5330      0.0896      7.0900     63.7833     17.5615
  1323.0000      7.8836      2.5355      0.0607      6.9393     57.6612     17.9077
  1323.1000      7.8836      2.5367      0.0790      6.8693     55.3341     17.9158
  1323.2000      7.8836      2.5339      0.1090      7.0338     56.2335     17.3867
  1323.3000      7.8814      2.5218      0.0427      7.7727     58.1214     16.9947
  1323.4000      7.8814      2.5032      0.0715      8.8968     60.9176     17.0158
  1323.5000      7.8814      2.4849      0.0121     10.0061     63.1047     17.1101
  1323.6000      7.8814      2.4737      0.0106     10.6832     64.1356     17.1611
  1323.7000      7.8814      2.4741      0.0427     10.6593     66.4279     17.2992
  1323.8000      7.8844      2.4849      0.0490     10.0087     70.3317     17.3610
  1323.9000      7.8844      2.5016      0.0625      8.9945     74.1847     16.9333
  1324.0000      7.8904      2.5163      0.0404      8.1028     77.4827     15.9408
  1324.1000      7.8904      2.5200      0.0826      7.8793     80.0761     14.8901
  1324.2000      7.8904      2.5132      0.0026      8.2905     80.7191     14.2312
  1324.3000      7.9014      2.5095      0.0603      8.5141     78.1494     13.8841
  1324.4000      7.9014      2.5067      0.0750      8.6838     73.8774     13.4856
  1324.5000      7.9096      2.4808      0.0582     10.2522     72.2533     12.8779
  1324.6000      7.9096      2.4227     -0.0037     13.7739     75.0659     12.0934
  1324.7000      7.9096      2.3460     -0.0299     18.4249     77.6417     11.3630
  1324.8000      7.9126      2.2512      0.0131     24.1701     75.1989     10.9171
  1324.9000      7.9126      2.1265     -0.0660     31.7287     70.4818     10.6606
  1325.0000      7.9214      1.9880     -0.1298     40.1216     70.2358     10.3328
  1325.1000      7.9214      1.8646     -0.0362     47.6017     75.5236      9.7051
  1325.2000      7.9214      1.7530     -0.0720     54.3639     80.8227      8.7884
  1325.3000      7.9283      1.6436     -0.1158     60.9928     82.1588      7.8748
  1325.4000      7.9283      1.5507     -0.0862     66.6238     81.4271      7.1171
  1325.5000      7.9582      1.4839     -0.0550     70.6737     79.7329      6.3368
