~Version Information
VERS.                      2.0: CWLS Log ASCII Standard - VERSION 2.0
WRAP.                       NO: One line per depth step
~Well Information Block
STRT.FT                -9.0000: 
STOP.FT              2130.0000: 
STEP.FT                 0.2500: 
NULL.                -999.2500: 
COMP.          Pioneer Natural Resources: COMPANY
WELL.               King 22-13: WELL
FLD.           Purgatorie River: FIELD
LOC.           2419' FNL & 1806' FWL: LOCATION
PROV.                 Colorado: PROVINCE
CNTY.               Las Animas: COUNTRY
SRVC.                Patterson: SERVICE COMPANY
DATE.          Wed Apr 20 09:20:28 2005: LOG DATE
UWI.           05-071-08318-00: UNIQUE WELL ID
~Curve Information Block
DEPT.FT            0 000 00 00: Depth
CCL.                          : Casing Collar Locator
TT3.usec                      : CBL 3' Travel Time
AMP3.mV                       : CBL 3' Amplitude
GR.GAPI                       : Gamma Ray
~Parameter Information Block
~A  Depth       CCL         TT3         AMP3         GR     
# ...
   125.0000      0.0000    840.6111      7.8065     47.8186
   125.2500      0.0000    860.7101      7.8264     48.7323
   125.5000      0.0000    880.8439      7.8613     50.8872
   125.7500      0.0000    902.2285      7.9323     53.9576
   126.0000      0.0000    927.0403      8.0347     56.9054
   126.2500      0.0000    949.8300      8.1431     58.4672
   126.5000      0.0000    958.2177      8.2345     58.0239
   126.7500      0.0000    945.9638      8.3050     55.9617
   127.0000      0.0000    920.6573      8.3652     53.1704
   127.2500      0.0000    894.6280      8.4209     50.3577
   127.5000      0.0000    872.5327      8.4615     47.8836
   127.7500      0.0000    851.7966      8.4665     45.9249
   128.0000      0.0000    830.8263      8.4212     44.6018
   128.2500      0.0000    811.4515      8.3240     44.1425
   128.5000      0.0000    795.5652      8.1847     44.9676
   128.7500      0.0000    783.4823      8.0271     47.4149
   129.0000      0.0000    775.0118      7.8868     51.3818
   129.2500      0.0000    770.0252      7.7970     56.2936
   129.5000      0.0000    768.0895      7.7704     61.2118
   129.7500      0.0000    768.5233      7.7967     64.8237
   130.0000      0.0000    770.7514      7.8502     65.6624
   130.2500      0.0000    774.1729      7.8978     62.9992
   130.5000      0.0000    777.9181      7.9103     57.8634
   130.7500      0.0000    781.3875      7.8780     52.9019
   131.0000      0.0000    785.4532      7.8165     50.6898
   131.2500      0.0000    792.3740      7.7540     51.8260
   131.5000      0.0000    803.2224      7.7096     54.6129
   131.7500      0.0000    815.3049      7.6819     56.6200
   132.0000      0.0000    823.7736      7.6579     56.5817
   132.2500      0.0000    827.5229      7.6295     54.9157
   132.5000      0.0000    832.9094      7.6023     52.7722
   132.7500      0.0000    848.8007      7.5879     50.9653
   133.0000      0.0000    875.7355      7.5913     49.7231
   133.2500      0.0000    901.0771      7.6113     48.9698
   133.5000      0.0000    907.9866      7.6509     48.5747
   133.7500      0.0000    890.5023      7.7183     48.4085
   134.0000      0.0000    858.5715      7.8161     48.3647
   134.2500      0.0000    828.2014      7.9338     48.4968
   134.5000      0.0000    808.6140      8.0552     49.0133
   134.7500      0.0000    799.2050      8.1701     49.9057
   135.0000      0.0000    795.6420      8.2763     50.7261
   135.2500      0.0000    795.3466      8.3742     51.0143
   135.5000      0.0000    797.2487      8.4638     50.8314
   135.7500      0.0000    799.6799      8.5458     50.6425
   136.0000      0.0000    800.9001      8.6225     50.8157
   136.2500      0.0000    800.8428      8.6969     51.4059
   136.5000      0.0000    800.7234      8.7726     52.2520
   136.7500      0.0000    801.2239      8.8536     53.0900
   137.0000      0.0000    801.8989      8.9421     53.6056
   137.2500      0.0000    801.9551      9.0362     53.4924
   137.5000      0.0000    800.7731      9.1282     52.6245
   137.7500      0.0000    797.8079      9.2065     51.3337
   138.0000      0.0000    792.7286      9.2601     50.4057
   138.2500      0.0000    786.2040      9.2848     50.5203
   138.5000      0.0000    780.3998      9.2847     51.6545
   138.7500      0.0000    778.0379      9.2680     53.2351
   139.0000      0.0000    780.4005      9.2418     54.7880
   139.2500      0.0000    786.2472      9.2109     56.1152
   139.5000      0.0000    792.8424      9.1782     57.0089
   139.7500      0.0000    798.0005      9.1433     57.3454
   140.0000      0.0000    801.1246      9.0939     57.4532
   140.2500      0.0000    803.1295      8.9952     57.9676
   140.5000      0.0000    806.7908      8.7824     59.3182
   140.7500      0.0000    818.7431      8.3858     61.4741
   141.0000      0.0000    850.8794      7.7999     63.9686
   141.2500      0.0000    914.9079      7.1335     66.0008
   141.5000      0.0000   1008.2435      6.5514     66.7414
   141.7500      0.0000   1104.7856      6.1497     65.8417
   142.0000      0.0000   1167.7834      5.9116     63.6909
   142.2500      0.0000   1177.7228      5.7726     61.0244
   142.5000      0.0000   1146.5223      5.6824     58.3511
   142.7500     -5.0000   1104.7802      5.6130     56.0468
   143.0000      0.0000   1077.2827      5.5627     54.8153
   143.2500      5.0000   1068.6086      5.5773     55.4863
   143.5000      0.0000   1068.1505      5.7609     58.1679
   143.7500      0.0000   1066.5966      6.2380     61.8940
   144.0000      0.0000   1065.5502      7.0449     65.2601
   144.2500      0.0000   1071.4216      8.0210     67.3621
   144.5000      0.0000   1084.1274      8.8570     68.1626
   144.7500      0.0000   1095.2938      9.3140     68.0632
   145.0000      0.0000   1096.5331      9.3862     67.2369
   145.2500      0.0000   1087.0662      9.2374     65.4772
   145.5000      0.0000   1073.2375      9.0344     62.7607
   145.7500      0.0000   1062.8778      8.8653     59.7581
   146.0000      0.0000   1062.1482      8.7570     57.4049
   146.2500      0.0000   1076.6064      8.7110     56.0023
   146.5000      0.0000   1109.9089      8.7136     55.1649
   146.7500      0.0000   1156.5264      8.7391     54.5770
   147.0000      0.0000   1197.4154      8.7625     54.3871
   147.2500      0.0000   1209.5403      8.7768     54.9306
   147.5000      0.0000   1181.9067      8.7927     56.3484
   147.7500      0.0000   1120.3853      8.8181     58.3211
   148.0000      0.0000   1040.1809      8.8465     59.9211
   148.2500      0.0000    958.5579      8.8677     59.9160
   148.5000      0.0000    890.8148      8.8865     57.5810
   148.7500      0.0000    845.4023      8.9234     53.3888
   149.0000      0.0000    821.2212      8.9950     48.8633
   149.2500      0.0000    811.1293      9.0956     45.6425
   149.5000      0.0000    807.9503      9.1991     44.5392
   149.7500      0.0000    807.5023      9.2773     45.2029
   150.0000      0.0000    808.7556      9.3187     46.4220
   150.2500      0.0000    813.7094      9.3319     46.9452
   150.5000      0.0000    827.9948      9.3345     46.3702
   150.7500      0.0000    859.6848      9.3414     45.2456
   151.0000      0.0000    912.8641      9.3621     44.2965
   151.2500      0.0000    979.0002      9.4017     43.8716
   151.5000      0.0000   1037.6406      9.4596     44.1288
   151.7500      0.0000   1071.3506      9.5253     45.0893
   152.0000      0.0000   1080.2297      9.5822     46.2508
   152.2500      0.0000   1079.7218      9.6184     46.6201
   152.5000      0.0000   1085.9758      9.6334     45.4746
   152.7500      0.0000   1103.8455      9.6323     42.9874
   153.0000      0.0000   1124.5116      9.6161     40.1055
   153.2500      0.0000   1132.7531      9.5838     37.9763
   153.5000      0.0000   1119.4561      9.5412     37.4730
   153.7500      0.0000   1088.4150      9.5005     39.0137
   154.0000      0.0000   1051.3091      9.4709     42.5084
   154.2500      0.0000   1018.7981      9.4509     47.2242
   154.5000      0.0000    996.3818      9.4298     51.7892
   154.7500      0.0000    983.1248      9.3934     54.7960
   155.0000      0.0000    971.7727      9.3320     55.8305
   155.2500      0.0000    953.7943      9.2465     55.9134
   155.5000      0.0000    927.0911      9.1481     56.6139
   155.7500      0.0000    897.6417      9.0516     58.5538
   156.0000      0.0000    873.1482      8.9695     60.8800
   156.2500      0.0000    856.7797      8.9100     62.1994
   156.5000      0.0000    847.0590      8.8772     61.7540
   156.7500      0.0000    841.7686      8.8733     59.5381
   157.0000      0.0000    840.7864      8.8981     55.8284
   157.2500      0.0000    845.7279      8.9471     51.2902
   157.5000      0.0000    857.3679      9.0098     47.3435
   157.7500      0.0000    873.6218      9.0728     45.6921
   158.0000      0.0000    890.6494      9.1262     47.1912
   158.2500      0.0000    905.7811      9.1669     51.1031
