~Version Information
VERS.                      2.0: CWLS Log ASCII Standard - VERSION 2.0
WRAP.                       NO: One line per depth step
~Well Information Block
STRT.FT               765.6000: 
STOP.FT              2431.0000: 
STEP.FT                 0.1000: 
NULL.                -999.2500: 
COMP.          Petrogulf Corporation: COMPANY
WELL.             Norton 9-14V: WELL
FLD.           Purgatorie River: FIELD
LOC.           230' FSL & 225' FWL: LOCATION
CNTY.               Las Animas: COUNTY
SRVC.                         : SERVICE COMPANY
DATE.          Thu Oct 28 06:20:25 2004: LOG DATE
UWI.           05 071 07891 00: UNIQUE WELL ID
STAT.                 Colorado: STATE
~Curve Information Block
DEPT.FT            0 000 00 00: Depth
DCAL.in                       : CDL Caliper
RHOB.g/cc                     : CDL Bulk Density
RHOC.g/cc                     : CDL Density Correction
DPOR.pu                       : CDL Density Porosity
GR.GAPI                       : Gamma Ray
NPOR.pu                       : Neutron Porosity
~Parameter Information Block
~A  Depth       DCAL        RHOB        RHOC        DPOR         GR         NPOR    
# ...
  2196.0000      8.0535      2.4437      0.0119     12.5058    108.9021     24.9816
  2196.1000      8.0535      2.4330      0.0237     13.1495    109.8394     25.2252
  2196.2000      8.0535      2.4445      0.0403     12.4519    110.4939     25.6444
  2196.3000      8.0822      2.4736      0.0863     10.6886    108.1667     25.7965
  2196.4000      8.0822      2.5028      0.1197      8.9195    104.9955     25.4947
  2196.5000      8.0894      2.5141      0.1401      8.2385    104.6772     25.3829
  2196.6000      8.0894      2.5081      0.1215      8.5986    108.3031     26.0148
  2196.7000      8.0894      2.4971      0.1071      9.2675    112.5434     27.0065
  2196.8000      8.0591      2.4901      0.1233      9.6896    112.0511     27.7528
  2196.9000      8.0591      2.4896      0.1341      9.7237    106.7673     27.9361
  2197.0000      7.8765      2.4957      0.1145      9.3531    102.3439     27.3505
  2197.1000      7.8765      2.5072      0.1315      8.6520    103.1821     26.3205
  2197.2000      7.8765      2.5203      0.1290      7.8618    108.8381     25.6888
  2197.3000      7.8577      2.5326      0.1306      7.1125    116.2500     26.0530
  2197.4000      7.8577      2.5421      0.1422      6.5379    122.6764     27.0793
  2197.5000      7.8713      2.5483      0.1328      6.1636    126.1424     27.9329
  2197.6000      7.8713      2.5506      0.1329      6.0222    128.1112     28.0839
  2197.7000      7.8713      2.5431      0.1278      6.4791    133.8274     27.7784
  2197.8000      7.8918      2.5284      0.0763      7.3719    141.9625     27.7333
  2197.9000      7.8918      2.5108      0.1219      8.4393    143.1820     28.1927
  2198.0000      7.9243      2.4820      0.1108     10.1799    134.5283     28.7245
  2198.1000      7.9243      2.4451      0.0211     12.4159    125.9021     28.8857
  2198.2000      7.9243      2.4267     -0.0067     13.5361    125.9222     28.4636
  2198.3000      7.9233      2.4367      0.0293     12.9263    130.9875     27.6292
  2198.4000      7.9233      2.4451      0.0672     12.4208    132.6402     27.1809
  2198.5000      7.9264      2.4255      0.0625     13.6052    129.1878     27.3882
  2198.6000      7.9264      2.3932      0.0426     15.5620    126.0490     27.6981
  2198.7000      7.9264      2.3820      0.0124     16.2426    125.5356     27.8317
  2198.8000      7.9269      2.4043      0.0263     14.8889    124.0226     27.9458
  2198.9000      7.9269      2.4359      0.0942     12.9759    117.1574     28.2102
  2199.0000      7.9242      2.4397      0.0672     12.7455    104.6903     28.6543
  2199.1000      7.9242      2.3997      0.0676     15.1684     90.7060     28.9175
  2199.2000      7.9242      2.3228     -0.0008     19.8286     82.3845     28.6788
  2199.3000      7.9322      2.2196      0.0474     26.0867     81.8673     28.3617
  2199.4000      7.9322      2.0960      0.0214     33.5782     80.5287     28.5183
  2199.5000      7.9371      1.9706     -0.0468     41.1769     72.9092     29.2422
  2199.6000      7.9371      1.8625     -0.0762     47.7253     64.4868     30.1043
  2199.7000      7.9371      1.7603     -0.0680     53.9213     59.3591     30.4153
  2199.8000      7.9514      1.6438     -0.1197     60.9797     54.5150     30.1707
  2199.9000      7.9514      1.5213     -0.1085     68.4039     49.0381     30.0770
  2200.0000      7.9847      1.4178     -0.0436     74.6776     46.6473     30.5110
  2200.1000      7.9847      1.3540     -0.1041     78.5463     47.2044     31.2766
  2200.2000      7.9847      1.3397     -0.0396     79.4128     48.6273     31.8334
  2200.3000      8.0666      1.3688     -0.0059     77.6472     51.8172     31.8431
  2200.4000      8.0666      1.4375      0.0235     73.4835     58.1299     31.7663
  2200.5000      8.2980      1.5417      0.0703     67.1719     68.0409     32.1941
  2200.6000      8.2980      1.6519      0.1521     60.4884     78.1543     32.6983
  2200.7000      8.2980      1.7371      0.1773     55.3282     84.1321     32.4195
  2200.8000      8.4297      1.8085      0.1557     50.9981     86.6503     31.6560
  2200.9000      8.4297      1.9020      0.1917     45.3327     88.5051     31.5809
  2201.0000      8.2957      2.0211      0.2618     38.1164     90.6179     32.4865
  2201.1000      8.2957      2.1363      0.2146     31.1355     91.6797     33.3909
  2201.2000      8.2957      2.2219      0.1325     25.9450     91.7987     33.6203
  2201.3000      8.2735      2.2547      0.1868     23.9548     92.8316     33.2371
  2201.4000      8.2735      2.2102      0.1025     26.6541     91.9552     32.6009
  2201.5000      8.1354      2.0909      0.0282     33.8873     84.5336     32.0865
  2201.6000      8.1354      1.9359     -0.0765     43.2778     74.6292     31.6936
  2201.7000      8.1354      1.7930     -0.0310     51.9409     66.5932     31.1878
  2201.8000      8.0820      1.6859     -0.0770     58.4275     58.1293     30.7785
  2201.9000      8.0820      1.6082     -0.0563     63.1394     50.5331     30.8987
  2202.0000      8.0994      1.5425     -0.0987     67.1203     47.3424     31.6804
  2202.1000      8.0994      1.4853     -0.0180     70.5889     45.7967     32.6616
  2202.2000      8.0994      1.4382      0.0274     73.4405     42.7073     33.0541
  2202.3000      8.1728      1.3995      0.0370     75.7890     38.8195     32.8449
  2202.4000      8.1728      1.3712      0.0218     77.5049     34.9460     32.6239
  2202.5000      8.2154      1.3601     -0.0084     78.1749     32.0760     32.5950
  2202.6000      8.2154      1.3680      0.0219     77.6972     31.4933     32.3508
  2202.7000      8.2154      1.3859      0.0336     76.6094     33.3151     31.7963
  2202.8000      8.1968      1.4043      0.0387     75.4980     37.1031     31.7030
  2202.9000      8.1968      1.4186      0.1075     74.6307     41.3256     32.4240
  2203.0000      8.3679      1.4287      0.0424     74.0196     43.3231     33.1368
  2203.1000      8.3679      1.4352      0.0764     73.6234     42.3331     32.9991
  2203.2000      8.3679      1.4351      0.0583     73.6314     41.1001     32.3635
  2203.3000      8.4907      1.4321      0.0563     73.8105     42.6064     32.1568
  2203.4000      8.4907      1.4398      0.0246     73.3475     46.3538     32.4449
  2203.5000      8.4441      1.4695      0.0371     71.5434     49.0940     32.7189
  2203.6000      8.4441      1.5210      0.0497     68.4213     49.4991     32.8168
  2203.7000      8.4441      1.5808      0.0813     64.7981     51.2620     32.9436
  2203.8000      8.4066      1.6281      0.1351     61.9355     54.7686     33.0333
  2203.9000      8.4066      1.6513      0.1040     60.5281     55.7641     32.9370
  2204.0000      8.4634      1.6635      0.0632     59.7894     55.8776     32.8196
  2204.1000      8.4634      1.6791      0.1010     58.8408     58.0703     32.8206
  2204.2000      8.4634      1.6944      0.0742     57.9124     61.1641     32.9901
  2204.3000      8.4369      1.7021      0.0886     57.4485     64.9933     33.1728
  2204.4000      8.4369      1.7054      0.0301     57.2500     69.8447     33.1209
  2204.5000      8.3785      1.7186      0.0150     56.4461     75.2004     32.8862
  2204.6000      8.3785      1.7526      0.0427     54.3880     79.8404     32.4969
  2204.7000      8.3785      1.8076      0.1000     51.0564     82.6208     31.9668
  2204.8000      8.2602      1.8775      0.1232     46.8212     86.7683     31.5902
  2204.9000      8.2602      1.9432      0.2464     42.8349     94.0531     31.7346
  2205.0000      8.2763      1.9876      0.2392     40.1471     99.4733     32.2644
  2205.1000      8.2763      2.0239      0.2359     37.9428    101.3487     32.7075
  2205.2000      8.2763      2.0753      0.2327     34.8311    102.7647     32.8457
  2205.3000      8.2238      2.1408      0.2417     30.8602    105.5273     32.7000
  2205.4000      8.2238      2.2018      0.1812     27.1665    107.4539     32.1942
  2205.5000      8.0278      2.2427      0.1632     24.6850    107.4166     31.3925
