~Version Information
 VERS.                                  2.0 : CWLS LAS VERSION
 WRAP.                                   NO : WRAPING MODE
 SWARE .                 MController 2.5.0E : SOFTWARE VERSION
~Well Information
 WELL.                          Lynch 43-30 : WELL
 COMP.        Pioneer Natural Resources Inc : COMPANY
 FLD.                      Purgatoire River : FIELD
 LOC.                NE/SE Sec 30 T32S R67W : LOCATION
 DATE.                             10/25/04 : DATE(S) LOGGED
 SRVC.       Blanco Geological services LLc : SERVICE COMPANY
 STAT.                                   CO : STATE
 CNTY.                           Las Animas : COUNTY
 CTRY.                                  USA : COUNTRY
 API.                       05-071-08170-00 : API NUMBER
 STRT.FT                             410.00 : START DEPTH
 STOP.FT                            2845.00 : STOP DEPTH
 STEP.FT                               1.00 : DEPTH INCREMENT
 NULL.                                -9999 : NULL VALUE
~Curve information
 DEPTH.FT                                   :
 ROP.MIN/FT                                 :
 GAS.UNITS                                  :
~ASCII Log data
# ...
     1610.00        0.233          5.4 
     1611.00        0.200          6.6 
     1612.00        0.167          6.5 
     1613.00        0.233          6.6 
     1614.00        0.200          6.8 
     1615.00        0.233          5.8 
     1616.00        3.217         13.8 
     1617.00        0.333         13.0 
     1618.00        0.300         12.0 
     1619.00        0.333         11.3 
     1620.00        0.333         10.4 
     1621.00        0.283          9.9 
     1622.00        0.300          8.7 
     1623.00        0.233          9.3 
     1624.00        0.233          9.1 
     1625.00        0.233          8.5 
     1626.00        0.233          7.4 
     1627.00        0.233          7.9 
     1628.00        0.233          7.5 
     1629.00        0.233          7.0 
     1630.00        0.267          6.4 
     1631.00        0.233          6.7 
     1632.00        0.233          7.1 
     1633.00        0.233          6.9 
     1634.00        0.233          6.3 
     1635.00        0.217          6.0 
     1636.00        0.233          6.6 
     1637.00        0.233          6.4 
     1638.00        0.200          5.9 
     1639.00        0.233          6.3 
     1640.00        0.200          6.0 
     1641.00        0.233          6.4 
     1642.00        0.167          5.7 
     1643.00        0.200          6.0 
     1644.00        0.167          6.3 
     1645.00        0.200          6.7 
     1646.00        3.217         15.3 
     1647.00        0.167         14.4 
     1648.00        0.133         15.5 
     1649.00        0.133         15.3 
     1650.00        0.167         16.4 
     1651.00        0.133         17.2 
     1652.00        0.133         17.5 
     1653.00        0.167         17.4 
     1654.00        0.183         17.1 
     1655.00        0.167         17.4 
     1656.00        0.167         17.4 
     1657.00        0.167         17.5 
     1658.00        0.167         17.0 
     1659.00        0.133         17.2 
     1660.00        0.233         17.1 
     1661.00        0.167         16.4 
     1662.00        0.200         18.5 
     1663.00        0.200         21.5 
     1664.00        0.133         20.9 
     1665.00        0.133         21.2 
     1666.00        0.200         21.1 
     1667.00        0.200         19.7 
     1668.00        0.200         18.0 
     1669.00        0.167         16.4 
     1670.00        0.167         14.6 
     1671.00        0.200         13.0 
     1672.00        0.200         11.6 
     1673.00        0.217         12.2 
     1674.00        0.233         10.8 
     1675.00        0.167         10.4 
     1676.00        3.383         15.0 
     1677.00        0.333         16.1 
     1678.00        0.367         16.5 
     1679.00        0.300         15.8 
     1680.00        0.300         14.8 
     1681.00        0.267         13.8 
     1682.00        0.233         12.8 
     1683.00        0.233         12.0 
     1684.00        0.167         11.1 
     1685.00        0.167         10.6 
     1686.00        0.100         11.1 
     1687.00        0.133         11.3 
     1688.00        0.167         10.9 
     1689.00        0.150         10.8 
     1690.00        0.133         10.8 
     1691.00        0.167         10.9 
     1692.00        0.200         11.5 
     1693.00        0.167         12.6 
     1694.00        0.167         11.8 
     1695.00        0.167         10.2 
     1696.00        0.133          9.3 
     1697.00        0.133          9.1 
     1698.00        0.133          9.3 
     1699.00        0.200          9.1 
     1700.00        0.133          8.3 
     1701.00        0.133          7.2 
     1702.00        0.167          7.8 
     1703.00        0.200          7.2 
     1704.00        0.267          7.5 
     1705.00        0.200          7.1 
     1706.00        3.583         17.1 
     1707.00        0.267         16.5 
     1708.00        0.450         16.7 
     1709.00        0.300         15.8 
     1710.00        0.267         15.0 
     1711.00        0.267         14.1 
     1712.00        0.267         13.1 
     1713.00        0.267         12.6 
     1714.00        0.167         11.7 
     1715.00        0.167         11.6 
     1716.00        0.133         11.5 
     1717.00        0.100         11.5 
     1718.00        0.233         11.9 
     1719.00        0.200         11.3 
     1720.00        0.267         11.5 
     1721.00        0.350         11.1 
     1722.00        0.300         10.7 
     1723.00        0.300          9.9 
     1724.00        0.167         10.1 
     1725.00        0.167          9.8 
     1726.00        0.167          9.8 
     1727.00        0.200         10.1 
     1728.00        0.200         10.2 
     1729.00        0.133          9.8 
     1730.00        0.133         10.1 
     1731.00        0.200         10.3 
     1732.00        0.167         10.1 
     1733.00        0.367         10.1 
     1734.00        0.233         10.3 
     1735.00        0.233         10.3 
     1736.00        3.283         19.7 
     1737.00        0.550         22.0 
     1738.00        0.400         23.3 
     1739.00        0.233         23.3 
     1740.00        0.233         23.0 
     1741.00        0.200         21.4 
     1742.00        0.200         20.0 
     1743.00        0.300         18.8 
     1744.00        0.500         18.1 
     1745.00        0.233         16.8 
     1746.00        0.233         15.0 
     1747.00        0.200         13.5 
     1748.00        0.200         12.9 
     1749.00        0.167         11.7 
     1750.00        0.350         12.4 
     1751.00        0.267         11.1 
     1752.00        0.267         11.8 
     1753.00        0.167         12.6 
     1754.00        0.167         15.9 
     1755.00        0.167         19.8 
     1756.00        0.167         21.2 
     1757.00        0.200         24.6 
     1758.00        0.200         25.9 
     1759.00        0.200         26.2 
     1760.00        0.200         25.7 
     1761.00        0.167         25.4 
     1762.00        0.200         25.3 
     1763.00        0.233         25.2 
     1764.00        0.167         24.8 
     1765.00        0.167         24.8 
     1766.00        2.683         24.7 
     1767.00        0.433         31.3 
     1768.00        0.417         36.6 
     1769.00        0.333         38.7 
     1770.00        0.300         39.5 
     1771.00        0.300         39.3 
     1772.00        0.300         38.3 
     1773.00        0.267         36.1 
     1774.00        0.267         32.9 
     1775.00        0.233         31.0 
     1776.00        0.267         28.1 
     1777.00        0.233         25.8 
     1778.00        0.233         24.1 
     1779.00        0.267         22.6 
     1780.00        0.233         21.3 
     1781.00        0.217         20.0 
     1782.00        0.233         19.8 
     1783.00        0.233         19.2 
     1784.00        0.200         19.7 
     1785.00        0.200         21.6 
     1786.00        0.200         22.4 
     1787.00        0.200         22.5 
     1788.00        0.200         21.9 
     1789.00        0.200         19.8 
     1790.00        0.200         18.8 
     1791.00        0.200         16.3 
     1792.00        0.200         15.5 
     1793.00        0.200         13.9 
     1794.00        0.233         14.3 
     1795.00        0.200         14.2 
     1796.00        2.850         21.3 
     1797.00        0.600         30.9 
     1798.00        0.417         34.3 
     1799.00        0.333         35.1 
     1800.00        0.300         35.1 
     1801.00        0.267         33.8 
     1802.00        0.267         32.1 
     1803.00        0.267         29.0 
     1804.00        0.267         26.8 
     1805.00        0.300         25.0 
     1806.00        0.233         23.3 
     1807.00        0.200         21.7 
     1808.00        0.200         20.4 
     1809.00        0.200         19.4 
