~Version Information
VERS.                      2.0: CWLS Log ASCII Standard - VERSION 2.0
WRAP.                       NO: One line per depth step
~Well Information Block
STRT.FT                -7.5000: 
STOP.FT              1545.0000: 
STEP.FT                 0.2500: 
NULL.                -999.2500: 
COMP.          Pioneer Natural Resources: COMPANY
WELL.          Kristin 22-23 Tr: WELL
FLD.           Purgatorie River: FIELD
LOC.           2273' FNL & 2029' FWL--: LOCATION
PROV.                       CO: PROVINCE
CNTY.               Las Animas: COUNTRY
SRVC.                         : SERVICE COMPANY
DATE.          Tue Jan 25 11:16:36 2005: LOG DATE
UWI.           071-08259      : UNIQUE WELL ID
~Curve Information Block
DEPT.FT            0 000 00 00: Depth
CCL.                          : Casing Collar Locator
TT3.usec                      : CBL 3' Travel Time
AMP3.mV                       : CBL 3' Amplitude
GR.GAPI                       : Gamma Ray
~Parameter Information Block
~A  Depth       CCL         TT3         AMP3         GR     
# ...
   696.0000      0.0000    747.5765      3.9426    132.8983
   696.2500      0.0000    739.0945      3.7415    128.1487
   696.5000      0.0000    727.7122      3.6909    123.1918
   696.7500      0.0000    717.0643      3.7761    119.7561
   697.0000      0.0000    712.6101      3.9288    118.3616
   697.2500      0.0000    717.5146      4.0763    118.6828
   697.5000      0.0000    730.0646      4.1741    120.6988
   697.7500      2.0000    745.4122      4.2142    124.5284
   698.0000      0.0000    759.2297      4.2158    129.1494
   698.2500      0.0000    769.3229      4.2094    132.3033
   698.5000      0.0000    774.6702      4.2298    132.3160
   698.7500      0.0000    774.4544      4.3002    129.6490
   699.0000      0.0000    768.7465      4.3988    126.2289
   699.2500      0.0000    759.5534      4.4621    123.5288
   699.5000      0.0000    750.1858      4.4578    121.7448
   699.7500      0.0000    743.3032      4.4340    120.6545
   700.0000      0.0000    739.7657      4.4641    120.5788
   700.2500      0.0000    739.1600      4.5659    122.1129
   700.5000      0.0000    740.8226      4.7009    125.2488
   700.7500      0.0000    744.1891      4.8246    129.2565
   701.0000      0.0000    748.6692      4.9112    133.3946
   701.2500      0.0000    753.8076      4.9510    137.4029
   701.5000      0.0000    759.5026      4.9476    141.3823
   701.7500      0.0000    765.3119      4.9119    145.3945
   702.0000      0.0000    769.4203      4.8527    148.8802
   702.2500      0.0000    769.3175      4.7808    150.1398
   702.5000      0.0000    764.2024      4.7186    146.9276
   702.7500      0.0000    756.2182      4.6894    138.3568
   703.0000      0.0000    748.8323      4.6913    126.2249
   703.2500      0.0000    744.2643      4.6958    114.0282
   703.5000      0.0000    742.5554      4.6821    104.8275
   703.7500      0.0000    742.4653      4.6663    100.2882
   704.0000      0.0000    742.7125      4.6870    101.0583
   704.2500      0.0000    742.6031      4.7633    106.8413
   704.5000      0.0000    742.0520      4.8755    115.8813
   704.7500      0.0000    741.3044      4.9847    125.1070
   705.0000      0.0000    740.6199      5.0674    131.4416
   705.2500      0.0000    740.0678      5.1271    133.3280
   705.5000      0.0000    739.4775      5.1751    131.2775
   705.7500      0.0000    738.4847      5.2101    127.2987
   706.0000      0.0000    736.7816      5.2271    123.7550
   706.2500      0.0000    734.6658      5.2371    122.1042
   706.5000      0.0000    733.5295      5.2652    122.2712
   706.7500      0.0000    735.3483      5.3217    123.3382
   707.0000      0.0000    741.0255      5.3797    124.7650
   707.2500      0.0000    749.1843      5.3917    126.7188
   707.5000      0.0000    757.0916      5.3332    129.6610
   707.7500      0.0000    762.9559      5.2309    134.0201
   708.0000      0.0000    767.1047      5.1455    139.7664
   708.2500      0.0000    770.9544      5.1257    145.7059
   708.5000      0.0000    775.2388      5.1717    149.7530
   708.7500      0.0000    779.4551      5.2377    150.4794
   709.0000      0.0000    782.7192      5.2673    148.1032
   709.2500      0.0000    784.5679      5.2341    143.7387
   709.5000      0.0000    784.6293      5.1576    138.3468
   709.7500      0.0000    781.7741      5.0858    132.8544
   710.0000      0.0000    774.2659      5.0663    128.8233
   710.2500      0.0000    761.4149      5.1219    128.1911
   710.5000      0.0000    745.3538      5.2365    131.6391
   710.7500      0.0000    730.7596      5.3529    137.0102
   711.0000      0.0000    722.1948      5.3986    140.1180
   711.2500      0.0000    721.2773      5.3378    137.9341
   711.5000      0.0000    726.2411      5.2115    131.0075
   711.7500      0.0000    733.9501      5.1141    122.7383
   712.0000      0.0000    742.0891      5.1172    116.7334
   712.2500      0.0000    749.5439      5.2114    114.9330
   712.5000      0.0000    755.4023      5.3208    117.5873
   712.7500      0.0000    758.4291      5.3703    124.0232
   713.0000      0.0000    757.7984      5.3432    132.8096
   713.2500      0.0000    754.0804      5.2830    141.4273
   713.5000      0.0000    749.1270      5.2483    146.7332
   713.7500      0.0000    744.7949      5.2660    146.5605
   714.0000      0.0000    741.8449      5.3227    141.1785
   714.2500      0.0000    740.0207      5.3877    133.2214
   714.5000      0.0000    738.8486      5.4336    126.0565
   714.7500      0.0000    738.1835      5.4438    121.7926
   715.0000      0.0000    738.2812      5.4154    120.5476
   715.2500      0.0000    739.7743      5.3644    121.3667
   715.5000      0.0000    743.6504      5.3244    123.2906
   715.7500      0.0000    750.7656      5.3255    125.3965
   716.0000      0.0000    760.8337      5.3664    126.7324
   716.2500      0.0000    771.8996      5.4087    126.9520
   716.5000      0.0000    781.3104      5.4062    126.5318
   716.7500      0.0000    787.3967      5.3414    125.9660
   717.0000      0.0000    790.0948      5.2322    125.3314
   717.2500      0.0000    790.2108      5.1114    124.9513
   717.5000      0.0000    788.4404      5.0044    125.7388
   717.7500      0.0000    784.9185      4.9230    128.1471
   718.0000      0.0000    779.5245      4.8699    131.1675
   718.2500      0.0000    772.7752      4.8460    133.1644
   718.5000      0.0000    766.1986      4.8514    133.6450
   718.7500      0.0000    761.4120      4.8832    133.5855
   719.0000      0.0000    759.0378      4.9308    134.0180
   719.2500      0.0000    758.9185      4.9773    134.7680
   719.5000      0.0000    760.8896      5.0074    134.7497
   719.7500      0.0000    764.7292      5.0167    133.2406
   720.0000      0.0000    769.5677      5.0147    130.6323
   720.2500      0.0000    773.8720      5.0161    128.0862
   720.5000      0.0000    776.3423      5.0295    126.6827
   720.7500      0.0000    776.9991      5.0507    126.8027
   721.0000      0.0000    777.1695      5.0692    128.0094
   721.2500      0.0000    778.1114      5.0811    129.3884
   721.5000      0.0000    779.8478      5.0946    130.2308
   721.7500      0.0000    781.4731      5.1219    130.6380
   722.0000      0.0000    782.1450      5.1666    131.3869
   722.2500      0.0000    781.4631      5.2207    133.0748
   722.5000      0.0000    779.3230      5.2737    135.6584
   722.7500      0.0000    775.9722      5.3227    138.8956
   723.0000      0.0000    772.1469      5.3690    142.6645
   723.2500      0.0000    768.6435      5.4108    146.5060
   723.5000      0.0000    765.6226      5.4412    149.4091
   723.7500      0.0000    762.8160      5.4567    150.5486
   724.0000      0.0000    760.5333      5.4608    149.9205
   724.2500      0.0000    759.8364      5.4571    147.9222
   724.5000      0.0000    761.4540      5.4438    144.7106
   724.7500      0.0000    764.8318      5.4158    140.4485
   725.0000      0.0000    768.2578      5.3738    135.8835
   725.2500      0.0000    769.7753      5.3279    132.1624
   725.5000      0.0000    768.2651      5.2916    130.1501
   725.7500      0.0000    763.8956      5.2697    129.9668
   726.0000      0.0000    757.6132      5.2485    130.7785
   726.2500      0.0000    750.3743      5.2046    131.1441
   726.5000      0.0000    742.8069      5.1276    130.1908
   726.7500      0.0000    735.4064      5.0363    128.4667
   727.0000      0.0000    729.2196      4.9690    127.1482
   727.2500      0.0000    726.3197      4.9560    126.4538
   727.5000      0.0000    728.8647      5.0009    125.3055
   727.7500      0.0000    737.0643      5.0801    122.6846
   728.0000      0.0000    748.3461      5.1581    118.9950
   728.2500      0.0000    758.9863      5.2040    115.7462
   728.5000      0.0000    766.6545      5.2050    114.1429
   728.7500      0.0000    771.2064      5.1729    114.3695
   729.0000      0.0000    773.2059      5.1413    115.9325
   729.2500      0.0000    772.5652      5.1483    117.9799
