~Version Information
VERS.                      2.0: CWLS Log ASCII Standard - VERSION 2.0
WRAP.                       NO: One line per depth step
~Well Information Block
STRT.FT               -10.0000: 
STOP.FT              2184.0000: 
STEP.FT                 0.2500: 
NULL.                -999.2500: 
COMP.          Petrogulf Corporation: COMPANY
WELL.              Silva 1-43R: WELL
FLD.           Purgatorie River: FIELD
LOC.           1971' FSL & 526' FEL--: LOCATION
CNTY.               Las Animas: COUNTY
SRVC.          Patterson Wireline: SERVICE COMPANY
DATE.          Thu Jul 13 13:08:17 2006: LOG DATE
UWI.           05 072 08372 00: UNIQUE WELL ID
STAT.                       CO: STATE
~Curve Information Block
DEPT.FT            0 000 00 00: Depth
CCL.                          : Casing Collar Locator
TT3.usec                      : CBL 3' Travel Time
AMP3.mV                       : CBL 3' Amplitude
GR.GAPI                       : Gamma Ray
~Parameter Information Block
~A  Depth       CCL         TT3         AMP3         GR     
# ...
   291.5000      0.0000    602.9972      3.8734     85.7679
   291.7500      0.0000    601.2186      3.8877     89.1268
   292.0000      0.0000    601.8349      3.8969     93.9120
   292.2500      0.0000    604.5626      3.8842     97.1188
   292.5000      0.0000    610.0111      3.8441     97.3202
   292.7500      0.0000    619.6198      3.7769     95.4403
   293.0000      0.0000    634.3642      3.6861     93.3986
   293.2500      0.0000    653.1426      3.5871     91.9977
   293.5000      0.0000    672.3353      3.5066     90.4118
   293.7500      0.0000    687.1903      3.4604     87.7414
   294.0000      0.0000    694.0810      3.4350     84.4338
   294.2500      0.0000    691.9141      3.4009     81.6352
   294.5000      0.0000    681.8140      3.3502     79.5914
   294.7500      0.0000    666.1856      3.3214     77.4458
   295.0000      0.0000    648.4760      3.3794     74.5064
   295.2500      0.0000    633.2655      3.5561     71.1130
   295.5000      0.0000    625.0624      3.8089     68.0321
   295.7500      0.0000    625.9937      4.0520     65.2505
   296.0000      0.0000    635.3506      4.2217     61.8643
   296.2500      0.0000    651.8502      4.3033     57.4290
   296.5000     -2.0000    675.2438      4.3180     52.9951
   296.7500      2.0000    704.4119      4.3106     50.2571
   297.0000      0.0000    733.9033      4.3340     49.8253
   297.2500     -2.0000    754.1394      4.4237     50.7892
   297.5000      0.0000    757.7590      4.5888     51.9396
   297.7500      0.0000    746.4722      4.8145     52.9429
   298.0000      0.0000    729.7653      5.0464     54.1907
   298.2500      0.0000    716.5941      5.1888     55.9337
   298.5000      0.0000    710.3393      5.1699     57.9150
   298.7500      0.0000    711.0764      5.0103     59.6587
   299.0000      0.0000    718.4932      4.7962     60.8363
   299.2500      0.0000    731.0025      4.5976     61.4288
   299.5000      0.0000    744.4988      4.4413     61.5966
   299.7500      0.0000    754.0713      4.3384     61.3021
   300.0000      0.0000    756.7515      4.2964     60.2426
   300.2500      0.0000    752.4673      4.3081     58.4203
   300.5000      0.0000    743.3168      4.3502     56.5577
   300.7500      0.0000    732.4866      4.3988     55.6660
   301.0000      0.0000    723.1103      4.4384     56.2793
   301.2500      0.0000    717.1783      4.4606     58.0822
   301.5000      0.0000    715.2362      4.4587     60.1788
   301.7500      0.0000    717.0335      4.4284     61.8836
   302.0000      0.0000    721.9690      4.3704     63.3113
   302.2500      0.0000    728.5794      4.2918     64.9016
   302.5000      0.0000    734.0433      4.2075     66.4868
   302.7500      0.0000    735.1301      4.1386     67.3311
   303.0000      0.0000    730.1206      4.1057     67.0412
   303.2500      0.0000    719.6264      4.1174     65.9276
   303.5000      0.0000    705.5012      4.1663     64.5186
   303.7500      0.0000    689.4166      4.2359     63.1582
   304.0000      0.0000    672.7816      4.3093     61.9935
   304.2500      0.0000    657.4166      4.3710     60.8916
   304.5000      0.0000    645.2946      4.4066     59.3046
   304.7500      0.0000    637.3925      4.4071     56.6756
   305.0000      0.0000    633.2087      4.3745     53.2847
   305.2500      0.0000    631.4479      4.3237     50.5968
   305.5000      0.0000    630.9218      4.2771     50.3289
   305.7500      0.0000    630.9047      4.2542     52.7107
   306.0000      0.0000    631.0424      4.2630     55.7856
   306.2500      0.0000    631.1812      4.2960     57.0062
   306.5000      0.0000    631.2681      4.3333     55.6441
   306.7500      0.0000    631.3547      4.3520     53.4278
   307.0000      0.0000    631.6304      4.3365     52.9848
   307.2500      0.0000    632.4119      4.2855     55.8434
   307.5000      0.0000    633.9919      4.2098     61.5379
   307.7500      0.0000    636.2715      4.1255     68.3262
   308.0000      0.0000    638.4298      4.0461     74.7660
   308.2500      0.0000    639.2501      3.9791     80.3526
   308.5000      0.0000    638.0891      3.9269     84.5548
   308.7500      0.0000    635.3615      3.8895     86.2637
   309.0000      0.0000    631.7557      3.8662     85.1280
   309.2500      0.0000    627.3425      3.8542     82.8292
   309.5000      0.0000    622.1331      3.8499     81.7859
   309.7500      0.0000    617.4252      3.8530     82.5509
   310.0000      0.0000    615.5897      3.8722     83.2738
   310.2500      0.0000    617.9195      3.9221     81.8661
   310.5000      0.0000    623.4075      4.0114     78.0876
   310.7500      0.0000    630.4321      4.1306     73.3983
   311.0000      0.0000    639.1871      4.2553     69.4016
   311.2500      0.0000    651.4800      4.3607     66.7956
   311.5000      0.0000    667.8713      4.4344     65.3717
   311.7500      0.0000    685.4570      4.4796     64.6566
   312.0000      0.0000    699.1955      4.5105     64.5841
   312.2500      0.0000    705.9492      4.5439     65.4504
   312.5000      0.0000    707.3320      4.5918     66.9884
   312.7500      0.0000    708.4384      4.6546     67.9417
   313.0000      0.0000    713.1393      4.7208     67.2056
   313.2500      0.0000    720.3589      4.7749     65.1578
   313.5000      0.0000    725.7610      4.8095     63.2785
   313.7500      0.0000    727.3251      4.8288     62.7379
   314.0000      0.0000    727.7358      4.8403     63.8122
   314.2500      0.0000    730.5940      4.8460     66.1986
   314.5000      0.0000    735.9028      4.8410     69.1610
   314.7500      0.0000    740.4623      4.8198     71.5203
   315.0000      0.0000    741.6075      4.7830     72.1931
   315.2500      0.0000    739.2382      4.7382     71.0826
   315.5000      0.0000    734.7868      4.6974     69.2123
   315.7500      0.0000    729.6013      4.6718     67.7667
   316.0000      0.0000    724.4960      4.6663     66.9868
   316.2500      0.0000    719.7003      4.6779     66.1278
   316.5000      0.0000    714.5215      4.6975     64.5847
   316.7500      0.0000    707.6960      4.7140     62.8857
   317.0000      0.0000    698.6865      4.7172     62.3038
   317.2500      0.0000    688.3146      4.6997     63.5589
   317.5000      0.0000    678.1102      4.6622     66.2340
   317.7500      0.0000    669.7195      4.6158     69.2841
   318.0000      0.0000    664.7997      4.5765     71.6356
   318.2500      0.0000    664.3874      4.5555     72.3924
   318.5000      0.0000    668.0640      4.5540     71.0598
   318.7500      0.0000    674.3477      4.5659     67.8699
   319.0000      0.0000    682.1295      4.5832     63.8522
   319.2500      0.0000    691.4036      4.6000     60.4215
   319.5000      0.0000    702.4020      4.6136     58.5661
   319.7500      0.0000    714.1772      4.6243     58.2621
   320.0000      0.0000    724.7090      4.6338     58.6699
   320.2500      0.0000    732.8216      4.6428     58.7799
   320.5000      0.0000    739.1901      4.6527     57.8329
   320.7500      0.0000    744.5966      4.6667     55.5994
   321.0000      0.0000    747.6654      4.6883     52.6612
   321.2500      0.0000    745.3109      4.7170     50.2572
   321.5000      0.0000    735.7441      4.7447     49.4423
   321.7500      0.0000    720.7885      4.7595     50.2439
   322.0000      0.0000    705.1128      4.7533     51.8232
   322.2500      0.0000    693.3145      4.7264     53.5126
   322.5000      0.0000    687.6641      4.6837     55.3759
   322.7500      0.0000    687.8099      4.6310     57.6249
   323.0000      0.0000    691.4964      4.5738     59.9650
   323.2500      0.0000    695.3805      4.5177     61.8445
   323.5000      0.0000    696.2800      4.4691     63.0242
   323.7500      0.0000    692.8112      4.4335     63.6299
   324.0000      0.0000    686.1041      4.4129     64.0336
   324.2500      0.0000    678.7086      4.4005     64.8437
   324.5000      0.0000    672.7280      4.3803     66.6219
   324.7500      0.0000    668.8762      4.3363     69.4096
