~Version Information
 VERS.                                  2.0 : CWLS LAS VERSION
 WRAP.                                   NO : WRAPING MODE
 SWARE .                 MController 2.5.0I : SOFTWARE VERSION
~Well Information
 WELL.                        Montoya 1-44v : WELL
 COMP.                       Petrogulf Corp : COMPANY
 FLD.                      Purgatorie River : FIELD
 LOC.                 SE/SE Sec 1 T33S R68W : LOCATION
 DATE.                           8/24-25/04 : DATE(S) LOGGED
 SRVC.       Blanco Geological services LLC : SERVICE COMPANY
 STAT.                                   CO : STATE
 CNTY.                           Las Animas : COUNTY
 CTRY.                                  USA : COUNTRY
 API.                       05-071-08142-00 : API NUMBER
 STRT.FT                             556.00 : START DEPTH
 STOP.FT                            2600.00 : STOP DEPTH
 STEP.FT                               1.00 : DEPTH INCREMENT
 NULL.                                -9999 : NULL VALUE
~Curve information
 DEPTH.FT                                   :
 ROP.MIN/FT                                 :
 GAS.UNITS                                  :
~ASCII Log data
# ...
       956.0          0.2          8.5 
       957.0          0.2          8.8 
       958.0          2.2         39.5 
       959.0          0.2         38.6 
       960.0          0.2         30.7 
       961.0          0.2         22.4 
       962.0          0.2         17.1 
       963.0          0.3         13.7 
       964.0          0.2         11.1 
       965.0          0.2          9.8 
       966.0          0.2          9.1 
       967.0          0.2          8.7 
       968.0          0.2          8.3 
       969.0          0.2          8.1 
       970.0          0.2          8.1 
       971.0          0.1          8.2 
       972.0          0.1          8.1 
       973.0          0.1          8.2 
       974.0          0.1          8.1 
       975.0          0.1          8.1 
       976.0          0.1          8.2 
       977.0          0.2          8.3 
       978.0          0.2          8.2 
       979.0          0.2          8.6 
       980.0          0.2          8.2 
       981.0          0.2          8.3 
       982.0          0.2          8.2 
       983.0          0.2          8.4 
       984.0          0.2          8.1 
       985.0          0.2          8.2 
       986.0          0.2          8.1 
       987.0          0.2          8.3 
       988.0          2.7         41.3 
       989.0          0.2         33.4 
       990.0          0.1          8.9 
       991.0          0.2          5.2 
       992.0          0.2         -0.6 
       993.0          0.3         -3.0 
       994.0          0.2         -3.3 
       995.0          0.2         -3.5 
       996.0          0.2         -3.3 
       997.0          0.1         -3.6 
       998.0          0.1         -3.5 
       999.0          0.1         -3.3 
      1000.0          0.3         -3.1 
      1001.0          0.2         -3.1 
      1002.0          0.2         -3.0 
      1003.0          0.3         -3.0 
      1004.0          0.3         -2.9 
      1005.0          0.3         -2.8 
      1006.0          0.2         -2.8 
      1007.0          0.2         -2.8 
      1008.0          0.2         -2.7 
      1009.0          0.2         -2.7 
      1010.0          0.2         -2.7 
      1011.0          0.2         -2.7 
      1012.0          0.2         -2.6 
      1013.0          0.2         -2.7 
      1014.0          0.2         -2.7 
      1015.0          0.2          2.5 
      1016.0          0.1          2.7 
      1017.0          0.1          3.0 
      1018.0          2.3         56.8 
      1019.0          0.2         17.5 
      1020.0          0.1          8.8 
      1021.0          0.2          6.0 
      1022.0          0.2          5.0 
      1023.0          0.3          3.8 
      1024.0          0.3          2.8 
      1025.0          0.3          2.9 
      1026.0          0.2          2.5 
      1027.0          0.2          2.6 
      1028.0          0.2          2.5 
      1029.0          0.2          2.4 
      1030.0          0.1          2.5 
      1031.0          0.2          2.3 
      1032.0          0.2          2.4 
      1033.0          0.2          2.2 
      1034.0          0.2          2.3 
      1035.0          0.2          2.1 
      1036.0          0.2          2.4 
      1037.0          0.2          2.7 
      1038.0          0.2          2.7 
      1039.0          0.2          2.7 
      1040.0          0.2          2.8 
      1041.0          0.2          3.0 
      1042.0          0.2          2.8 
      1043.0          0.2          3.0 
      1044.0          0.3          3.3 
      1045.0          0.2          3.3 
      1046.0          0.2          3.3 
      1047.0          0.2          3.5 
      1048.0          2.6         43.0 
      1049.0          0.2          4.2 
      1050.0          0.3          3.1 
      1051.0          0.3          2.6 
      1052.0          0.2          2.6 
      1053.0          0.2          2.7 
      1054.0          0.2          2.7 
      1055.0          0.2          2.5 
      1056.0          0.2          2.9 
      1057.0          0.2          2.9 
      1058.0          0.2          2.8 
      1059.0          0.2          3.0 
      1060.0          0.2          2.7 
      1061.0          0.2          3.0 
      1062.0          0.2          3.1 
      1063.0          0.2          2.9 
      1064.0          0.2          3.1 
      1065.0          0.3          3.1 
      1066.0          0.2          3.2 
      1067.0          0.2          3.0 
      1068.0          0.2          3.0 
      1069.0          0.2          3.2 
      1070.0          0.2          3.3 
      1071.0          0.2          3.4 
      1072.0          0.2          3.3 
      1073.0          0.2          3.4 
      1074.0          0.2          3.3 
      1075.0          0.3          3.4 
      1076.0          0.2          3.4 
      1077.0          0.2          3.5 
      1078.0          2.3         42.6 
      1079.0          0.3          7.0 
      1080.0          0.2          3.8 
      1081.0          0.3          3.2 
      1082.0          0.3          2.6 
      1083.0          0.2          2.6 
      1084.0          0.3          2.7 
      1085.0          0.3          2.9 
      1086.0          0.3          2.8 
      1087.0          0.2          2.9 
      1088.0          0.2          2.8 
      1089.0          0.2          2.8 
      1090.0          0.2          2.9 
      1091.0          0.1          3.0 
      1092.0          0.2          3.0 
      1093.0          0.3          3.1 
      1094.0          0.2          2.9 
      1095.0          0.2          2.9 
      1096.0          0.2          2.8 
      1097.0          0.2          2.8 
      1098.0          0.2          2.9 
      1099.0          0.2          2.7 
      1100.0          0.1          2.8 
      1101.0          0.2          3.1 
      1102.0          0.2          3.0 
      1103.0          0.2          3.1 
      1104.0          0.2          3.2 
      1105.0          0.2          3.2 
      1106.0          0.2          3.2 
      1107.0          0.2          3.1 
      1108.0          2.4         39.6 
      1109.0          0.3          6.2 
      1110.0          0.3          3.5 
      1111.0          0.3          2.5 
      1112.0          0.3          2.4 
      1113.0          0.2          2.6 
      1114.0          0.1          2.5 
      1115.0          0.1          2.6 
      1116.0          0.2          3.1 
      1117.0          0.2          3.1 
      1118.0          0.2          3.0 
      1119.0          0.2          3.3 
      1120.0          0.2          3.2 
      1121.0          0.2          3.2 
      1122.0          0.3          3.4 
      1123.0          0.2          3.3 
      1124.0          0.2          3.1 
      1125.0          0.2          3.2 
      1126.0          0.2          3.3 
      1127.0          0.2          3.1 
      1128.0          0.2          3.3 
      1129.0          0.2          3.4 
      1130.0          0.2          3.3 
      1131.0          0.2          3.4 
      1132.0          0.2          3.5 
      1133.0          0.2          3.5 
      1134.0          0.2          3.4 
      1135.0          0.2          3.1 
      1136.0          0.2          3.4 
      1137.0          0.2          3.5 
      1138.0          2.7         55.2 
      1139.0          0.3         12.6 
      1140.0          0.3          4.7 
      1141.0          0.2          2.8 
      1142.0          0.3          2.6 
      1143.0          0.2          2.2 
      1144.0          0.2          2.3 
      1145.0          0.3          2.6 
      1146.0          0.2          2.8 
      1147.0          0.3          2.5 
      1148.0          0.2          2.7 
      1149.0          0.2          2.9 
      1150.0          0.2          2.7 
      1151.0          0.2          2.8 
      1152.0          0.2          2.9 
      1153.0          0.2          3.1 
      1154.0          0.2          3.2 
      1155.0          0.2          3.1 
