~Version Information
VERS.                      2.0: CWLS Log ASCII Standard - VERSION 2.0
WRAP.                       NO: One line per depth step
~Well Information Block
STRT.FT               780.0000: 
STOP.FT              3152.2000: 
STEP.FT                 0.1000: 
NULL.                -999.2500: 
COMP.          Pioneer Natural Resources: COMPANY
WELL.            Paradise 13-8: WELL
FLD.           Purgatoire River: FIELD
LOC.           1896' FSL & 1120' FWL: LOCATION
PROV.                 Colorado: PROVINCE
CNTY.               Las Animas: COUNTRY
SRVC.                Patterson: SERVICE COMPANY
DATE.          Sat Jan 22 20:51:32 2005: LOG DATE
UWI.           05 071 07946 00: UNIQUE WELL ID
~Curve Information Block
DEPT.FT            0 000 00 00: Depth
DCAL.in                       : CDL Caliper
RHOB.g/cc                     : CDL Bulk Density
RHOC.g/cc                     : CDL Density Correction
DPOR.pu                       : CDL Density Porosity
NPOR.pu                       : Neutron Porosity
GR.GAPI                       : Gamma Ray
~Parameter Information Block
~A  Depth       DCAL        RHOB        RHOC        DPOR        NPOR         GR     
# ...
  1874.4000      7.9472      2.6211      0.1164      1.7491     26.4764    134.1073
  1874.5000      7.9529      2.6016      0.1026      2.9324     27.0775    137.2633
  1874.6000      7.9529      2.5695      0.0254      4.8774     27.6926    136.4212
  1874.7000      7.9529      2.5473      0.0509      6.2214     28.1420    133.4164
  1874.8000      7.9488      2.5376      0.0518      6.8142     28.9154    128.9219
  1874.9000      7.9488      2.5230      0.0622      7.6966     29.8199    123.2528
  1875.0000      7.9413      2.4956      0.0006      9.3581     29.7532    120.5435
  1875.1000      7.9413      2.4703     -0.0103     10.8911     28.8953    120.0293
  1875.2000      7.9413      2.4600      0.0363     11.5123     28.7091    120.1883
  1875.3000      7.9367      2.4596      0.0228     11.5372     29.1886    123.6880
  1875.4000      7.9367      2.4606      0.0617     11.4758     29.0314    128.6642
  1875.5000      7.9356      2.4594      0.0823     11.5543     27.8960    129.0954
  1875.6000      7.9356      2.4569      0.0737     11.7054     26.5606    127.8970
  1875.7000      7.9356      2.4595      0.0782     11.5453     25.8589    130.0665
  1875.8000      7.9345      2.4732      0.1100     10.7132     25.8364    130.0869
  1875.9000      7.9345      2.5012      0.0696      9.0185     25.7879    126.5315
  1876.0000      7.9294      2.5384      0.1380      6.7628     25.0287    121.1966
  1876.1000      7.9294      2.5681      0.1233      4.9611     23.9543    113.2670
  1876.2000      7.9294      2.5816      0.1090      4.1442     23.4559    107.7061
  1876.3000      7.9216      2.5798      0.1063      4.2517     23.6696    107.8105
  1876.4000      7.9216      2.5710      0.0415      4.7882     23.9830    108.7603
  1876.5000      7.9175      2.5661      0.0686      5.0860     23.9021    105.4053
  1876.6000      7.9175      2.5647      0.0505      5.1717     23.6635     96.7804
  1876.7000      7.9175      2.5790     -0.0104      4.3040     23.8383     87.3533
  1876.8000      7.9181      2.6253      0.1114      1.4940     24.2317     83.2121
  1876.9000      7.9181      2.6874      0.1136     -2.2680     24.4064     86.9665
  1877.0000      7.9193      2.7372      0.1498     -5.2844     24.6480     93.4627
  1877.1000      7.9193      2.7618      0.1302     -6.7734     25.4074     94.2996
  1877.2000      7.9193      2.7686      0.1186     -7.1881     26.5990     89.6588
  1877.3000      7.9192      2.7609      0.1583     -6.7184     27.5819     85.3890
  1877.4000      7.9192      2.7312      0.1169     -4.9201     27.6943     82.0493
  1877.5000      7.9185      2.6883      0.0455     -2.3203     26.7632     78.0306
  1877.6000      7.9185      2.6431      0.0435      0.4200     25.3693     77.7989
  1877.7000      7.9185      2.6035     -0.0430      2.8202     24.5399     85.1153
  1877.8000      7.9201      2.5817     -0.0013      4.1405     24.9483     94.1241
  1877.9000      7.9201      2.5654      0.0009      5.1248     26.0596     97.9676
  1878.0000      7.9268      2.5399     -0.0553      6.6719     26.7854     99.4448
  1878.1000      7.9268      2.5230     -0.0391      7.6995     26.8176    106.4236
  1878.2000      7.9268      2.5300      0.0777      7.2727     26.5371    116.1289
  1878.3000      7.9409      2.5450      0.0995      6.3627     26.5993    121.3393
  1878.4000      7.9409      2.5543      0.0657      5.8015     27.2300    125.9774
  1878.5000      7.9575      2.5583      0.0934      5.5586     27.9402    134.2977
  1878.6000      7.9575      2.5568      0.0515      5.6460     28.3728    141.8461
  1878.7000      7.9575      2.5577      0.0517      5.5944     28.7197    143.7831
  1878.8000      7.9712      2.5609      0.0488      5.3980     29.3355    142.6404
  1878.9000      7.9712      2.5553      0.0528      5.7370     29.6453    141.6393
  1879.0000      7.9823      2.5464      0.0350      6.2803     29.0107    140.3322
  1879.1000      7.9823      2.5470      0.0557      6.2434     28.2982    140.4861
  1879.2000      7.9823      2.5558      0.0731      5.7118     28.3090    142.9597
  1879.3000      7.9895      2.5608      0.0878      5.4033     28.6482    143.6149
  1879.4000      7.9895      2.5478      0.0860      6.1967     28.6408    139.4714
  1879.5000      7.9928      2.5153      0.0389      8.1613     28.2391    134.6029
  1879.6000      7.9928      2.4799      0.0109     10.3076     28.1220    134.7099
  1879.7000      7.9928      2.4478      0.0455     12.2532     28.8915    134.5331
  1879.8000      7.9951      2.4073      0.0416     14.7105     29.9525    127.4724
  1879.9000      7.9951      2.3532     -0.0464     17.9865     30.3375    119.9977
  1880.0000      7.9956      2.2869      0.0397     22.0072     30.3259    119.1017
  1880.1000      7.9956      2.2067     -0.0371     26.8669     30.8065    120.7656
  1880.2000      7.9956      2.1228     -0.0853     31.9512     31.8856    120.8359
  1880.3000      7.9942      2.0444     -0.0657     36.7003     32.7002    120.8847
  1880.4000      7.9942      1.9781     -0.0938     40.7242     32.7495    120.4473
  1880.5000      7.9942      1.9440     -0.0627     42.7894     32.4401    116.2444
  1880.6000      7.9942      1.9578     -0.0400     41.9514     32.1286    108.4172
  1880.7000      7.9942      2.0171      0.0283     38.3554     31.7634    101.1842
  1880.8000      7.9949      2.1099      0.0883     32.7358     30.9970     95.3548
  1880.9000      7.9949      2.2152      0.2056     26.3528     29.3792     89.3795
  1881.0000      7.9953      2.3050      0.2652     20.9071     27.4850     84.5178
  1881.1000      7.9953      2.3700      0.2407     16.9689     26.5738     81.6661
  1881.2000      7.9953      2.4320      0.2100     13.2144     26.5880     81.4029
  1881.3000      7.9952      2.5095      0.2552      8.5182     26.3069     82.1748
  1881.4000      7.9952      2.5837      0.2553      4.0166     25.4906     80.8361
  1881.5000      7.9957      2.6222      0.2222      1.6852     25.0859     80.4040
  1881.6000      7.9957      2.6182      0.1524      1.9254     25.4027     82.9226
  1881.7000      7.9957      2.5968      0.1015      3.2215     25.8102     86.7271
  1881.8000      7.9971      2.5884      0.0786      3.7330     25.9479     91.6265
  1881.9000      7.9971      2.5928      0.1163      3.4638     25.9586     95.2165
  1882.0000      7.9986      2.5858      0.0787      3.8926     25.9953     96.7094
  1882.1000      7.9986      2.5614      0.0494      5.3697     25.9304     96.9912
  1882.2000      7.9986      2.5376      0.0232      6.8104     25.8946     95.0615
  1882.3000      8.0005      2.5299      0.0279      7.2799     26.2806     93.1878
  1882.4000      8.0005      2.5371      0.0490      6.8422     26.6054     93.7646
  1882.5000      8.0015      2.5439      0.0934      6.4287     26.2816     95.8438
  1882.6000      8.0015      2.5405      0.0305      6.6370     25.7701     98.1408
  1882.7000      8.0015      2.5382      0.0461      6.7750     25.7354    100.6094
  1882.8000      8.0002      2.5486      0.0480      6.1445     26.2409    105.5093
  1882.9000      8.0002      2.5659      0.0742      5.0960     26.8636    110.1443
  1883.0000      7.9987      2.5739      0.0856      4.6098     27.3611    108.8454
  1883.1000      7.9987      2.5725      0.0266      4.6958     27.6406    107.4808
  1883.2000      7.9987      2.5796      0.0576      4.2668     27.3025    113.5536
  1883.3000      7.9967      2.5933      0.0992      3.4365     26.5009    123.0247
  1883.4000      7.9967      2.5969      0.0907      3.2159     26.1868    130.5896
  1883.5000      7.9951      2.5920      0.0655      3.5176     26.6066    136.6958
  1883.6000      7.9951      2.5918      0.0553      3.5293     27.2210    138.1288
  1883.7000      7.9951      2.6003      0.0715      3.0127     27.7567    134.8692
  1883.8000      7.9962      2.6063      0.0680      2.6503     28.0204    136.8283
  1883.9000      7.9962      2.5925      0.1033      3.4856     28.1024    141.7289
