~Version Information
VERS.                      2.0: CWLS Log ASCII Standard - VERSION 2.0
WRAP.                       NO: One line per depth step
~Well Information Block
STRT.FT               555.5000: 
STOP.FT              2179.0000: 
STEP.FT                 0.2500: 
NULL.                -999.2500: 
COMP.          Petrogulf Corporation: COMPANY
WELL.            Montoya 6-14R: WELL
FLD.           Purgatorie River: FIELD
LOC.           867' FSL & 751' FWL: LOCATION
CNTY.               Las Animas: COUNTY
SRVC.                         : SERVICE COMPANY
DATE.          Mon Nov 15 07:02:23 2004: LOG DATE
UWI.           05 071 08242 00: UNIQUE WELL ID
STAT.                 Colorado: STATE
~Curve Information Block
DEPT.FT            0 000 00 00: Depth
SP.mV                         : DIL Spontaneous Potential
RILD.Ohm-m                    : DIL Deep Resistivity
RILM.Ohm-m                    : DIL Medium Resistivity
RLL3.Ohm-m                    : DIL Shallow Resistivity
GR.GAPI                       : Gamma Ray
~Parameter Information Block
~A  Depth        SP         RILD        RILM        RLL3         GR     
# ...
   779.5000   2000.0000     17.7146     15.4683   2000.0000    143.9408
   779.7500   2000.0000     18.0647     16.0556   2000.0000    140.1570
   780.0000   2000.0000     18.3936     16.7354   2000.0000    133.7231
   780.2500   2000.0000     18.6855     17.4812   2000.0000    128.3641
   780.5000   2000.0000     18.9279     18.2485   2000.0000    118.0822
   780.7500   2000.0000     19.1139     18.9756   2000.0000    110.0291
   781.0000   2000.0000     19.2419     19.5894   2000.0000     97.9421
   781.2500   2000.0000     19.3149     20.0187   2000.0000     91.3401
   781.5000   2000.0000     19.3362     20.2107   2000.0000     85.7669
   781.7500   2000.0000     19.3077     20.1451   2000.0000     85.4516
   782.0000   2000.0000     19.2270     19.8382   2000.0000     89.3926
   782.2500   2000.0000     19.0880     19.3369   2000.0000     93.9575
   782.5000   2000.0000     18.8834     18.7037   2000.0000    102.0447
   782.7500   2000.0000     18.6091     18.0018   2000.0000    107.8055
   783.0000   2000.0000     18.2677     17.2850   2000.0000    116.9396
   783.2500   2000.0000     17.8712     16.5928   2000.0000    123.1529
   783.5000   2000.0000     17.4395     15.9499   2000.0000    131.2843
   783.7500   2000.0000     16.9974     15.3691   2000.0000    134.8801
   784.0000   2000.0000     16.5696     14.8544   2000.0000    136.8033
   784.2500   2000.0000     16.1770     14.4046   2000.0000    136.2281
   784.5000   2000.0000     15.8341     14.0157   2000.0000    134.0300
   784.7500   2000.0000     15.5488     13.6836   2000.0000    132.4047
   785.0000   2000.0000     15.3233     13.4050   2000.0000    130.6851
   785.2500   2000.0000     15.1565     13.1790   2000.0000    130.5060
   785.5000   2000.0000     15.0450     13.0067   2000.0000    132.2530
   785.7500   2000.0000     14.9858     12.8913   2000.0000    134.7977
   786.0000   2000.0000     14.9766     12.8374   2000.0000    140.2481
   786.2500   2000.0000     15.0165     12.8501   2000.0000    144.5403
   786.5000   2000.0000     15.1053     12.9337   2000.0000    151.1255
   786.7500   2000.0000     15.2430     13.0913   2000.0000    155.1234
   787.0000   2000.0000     15.4289     13.3233   2000.0000    159.9172
   787.2500   2000.0000     15.6611     13.6263   2000.0000    162.2580
   787.5000   2000.0000     15.9364     13.9925   2000.0000    164.9378
   787.7500   2000.0000     16.2500     14.4086   2000.0000    166.4540
   788.0000   2000.0000     16.5963     14.8563   2000.0000    168.1793
   788.2500   2000.0000     16.9681     15.3129   2000.0000    168.4491
   788.5000   2000.0000     17.3564     15.7531   2000.0000    166.7767
   788.7500   2000.0000     17.7496     16.1526   2000.0000    164.5217
   789.0000   2000.0000     18.1322     16.4908   2000.0000    160.9746
   789.2500   2000.0000     18.4847     16.7542   2000.0000    159.3466
   789.5000   2000.0000     18.7848     16.9382   2000.0000    158.3974
   789.7500   2000.0000     19.0115     17.0467   2000.0000    158.5978
   790.0000   2000.0000     19.1488     17.0908   2000.0000    160.0587
   790.2500   2000.0000     19.1906     17.0857   2000.0000    161.9037
   790.5000   2000.0000     19.1423     17.0471   2000.0000    165.9693
   790.7500   2000.0000     19.0213     16.9887   2000.0000    169.3159
   791.0000   2000.0000     18.8513     16.9199   2000.0000    174.4561
   791.2500   2000.0000     18.6583     16.8455   2000.0000    177.1892
   791.5000   2000.0000     18.4654     16.7661   2000.0000    178.7445
   791.7500   2000.0000     18.2902     16.6797   2000.0000    177.5987
   792.0000   2000.0000     18.1433     16.5841   2000.0000    173.2058
   792.2500   2000.0000     18.0281     16.4776   2000.0000    169.5283
   792.5000   2000.0000     17.9416     16.3608   2000.0000    164.6545
   792.7500   2000.0000     17.8755     16.2363   2000.0000    162.3893
   793.0000   2000.0000     17.8178     16.1072   2000.0000    160.7979
   793.2500   2000.0000     17.7544     15.9766   2000.0000    160.9931
   793.5000   2000.0000     17.6700     15.8457   2000.0000    162.8432
   793.7500   2000.0000     17.5517     15.7139   2000.0000    164.5962
   794.0000   2000.0000     17.3899     15.5786   2000.0000    167.1272
   794.2500   2000.0000     17.1806     15.4362   2000.0000    168.6231
   794.5000   2000.0000     16.9262     15.2830   2000.0000    170.9726
   794.7500   2000.0000     16.6351     15.1171   2000.0000    172.8062
   795.0000   2000.0000     16.3207     14.9390   2000.0000    175.5341
   795.2500   2000.0000     15.9992     14.7520   2000.0000    176.5526
   795.5000   2000.0000     15.6866     14.5619   2000.0000    175.3235
   795.7500   2000.0000     15.3974     14.3760   2000.0000    172.3019
   796.0000   2000.0000     15.1422     14.2021   2000.0000    165.4836
   796.2500   2000.0000     14.9280     14.0470   2000.0000    160.6609
   796.5000   2000.0000     14.7573     13.9157   2000.0000    154.8902
   796.7500   2000.0000     14.6290     13.8107   2000.0000    152.4135
   797.0000   2000.0000     14.5389     13.7314   2000.0000    150.4019
   797.2500   2000.0000     14.4810     13.6743   2000.0000    149.8943
   797.5000   2000.0000     14.4485     13.6331   2000.0000    150.1581
   797.7500   2000.0000     14.4346     13.5997   2000.0000    150.7733
   798.0000   2000.0000     14.4333     13.5649   2000.0000    151.2529
   798.2500   2000.0000     14.4404     13.5201   2000.0000    150.5815
   798.5000   2000.0000     14.4536     13.4589   2000.0000    147.9948
   798.7500   2000.0000     14.4720     13.3781   2000.0000    145.9507
   799.0000   2000.0000     14.4957     13.2791   2000.0000    143.9871
   799.2500   2000.0000     14.5253     13.1676   2000.0000    143.9062
   799.5000   2000.0000     14.5610     13.0531   2000.0000    145.4890
   799.7500   2000.0000     14.6031     12.9481   2000.0000    147.2923
   800.0000   2000.0000     14.6517     12.8658   2000.0000    150.3378
   800.2500   2000.0000     14.7081     12.8193   2000.0000    152.0794
   800.5000   2000.0000     14.7753     12.8202   2000.0000    153.3579
   800.7500   2000.0000     14.8576     12.8774   2000.0000    153.0162
   801.0000   2000.0000     14.9609     12.9969   2000.0000    150.8840
   801.2500   2000.0000     15.0905     13.1811   2000.0000    148.8003
   801.5000   2000.0000     15.2503     13.4288   2000.0000    145.6277
   801.7500   2000.0000     15.4409     13.7344   2000.0000    144.0521
   802.0000   2000.0000     15.6585     14.0886   2000.0000    143.1833
   802.2500   2000.0000     15.8945     14.4785   2000.0000    143.6313
   802.5000   2000.0000     16.1363     14.8880   2000.0000    145.3714
   802.7500   2000.0000     16.3691     15.2989   2000.0000    146.9479
   803.0000   2000.0000     16.5774     15.6921   2000.0000    149.6472
   803.2500   2000.0000     16.7473     16.0495   2000.0000    151.5078
   803.5000   2000.0000     16.8687     16.3549   2000.0000    153.9635
   803.7500   2000.0000     16.9359     16.5952   2000.0000    155.1388
   804.0000   2000.0000     16.9479     16.7611   2000.0000    156.0791
   804.2500   2000.0000     16.9082     16.8469   2000.0000    156.2631
   804.5000   2000.0000     16.8240     16.8500   2000.0000    156.0753
   804.7500   2000.0000     16.7047     16.7709   2000.0000    155.5530
   805.0000   2000.0000     16.5618     16.6124   2000.0000    153.6708
   805.2500   2000.0000     16.4069     16.3800   2000.0000    151.5087
   805.5000   2000.0000     16.2512     16.0829   2000.0000    147.3054
   805.7500   2000.0000     16.1046     15.7344   2000.0000    144.3675
   806.0000   2000.0000     15.9755     15.3520   2000.0000    140.5094
   806.2500   2000.0000     15.8701     14.9564   2000.0000    138.6436
   806.5000   2000.0000     15.7936     14.5710   2000.0000    137.3818
   806.7500   2000.0000     15.7504     14.2189   2000.0000    137.5006
   807.0000   2000.0000     15.7451     13.9219   2000.0000    138.1248
   807.2500   2000.0000     15.7831     13.6992   2000.0000    138.2441
