~Version Information
VERS.                      2.0: CWLS Log ASCII Standard - VERSION 2.0
WRAP.                       NO: One line per depth step
~Well Information Block
STRT.FT                -6.7500: 
STOP.FT              1181.0000: 
STEP.FT                 0.2500: 
NULL.                -999.2500: 
COMP.          Pioneer Natural Resources: COMPANY
WELL.          Pacheco 33-27 Tr: WELL
FLD.           Purgatorie River: FIELD
LOC.           2251' FSL & 2342' FEL--: LOCATION
PROV.                       CO: PROVINCE
CNTY.               Las Animas: COUNTRY
SRVC.          Patterson Wireline: SERVICE COMPANY
DATE.          Wed Jun 15 10:58:02 2005: LOG DATE
UWI.           05 071 08384 00: UNIQUE WELL ID
~Curve Information Block
DEPT.FT            0 000 00 00: Depth
CCL.                          : Casing Collar Locator
TT3.usec                      : CBL 3' Travel Time
AMP3.mV                       : CBL 3' Amplitude
GR.GAPI                       : Gamma Ray
~Parameter Information Block
~A  Depth       CCL         TT3         AMP3         GR     
# ...
   361.7500      0.0000    748.9391     10.6749     56.6012
   362.0000      0.0000    746.5175     10.7436     56.3309
   362.2500      0.0000    745.4398     10.7383     55.5350
   362.5000      0.0000    744.9647     10.6434     54.1101
   362.7500      0.0000    744.7500     10.4964     52.1468
   363.0000      0.0000    744.8624     10.3654     50.4596
   363.2500      0.0000    745.7515     10.3028     50.2547
   363.5000      0.0000    748.1991     10.3136     52.3062
   363.7500      0.0000    752.9401     10.3730     56.4424
   364.0000      0.0000    759.9440     10.4632     61.6605
   364.2500      0.0000    768.0309     10.5779     66.8586
   364.5000      0.0000    775.5242     10.6920     71.7390
   364.7500      0.0000    781.5153     10.7531     76.8982
   365.0000      0.0000    786.4494     10.7208     82.8064
   365.2500      0.0000    791.3895     10.6042     88.8061
   365.5000      0.0000    796.3383     10.4447     93.3738
   365.7500      0.0000    798.8789     10.2708     95.3648
   366.0000      0.0000    794.3989     10.0950     94.9031
   366.2500      0.0000    779.2718      9.9381     92.9506
   366.5000      0.0000    756.4590      9.8118     89.9732
   366.7500      0.0000    738.0661      9.6682     85.2617
   367.0000      0.0000    737.9894      9.4279     77.9483
   367.2500      0.0000    758.8712      9.0859     68.7077
   367.5000      0.0000    788.7547      8.7419     59.9893
   367.7500      0.0000    812.4741      8.4977     54.3362
   368.0000      0.0000    823.7775      8.3683     52.6840
   368.2500      2.0000    826.3740      8.3036     54.2107
   368.5000      2.0000    827.4007      8.2566     57.2478
   368.7500      0.0000    830.8380      8.2207     60.2143
   369.0000      0.0000    834.4280      8.2241     62.2581
   369.2500      0.0000    832.1942      8.2961     63.6148
   369.5000      0.0000    820.9597      8.4404     65.5886
   369.7500      0.0000    804.2487      8.6517     69.9108
   370.0000      0.0000    789.4104      8.9561     77.5796
   370.2500      0.0000    781.8298      9.3912     88.0326
   370.5000      0.0000    781.9866      9.9337     99.4718
   370.7500      0.0000    786.7307     10.4896    109.8597
   371.0000      0.0000    792.2249     10.9731    117.6266
   371.2500      0.0000    795.9223     11.3586    122.0550
   371.5000      0.0000    796.9951     11.6475    123.6443
   371.7500      0.0000    796.2064     11.8273    124.0637
   372.0000      0.0000    795.7772     11.8861    125.1852
   372.2500      0.0000    798.7203     11.8465    127.8395
   372.5000      0.0000    807.3219     11.7575    131.4468
   372.7500      0.0000    821.4570     11.6549    134.7466
   373.0000      0.0000    838.1038     11.5458    136.9397
   373.2500      0.0000    853.0198     11.4320    138.4945
   373.5000      0.0000    863.4178     11.3344    140.8521
   373.7500      0.0000    869.1797     11.2826    144.8261
   374.0000      0.0000    871.8467     11.2858    149.2660
   374.2500      0.0000    872.9937     11.3225    151.9068
   374.5000      0.0000    873.4970     11.3594    151.6660
   374.7500      0.0000    873.5969     11.3802    149.6773
   375.0000      0.0000    873.0110     11.3989    148.1717
   375.2500      0.0000    870.7315     11.4412    148.6358
   375.5000      0.0000    864.8687     11.5093    150.6192
   375.7500      0.0000    853.2890     11.5656    151.7683
   376.0000      0.0000    835.2418     11.5616    149.3604
   376.2500      0.0000    812.7146     11.4798    142.5377
   376.5000      0.0000    789.8818     11.3448    133.2919
   376.7500      0.0000    770.8534     11.2013    125.3096
   377.0000      0.0000    757.7098     11.0923    121.7077
   377.2500      0.0000    750.1992     11.0497    123.3337
   377.5000      0.0000    746.7303     11.0838    128.4325
   377.7500      0.0000    745.5486     11.1748    133.7104
   378.0000      0.0000    745.3889     11.2856    136.3597
   378.2500      0.0000    745.5964     11.3911    135.7589
   378.5000      0.0000    746.1179     11.4893    133.4652
   378.7500      0.0000    747.6176     11.5822    131.6627
   379.0000      0.0000    751.5127     11.6580    131.5242
   379.2500      0.0000    759.3007     11.6995    132.6963
   379.5000      0.0000    770.9316     11.7049    134.1857
   379.7500      0.0000    783.7418     11.6959    135.7392
   380.0000      0.0000    794.0724     11.7041    137.9906
   380.2500      0.0000    800.7202     11.7404    140.9742
   380.5000      0.0000    806.1866     11.7707    143.2278
   380.7500      0.0000    814.1229     11.7339    143.3422
   381.0000      0.0000    825.9850     11.5992    142.0135
   381.2500      0.0000    839.8911     11.4017    141.4853
   381.5000      0.0000    851.7767     11.2112    142.9559
   381.7500      0.0000    857.8525     11.0698    145.5842
   382.0000      0.0000    856.9471     10.9710    148.1984
   382.2500      0.0000    851.2806     10.8932    150.8345
   382.5000      0.0000    845.2453     10.8350    153.9454
   382.7500      0.0000    842.9974     10.8067    156.8156
   383.0000      0.0000    846.3115     10.8030    157.6126
   383.2500      0.0000    853.9221     10.7986    155.1117
   383.5000      0.0000    862.6925     10.7693    150.1703
   383.7500      0.0000    869.8038     10.7051    145.2524
   384.0000      0.0000    874.2097     10.6084    142.3336
   384.2500      0.0000    876.4122     10.4884    141.4565
   384.5000      0.0000    877.2354     10.3563    141.3623
   384.7500      0.0000    876.8762     10.2209    141.0711
   385.0000      0.0000    874.6582     10.0903    140.6121
   385.2500      0.0000    869.4902      9.9772    140.6190
   385.5000      0.0000    860.9855      9.9008    141.5279
   385.7500      0.0000    850.2939      9.8779    143.2389
   386.0000      0.0000    839.0547      9.9064    145.3414
   386.2500      0.0000    827.4790      9.9567    147.2319
   386.5000      0.0000    815.2197      9.9869    147.9486
   386.7500      0.0000    804.8899      9.9725    146.4556
   387.0000      0.0000    802.3553      9.9211    142.5045
   387.2500      0.0000    811.4442      9.8647    136.9957
   387.5000      0.0000    829.3306      9.8373    131.1801
   387.7500      0.0000    848.5413      9.8528    125.6077
   388.0000      0.0000    862.9063      9.9001    120.2525
   388.2500      0.0000    870.8460      9.9574    115.5316
   388.5000      0.0000    873.9918     10.0130    112.5957
   388.7500      0.0000    874.2620     10.0679    112.3255
   389.0000      0.0000    872.2534     10.1246    114.2585
   389.2500      0.0000    867.5699     10.1736    116.7328
   389.5000      0.0000    860.5051     10.1919    118.0976
   389.7500      0.0000    853.5566     10.1594    117.8165
   390.0000      0.0000    850.5628     10.0814    116.6603
   390.2500      0.0000    853.4086      9.9938    116.1753
   390.5000      0.0000    860.0318      9.9390    117.8076
   390.7500      0.0000    866.3328      9.9379    121.9940
   391.0000      0.0000    869.5699      9.9809    127.6888
   391.2500      0.0000    869.7087     10.0450    132.6295
   391.5000      0.0000    868.5420     10.1179    134.2272
   391.7500      0.0000    868.1149     10.2018    131.0111
   392.0000      0.0000    869.3788     10.2909    124.2147
   392.2500      0.0000    871.7921     10.3586    117.7131
   392.5000      0.0000    874.1543     10.3803    115.3547
   392.7500      0.0000    875.7325     10.3646    118.1269
   393.0000      0.0000    876.5272     10.3468    124.2120
   393.2500      0.0000    876.8418     10.3513    131.2037
   393.5000      0.0000    876.8992     10.3644    137.5392
   393.7500      0.0000    876.7944     10.3465    142.1950
   394.0000      0.0000    876.5887     10.2694    144.2506
   394.2500      0.0000    876.3566     10.1382    143.5888
   394.5000      0.0000    876.1722      9.9836    141.5613
   394.7500      0.0000    876.0755      9.8367    139.9292
   395.0000      0.0000    876.0707      9.7153    139.1027
