~Version Information
VERS.                      2.0: CWLS Log ASCII Standard - VERSION 2.0
WRAP.                       NO: One line per depth step
~Well Information Block
STRT.FT                37.7500: 
STOP.FT              1898.5000: 
STEP.FT                 0.2500: 
NULL.                -999.2500: 
COMP.          Petrogulf Corporation: COMPANY
WELL.           Montoya 12-41R: WELL
FLD.           Purgatorie River: FIELD
LOC.           1086' FNL & 610' FEL--: LOCATION
PROV.                       CO: PROVINCE
CNTY.               Las Animas: COUNTRY
SRVC.                         : SERVICE COMPANY
DATE.          Wed Feb 09 11:45:45 2005: LOG DATE
UWI.         005 071 08241 : UNIQUE WELL ID
~Curve Information Block
DEPT.FT            0 000 00 00: Depth
CCL.                          : Casing Collar Locator
TT3.usec                      : CBL 3' Travel Time
AMP3.mV                       : CBL 3' Amplitude
GR.GAPI                       : Gamma Ray
~Parameter Information Block
~A  Depth       CCL         TT3         AMP3         GR     
# ...
  1277.2500      0.0000    266.5990     67.7897     88.1189
  1277.5000      0.0000    266.5931     67.7840     84.5379
  1277.7500      0.0000    266.6061     67.7186     79.8015
  1278.0000      0.0000    266.6381     67.6259     75.9053
  1278.2500      0.0000    266.6866     67.5245     73.8217
  1278.5000      0.0000    266.7408     67.4262     73.5461
  1278.7500      0.0000    266.7857     67.3492     74.8743
  1279.0000      0.0000    266.8108     67.3075     78.0127
  1279.2500      0.0000    266.8137     67.2942     83.7451
  1279.5000      0.0000    266.7980     67.2869     92.7586
  1279.7500      0.0000    266.7725     67.2669    104.2916
  1280.0000      0.0000    266.7497     67.2246    115.5357
  1280.2500      0.0000    266.7421     67.1578    122.7887
  1280.5000      0.0000    266.7548     67.0749    123.5041
  1280.7500      0.0000    266.7820     66.9877    117.5270
  1281.0000      0.0000    266.8124     66.8942    106.6729
  1281.2500      0.0000    266.8373     66.7748     93.4975
  1281.5000      0.0000    266.8528     66.6179     80.6597
  1281.7500      0.0000    266.8563     66.4461     70.7180
  1282.0000      0.0000    266.8458     66.3055     65.2117
  1282.2500      0.0000    266.8248     66.2250     63.6387
  1282.5000      0.0000    266.8037     66.1983     64.0668
  1282.7500      0.0000    266.7925     66.2028     65.0428
  1283.0000      0.0000    266.7928     66.2147     66.4424
  1283.2500      0.0000    266.7982     66.2001     68.4380
  1283.5000      0.0000    266.8034     66.1141     70.3785
  1283.7500      0.0000    266.8136     65.9235     71.1062
  1284.0000      0.0000    266.8546     65.6019     69.9241
  1284.2500      0.0000    266.9865     65.0560     66.8340
  1284.5000      0.0000    267.3247     64.0114     62.3366
  1284.7500      0.0000    268.0339     61.9831     57.5520
  1285.0000      0.0000    269.2441     58.5218     54.0238
  1285.2500      0.0000    270.9016     53.7398     52.6371
  1285.5000      0.0000    272.6868     48.6454     52.9198
  1285.7500      0.0000    274.1409     44.7059     53.7482
  1286.0000      0.0000    274.9505     42.8348     54.3458
  1286.2500      0.0000    275.1376     42.7886     54.3706
  1286.5000      0.0000    274.9780     43.5580     53.6309
  1286.7500      2.0000    274.7612     44.2174     52.2067
  1287.0000      2.0000    274.6345     44.4083     50.6293
  1287.2500      0.0000    274.5947     44.3294     49.6335
  1287.5000      0.0000    274.5212     44.5976     49.6936
  1287.7500      0.0000    274.2008     46.0066     50.8228
  1288.0000      0.0000    273.4113     48.9453     52.6670
  1288.2500      0.0000    272.0847     52.8431     54.6191
  1288.5000      0.0000    270.4143     56.5147     56.0552
  1288.7500      0.0000    268.7700     59.2447     56.7875
  1289.0000      0.0000    267.4814     61.2298     57.1899
  1289.2500      0.0000    266.6763     62.9113     57.6726
  1289.5000      0.0000    266.2808     64.3344     58.2575
  1289.7500      0.0000    266.1304     65.2920     58.8474
  1290.0000      0.0000    266.0804     65.7219     59.5416
  1290.2500      0.0000    266.0528     65.7827     60.3591
  1290.5000      0.0000    266.0279     65.7034     60.9323
  1290.7500      0.0000    266.0131     65.6582     60.7345
  1291.0000      0.0000    266.0127     65.7229     59.5696
  1291.2500      0.0000    266.0167     65.8888     57.8386
  1291.5000      0.0000    266.0094     66.1089     56.3536
  1291.7500      0.0000    265.9847     66.3271     55.8065
  1292.0000      0.0000    265.9496     66.4856     56.3674
  1292.2500      0.0000    265.9173     66.5300     57.7672
  1292.5000      0.0000    265.8990     66.4355     59.6291
  1292.7500      0.0000    265.8990     66.2348     61.5623
  1293.0000      0.0000    265.9124     66.0142     62.9802
  1293.2500      0.0000    265.9264     65.8687     63.1360
  1293.5000      0.0000    265.9280     65.8456     61.7006
  1293.7500      0.0000    265.9109     65.9228     59.3033
  1294.0000      0.0000    265.8804     66.0371     57.2150
  1294.2500      0.0000    265.8540     66.1318     56.4848
  1294.5000      0.0000    265.8507     66.1864     57.3753
  1294.7500      0.0000    265.8754     66.2204     59.1347
  1295.0000      0.0000    265.9113     66.2759     60.0511
  1295.2500      0.0000    265.9330     66.3844     58.3311
  1295.5000      0.0000    265.9267     66.5400     53.6413
  1295.7500      0.0000    265.8994     66.7052     47.8083
  1296.0000      0.0000    265.8713     66.8395     43.5933
  1296.2500      0.0000    265.8597     66.9184     42.5540
  1296.5000      0.0000    265.8672     66.9390     44.1629
  1296.7500      0.0000    265.8823     66.9164     46.8498
  1297.0000      0.0000    265.8914     66.8657     49.3608
  1297.2500      0.0000    265.8909     66.7841     51.0576
  1297.5000      0.0000    265.8888     66.6634     51.9146
  1297.7500      0.0000    265.8934     66.5238     52.9119
  1298.0000      0.0000    265.9063     66.4201     55.5705
  1298.2500      0.0000    265.9250     66.4000     60.2462
  1298.5000      0.0000    265.9459     66.4653     65.4377
  1298.7500      0.0000    265.9623     66.5768     69.3747
  1299.0000      0.0000    265.9681     66.6895     71.7900
  1299.2500      0.0000    265.9651     66.7821     73.7454
  1299.5000      0.0000    265.9627     66.8608     76.1633
  1299.7500      0.0000    265.9671     66.9471     78.7609
  1300.0000      0.0000    265.9758     67.0610     80.0754
  1300.2500      0.0000    265.9838     67.2078     78.5870
  1300.5000      0.0000    265.9895     67.3719     74.2557
  1300.7500      0.0000    265.9946     67.5214     68.7976
  1301.0000      0.0000    266.0030     67.6218     64.2296
  1301.2500      0.0000    266.0191     67.6465     61.4780
  1301.5000      0.0000    266.0429     67.5870     60.3504
  1301.7500      0.0000    266.0679     67.4643     60.1288
  1302.0000      0.0000    266.0853     67.3306     60.0104
  1302.2500      0.0000    266.0884     67.2428     59.5583
  1302.5000      0.0000    266.0745     67.2200     58.9454
  1302.7500      0.0000    266.0464     67.2348     58.5037
  1303.0000      0.0000    266.0130     67.2546     58.1310
  1303.2500      0.0000    265.9829     67.2813     57.4693
  1303.5000      0.0000    265.9594     67.3410     56.5776
  1303.7500      0.0000    265.9425     67.4466     56.0661
  1304.0000      0.0000    265.9345     67.5818     56.3823
  1304.2500      0.0000    265.9364     67.7089     57.1048
  1304.5000      0.0000    265.9445     67.7847     57.2686
  1304.7500      0.0000    265.9549     67.7788     56.5009
  1305.0000      0.0000    265.9701     67.6901     55.7527
  1305.2500      0.0000    265.9953     67.5462     56.7974
  1305.5000      0.0000    266.0284     67.3873     60.8223
  1305.7500      0.0000    266.0587     67.2522     67.4248
  1306.0000      0.0000    266.0741     67.1691     75.2209
  1306.2500      0.0000    266.0688     67.1449     83.4767
  1306.5000      0.0000    266.0450     67.1637     92.6507
  1306.7500      0.0000    266.0131     67.2089    103.2699
  1307.0000      0.0000    265.9875     67.2780    114.9362
  1307.2500      0.0000    265.9767     67.3656    126.7691
  1307.5000      0.0000    265.9777     67.4407    138.2809
  1307.7500      0.0000    265.9806     67.4612    149.2208
  1308.0000      0.0000    265.9783     67.4140    158.8042
  1308.2500      0.0000    265.9708     67.3272    165.7679
  1308.5000      0.0000    265.9619     67.2424    169.4674
  1308.7500      0.0000    265.9535     67.1831    170.6903
  1309.0000      0.0000    265.9435     67.1571    171.3846
  1309.2500      0.0000    265.9282     67.1738    173.7261
  1309.5000      0.0000    265.9071     67.2434    178.8148
  1309.7500      0.0000    265.8853     67.3579    185.2784
  1310.0000      0.0000    265.8716     67.4904    189.3860
  1310.2500      0.0000    265.8713     67.6251    187.6249
  1310.5000      0.0000    265.8829     67.7865    179.5431
