~Version Information
VERS.                      2.0: CWLS Log ASCII Standard - VERSION 2.0
WRAP.                       NO: One line per depth step
~Well Information Block
STRT.FT                -8.5000: 
STOP.FT              2286.0000: 
STEP.FT                 0.2500: 
NULL.                -999.2500: 
COMP.          Pioneer Natural Resources: COMPANY
WELL.             Culver 14-12: WELL
FLD.           Purgatorie River: FIELD
LOC.           913' FSL & 1140' FWL--: LOCATION
PROV.                       CO: PROVINCE
CNTY.               Las Animas: COUNTRY
SRVC.          Patterson Wireline: SERVICE COMPANY
DATE.          Wed Jun 15 13:05:36 2005: LOG DATE
UWI.           05 071 08386 00: UNIQUE WELL ID
~Curve Information Block
DEPT.FT            0 000 00 00: Depth
CCL.                          : Casing Collar Locator
TT3.usec                      : CBL 3' Travel Time
AMP3.mV                       : CBL 3' Amplitude
GR.GAPI                       : Gamma Ray
~Parameter Information Block
~A  Depth       CCL         TT3         AMP3         GR     
# ...
  1365.0000      0.0000    656.6740      2.6207     67.6474
  1365.2500      0.0000    678.8943      2.5686     69.0186
  1365.5000      0.0000    697.5891      2.5002     73.6918
  1365.7500      0.0000    711.0090      2.4657     79.4793
  1366.0000      0.0000    718.6441      2.4644     83.0728
  1366.2500      0.0000    720.7023      2.4484     82.5710
  1366.5000      0.0000    718.9214      2.3937     79.0654
  1366.7500      0.0000    716.3740      2.3300     75.4150
  1367.0000      0.0000    715.5187      2.2969     73.8522
  1367.2500      0.0000    716.5864      2.3055     75.1178
  1367.5000      0.0000    718.2175      2.3570     79.0077
  1367.7500      0.0000    719.2560      2.4629     84.7321
  1368.0000      0.0000    719.5622      2.6147     90.9837
  1368.2500      0.0000    719.5470      2.7622     96.6682
  1368.5000      0.0000    719.5203      2.8565    101.8874
  1368.7500      0.0000    719.5405      2.9007    107.6484
  1369.0000      0.0000    719.6028      2.9296    114.4044
  1369.2500      0.0000    719.8145      2.9578    121.3090
  1369.5000      0.0000    720.4888      2.9811    127.0502
  1369.7500      0.0000    722.1409      3.0083    131.1028
  1370.0000      0.0000    725.1673      3.0525    134.0254
  1370.2500      0.0000    728.8964      3.1043    136.5532
  1370.5000      0.0000    730.9012      3.1474    138.5067
  1370.7500      0.0000    728.3734      3.1861    138.9041
  1371.0000      0.0000    720.5528      3.2327    137.3930
  1371.2500      0.0000    707.9808      3.2816    135.2471
  1371.5000      0.0000    688.7657      3.3083    134.4054
  1371.7500      0.0000    659.0230      3.2919    135.6078
  1372.0000      0.0000    619.3508      3.2365    137.8684
  1372.2500      0.0000    578.3268      3.1730    139.7173
  1372.5000      0.0000    547.8151      3.1267    140.5003
  1372.7500      0.0000    536.3995      3.0931    140.2378
  1373.0000      0.0000    546.8028      3.0644    138.5610
  1373.2500      0.0000    575.7122      3.0573    134.5061
  1373.5000      0.0000    614.3321      3.0816    127.7785
  1373.7500      0.0000    651.5276      3.1106    119.9227
  1374.0000      0.0000    679.2507      3.1246    113.7077
  1374.2500      0.0000    695.8622      3.1551    111.1150
  1374.5000      0.0000    704.6718      3.2364    112.0549
  1374.7500      0.0000    709.8575      3.3365    114.9205
  1375.0000      0.0000    713.6895      3.3885    118.1175
  1375.2500      0.0000    716.5947      3.3774    120.9722
  1375.5000      0.0000    718.5471      3.3478    123.3640
  1375.7500      0.0000    719.8834      3.3245    125.0260
  1376.0000      0.0000    721.2482      3.2793    125.7871
  1376.2500      0.0000    723.1159      3.1970    126.2847
  1376.5000      0.0000    725.1338      3.1263    127.4906
  1376.7500      0.0000    725.8662      3.1289    129.0967
  1377.0000      0.0000    723.7890      3.2014    129.1291
  1377.2500      0.0000    719.1912      3.2788    125.8112
  1377.5000      0.0000    714.8640      3.3018    119.3230
  1377.7500      0.0000    714.1677      3.2578    111.2492
  1378.0000      0.0000    717.8279      3.1708    102.8214
  1378.2500      0.0000    722.7944      3.0831     94.3535
  1378.5000      0.0000    724.9745      3.0429     86.1264
  1378.7500     -2.0000    723.0049      3.0727     78.9608
  1379.0000      0.0000    718.6248      3.1450     73.5024
  1379.2500      0.0000    714.0402      3.2185     69.3926
  1379.5000      0.0000    710.4256      3.2949     65.8732
  1379.7500      0.0000    708.7819      3.4012     63.0310
  1380.0000      0.0000    710.7144      3.5205     61.8109
  1380.2500      0.0000    717.3190      3.5810     62.8745
  1380.5000      0.0000    727.2896      3.5267     65.8544
  1380.7500      0.0000    736.5624      3.3740     69.5640
  1381.0000      0.0000    740.7119      3.1996     72.5429
  1381.2500      0.0000    738.8326      3.0849     73.5396
  1381.5000      0.0000    734.8146      3.0611     72.0509
  1381.7500      0.0000    733.4568      3.0977     68.6560
  1382.0000      0.0000    735.1558      3.1471     64.6578
  1382.2500      0.0000    735.6505      3.1891     61.4004
  1382.5000      0.0000    731.0898      3.2189     59.9366
  1382.7500      0.0000    721.4556      3.2257     60.9615
  1383.0000      0.0000    708.6216      3.2110     64.4861
  1383.2500      0.0000    694.0275      3.2004     69.3801
  1383.5000      0.0000    680.4063      3.2154     73.6228
  1383.7500      0.0000    673.7307      3.2557     75.5095
  1384.0000      0.0000    680.3361      3.3110     74.7935
  1384.2500      0.0000    701.4682      3.3640     72.5075
  1384.5000      0.0000    730.7134      3.3890     69.6138
  1384.7500      0.0000    756.2956      3.3683     66.2119
  1385.0000      0.0000    767.3146      3.3022     62.4158
  1385.2500      0.0000    760.9974      3.1996     59.5009
  1385.5000      0.0000    745.1754      3.0739     59.2355
  1385.7500      0.0000    732.9274      2.9487     62.1150
  1386.0000      0.0000    734.1240      2.8495     66.9011
  1386.2500      0.0000    750.9224      2.7866     71.8035
  1386.5000      0.0000    778.5195      2.7516     75.5570
  1386.7500      0.0000    808.2937      2.7358     77.6685
  1387.0000      0.0000    832.0615      2.7449     78.4604
  1387.2500      0.0000    846.2365      2.7853     79.0508
  1387.5000      0.0000    852.2224      2.8445     80.7506
  1387.7500      0.0000    852.5390      2.8987     84.1332
  1388.0000      0.0000    847.8453      2.9294     88.7191
  1388.2500      0.0000    838.5427      2.9245     93.6349
  1388.5000      0.0000    827.6323      2.8764     98.6428
  1388.7500      0.0000    820.2079      2.7884    104.6905
  1389.0000      0.0000    820.2328      2.6752    113.3556
  1389.2500      0.0000    828.2601      2.5614    125.3720
  1389.5000      0.0000    841.5693      2.4761    139.5164
  1389.7500      0.0000    855.9572      2.4360    152.9389
  1390.0000      0.0000    867.8165      2.4317    162.5295
  1390.2500      0.0000    875.4499      2.4401    166.1922
  1390.5000      0.0000    879.1727      2.4463    163.3904
  1390.7500      0.0000    880.4080      2.4544    155.2789
  1391.0000      0.0000    880.6367      2.4840    144.7803
  1391.2500      0.0000    880.7387      2.5499    136.0728
  1391.5000      0.0000    880.4818      2.6379    132.6664
  1391.7500      0.0000    878.6628      2.7097    135.0986
  1392.0000      0.0000    874.4852      2.7354    140.7920
  1392.2500      0.0000    869.0589      2.7135    146.5203
  1392.5000      0.0000    865.0279      2.6661    150.6787
  1392.7500      0.0000    864.4234      2.6194    153.0802
  1393.0000      0.0000    866.8681      2.5908    153.3510
  1393.2500      0.0000    869.8947      2.5906    150.6255
  1393.5000      0.0000    871.0696      2.6230    145.1016
  1393.7500      0.0000    869.7670      2.6774    138.8962
  1394.0000      0.0000    866.8348      2.7287    134.3825
  1394.2500      0.0000    862.9849      2.7545    132.0075
  1394.5000      0.0000    858.0958      2.7474    130.3862
  1394.7500      0.0000    851.5587      2.7107    128.2244
  1395.0000      0.0000    842.5273      2.6503    125.6338
  1395.2500      0.0000    830.2968      2.5777    123.8016
  1395.5000      0.0000    815.4627      2.5165    123.7895
  1395.7500      0.0000    800.7885      2.4937    125.7219
  1396.0000      0.0000    790.4182      2.5197    128.9410
  1396.2500      0.0000    787.4776      2.5803    132.4702
  1396.5000      0.0000    791.2522      2.6554    135.0726
  1396.7500      0.0000    796.3262      2.7391    135.5624
  1397.0000      0.0000    795.7747      2.8346    133.9721
  1397.2500      0.0000    785.8801      2.9316    132.1479
  1397.5000      0.0000    767.5040      2.9992    132.2934
  1397.7500      0.0000    744.1840      3.0093    134.7632
  1398.0000      0.0000    720.3147      2.9637    137.7688
  1398.2500      0.0000    700.0396      2.8942    139.3696
