~Version Information
 VERS.                                  2.0 : CWLS LAS VERSION
 WRAP.                                   NO : WRAPING MODE
 SWARE .                 MController 2.5.0E : SOFTWARE VERSION
~Well Information
 WELL.                          Nomad 32-10 : WELL
 COMP.            EVERGREEN OPERATING CORP. : COMPANY
 FLD.                      PURGATOIRE RIVER : FIELD
 LOC.                    SW/NE 26 T32S R66W : LOCATION
 DATE.                              6/11/04 : DATE(S) LOGGED
 SRVC.       BLANCO GEOLOGICAL SERVICES LLC : SERVICE COMPANY
 STAT.                             COLORADO : STATE
 CNTY.                           LAS ANIMAS : COUNTY
 CTRY.                                  USA : COUNTRY
 API.                       05-071-08127-00 : API NUMBER
 STRT.FT                             446.00 : START DEPTH
 STOP.FT                            2455.00 : STOP DEPTH
 STEP.FT                               1.00 : DEPTH INCREMENT
 NULL.                                -9999 : NULL VALUE
~Curve information
 DEPTH.FT                                   :
 ROP.MIN/FT                                 :
 GAS.UNITS                                  :
~ASCII Log data
      446.00    -9999.000          9.0 
      447.00        0.267          9.7 
      448.00        0.267          8.7 
      449.00        0.267          8.4 
      450.00        0.283          8.7 
      451.00        0.267          9.2 
      452.00        0.267          8.4 
      453.00        0.267          8.5 
      454.00        0.267          8.7 
      455.00        0.267          9.2 
      456.00        0.267          9.4 
      457.00        0.267          9.0 
      458.00        0.267          9.4 
      459.00        0.267          8.9 
      460.00        0.267          9.1 
      461.00        0.267          9.2 
      462.00        0.283          9.0 
      463.00        0.267          9.6 
      464.00        0.267         10.0 
      465.00        0.267          9.6 
      466.00        0.267          9.7 
      467.00        0.267          9.2 
      468.00        0.267          9.3 
      469.00        0.267          9.6 
      470.00        0.267          9.5 
      471.00        0.367          9.2 
      472.00        0.167          8.6 
      473.00        0.200          8.6 
      474.00        0.167          8.9 
      475.00        0.167          8.8 
      476.00        0.150          8.8 
      477.00        0.133          8.6 
      478.00        0.200          9.5 
      479.00        0.167          9.5 
      480.00        0.167          8.4 
      481.00        0.133          8.4 
      482.00        0.167          9.1 
      483.00        0.133          9.1 
      484.00        0.167          9.0 
      485.00        0.167          9.0 
      486.00        0.167          9.0 
      487.00        0.200          8.8 
      488.00        0.133          9.2 
      489.00        0.167          9.2 
      490.00        0.167         10.0 
      491.00        0.167         10.0 
      492.00        0.267         80.7 
      493.00        0.267        115.3 
      494.00        0.283        105.6 
      495.00        0.267         48.8 
      496.00        0.267         17.6 
      497.00        0.267         15.0 
      498.00        0.267         11.6 
      499.00        0.267         10.9 
      500.00        0.267         10.0 
      501.00        0.267         10.0 
      502.00        0.267          9.8 
      503.00        0.267          9.5 
      504.00        0.267          9.3 
      505.00        0.267          9.3 
      506.00        0.333          9.7 
      507.00        0.283          9.6 
      508.00        0.200          8.7 
      509.00        0.133          8.7 
      510.00        0.167          9.0 
      511.00        0.167          9.6 
      512.00        0.133          9.6 
      513.00        0.167          9.4 
      514.00        0.167          9.4 
      515.00        0.133          9.8 
      516.00        0.167          9.8 
      517.00        0.200          9.4 
      518.00        0.167          8.9 
      519.00        0.167          8.9 
      520.00        0.200          9.1 
      521.00        0.200          9.0 
      522.00        0.167          9.0 
      523.00        0.100          9.0 
      524.00        0.133          8.9 
      525.00        0.267          9.9 
      526.00        0.283          9.6 
      527.00        0.267          9.4 
      528.00        0.267         10.0 
      529.00        0.267         10.1 
      530.00        0.267         10.3 
      531.00        0.267         10.3 
      532.00        0.267         10.6 
      533.00        0.267         10.8 
      534.00        0.267         11.0 
      535.00        0.267         11.1 
      536.00        0.267         11.5 
      537.00        0.267         11.7 
      538.00        0.250         11.1 
      539.00        0.167         10.9 
      540.00        0.200         10.4 
      541.00        0.167         10.4 
      542.00        0.167         10.7 
      543.00        0.167         10.9 
      544.00        0.133         10.9 
      545.00        0.133          9.8 
      546.00        0.167          9.8 
      547.00        0.133          9.2 
      548.00        0.167          9.2 
      549.00        0.133          9.8 
      550.00        0.133          9.8 
      551.00        0.167          9.9 
      552.00        0.167         10.0 
      553.00        0.167          9.2 
      554.00        0.167          9.2 
      555.00        0.167          9.2 
      556.00        0.167         10.2 
      557.00        0.133         10.2 
      558.00        0.217         10.2 
      559.00        0.167         10.1 
      560.00        0.167         10.0 
      561.00        0.133         10.8 
      562.00        0.200         10.2 
      563.00        0.133         10.1 
      564.00        0.267         10.1 
      565.00        0.267         10.3 
      566.00        1.983         10.4 
      567.00        0.300          9.9 
      568.00        0.233          9.9 
      569.00        0.200          9.7 
      570.00        0.200         10.1 
      571.00        0.167          9.0 
      572.00        0.167          9.4 
      573.00        0.167          9.7 
      574.00        0.167          9.1 
      575.00        0.167          9.1 
      576.00        0.200          9.4 
      577.00        0.167          9.1 
      578.00        0.167          9.1 
      579.00        0.200         10.0 
      580.00        0.167          9.5 
      581.00        0.200          9.5 
      582.00        0.167          9.9 
      583.00        0.167          9.8 
      584.00        0.183          9.8 
      585.00        0.200          9.8 
      586.00        0.200          9.7 
      587.00        0.167          9.7 
      588.00        0.167          9.5 
      589.00        0.167          9.5 
      590.00        0.167          9.7 
      591.00        0.133          9.7 
      592.00        0.200          9.9 
      593.00        0.167          9.1 
      594.00        0.167          9.9 
      595.00        0.167          9.4 
      596.00        2.917         10.6 
      597.00        0.200          9.7 
      598.00        0.267         10.4 
      599.00        0.367         18.9 
      600.00        0.167         25.6 
      601.00        0.167         30.1 
      602.00        0.167         29.9 
      603.00        0.200         29.7 
      604.00        0.167         28.6 
      605.00        0.183         27.3 
      606.00        0.200         27.3 
      607.00        0.167         52.1 
      608.00        0.167         52.1 
      609.00        0.133        110.0 
      610.00        0.133        110.0 
      611.00        0.133        141.2 
      612.00        0.167        141.2 
      613.00        0.133        150.6 
      614.00        0.167        156.1 
      615.00        0.133        156.1 
      616.00        0.133        180.2 
      617.00        0.183        223.9 
      618.00        0.167        223.9 
      619.00        0.200        360.7 
      620.00        0.167       1826.9 
      621.00        0.200       1826.9 
      622.00        0.200       1810.1 
      623.00        0.200       1551.0 
      624.00        0.200        683.8 
      625.00        0.167        487.7 
      626.00        1.483        440.0 
      627.00        0.267         32.0 
      628.00        0.433         48.0 
      629.00        0.267         52.1 
      630.00        0.267         57.5 
      631.00        0.267         58.4 
      632.00        0.283         55.9 
      633.00        0.333         56.3 
      634.00        0.267         63.9 
      635.00        0.267         76.6 
      636.00        0.267         74.9 
      637.00        0.233         68.9 
      638.00        0.267         63.1 
      639.00        0.167         61.6 
      640.00        0.267         55.2 
      641.00        0.267         79.2 
      642.00        0.267         81.4 
      643.00        0.267         73.7 
      644.00        0.283         71.2 
      645.00        0.167         73.6 
