~Version Information
VERS.                      2.0: CWLS Log ASCII Standard - VERSION 2.0
WRAP.                       NO: One line per depth step
~Well Information Block
STRT.FT                -7.7500: 
STOP.FT              2394.2500: 
STEP.FT                 0.2500: 
NULL.                -999.2500: 
COMP.      PIONEER NATURAL RESOURCES  : COMPANY
WELL.         NOMAD 32-10  : WELL
FLD.                          : FIELD
LOC.      SWNE 10 32S 66W 6PM : LOCATION
PROV.                         : PROVINCE
CNTY.                         : COUNTRY
SRVC.                         : SERVICE COMPANY
DATE.          Thu Aug 26 13:45:47 2004: LOG DATE
UWI.      005 071 08127  : UNIQUE WELL ID
~Curve Information Block
DEPT.FT            0 000 00 00: Depth
CCL.                          : Casing Collar Locator
TT3.usec                      : CBL 3' Travel Time
AMP3.mV                       : CBL 3' Amplitude
GR.GAPI                       : Gamma Ray
~Parameter Information Block
~A  Depth       CCL         TT3         AMP3         GR     
# ...
  2069.2500      0.0000    706.8635      4.3676    127.6212
  2069.5000      0.0000    715.2580      4.3163    122.4259
  2069.7500      0.0000    725.0695      4.3457    113.0353
  2070.0000      0.0000    734.5779      4.3715    103.5855
  2070.2500      0.0000    740.4782      4.3086     97.9323
  2070.5000      0.0000    739.8828      4.1236     96.5183
  2070.7500      0.0000    733.0863      3.8406     96.9085
  2071.0000      0.0000    723.5148      3.5251     96.9793
  2071.2500      0.0000    714.6207      3.2597     96.7710
  2071.5000      0.0000    707.2899      3.0980     97.3551
  2071.7500      0.0000    700.2231      3.0273     98.7423
  2072.0000      0.0000    692.1750      2.9938     99.5779
  2072.2500      0.0000    683.5337      2.9663     98.8214
  2072.5000      0.0000    675.9459      2.9575     97.0107
  2072.7500      0.0000    670.8273      2.9839     95.5203
  2073.0000      0.0000    668.5338      3.0334     95.0419
  2073.2500      0.0000    668.8215      3.0788     95.2101
  2073.5000      0.0000    671.5538      3.1053     95.4280
  2073.7500      0.0000    676.4821      3.1190     95.7979
  2074.0000      0.0000    682.3810      3.1348     97.2149
  2074.2500      0.0000    687.0032      3.1515    100.2777
  2074.5000      0.0000    688.6143      3.1484    104.0212
  2074.7500      0.0000    687.6646      3.1141    106.3071
  2075.0000      0.0000    686.4846      3.0637    105.6998
  2075.2500      0.0000    687.3847      3.0152    102.4365
  2075.5000      0.0000    691.4379      2.9673     97.7174
  2075.7500      0.0000    698.4297      2.9143     92.9885
  2076.0000      0.0000    706.6505      2.8656     90.0103
  2076.2500      0.0000    713.0963      2.8329     90.6242
  2076.5000      0.0000    715.5743      2.8103     95.7246
  2076.7500      0.0000    714.8395      2.7848    104.3365
  2077.0000      0.0000    713.6920      2.7667    113.8680
  2077.2500      0.0000    714.2889      2.7931    121.7141
  2077.5000      0.0000    716.9019      2.8917    126.7839
  2077.7500      0.0000    720.5577      3.0422    129.2535
  2078.0000      0.0000    724.2748      3.1917    129.1251
  2078.2500      0.0000    727.8969      3.3103    125.9127
  2078.5000      0.0000    731.7797      3.4213    119.9755
  2078.7500      0.0000    735.8141      3.5704    113.3156
  2079.0000      0.0000    739.3184      3.7682    108.4147
  2079.2500      0.0000    741.8746      3.9666    106.5141
  2079.5000      0.0000    743.8741      4.0959    107.0705
  2079.7500      0.0000    746.4941      4.1157    108.5278
  2080.0000      0.0000    751.1592      4.0259    109.6796
  2080.2500      0.0000    758.5212      3.8472    110.7120
  2080.5000      0.0000    767.8645      3.6171    112.9262
  2080.7500      0.0000    777.5062      3.3990    117.0765
  2081.0000      0.0000    785.4968      3.2678    121.9753
  2081.2500      0.0000    790.0911      3.2660    125.2264
  2081.5000      0.0000    789.9952      3.3719    125.5914
  2081.7500      0.0000    784.6319      3.5258    124.1515
  2082.0000      0.0000    774.7587      3.6851    122.7484
  2082.2500      0.0000    763.0313      3.8297    121.9515
  2082.5000      0.0000    753.1252      3.9272    121.3264
  2082.7500      0.0000    747.2707      3.9364    121.0589
  2083.0000      0.0000    744.4936      3.8498    122.0488
  2083.2500      0.0000    741.6691      3.6941    124.2876
  2083.5000      0.0000    736.2944      3.4958    126.0704
  2083.7500      0.0000    728.0827      3.2710    125.3777
  2084.0000      0.0000    718.1757      3.0441    121.8737
  2084.2500      0.0000    707.6566      2.8584    117.4367
  2084.5000      0.0000    697.3218      2.7627    114.7603
  2084.7500      0.0000    688.2278      2.7861    115.2572
  2085.0000      0.0000    681.4335      2.9180    117.9827
  2085.2500      0.0000    677.1833      3.1103    120.4579
  2085.5000      0.0000    674.8445      3.2969    120.6186
  2085.7500      0.0000    673.6064      3.4183    118.1955
  2086.0000      0.0000    673.0143      3.4459    114.6615
  2086.2500      0.0000    673.0128      3.3895    112.2036
  2086.5000      0.0000    673.8312      3.2772    112.3926
  2086.7500      0.0000    675.8879      3.1338    115.1129
  2087.0000      0.0000    679.4184      2.9710    118.6698
  2087.2500      0.0000    683.7788      2.7926    121.2008
  2087.5000      0.0000    687.2184      2.6117    121.8729
  2087.7500      0.0000    687.9827      2.4628    120.7792
  2088.0000      0.0000    685.8968      2.3804    118.3994
  2088.2500      0.0000    682.6078      2.3678    115.4629
  2088.5000      0.0000    680.2935      2.3974    112.7814
  2088.7500      0.0000    680.5209      2.4342    110.6795
  2089.0000      0.0000    683.9695      2.4622    108.5598
  2089.2500      0.0000    690.0170      2.4959    105.2451
  2089.5000      0.0000    696.0749      2.5548    100.1127
  2089.7500      0.0000    698.5098      2.6291     94.1485
  2090.0000      0.0000    695.5794      2.6990     89.5351
  2090.2500      0.0000    689.2030      2.7792     87.6322
  2090.5000      0.0000    683.1835      2.8974     87.4466
  2090.7500      0.0000    680.2082      3.0407     86.5829
  2091.0000      0.0000    681.0432      3.1591     83.9264
  2091.2500      0.0000    685.7103      3.2102     81.1316
  2091.5000      0.0000    694.2239      3.1749     81.2823
  2091.7500      0.0000    705.9902      3.0681     86.2337
  2092.0000      0.0000    719.1684      2.9537     95.1389
  2092.2500      0.0000    731.3210      2.9014    104.9364
  2092.5000      0.0000    740.5775      2.9084    112.0746
  2092.7500      0.0000    745.6403      2.9055    114.4213
  2093.0000      0.0000    744.9289      2.8465    112.2552
  2093.2500      0.0000    737.0081      2.7495    107.5389
  2093.5000      0.0000    722.6390      2.6580    102.0772
  2093.7500      0.0000    705.7917      2.6017     96.3989
  2094.0000      0.0000    691.6996      2.6005     90.3578
  2094.2500      0.0000    683.6772      2.6806     84.3727
  2094.5000      0.0000    681.4852      2.8673     79.5508
  2094.7500      0.0000    681.7588      3.1523     76.6583
  2095.0000      0.0000    679.8603      3.4894     75.5319
  2095.2500      0.0000    672.3395      3.8421     75.4758
  2095.5000      0.0000    658.8474      4.2165     75.8101
  2095.7500      0.0000    642.7114      4.6321     76.1121
  2096.0000      0.0000    629.9772      5.0860     76.2720
  2096.2500      0.0000    626.0851      5.5631     76.4174
  2096.5000      0.0000    630.8195      6.0476     76.9111
  2096.7500      0.0000    637.2266      6.4986     78.3516
  2097.0000      0.0000    638.0906      6.8484     81.0474
  2097.2500      0.0000    633.3328      7.0585     84.2074
  2097.5000      0.0000    628.6516      7.1559     86.0712
  2097.7500      0.0000    626.7782      7.1842     85.2591
  2098.0000      0.0000    623.6461      7.1454     81.9741
  2098.2500      0.0000    615.0872      7.0279     77.7464
  2098.5000      0.0000    603.7950      6.8764     74.0471
  2098.7500      0.0000    596.3581      6.7915     71.2266
  2099.0000      0.0000    596.4525      6.8490     68.6785
  2099.2500      0.0000    604.0680      7.0234     65.6809
  2099.5000      0.0000    617.9580      7.1813     61.9446
  2099.7500      0.0000    634.9311      7.1608     57.8268
  2100.0000      2.0000    649.3849      6.8963     54.5243
  2100.2500      2.0000    657.8491      6.4746     53.7254
  2100.5000      0.0000    663.0679      6.0381     56.3471
  2100.7500      0.0000    670.7694      5.6459     61.4810
  2101.0000      0.0000    683.1678      5.2666     66.9491
  2101.2500      0.0000    697.4716      4.8793     71.0369
  2101.5000      0.0000    708.9791      4.5111     73.6121
  2101.7500      0.0000    713.6409      4.1925     75.5610
  2102.0000      0.0000    709.2994      3.9356     77.3565
  2102.2500      0.0000    696.6968      3.7459     78.3829
  2102.5000      0.0000    679.4462      3.6188     77.6802
