~Version Information
VERS.                      2.0: CWLS Log ASCII Standard - VERSION 2.0
WRAP.                       NO: One line per depth step
~Well Information Block
STRT.FT                -7.2500: 
STOP.FT              2610.0000: 
STEP.FT                 0.2500: 
NULL.                -999.2500: 
COMP.          Pioneer Natural Resources: COMPANY
WELL.              Wagner 13-9: WELL
FLD.           Purgatorie River: FIELD
LOC.           1819' FSL & 1111' FWL--: LOCATION
PROV.                       CO: PROVINCE
CNTY.               Las Animas: COUNTRY
SRVC.          Patterson Wireline: SERVICE COMPANY
DATE.          Wed May 18 09:08:26 2005: LOG DATE
UWI.           05 071 08302 00: UNIQUE WELL ID
~Curve Information Block
DEPT.FT            0 000 00 00: Depth
CCL.                          : Casing Collar Locator
TT3.usec                      : CBL 3' Travel Time
AMP3.mV                       : CBL 3' Amplitude
GR.GAPI                       : Gamma Ray
~Parameter Information Block
~A  Depth       CCL         TT3         AMP3         GR     
# ...
  2069.7500      0.0000    699.8042      4.0766     60.3830
  2070.0000      0.0000    700.2072      4.0653     61.9105
  2070.2500      0.0000    698.3454      4.0332     63.4850
  2070.5000      0.0000    692.5648      4.0151     63.5882
  2070.7500      0.0000    680.2103      4.0282     61.7288
  2071.0000      0.0000    659.9788      4.0464     58.9340
  2071.2500      0.0000    633.9724      4.0206     56.5133
  2071.5000      0.0000    605.5855      3.9312     54.7224
  2071.7500      0.0000    575.0044      3.8128     53.1027
  2072.0000      0.0000    540.1632      3.7210     51.6375
  2072.2500      0.0000    503.7808      3.6845     50.8725
  2072.5000      0.0000    475.2782      3.6944     51.0283
  2072.7500      0.0000    462.1778      3.7232     51.5045
  2073.0000      0.0000    461.6032      3.7384     51.4068
  2073.2500      0.0000    463.5004      3.7126     50.3556
  2073.5000      0.0000    462.5154      3.6495     48.6540
  2073.7500      0.0000    464.7064      3.5983     46.8181
  2074.0000      0.0000    481.3112      3.6170     45.2633
  2074.2500      0.0000    516.5367      3.7144     44.5269
  2074.5000      0.0000    562.3050      3.8396     45.3714
  2074.7500      0.0000    604.8857      3.9342     48.1524
  2075.0000      0.0000    635.8301      3.9774     52.1949
  2075.2500      0.0000    655.8890      3.9795     56.3501
  2075.5000      0.0000    669.7821      3.9472     60.3545
  2075.7500      0.0000    680.1563      3.8753     65.3091
  2076.0000      0.0000    687.2200      3.7720     72.6410
  2076.2500      0.0000    691.2612      3.6802     82.7526
  2076.5000      0.0000    693.0556      3.6561     94.5902
  2076.7500      0.0000    692.9138      3.7222    106.1628
  2077.0000      0.0000    691.0355      3.8508    115.5742
  2077.2500      0.0000    688.2433      3.9918    122.2626
  2077.5000      0.0000    684.9775      4.1115    127.6049
  2077.7500      0.0000    679.9042      4.2040    133.7511
  2078.0000      0.0000    671.2148      4.2606    141.3340
  2078.2500      0.0000    659.7706      4.2499    148.4528
  2078.5000      0.0000    649.8338      4.1564    152.0272
  2078.7500      0.0000    645.8260      4.0209    149.9568
  2079.0000      0.0000    648.6550      3.9065    142.3714
  2079.2500      0.0000    655.2960      3.8334    131.8237
  2079.5000      0.0000    661.5235      3.7768    122.2820
  2079.7500      2.0000    665.0988      3.7165    116.7324
  2080.0000      2.0000    666.6946      3.6576    115.0696
  2080.2500      0.0000    668.0360      3.6122    114.5431
  2080.5000      0.0000    669.7075      3.5939    112.4240
  2080.7500      0.0000    671.2545      3.6346    108.1566
  2081.0000      0.0000    672.9127      3.7707    103.1100
  2081.2500      0.0000    676.1212      3.9963     98.8260
  2081.5000      0.0000    681.8946      4.2554     95.9623
  2081.7500      0.0000    689.2825      4.4812     94.6895
  2082.0000      0.0000    695.8928      4.6215     95.4361
  2082.2500      0.0000    699.5946      4.6343     98.7253
  2082.5000      0.0000    699.4097      4.4949    104.2853
  2082.7500      0.0000    695.3646      4.2231    110.6728
  2083.0000      0.0000    688.3750      3.8993    116.0699
  2083.2500      0.0000    680.2610      3.6476    119.4935
  2083.5000      0.0000    673.1191      3.5755    121.1984
  2083.7500      0.0000    668.2388      3.7006    122.1542
  2084.0000      0.0000    665.6550      3.9334    123.4280
  2084.2500      0.0000    664.6806      4.1444    125.7323
  2084.5000      0.0000    664.6794      4.2634    128.9369
  2084.7500      0.0000    665.4464      4.3223    132.0491
  2085.0000      0.0000    667.3368      4.4007    134.1274
  2085.2500      0.0000    671.3730      4.5323    135.1254
  2085.5000      0.0000    679.1049      4.6720    135.4576
  2085.7500      0.0000    691.6854      4.7612    134.9586
  2086.0000      0.0000    708.3910      4.8099    132.9354
  2086.2500      0.0000    726.2037      4.8896    129.3075
  2086.5000      0.0000    741.7927      5.0455    125.1520
  2086.7500      0.0000    753.9764      5.2358    121.9208
  2087.0000      0.0000    763.0271      5.3667    120.3231
  2087.2500      0.0000    767.8994      5.3686    119.8258
  2087.5000      0.0000    766.5294      5.2378    119.0232
  2087.7500      0.0000    759.0717      5.0309    116.7685
  2088.0000      0.0000    748.2452      4.8231    113.1722
  2088.2500      0.0000    736.2194      4.6596    109.3813
  2088.5000      0.0000    723.5222      4.5428    106.5998
  2088.7500      0.0000    710.9337      4.4559    105.5995
  2089.0000      0.0000    699.8637      4.3842    106.6359
  2089.2500      0.0000    690.1104      4.3166    109.0883
  2089.5000      0.0000    678.3760      4.2472    111.4549
  2089.7500      0.0000    659.3039      4.1847    112.4301
  2090.0000      0.0000    628.2960      4.1544    111.9892
  2090.2500      0.0000    585.2806      4.1783    111.0927
  2090.5000      0.0000    537.1527      4.2510    110.6087
  2090.7500      0.0000    495.1239      4.3380    110.9969
  2091.0000      0.0000    468.0558      4.3961    112.6191
  2091.2500      0.0000    458.0308      4.4033    115.3973
  2091.5000      0.0000    461.1391      4.3760    118.0643
  2091.7500      0.0000    470.9522      4.3580    118.7495
  2092.0000      0.0000    482.8263      4.3881    116.9409
  2092.2500      0.0000    497.8047      4.4672    114.2799
  2092.5000      0.0000    521.6804      4.5515    112.8766
  2092.7500      0.0000    557.2678      4.5868    113.3351
  2093.0000      0.0000    597.6340      4.5471    114.7058
  2093.2500      0.0000    629.5530      4.4435    115.6602
  2093.5000      0.0000    644.2310      4.3103    115.3144
  2093.7500      0.0000    643.4971      4.1930    113.6523
  2094.0000      0.0000    636.1116      4.1298    111.7042
  2094.2500      0.0000    630.1041      4.1300    110.8875
  2094.5000      0.0000    628.7488      4.1741    111.7854
  2094.7500      0.0000    631.6035      4.2390    113.6157
  2095.0000      0.0000    637.5692      4.3059    114.7620
  2095.2500      0.0000    646.6401      4.3479    113.7791
  2095.5000      0.0000    658.9916      4.3415    110.4023
  2095.7500      0.0000    672.8822      4.2925    106.1344
  2096.0000      0.0000    684.5860      4.2306    103.7746
  2096.2500      0.0000    690.9059      4.1824    105.7554
  2096.5000      0.0000    691.3570      4.1578    112.2794
  2096.7500      0.0000    687.8210      4.1556    120.8973
  2097.0000      0.0000    682.8466      4.1763    128.2211
  2097.2500      0.0000    678.5759      4.2296    132.3083
  2097.5000      0.0000    676.3695      4.3258    133.4529
  2097.7500      0.0000    676.1343      4.4541    133.0456
  2098.0000      0.0000    675.4274      4.5675    132.0878
  2098.2500      0.0000    669.2496      4.6026    130.6654
  2098.5000      0.0000    651.4531      4.5326    128.4616
  2098.7500      0.0000    618.3628      4.3961    125.6246
  2099.0000      0.0000    572.9410      4.2671    123.1369
  2099.2500      0.0000    524.9760      4.1941    122.4803
  2099.5000      0.0000    485.3822      4.1743    124.9188
  2099.7500      0.0000    459.5746      4.1756    130.4994
  2100.0000      0.0000    446.1030      4.1593    137.2153
  2100.2500      0.0000    440.2761      4.0958    141.6354
  2100.5000      0.0000    437.9969      3.9954    141.1812
  2100.7500      0.0000    437.0372      3.9131    135.8511
  2101.0000      0.0000    436.5379      3.8969    127.8581
  2101.2500      0.0000    436.2639      3.9443    120.3540
  2101.5000      0.0000    436.1928      4.0172    116.2149
  2101.7500      0.0000    436.3460      4.0801    116.5505
  2102.0000      0.0000    436.7237      4.1214    119.9505
  2102.2500      0.0000    437.2787      4.1465    124.0054
  2102.5000      0.0000    437.9167      4.1537    127.5869
  2102.7500      0.0000    438.5330      4.1300    131.0385
  2103.0000      0.0000    439.0883      4.0718    134.6754
