~Version Information
VERS.                      2.0: CWLS Log ASCII Standard - VERSION 2.0
WRAP.                       NO: One line per depth step
~Well Information Block
STRT.FT               554.1000: 
STOP.FT              2173.5000: 
STEP.FT                 0.1000: 
NULL.                -999.2500: 
COMP.          Petrogulf Corporation: COMPANY
WELL.            Montoya 6-14R: WELL
FLD.           Purgatorie River: FIELD
LOC.           867' FSL & 751' FWL: LOCATION
CNTY.               Las Animas: COUNTY
SRVC.                         : SERVICE COMPANY
DATE.          Mon Nov 15 06:14:10 2004: LOG DATE
UWI.           05 071 08242 00: UNIQUE WELL ID
STAT.                 Colorado: STATE
~Curve Information Block
DEPT.FT            0 000 00 00: Depth
DCAL.in                       : CDL Caliper
RHOB.g/cc                     : CDL Bulk Density
RHOC.g/cc                     : CDL Density Correction
DPOR.pu                       : CDL Density Porosity
GR.GAPI                       : Gamma Ray
NPOR.pu                       : Neutron Porosity
~Parameter Information Block
~A  Depth       DCAL        RHOB        RHOC        DPOR         GR         NPOR    
# ...
  1523.7000      8.0444      2.5204      0.0216      7.8539    101.2842     25.0577
  1523.8000      8.0450      2.5296     -0.0157      7.2990    111.2410     25.4160
  1523.9000      8.0450      2.5517      0.0507      5.9563    114.1285     25.2361
  1524.0000      8.0433      2.5676      0.0222      4.9956    106.5091     25.1561
  1524.1000      8.0433      2.5629      0.0734      5.2804     98.4858     25.7010
  1524.2000      8.0433      2.5409      0.0316      6.6123     98.5462     26.7690
  1524.3000      8.0331      2.5202      0.0197      7.8679    102.8748     27.7826
  1524.4000      8.0331      2.5148      0.0399      8.1966    105.6488     28.0972
  1524.5000      8.0161      2.5219      0.0329      7.7631    105.1381     27.7003
  1524.6000      8.0161      2.5333      0.0404      7.0754    103.5488     26.9969
  1524.7000      8.0161      2.5396      0.0474      6.6928    103.9557     26.5495
  1524.8000      8.0083      2.5375      0.0440      6.8204    104.6915     26.8254
  1524.9000      8.0083      2.5361      0.0134      6.9007    104.5550     27.5437
  1525.0000      8.0135      2.5430      0.0473      6.4843    105.9369     27.8825
  1525.1000      8.0135      2.5477      0.0806      6.2013    108.7114     27.4937
  1525.2000      8.0135      2.5436      0.0838      6.4472    112.7530     26.9089
  1525.3000      8.0226      2.5438      0.0466      6.4373    119.0867     26.6640
  1525.4000      8.0226      2.5523      0.0773      5.9239    123.2474     26.8466
  1525.5000      8.0291      2.5585      0.0250      5.5427    121.6172     27.2412
  1525.6000      8.0291      2.5680      0.0358      4.9700    119.1302     27.3365
  1525.7000      8.0291      2.5879      0.0713      3.7642    123.2303     26.9551
  1525.8000      8.0272      2.6056      0.0835      2.6886    132.0796     26.9375
  1525.9000      8.0272      2.6120      0.0395      2.3001    139.4084     27.7450
  1526.0000      8.0076      2.6130      0.0741      2.2444    141.8758     28.4606
  1526.1000      8.0076      2.6128      0.0680      2.2564    139.5485     28.7995
  1526.2000      8.0076      2.6115      0.0628      2.3314    133.2790     29.7147
  1526.3000      7.9793      2.6065      0.0563      2.6378    122.4773     31.0409
  1526.4000      7.9793      2.5954      0.0402      3.3111    112.6754     31.5351
  1526.5000      7.9608      2.5881     -0.0041      3.7531    110.0101     30.8720
  1526.6000      7.9608      2.5974      0.0131      3.1859    109.7225     29.5874
  1526.7000      7.9608      2.6153      0.0546      2.1030    107.0630     28.3534
  1526.8000      7.9501      2.6204      0.0664      1.7918    104.1576     27.5045
  1526.9000      7.9501      2.6070      0.0699      2.6087    102.9060     27.0282
  1527.0000      7.9456      2.5846      0.0594      3.9610    105.0115     26.9921
  1527.1000      7.9456      2.5704      0.0085      4.8215    110.9733     27.4692
  1527.2000      7.9456      2.5707      0.0472      4.8031    116.2168     28.3776
  1527.3000      7.9499      2.5672      0.0379      5.0184    117.1569     28.9890
  1527.4000      7.9499      2.5481     -0.0023      6.1759    116.8002     28.5327
  1527.5000      7.9727      2.5295      0.0143      7.3045    116.5823     27.8509
  1527.6000      7.9727      2.5240      0.0937      7.6377    113.9881     27.9520
  1527.7000      7.9727      2.5231      0.0852      7.6931    110.5265     28.5493
  1527.8000      8.0101      2.5115      0.1040      8.3964    111.0028     29.4151
  1527.9000      8.0101      2.4785      0.0937     10.3925    115.8504     30.4750
  1528.0000      8.0339      2.4333      0.0570     13.1344    121.7697     30.9509
  1528.1000      8.0339      2.4008      0.0375     15.1043    127.6237     30.3301
  1528.2000      8.0339      2.3968      0.0311     15.3482    132.4651     29.5060
  1528.3000      8.0423      2.4199      0.0630     13.9475    132.3903     29.4745
  1528.4000      8.0423      2.4577      0.0770     11.6548    128.2009     29.7786
  1528.5000      8.0455      2.4956      0.1088      9.3584    125.8812     29.4296
  1528.6000      8.0455      2.5248      0.1321      7.5883    126.6813     28.4807
  1528.7000      8.0455      2.5419      0.1655      6.5522    125.7912     27.6649
  1528.8000      8.0477      2.5415      0.1710      6.5742    121.2311     27.1983
  1528.9000      8.0477      2.5191      0.1831      7.9328    117.2315     27.0859
  1529.0000      8.0495      2.4798      0.1699     10.3139    117.3233     27.7085
  1529.1000      8.0495      2.4403      0.0919     12.7108    116.9998     28.7295
  1529.2000      8.0495      2.4162      0.0905     14.1679    111.6835     29.0173
  1529.3000      8.0482      2.4030      0.1202     14.9672    107.0739     28.8538
  1529.4000      8.0482      2.3911      0.0533     15.6926    108.9182     29.2595
  1529.5000      8.0465      2.3841      0.0798     16.1158    114.3667     29.8583
  1529.6000      8.0465      2.3883      0.0943     15.8576    120.1972     29.7345
  1529.7000      8.0465      2.4136      0.1111     14.3252    124.4250     29.1925
  1529.8000      8.0468      2.4603      0.2641     11.4971    124.5153     29.2159
  1529.9000      8.0468      2.5012      0.3047      9.0177    120.1413     29.8523
  1530.0000      8.0492      2.5085      0.2906      8.5768    116.1718     30.6956
  1530.1000      8.0492      2.4688      0.2962     10.9799    118.6988     31.3052
  1530.2000      8.0492      2.3803      0.2321     16.3438    125.1035     31.2563
  1530.3000      8.0559      2.2651      0.1402     23.3272    126.4161     31.0162
  1530.4000      8.0559      2.1483      0.0874     30.4053    118.1259     31.4083
  1530.5000      8.0717      2.0201      0.0499     38.1744    105.0203     32.3003
  1530.6000      8.0717      1.8668     -0.0254     47.4645     94.2505     33.2261
  1530.7000      8.0717      1.7212     -0.0790     56.2911     88.2953     33.8673
  1530.8000      8.1088      1.6304     -0.0948     61.7925     85.6191     34.2637
  1530.9000      8.1088      1.5999     -0.0502     63.6424     84.0396     34.3914
  1531.0000      8.1891      1.6147     -0.0579     62.7472     86.1902     33.9182
  1531.1000      8.1891      1.6812     -0.0439     58.7175     93.1197     32.7368
  1531.2000      8.1891      1.7935      0.1398     51.9083     97.9424     31.4561
  1531.3000      8.2972      1.9059      0.2187     45.0998     96.8498     31.0195
  1531.4000      8.2972      1.9984      0.1778     39.4880     94.6749     31.2901
  1531.5000      8.3117      2.1103      0.1871     32.7080     97.8081     31.3610
  1531.6000      8.3117      2.2655      0.2253     23.3041    106.2931     30.5778
  1531.7000      8.3117      2.4198      0.2346     13.9500    112.9339     29.1395
  1531.8000      8.1610      2.5159      0.1799      8.1284    111.6877     27.8386
  1531.9000      8.1610      2.5560      0.1577      5.6992    105.0086     26.8889
  1532.0000      8.0088      2.5833      0.1487      4.0442     99.0845     26.0313
  1532.1000      8.0088      2.6158      0.1803      2.0733     95.8473     25.2035
  1532.2000      8.0088      2.6317      0.1616      1.1118     94.7090     24.6812
  1532.3000      7.9478      2.6145      0.0926      2.1522     96.5436     24.5502
  1532.4000      7.9478      2.5804      0.0613      4.2159     98.8555     24.3877
  1532.5000      7.9201      2.5532      0.0325      5.8672     96.7623     24.0608
  1532.6000      7.9201      2.5401      0.0021      6.6597     91.0759     23.7411
  1532.7000      7.9201      2.5395      0.0201      6.6968     84.6643     23.4770
  1532.8000      7.8961      2.5463      0.0340      6.2854     77.9604     23.4145
  1532.9000      7.8961      2.5487      0.0638      6.1414     73.1728     23.5395
  1533.0000      7.8739      2.5422      0.0045      6.5350     71.7783     23.4528
  1533.1000      7.8739      2.5368     -0.0028      6.8603     71.1250     22.8605
  1533.2000      7.8739      2.5393      0.0086      6.7089     70.1938     22.2652
