~Version Information
VERS.                      2.0: CWLS Log ASCII Standard - VERSION 2.0
WRAP.                       NO: One line per depth step
~Well Information Block
STRT.FT               902.0000: 
STOP.FT              2428.2000: 
STEP.FT                 0.1000: 
NULL.                -999.2500: 
COMP.          Pioneer Natural Resources: COMPANY
WELL.            Victory 12-14: WELL
FLD.           Purgatoire River: FIELD
LOC.           2434' FNL & 188' FWL: LOCATION
PROV.                 Colorado: PROVINCE
CNTY.               Las Animas: COUNTRY
SRVC.                Patterson: SERVICE COMPANY
DATE.          Mon Apr 18 07:24:17 2005: LOG DATE
UWI.           05 071 08332 00: UNIQUE WELL ID
~Curve Information Block
DEPT.FT            0 000 00 00: Depth
DCAL.in                       : CDL Caliper
RHOB.g/cc                     : CDL Bulk Density
RHOC.g/cc                     : CDL Density Correction
DPOR.pu                       : CDL Density Porosity
GR.GAPI                       : Gamma Ray
NPOR.pu                       : Neutron Porosity
~Parameter Information Block
~A  Depth       DCAL        RHOB        RHOC        DPOR         GR         NPOR    
# ...
  2111.6000      8.1535      2.3527      0.1758     18.0160    123.4852     28.9767
  2111.7000      8.1535      2.4060      0.1748     14.7868    128.6513     28.9298
  2111.8000      7.9367      2.4579      0.1692     11.6440    130.8427     29.1580
  2111.9000      7.9367      2.4995      0.0553      9.1206    131.6686     28.9845
  2112.0000      7.9220      2.5310      0.1089      7.2144    131.9776     28.2037
  2112.1000      7.9220      2.5449      0.1146      6.3678    132.3791     27.3416
  2112.2000      7.9220      2.5419      0.0293      6.5527    131.3754     27.0167
  2112.3000      7.9428      2.5378      0.0523      6.8003    131.4310     26.7709
  2112.4000      7.9428      2.5496      0.0548      6.0846    134.0801     26.1544
  2112.5000      7.9541      2.5790      0.1132      4.3056    135.9740     25.6762
  2112.6000      7.9541      2.5905      0.1468      3.6049    134.8687     25.8144
  2112.7000      7.9541      2.5572      0.0790      5.6236    133.3885     26.5410
  2112.8000      7.9621      2.5069      0.0241      8.6706    135.3083     27.2472
  2112.9000      7.9621      2.4787      0.0071     10.3819    135.8270     27.7245
  2113.0000      7.9417      2.4819      0.0413     10.1896    129.4305     28.4998
  2113.1000      7.9417      2.5030      0.0422      8.9107    121.5920     29.0594
  2113.2000      7.9417      2.5248      0.0425      7.5874    119.0489     28.6125
  2113.3000      7.9350      2.5326      0.0925      7.1181    120.0391     27.9752
  2113.4000      7.9350      2.5141      0.1166      8.2351    120.5224     28.2727
  2113.5000      7.9400      2.4807      0.0325     10.2631    120.8380     29.3737
  2113.6000      7.9400      2.4642     -0.0510     11.2609    121.9753     30.2436
  2113.7000      7.9400      2.4697      0.0546     10.9283    124.6689     29.8766
  2113.8000      7.9412      2.4812      0.0103     10.2307    126.3395     28.3997
  2113.9000      7.9412      2.5092     -0.0080      8.5335    123.7868     27.1729
  2114.0000      7.9726      2.5515      0.0396      5.9690    117.6070     26.7431
  2114.1000      7.9726      2.5699      0.1188      4.8526    111.6896     26.4378
  2114.2000      7.9726      2.5587      0.0333      5.5356    110.8214     26.3299
  2114.3000      7.9821      2.5479      0.0851      6.1860    113.7924     26.8337
  2114.4000      7.9821      2.5404      0.0806      6.6424    111.8935     27.4821
  2114.5000      7.9414      2.5310      0.0220      7.2105    102.1924     27.4735
  2114.6000      7.9414      2.5389      0.0170      6.7328     93.2675     27.0294
  2114.7000      7.9414      2.5636      0.1432      5.2359     92.5235     26.8314
  2114.8000      7.9183      2.5787      0.0889      4.3219     96.9705     26.8916
  2114.9000      7.9183      2.5818      0.0661      4.1331    102.0945     27.2726
  2115.0000      7.9137      2.5839      0.0850      4.0089    107.9321     27.6790
  2115.1000      7.9137      2.5869      0.0173      3.8248    112.9816     27.2489
  2115.2000      7.9137      2.5915      0.0333      3.5468    116.7379     26.1236
  2115.3000      7.9106      2.5849      0.0938      3.9428    121.7233     25.6894
  2115.4000      7.9106      2.5518      0.0206      5.9519    124.9846     26.5001
  2115.5000      7.9133      2.5089     -0.0359      8.5504    125.0073     26.9622
  2115.6000      7.9133      2.4900      0.0057      9.6979    124.4259     26.0355
  2115.7000      7.9133      2.4994     -0.0010      9.1262    124.0002     25.0531
  2115.8000      7.9137      2.5151      0.0360      8.1756    123.3157     25.0766
  2115.9000      7.9137      2.5185      0.0921      7.9705    123.5278     25.2489
  2116.0000      7.9166      2.5123      0.0226      8.3446    125.0199     24.9112
  2116.1000      7.9166      2.5168      0.0182      8.0704    124.4998     25.0157
  2116.2000      7.9166      2.5383      0.0513      6.7702    119.4337     25.8944
  2116.3000      7.9186      2.5558      0.0854      5.7086    112.5818     26.6779
  2116.4000      7.9186      2.5516      0.0887      5.9632    109.6536     27.0139
  2116.5000      7.9218      2.5365      0.0259      6.8784    110.7540     26.8800
  2116.6000      7.9218      2.5376      0.0432      6.8115    107.7597     26.1651
  2116.7000      7.9218      2.5650      0.0758      5.1509     98.5491     25.8519
  2116.8000      7.9069      2.6032      0.1247      2.8377     92.1352     26.5600
  2116.9000      7.9069      2.6312      0.1575      1.1393     93.3577     26.9669
  2117.0000      7.9002      2.6436      0.1019      0.3879     99.2977     26.4139
  2117.1000      7.9002      2.6510      0.0938     -0.0622    105.7780     25.7567
  2117.2000      7.9002      2.6530      0.1039     -0.1810    108.7415     25.5653
  2117.3000      7.9037      2.6342      0.1324      0.9572    109.2261     25.4515
  2117.4000      7.9037      2.5970      0.0489      3.2127    110.4597     24.8076
  2117.5000      7.9320      2.5594      0.0813      5.4892    111.0080     24.2291
  2117.6000      7.9320      2.5270      0.0677      7.4566    112.5407     24.3670
  2117.7000      7.9320      2.4935      0.0556      9.4848    118.4710     25.1758
  2117.8000      7.9450      2.4600     -0.0086     11.5138    122.9159     26.2163
  2117.9000      7.9450      2.4337     -0.0082     13.1080    120.7079     26.7112
  2118.0000      7.9357      2.4056      0.0047     14.8103    115.0486     26.5043
  2118.1000      7.9357      2.3582      0.0405     17.6835    108.1439     26.4730
  2118.2000      7.9357      2.2982      0.0177     21.3231    102.7538     27.3110
  2118.3000      7.9314      2.2484      0.0328     24.3367    102.8372     28.2854
  2118.4000      7.9314      2.2085      0.1066     26.7597    105.2702     28.3627
  2118.5000      7.9363      2.1602      0.0645     29.6847    105.8950     28.3648
  2118.6000      7.9363      2.1089      0.0593     32.7953    107.2577     29.4981
  2118.7000      7.9363      2.0786      0.0722     34.6321    109.3560     30.6214
  2118.8000      7.9555      2.0771      0.0758     34.7233    108.6124     30.4015
  2118.9000      7.9555      2.0877      0.1401     34.0770    106.5163     29.5747
  2119.0000      8.0000      2.0982      0.0861     33.4442    106.2112     28.7103
  2119.1000      8.0000      2.1200      0.1022     32.1226    110.2547     27.9587
  2119.2000      8.0000      2.1679      0.0867     29.2199    122.1719     27.9438
  2119.3000      8.1182      2.2404      0.1263     24.8244    135.7944     28.7590
  2119.4000      8.1182      2.3133      0.1678     20.4087    138.7992     29.9387
  2119.5000      8.1300      2.3616      0.0974     17.4777    133.2949     31.1756
  2119.6000      8.1300      2.3917      0.0951     15.6546    127.9494     32.0314
  2119.7000      8.1300      2.4245      0.1009     13.6670    124.0545     32.2223
  2119.8000      7.9989      2.4640      0.1554     11.2702    122.6135     32.4776
  2119.9000      7.9989      2.4926      0.1529      9.5409    124.0658     33.1124
  2120.0000      7.9854      2.4975      0.0960      9.2397    126.9025     33.2415
  2120.1000      7.9854      2.4924      0.0615      9.5488    129.5638     32.4674
  2120.2000      7.9854      2.4936      0.0584      9.4798    127.5905     31.2901
  2120.3000      8.0130      2.4948      0.1125      9.4070    118.2151     30.3009
  2120.4000      8.0130      2.4876      0.0651      9.8412    107.6753     30.1732
  2120.5000      8.0230      2.4815      0.0655     10.2117    103.8129     30.9984
  2120.6000      8.0230      2.4861      0.0834      9.9344    105.0664     31.3628
  2120.7000      8.0230      2.4875      0.0876      9.8456    107.3264     30.5232
  2120.8000      8.0248      2.4670      0.0709     11.0935    108.6839     29.6690
  2120.9000      8.0248      2.4410      0.0070     12.6638    106.3884     29.5976
  2121.0000      8.0216      2.4404      0.0241     12.7044    101.4378     29.6658
  2121.1000      8.0216      2.4556      0.0581     11.7818     96.1861     29.2192
