~Version Information
VERS.                      2.0: CWLS Log ASCII Standard - VERSION 2.0
WRAP.                       NO: One line per depth step
~Well Information Block
STRT.FT               846.5000: 
STOP.FT              2610.0000: 
STEP.FT                 0.2500: 
NULL.                -999.2500: 
COMP.          Petrogulf Corporation: COMPANY
WELL.            Lavedure 7-44: WELL
FLD.           Purgatoire River: FIELD
LOC.           969' FSL & 501' FEL: LOCATION
PROV.                 Colorado: PROVINCE
CNTY.               Las Animas: COUNTRY
SRVC.                Patterson: SERVICE COMPANY
DATE.          Sun Dec 07 15:26:03 2003: LOG DATE
UWI.                          : UNIQUE WELL ID
~Curve Information Block
DEPT.FT            0 000 00 00: Depth
SP.mV                         : DIL Spontaneous Potential
RILD.Ohm-m                    : DIL Deep Resistivity
RILM.Ohm-m                    : DIL Medium Resistivity
RLL3.Ohm-m                    : DIL Shallow Resistivity
GR.GAPI                       : Gamma Ray
~Parameter Information Block
~A  Depth        SP         RILD        RILM        RLL3         GR     
# ...
  1322.5000   -679.1991      8.3294      9.7493     12.5956    114.5147
  1322.7500   -678.8317      8.1556      9.4953     12.5646    115.6073
  1323.0000   -681.5148      8.0419      9.3019     12.4322    115.5962
  1323.2500   -685.7127      7.9836      9.1766     12.3292    114.6519
  1323.5000   -689.2603      7.9723      9.1209     12.3288    111.7762
  1323.7500   -690.5359      7.9931      9.1302     12.3859    109.2818
  1324.0000   -689.4651      8.0252      9.1959     12.4144    106.4413
  1324.2500   -687.3320      8.0469      9.3065     12.4198    106.0987
  1324.5000   -685.4982      8.0434      9.4461     12.5708    108.1512
  1324.7500   -684.3659      8.0101      9.5931     13.1334    110.8131
  1325.0000   -683.4491      7.9507      9.7199     14.2685    116.4522
  1325.2500   -682.0934      7.8739      9.7967     15.7967    121.6380
  1325.5000   -680.0305      7.7885      9.7985     17.1380    131.9143
  1325.7500   -677.5074      7.7027      9.7119     17.5917    139.6268
  1326.0000   -675.0807      7.6239      9.5404     16.8169    149.0091
  1326.2500   -673.2686      7.5581      9.3065     15.0927    151.5014
  1326.5000   -672.3592      7.5087      9.0464     13.0969    147.7011
  1326.7500   -672.5322      7.4732      8.7978     11.4387    140.8366
  1327.0000   -674.0429      7.4413      8.5876     10.3795    127.4372
  1327.2500   -677.0214      7.3970      8.4262      9.8785    118.7907
  1327.5000   -680.8749      7.3253      8.3090      9.7743    109.4475
  1327.7500   -684.0579      7.2203      8.2225      9.9051    106.4308
  1328.0000   -684.9550      7.0890      8.1512     10.1395    105.9197
  1328.2500   -683.2991      6.9481      8.0833     10.3736    107.0241
  1328.5000   -680.5998      6.8163      8.0138     10.5347    108.9944
  1328.7500   -679.0521      6.7085      7.9451     10.5910    110.0588
  1329.0000   -680.0465      6.6332      7.8847     10.5541    111.3566
  1329.2500   -683.5136      6.5915      7.8417     10.4630    112.2329
  1329.5000   -688.2841      6.5798      7.8228     10.3562    113.5929
  1329.7500   -692.9168      6.5913      7.8297     10.2539    114.1240
  1330.0000   -696.4390      6.6183      7.8595     10.1645    113.1786
  1330.2500   -698.6722      6.6531      7.9063     10.1005    110.9581
  1330.5000   -700.1178      6.6886      7.9630     10.0800    105.6657
  1330.7500   -701.7485      6.7185      8.0219     10.1098    101.5469
  1331.0000   -705.0012      6.7379      8.0744     10.1728     95.5440
  1331.2500   -711.5336      6.7451      8.1120     10.2413     91.9290
  1331.5000   -722.2879      6.7425      8.1283     10.3051     87.2884
  1331.7500   -736.5867      6.7364      8.1215     10.3771     84.9079
  1332.0000   -752.3420      6.7352      8.0955     10.4512     82.6340
  1332.2500   -767.2195      6.7474      8.0593     10.4587     81.8071
  1332.5000   -779.7225      6.7787      8.0257     10.3006     80.8238
  1332.7500   -789.4943      6.8317      8.0087      9.9557     79.9070
  1333.0000   -796.8721      6.9052      8.0213      9.5486     77.8294
  1333.2500   -802.2111      6.9952      8.0739      9.2894     76.0682
  1333.5000   -805.5935      7.0967      8.1725      9.3398     73.4939
  1333.7500   -806.9186      7.2046      8.3186      9.7197     72.3978
  1334.0000   -805.9002      7.3143      8.5093     10.3173     72.4858
  1334.2500   -801.8679      7.4218      8.7369     10.9830     73.7374
  1334.5000   -793.7916      7.5237      8.9906     11.6275     76.7373
  1334.7500   -780.8368      7.6188      9.2569     12.2566     78.8636
  1335.0000   -763.2657      7.7084      9.5203     12.9197     81.0154
  1335.2500   -742.9438      7.7961      9.7647     13.6069     81.2094
  1335.5000   -722.7744      7.8867      9.9750     14.1870     79.9047
  1335.7500   -705.4132      7.9843     10.1398     14.4710     78.9668
  1336.0000   -692.3422      8.0906     10.2545     14.3683     79.4845
  1336.2500   -683.7889      8.2039     10.3215     13.9757     81.5853
  1336.5000   -679.1684      8.3196     10.3496     13.4978     86.2750
  1336.7500   -677.5850      8.4304     10.3513     13.0908     89.1385
  1337.0000   -678.0952      8.5286     10.3402     12.7861     91.3879
  1337.2500   -679.7406      8.6085     10.3278     12.5405     91.4979
  1337.5000   -681.7520      8.6692     10.3216     12.3222     90.9664
  1337.7500   -684.1161      8.7153     10.3256     12.1431     91.2956
  1338.0000   -687.9799      8.7544     10.3417     12.0261     94.4526
  1338.2500   -695.2422      8.7939     10.3728     11.9675     98.6332
  1338.5000   -707.4592      8.8373     10.4254     11.9531    106.8005
  1338.7500   -724.7790      8.8845     10.5085     12.0167    112.0327
  1339.0000   -745.4799      8.9329     10.6297     12.2742    117.2564
  1339.2500   -766.3845      8.9814     10.7884     12.8724    118.5365
  1339.5000   -784.1071      9.0325     10.9698     13.8713    118.1105
  1339.7500   -796.4836      9.0933     11.1457     15.1434    117.2982
  1340.0000   -803.2098      9.1732     11.2828     16.3708    116.3522
  1340.2500   -805.4335      9.2808     11.3587     17.1597    115.6900
  1340.5000   -804.8948      9.4220     11.3758     17.2184    113.8679
  1340.7500   -803.1682      9.5972     11.3640     16.5046    112.3794
  1341.0000   -801.1817      9.8008     11.3710     15.2656    111.5780
  1341.2500   -799.1459     10.0195     11.4475     13.9604    112.7884
  1341.5000   -796.8539     10.2325     11.6336     13.1357    116.4078
  1341.7500   -793.9064     10.4136     11.9506     13.3451    118.4921
  1342.0000   -789.6821     10.5370     12.3937     15.0931    118.4144
  1342.2500   -783.5398     10.5851     12.9245     18.6452    115.4429
  1342.5000   -775.4998     10.5573     13.4662     23.6597    107.2592
  1342.7500   -766.6395     10.4707     13.9110     28.9756    100.6812
  1343.0000   -758.4646     10.3544     14.1506     32.9725     92.0811
  1343.2500   -751.8107     10.2394     14.1238     34.3748     88.5589
  1343.5000   -746.3599     10.1494     13.8489     32.8621     87.5246
  1343.7500   -741.0502     10.0971     13.4117     29.0886     89.4445
  1344.0000   -734.9505     10.0845     12.9197     24.2699     95.2449
  1344.2500   -727.9954     10.1057     12.4610     19.6560    100.4308
  1344.5000   -721.1093     10.1490     12.0874     16.0939    109.0827
  1344.7500   -715.7842     10.1968     11.8180     13.8406    114.6003
  1345.0000   -713.3508     10.2257     11.6502     12.7035    120.8316
  1345.2500   -714.0623     10.2111     11.5682     12.3749    122.9357
  1345.5000   -716.5551     10.1372     11.5479     12.6865    122.8763
  1345.7500   -718.5128     10.0070     11.5593     13.6024    120.9941
  1346.0000   -718.1065      9.8425     11.5699     14.9999    116.1430
  1346.2500   -714.8201      9.6750     11.5501     16.4925    112.2098
  1346.5000   -709.3255      9.5330     11.4812     17.5333    106.7929
  1346.7500   -703.0987      9.4360     11.3626     17.7350    104.3155
  1347.0000   -698.0008      9.3943     11.2144     17.0929    103.1132
  1347.2500   -695.7775      9.4106     11.0728     15.9267    104.1748
  1347.5000   -697.8075      9.4806     10.9794     14.6653    108.4466
  1347.7500   -705.0645      9.5917     10.9697     13.6813    112.6158
  1348.0000   -717.6680      9.7224     11.0645     13.2353    119.3032
  1348.2500   -734.1617      9.8455     11.2656     13.4921    123.0068
  1348.5000   -751.6202      9.9358     11.5527     14.5360    126.1603
  1348.7500   -766.9746      9.9783     11.8823     16.3007    126.4026
  1349.0000   -778.5009      9.9725     12.1924     18.4155    124.2752
  1349.2500   -786.3074      9.9305     12.4170     20.1784    121.7086
  1349.5000   -791.6907      9.8704     12.5104     20.8820    117.3841
  1349.7500   -796.0472      9.8128     12.4669     20.3074    115.0093
  1350.0000   -800.1063      9.7776     12.3198     18.8770    113.5848
  1350.2500   -803.8749      9.7824     12.1219     17.2810    114.6315
