~Version Information
 VERS.                                  2.0 : CWLS LAS VERSION
 WRAP.                                   NO : WRAPING MODE
 SWARE .                 MController 2.5.0I : SOFTWARE VERSION
~Well Information
 WELL.                        Tomahawk 44-9 : WELL
 COMP.             Evergreen Operating Corp : COMPANY
 FLD.                      Purgatorie River : FIELD
 LOC.                 SE/SE Sec 9 T33S R65W : LOCATION
 DATE.                              9/11/04 : DATE(S) LOGGED
 SRVC.       Blanco Geological Services LLC : SERVICE COMPANY
 STAT.                                   CO : STATE
 CNTY.                           Las Animas : COUNTY
 CTRY.                                  USA : COUNTRY
 API.                       05-071-08133-00 : API NUMBER
 STRT.FT                             696.00 : START DEPTH
 STOP.FT                            1585.00 : STOP DEPTH
 STEP.FT                               1.00 : DEPTH INCREMENT
 NULL.                                -9999 : NULL VALUE
~Curve information
 DEPTH.FT                                   :
 ROP.MIN/FT                                 :
 GAS.UNITS                                  :
~ASCII Log data
# ...
      1096.0          0.3          2.3 
      1097.0          0.3          1.6 
      1098.0          0.2          2.2 
      1099.0          0.1          2.5 
      1100.0          0.1          2.9 
      1101.0          0.1          3.2 
      1102.0          0.2          3.1 
      1103.0          0.1          3.6 
      1104.0          0.2          4.4 
      1105.0          0.2          5.3 
      1106.0          1.5         26.6 
      1107.0          0.3         28.6 
      1108.0          0.2         25.7 
      1109.0          0.4         21.1 
      1110.0          0.3         12.6 
      1111.0          0.2          9.4 
      1112.0          0.2          8.0 
      1113.0          0.2          7.1 
      1114.0          0.3          5.9 
      1115.0          0.3          5.2 
      1116.0          0.3          4.6 
      1117.0          0.2          4.4 
      1118.0          0.3          3.9 
      1119.0          0.3          3.9 
      1120.0          0.1          3.6 
      1121.0          0.1          3.8 
      1122.0          0.2          3.7 
      1123.0          0.2          3.6 
      1124.0          0.2          3.4 
      1125.0          0.2          3.3 
      1126.0          0.1          3.5 
      1127.0          0.1          3.8 
      1128.0          0.1          3.3 
      1129.0          0.1          3.1 
      1130.0          0.1          2.9 
      1131.0          0.2          2.7 
      1132.0          0.1          2.9 
      1133.0          0.1          2.8 
      1134.0          0.2          2.8 
      1135.0          0.3          2.8 
      1136.0          1.7         30.1 
      1137.0          0.3         30.9 
      1138.0          0.2         25.6 
      1139.0          0.2         19.9 
      1140.0          0.2         15.5 
      1141.0          0.2         11.9 
      1142.0          0.2          9.0 
      1143.0          0.2          7.1 
      1144.0          0.2          5.8 
      1145.0          0.2          4.8 
      1146.0          0.2          4.1 
      1147.0          0.2          4.1 
      1148.0          0.2          3.7 
      1149.0          0.2          3.1 
      1150.0          0.2          3.0 
      1151.0          0.2          3.0 
      1152.0          0.2          2.5 
      1153.0          0.2          2.8 
      1154.0          0.1          3.0 
      1155.0          0.1          2.7 
      1156.0          0.2          2.9 
      1157.0          0.2          2.8 
      1158.0          0.1          2.9 
      1159.0          0.1          2.9 
      1160.0          0.2          3.3 
      1161.0          0.2          2.7 
      1162.0          0.2          1.1 
      1163.0          0.2          1.4 
      1164.0          0.2          1.7 
      1165.0          0.1          1.8 
      1166.0          2.8         20.4 
      1167.0          0.1          7.0 
      1168.0          0.2          6.0 
      1169.0          0.3          4.8 
      1170.0          0.2          3.4 
      1171.0          0.2          2.8 
      1172.0          0.3          2.5 
      1173.0          0.2          1.8 
      1174.0          0.2          1.9 
      1175.0          0.2          2.3 
      1176.0          0.2          1.8 
      1177.0          0.1          1.6 
      1178.0          0.3          1.7 
      1179.0          0.1          1.6 
      1180.0          0.2          1.4 
      1181.0          0.2          1.4 
      1182.0          0.2          1.3 
      1183.0          0.2          1.5 
      1184.0          0.2          1.4 
      1185.0          0.3          1.0 
      1186.0          0.3         -0.1 
      1187.0          0.2          0.2 
      1188.0          0.2          0.4 
      1189.0          0.2          0.1 
      1190.0          0.3         -0.1 
      1191.0          0.2          0.1 
      1192.0          0.2          1.2 
      1193.0          0.1          2.0 
      1194.0          0.2          4.5 
      1195.0          0.1          7.0 
      1196.0          1.2         19.7 
      1197.0          0.3         11.5 
      1198.0          0.3          8.3 
      1199.0          0.3          5.2 
      1200.0          0.3          3.8 
      1201.0          0.2          2.6 
      1202.0          0.2          1.8 
      1203.0          0.2          1.6 
      1204.0          0.3          1.2 
      1205.0          0.2          0.7 
      1206.0          0.2          0.2 
      1207.0          0.2          0.5 
      1208.0          0.3          0.2 
      1209.0          0.2          0.0 
      1210.0          0.2          0.1 
      1211.0          0.2         -0.1 
      1212.0          0.2         -0.1 
      1213.0          0.2         -0.2 
      1214.0          0.2         -0.3 
      1215.0          0.2         -0.4 
      1216.0          0.3         -0.6 
      1217.0          0.2         -0.6 
      1218.0          0.2         -0.8 
      1219.0          0.2         -0.9 
      1220.0          0.2         -0.9 
      1221.0          0.1         -1.1 
      1222.0          0.3         -0.6 
      1223.0          0.3         -0.6 
      1224.0          0.2         -0.8 
      1225.0          0.2         -0.9 
      1226.0          1.2         16.9 
      1227.0          0.2         17.5 
      1228.0          0.2         16.0 
      1229.0          0.2         13.2 
      1230.0          0.2         11.7 
      1231.0          0.2         11.0 
      1232.0          0.1         10.2 
      1233.0          0.2          9.5 
      1234.0          0.2          8.7 
      1235.0          0.2          7.3 
      1236.0          0.1          6.4 
      1237.0          0.1          6.3 
      1238.0          0.1          5.5 
      1239.0          0.1          4.7 
      1240.0          0.2          4.3 
      1241.0          0.2          3.4 
      1242.0          0.1          2.5 
      1243.0          0.2          1.8 
      1244.0          0.2          0.7 
      1245.0          0.2         -0.3 
      1246.0          0.1         -1.0 
      1247.0          0.1         -1.3 
      1248.0          0.2         -1.5 
      1249.0          0.2         -1.8 
      1250.0          0.2         -0.2 
      1251.0          0.2          0.0 
      1252.0          0.2         -0.6 
      1253.0          0.2         -2.1 
      1254.0          0.2         -1.9 
      1255.0          0.2         -1.3 
      1256.0          2.2         26.4 
      1257.0          0.2         25.0 
      1258.0          0.2         21.7 
      1259.0          0.2         19.8 
      1260.0          0.1         20.1 
      1261.0          0.2         20.2 
      1262.0          0.2         19.4 
      1263.0          0.2         16.1 
      1264.0          0.2         13.3 
      1265.0          0.2         10.5 
      1266.0          0.2          8.7 
      1267.0          0.2          7.5 
      1268.0          0.2          6.8 
      1269.0          0.2          6.1 
      1270.0          0.2          5.9 
      1271.0          0.2          5.7 
      1272.0          0.3          5.8 
      1273.0          0.3          5.9 
      1274.0          0.2          6.0 
      1275.0          0.1          6.3 
      1276.0          0.2          5.9 
      1277.0          0.1          6.1 
      1278.0          0.2          6.0 
      1279.0          0.1          6.0 
      1280.0          0.1          6.2 
      1281.0          0.1          5.7 
      1282.0          0.2          4.8 
      1283.0          0.2          4.0 
      1284.0          0.2          4.6 
      1285.0          0.2          4.9 
      1286.0          1.4         15.3 
      1287.0          0.3         21.2 
      1288.0          0.2         21.7 
      1289.0          0.4         20.6 
      1290.0          0.2         15.8 
      1291.0          0.2         13.8 
      1292.0          0.2         11.3 
      1293.0          0.2         10.5 
      1294.0          0.1         11.4 
      1295.0          0.1         13.4 
