~Version Information
VERS.                      2.0: CWLS Log ASCII Standard - VERSION 2.0
WRAP.                       NO: One line per depth step
~Well Information Block
STRT.FT               -10.3000: 
STOP.FT              1936.7000: 
STEP.FT                 0.1000: 
NULL.                -999.2500: 
COMP.          Petrogulf Corporation: COMPANY
WELL.              Graff 9-31R: WELL
FLD.           Purgatorie River: FIELD
LOC.           707' FNL & 1713' FEL------: LOCATION
CNTY.               Las Animas: COUNTY
SRVC.                         : SERVICE COMPANY
DATE.          Wed Nov 17 13:41:51 2004: LOG DATE
UWI.                          : UNIQUE WELL ID
STAT.                       CO: STATE
~Curve Information Block
DEPT.FT            0 000 00 00: Depth
GR.GAPI                       : Gamma Ray
CCL.                          : Casing Collar Locator
TT3.usec                      : CBL 3' Travel Time
AMP3.mV                       : CBL 3' Amplitude
~Parameter Information Block
~A  Depth        GR         CCL         TT3         AMP3    
   -10.3000   -999.2500   -999.2500   -999.2500   -999.2500
   -10.2000   -999.2500   -999.2500   -999.2500   -999.2500
   -10.1000   -999.2500   -999.2500   -999.2500   -999.2500
   -10.0000   -999.2500   -999.2500   -999.2500   -999.2500
    -9.9000   -999.2500   -999.2500   -999.2500   -999.2500
    -9.8000   -999.2500   -999.2500   -999.2500   -999.2500
    -9.7000   -999.2500   -999.2500    921.0000      1.1844
    -9.6000   -999.2500   -999.2500    921.0000      1.1844
    -9.5000   -999.2500   -999.2500    921.0000      1.1844
    -9.4000   -999.2500   -999.2500    921.0000      1.1248
    -9.3000   -999.2500   -999.2500    921.0000      1.1248
    -9.2000   -999.2500   -999.2500    921.0000      1.0977
    -9.1000   -999.2500   -999.2500    921.0000      1.0977
    -9.0000   -999.2500   -999.2500    921.0000      1.0977
    -8.9000   -999.2500   -999.2500    921.0000      1.1092
    -8.8000   -999.2500   -999.2500    921.0000      1.1092
    -8.7000   -999.2500   -999.2500    921.0000      1.1503
    -8.6000   -999.2500   -999.2500    921.0000      1.1503
    -8.5000   -999.2500   -999.2500    921.0000      1.1503
    -8.4000   -999.2500   -999.2500    921.0000      1.2059
    -8.3000   -999.2500   -999.2500    921.0000      1.2059
    -8.2000   -999.2500   -999.2500    921.0000      1.2538
    -8.1000   -999.2500   -999.2500    921.0000      1.2538
    -8.0000   -999.2500   -999.2500    921.0000      1.2538
    -7.9000   -999.2500   -999.2500    921.0000      1.2664
    -7.8000   -999.2500   -999.2500    921.0000      1.2664
    -7.7000   -999.2500   -999.2500    921.0000      1.2304
    -7.6000   -999.2500   -999.2500    921.0000      1.2304
    -7.5000   -999.2500   -999.2500    921.0000      1.2304
    -7.4000   -999.2500   -999.2500    921.0000      1.1663
    -7.3000   -999.2500   -999.2500    921.0000      1.1663
    -7.2000   -999.2500   -999.2500    921.0000      1.1177
    -7.1000   -999.2500   -999.2500    921.0000      1.1177
    -7.0000   -999.2500   -999.2500    921.0000      1.1177
    -6.9000   -999.2500   -999.2500    921.0000      1.1155
    -6.8000   -999.2500   -999.2500    921.0000      1.1155
    -6.7000   -999.2500   -999.2500    921.0000      1.1535
    -6.6000   -999.2500   -999.2500    921.0000      1.1535
    -6.5000   -999.2500   -999.2500    921.0000      1.1535
    -6.4000   -999.2500   -999.2500    921.0000      1.1985
    -6.3000   -999.2500   -999.2500    921.0000      1.1985
    -6.2000   -999.2500   -999.2500    921.0000      1.2209
    -6.1000   -999.2500   -999.2500    921.0000      1.2209
    -6.0000   -999.2500   -999.2500    921.0000      1.2209
    -5.9000   -999.2500   -999.2500    921.0000      1.2169
    -5.8000   -999.2500   -999.2500    921.0000      1.2169
    -5.7000   -999.2500   -999.2500    921.0000      1.2046
    -5.6000   -999.2500   -999.2500    921.0000      1.2046
    -5.5000   -999.2500   -999.2500    921.0000      1.2046
    -5.4000   -999.2500   -999.2500    921.0000      1.2029
    -5.3000   -999.2500   -999.2500    921.0000      1.2029
    -5.2000   -999.2500   -999.2500    921.0000      1.2122
    -5.1000   -999.2500   -999.2500    921.0000      1.2122
    -5.0000   -999.2500   -999.2500    921.0000      1.2122
    -4.9000   -999.2500   -999.2500    921.0000      1.2150
    -4.8000   -999.2500   -999.2500    921.0000      1.2150
    -4.7000   -999.2500   -999.2500    921.0000      1.1960
    -4.6000   -999.2500   -999.2500    921.0000      1.1960
    -4.5000   -999.2500   -999.2500    921.0000      1.1960
    -4.4000   -999.2500   -999.2500    921.0000      1.1628
    -4.3000   -999.2500   -999.2500    921.0000      1.1628
    -4.2000   -999.2500      0.0000    921.0000      1.1406
    -4.1000   -999.2500      0.0000    921.0000      1.1406
    -4.0000   -999.2500      0.0000    921.0000      1.1406
    -3.9000   -999.2500      0.0000    921.0000      1.1443
    -3.8000   -999.2500      0.0000    921.0000      1.1443
    -3.7000   -999.2500      0.0000    921.0000      1.1622
    -3.6000   -999.2500      0.0000    921.0000      1.1622
    -3.5000   -999.2500      0.0000    921.0000      1.1622
    -3.4000   -999.2500     -2.0000    921.0000      1.1717
    -3.3000   -999.2500      1.6541    921.0000      1.1717
    -3.2000   -999.2500      2.0000    921.0000      1.1664
    -3.1000   -999.2500     -2.0000    921.0000      1.1664
    -3.0000   -999.2500     -2.0000    921.0000      1.1664
    -2.9000   -999.2500      2.0000    921.0000      1.1587
    -2.8000   -999.2500      0.0000    921.0000      1.1587
    -2.7000   -999.2500     -2.0000    921.0000      1.1599
    -2.6000   -999.2500      2.0000    921.0000      1.1599
    -2.5000   -999.2500      2.0000    921.0000      1.1599
    -2.4000   -999.2500     -2.0000    921.0000      1.1678
    -2.3000   -999.2500      2.0000    921.0000      1.1678
    -2.2000   -999.2500      0.0000    921.0000      1.1762
    -2.1000   -999.2500      0.0000    921.0000      1.1762
    -2.0000   -999.2500      0.0000    921.0000      1.1762
    -1.9000   -999.2500      0.0000    921.0000      1.1880
    -1.8000   -999.2500      0.0000    921.0000      1.1880
    -1.7000   -999.2500      2.0000    921.0000      1.2106
    -1.6000   -999.2500      0.0000    921.0000      1.2106
    -1.5000   -999.2500      0.0000    921.0000      1.2106
    -1.4000   -999.2500      0.0000    921.0000      1.2417
    -1.3000   -999.2500      0.0000    921.0000      1.2417
    -1.2000   -999.2500      0.0000    921.0000      1.2661
    -1.1000   -999.2500      0.0000    921.0000      1.2661
    -1.0000   -999.2500     -1.5051    921.0000      1.2661
    -0.9000   -999.2500      0.0000    921.0000      1.2713
    -0.8000   -999.2500      0.0000    921.0000      1.2713
    -0.7000   -999.2500      0.0000    921.0000      1.2607
    -0.6000   -999.2500      0.0000    921.0000      1.2607
    -0.5000   -999.2500      0.0000    921.0000      1.2607
    -0.4000   -999.2500      0.0000    921.0000      1.2479
    -0.3000   -999.2500      0.0000    921.0000      1.2479
    -0.2000   -999.2500      0.0000    921.0000      1.2410
    -0.1000   -999.2500      0.0000    921.0000      1.2410
     0.0000   -999.2500      0.0000    921.0000      1.2410
     0.1000   -999.2500      0.0000    921.0000      1.2410
     0.2000   -999.2500      0.0000    921.0000      1.2410
     0.3000   -999.2500      0.0000    921.0000      1.2338
     0.4000   -999.2500      0.0000    921.0000      1.2338
     0.5000   -999.2500      0.0000    921.0000      1.2329
     0.6000   -999.2500      0.0000    921.0000      1.2329
     0.7000   -999.2500      0.0000    921.0000      1.2329
     0.8000     85.4849      0.0000    921.0000      1.2343
     0.9000     85.4849      0.0000    921.0000      1.2343
     1.0000     84.3501      0.0000    921.0000      1.2277
     1.1000     84.3501      0.0000    921.0000      1.2277
     1.2000     84.3501      0.0000    921.0000      1.2277
     1.3000     82.8011      0.0000    921.0000      1.2052
     1.4000     82.8011      0.0000    921.0000      1.2052
     1.5000     80.4256      0.0000    921.0000      1.1768
     1.6000     80.4256      0.0000    921.0000      1.1768
     1.7000     80.4256      0.0000    921.0000      1.1768
     1.8000     76.5677      0.0000    920.9860      1.1637
     1.9000     76.5677      0.0000    920.9860      1.1637
     2.0000     71.8625      0.0000    920.8644      1.1765
     2.1000     71.8625      0.0000    920.8644      1.1765
     2.2000     71.8625      0.0000    920.8644      1.1765
     2.3000     67.8559      0.0000    920.2028      1.2186
     2.4000     67.8559      0.0000    920.2028      1.2186
     2.5000     65.3733      0.0000    917.3633      1.3539
     2.6000     65.3733      0.0000    917.3633      1.3539
     2.7000     65.3733      0.0000    917.3633      1.3539
     2.8000     64.0304      0.0000    907.7351      1.8577
     2.9000     64.0304      0.0000    907.7351      1.8577
     3.0000     63.2191      0.0000    881.9241      3.4401
