~Version Information
VERS.                      2.0: CWLS Log ASCII Standard - VERSION 2.0
WRAP.                       NO: One line per depth step
~Well Information Block
STRT.FT               595.0000: 
STOP.FT              1508.7500: 
STEP.FT                 0.2500: 
NULL.                -999.2500: 
COMP.          Pioneer Natural Resources: COMPANY
WELL.          Sumatra 34-22 Tr: WELL
FLD.           Purgatoire River: FIELD
LOC.           443' FSL & 2424' FEL--: LOCATION
PROV.                 Colorado: PROVINCE
CNTY.               Las Animas: COUNTRY
SRVC.                Patterson: SERVICE COMPANY
DATE.          Wed Jun 08 23:53:01 2005: LOG DATE
UWI.           05 071 08383 00: UNIQUE WELL ID
~Curve Information Block
DEPT.FT            0 000 00 00: Depth
SN.Ohm-m                      : IEL Short Normal
SP.mV                         : IEL Spontaneous Potential
DIR.Ohm-m                     : IEL Induction Resistivity
GR.GAPI                       : Gamma Ray
~Parameter Information Block
~A  Depth        SN          SP         DIR          GR     
# ...
   829.5000    682.8896   -529.3658     20.4843    103.3409
   829.7500    682.8896   -529.3683     18.8890    114.2954
   830.0000    682.8896   -529.3698     17.4507    127.8715
   830.2500    682.8896   -529.3700     16.1947    134.5815
   830.5000    682.8896   -529.3690     15.1275    141.6494
   830.7500    682.8896   -529.3667     14.2416    145.1247
   831.0000    682.8896   -529.3634     13.5204    149.5132
   831.2500    682.8896   -529.3595     12.9432    151.8591
   831.5000    682.8896   -529.3555     12.4899    153.7454
   831.7500    682.8896   -529.3519     12.1426    153.7301
   832.0000    682.8896   -529.3490     11.8864    152.4662
   832.2500    682.8896   -529.3472     11.7087    151.2961
   832.5000    682.8896   -529.3466     11.5995    149.0063
   832.7500    682.8896   -529.3468     11.5528    146.6982
   833.0000    682.8896   -529.3476     11.5664    142.0381
   833.2500    682.8896   -529.3486     11.6403    138.9596
   833.5000    682.8896   -529.3494     11.7737    136.2726
   833.7500    682.8896   -529.3497     11.9612    136.2169
   834.0000    682.8896   -529.3495     12.1895    137.8760
   834.2500    682.8896   -529.3488     12.4369    139.2778
   834.5000    682.8896   -529.3478     12.6772    140.9647
   834.7500    682.8896   -529.3467     12.8883    141.7196
   835.0000    682.8896   -529.3456     13.0633    142.1046
   835.2500    682.8896   -529.3449     13.2157    141.6237
   835.5000    682.8896   -529.3444     13.3754    139.6987
   835.7500    682.8896   -529.3442     13.5751    137.7910
   836.0000    682.8896   -529.3442     13.8333    133.9124
   836.2500    682.8896   -529.3444     14.1390    130.1740
   836.5000    682.8896   -529.3447     14.4427    122.2647
   836.7500    682.8896   -529.3451     14.6605    115.9523
   837.0000    682.8896   -529.3455     14.6996    107.1433
   837.2500    682.8896   -529.3459     14.4988    103.0195
   837.5000    682.8896   -529.3462     14.0607    100.3998
   837.7500    682.8896   -529.3464     13.4455    100.8297
   838.0000    682.8896   -529.3466     12.7322    104.1066
   838.2500    682.8896   -529.3467     11.9826    107.8467
   838.5000    682.8896   -529.3468     11.2302    115.4069
   838.7500    682.8896   -529.3469     10.4913    121.2239
   839.0000    682.8896   -529.3469      9.7796    129.6683
   839.2500    682.8896   -529.3468      9.1127    134.1393
   839.5000    682.8896   -529.3468      8.5092    137.8349
   839.7500    682.8896   -529.3469      7.9832    138.2098
   840.0000    682.8896   -529.3471      7.5415    136.8598
   840.2500    682.8896   -529.3476      7.1839    135.6651
   840.5000    682.8896   -529.3483      6.9051    134.2884
   840.7500    682.8896   -529.3494      6.6958    133.6317
   841.0000    682.8896   -529.3508      6.5438    133.0377
   841.2500    682.8896   -529.3524      6.4353    133.0746
   841.5000    682.8896   -529.3543      6.3578    133.6527
   841.7500    682.8896   -529.3565      6.3017    133.9565
   842.0000    682.8896   -529.3588      6.2615    133.9345
   842.2500    682.8896   -529.3613      6.2354    133.9857
   842.5000    682.8896   -529.3636      6.2243    134.9824
   842.7500    682.8896   -529.3656      6.2307    136.1909
   843.0000    682.8896   -529.3671      6.2580    137.9010
   843.2500    682.8896   -529.3679      6.3088    138.5093
   843.5000    682.8896   -529.3677      6.3835    138.4249
   843.7500    682.8896   -529.3668      6.4791    137.8350
   844.0000    682.8896   -529.3650      6.5881    136.6325
   844.2500    682.8896   -529.3627      6.7000    135.9402
   844.5000    682.8896   -529.3601      6.8048    135.3357
   844.7500    682.8896   -529.3574      6.8965    135.1506
   845.0000    682.8896   -529.3549      6.9749    134.9905
   845.2500    682.8896   -529.3528      7.0435    134.9594
   845.5000    682.8896   -529.3510      7.1064    135.2963
   845.7500    682.8896   -529.3497      7.1659    135.9820
   846.0000    682.8896   -529.3486      7.2223    137.5776
   846.2500    682.8896   -529.3477      7.2747    138.4469
   846.5000    682.8896   -529.3467      7.3223    138.2532
   846.7500    682.8896   -529.3456      7.3657    137.0456
   847.0000    682.8896   -529.3443      7.4068    134.9076
   847.2500    682.8896   -529.3428      7.4485    134.1624
   847.5000    682.8896   -529.3412      7.4927    134.3968
   847.7500    682.8896   -529.3399      7.5396    134.8332
   848.0000    682.8896   -529.3390      7.5867    134.3032
   848.2500    682.8896   -529.3387      7.6303    132.5435
   848.5000    682.8896   -529.3392      7.6673    128.2619
   848.7500    682.8896   -529.3405      7.6978    125.5227
   849.0000    682.8896   -529.3425      7.7243    123.9465
   849.2500    682.8896   -529.3449      7.7495    125.1861
   849.5000    682.8896   -529.3476      7.7726    129.5835
   849.7500    682.8896   -529.3501      7.7889    132.9893
   850.0000    682.8896   -529.3521      7.7923    136.8403
   850.2500    682.8896   -529.3531      7.7802    138.0961
   850.5000    682.8896   -529.3530      7.7559    138.6674
   850.7500    682.8896   -529.3517      7.7282    138.9054
   851.0000    682.8896   -529.3492      7.7083    139.4811
   851.2500    682.8896   -529.3458      7.7058    139.5523
   851.5000    682.8896   -529.3417      7.7262    138.1863
   851.7500    682.8896   -529.3374      7.7701    136.2003
   852.0000    682.8896   -529.3334      7.8339    132.3595
   852.2500    682.8896   -529.3299      7.9120    129.8100
   852.5000    682.8896   -529.3273      7.9987    126.7992
   852.7500    682.8896   -529.3258      8.0895    125.6582
   853.0000    682.8896   -529.3254      8.1807    125.4214
   853.2500    682.8896   -529.3258      8.2695    125.9948
   853.5000    682.8896   -529.3270      8.3550    127.1303
   853.7500    682.8896   -529.3286      8.4396    127.6754
   854.0000    682.8896   -529.3301      8.5297    127.9256
   854.2500    682.8896   -529.3312      8.6337    127.7572
   854.5000    682.8896   -529.3314      8.7601    127.3230
   854.7500    682.8896   -529.3303      8.9157    127.1020
   855.0000    682.8896   -529.3279      9.1066    126.6417
   855.2500    682.8896   -529.3245      9.3384    125.7387
   855.5000    682.8857   -529.3205      9.6145    122.8235
   855.7500    682.8642   -529.3165      9.9349    119.9949
   856.0000    682.7606   -529.3131     10.2955    115.4454
   856.2500    682.3792   -529.3110     10.6888    112.8364
   856.5000    681.3176   -529.3105     11.1058    110.2193
   856.7500    679.1185   -529.3119     11.5353    109.5151
   857.0000    675.8442   -529.3148     11.9605    110.2474
   857.2500    672.6386   -529.3188     12.3575    112.0186
   857.5000    671.2737   -529.3235     12.6994    116.2209
   857.7500    672.6386   -529.3282     12.9647    119.3729
   858.0000    675.8442   -529.3325     13.1441    123.3168
   858.2500    679.1185   -529.3360     13.2415    125.1397
   858.5000    681.3176   -529.3383     13.2702    127.1678
   858.7500    682.3792   -529.3392     13.2497    128.4238
   859.0000    682.7606   -529.3390     13.2017    130.1189
   859.2500    682.8642   -529.3377     13.1478    130.7290
   859.5000    682.8857   -529.3358     13.1060    130.2052
   859.7500    682.8896   -529.3336     13.0921    128.8540
   860.0000    682.8896   -529.3317     13.1239    125.9164
   860.2500    682.8896   -529.3303     13.2228    123.8382
   860.5000    682.8896   -529.3298     13.4119    121.0577
   860.7500    682.8896   -529.3302     13.7111    119.4007
   861.0000    682.8896   -529.3314     14.1326    116.7028
   861.2500    682.8896   -529.3333     14.6801    114.4248
   861.5000    682.8896   -529.3353     15.3500    110.0080
   861.7500    682.8896   -529.3373     16.1338    106.4217
   862.0000    682.8896   -529.3388     17.0173    100.3129
   862.2500    682.8896   -529.3395     17.9761     95.9942
   862.5000    682.8896   -529.3395     18.9686     89.6173
   862.7500    682.8896   -529.3387     19.9291     85.6485
