~Version Information
VERS.                      2.0: CWLS Log ASCII Standard - VERSION 2.0
WRAP.                       NO: One line per depth step
~Well Information Block
STRT.FT               318.1000: 
STOP.FT              2688.0000: 
STEP.FT                 0.1000: 
NULL.                -999.2500: 
COMP.          Petrogulf Corporation: COMPANY
WELL.            Montoya 1-24V: WELL
FLD.           Purgatorie River: FIELD
LOC.           605' FSL & 2557' FWL: LOCATION
CNTY.               Las Animas: COUNTY
SRVC.                         : SERVICE COMPANY
DATE.          Wed Oct 20 14:56:37 2004: LOG DATE
UWI.           05 071 08194 00: UNIQUE WELL ID
STAT.                 Colorado: STATE
~Curve Information Block
DEPT.FT            0 000 00 00: Depth
DCAL.in                       : CDL Caliper
RHOB.g/cc                     : CDL Bulk Density
RHOC.g/cc                     : CDL Density Correction
DPOR.pu                       : CDL Density Porosity
GR.GAPI                       : Gamma Ray
NPOR.pu                       : Neutron Porosity
~Parameter Information Block
~A  Depth       DCAL        RHOB        RHOC        DPOR         GR         NPOR    
# ...
   654.1000      8.2054      2.6164      0.0690      2.0336    100.8888     21.5156
   654.2000      8.2054      2.6367      0.0817      0.8074    106.6426     22.2714
   654.3000      8.2061      2.6186      0.0620      1.9056    114.0496     22.5542
   654.4000      8.2061      2.5918      0.0094      3.5273    120.0677     22.5325
   654.5000      8.2383      2.5879      0.0341      3.7618    125.5187     22.6484
   654.6000      8.2383      2.6041      0.0741      2.7811    133.4762     23.1923
   654.7000      8.2383      2.6157      0.1496      2.0816    140.6367     24.0977
   654.8000      8.2965      2.6198      0.0625      1.8279    140.4309     24.9150
   654.9000      8.2965      2.6292      0.1091      1.2588    131.9704     25.2946
   655.0000      8.2813      2.6228      0.1467      1.6483    121.3815     25.4452
   655.1000      8.2813      2.5874      0.0613      3.7941    112.7663     25.7796
   655.2000      8.2813      2.5581      0.0268      5.5690    106.7343     26.2774
   655.3000      8.3034      2.5554      0.0652      5.7354    106.2545     26.6340
   655.4000      8.3034      2.5611      0.0517      5.3897    112.8401     26.4957
   655.5000      8.2649      2.5662      0.0439      5.0777    123.9661     26.0541
   655.6000      8.2649      2.5763      0.0884      4.4664    132.0636     25.8071
   655.7000      8.2649      2.5900      0.0879      3.6360    130.0020     25.3746
   655.8000      8.2652      2.6076      0.0964      2.5702    117.8349     24.1113
   655.9000      8.2652      2.6247      0.1697      1.5342    101.3871     22.2986
   656.0000      8.2666      2.6222      0.1718      1.6834     89.3426     20.4637
   656.1000      8.2666      2.5981      0.1335      3.1471     84.4013     18.3410
   656.2000      8.2666      2.5673      0.1106      5.0131     84.3465     15.9468
   656.3000      8.2959      2.5179      0.1073      8.0067     86.1867     13.8197
   656.4000      8.2959      2.4264      0.0065     13.5545     86.6382     12.2021
   656.5000      8.2558      2.3003     -0.0336     21.1911     87.3715     11.0092
   656.6000      8.2558      2.1596     -0.0082     29.7192     88.3211     10.1261
   656.7000      8.2558      2.0212     -0.1107     38.1073     86.6174      9.7314
   656.8000      8.2511      1.9185     -0.1382     44.3337     84.7106     10.1499
   656.9000      8.2511      1.8804     -0.1096     46.6403     81.6807     11.6125
   657.0000      8.2593      1.9007     -0.0341     45.4121     76.6150     13.9882
   657.1000      8.2593      1.9593     -0.0134     41.8594     74.3567     16.5136
   657.2000      8.2593      2.0549      0.0689     36.0678     77.3021     18.5077
   657.3000      8.3048      2.1844      0.2394     28.2186     83.9479     19.8893
   657.4000      8.3048      2.3178      0.3832     20.1313     91.6554     20.9972
   657.5000      8.3584      2.4202      0.3626     13.9285     99.5773     22.3706
   657.6000      8.3584      2.4802      0.3772     10.2889    106.9494     24.2375
   657.7000      8.3584      2.5112      0.2509      8.4093    110.2520     26.2369
   657.8000      8.3861      2.5350      0.0813      6.9679    111.0516     27.7909
   657.9000      8.3861      2.5551      0.0948      5.7485    113.6418     28.7739
   658.0000      8.3711      2.5606     -0.0033      5.4192    115.5125     29.4821
   658.1000      8.3711      2.5506      0.0615      6.0238    115.2182     29.9245
   658.2000      8.3711      2.5371      0.0241      6.8412    116.9142     29.9329
   658.3000      8.1919      2.5418      0.0063      6.5587    119.0327     29.9661
   658.4000      8.1919      2.5673      0.1104      5.0107    117.2538     30.2690
   658.5000      8.1762      2.5902      0.1324      3.6253    114.5470     30.3713
   658.6000      8.1762      2.6050      0.0840      2.7266    112.9406     29.9722
   658.7000      8.1762      2.6223      0.1180      1.6770    112.1927     29.4374
   658.8000      8.1725      2.6358      0.1217      0.8636    114.6349     29.3008
   658.9000      8.1725      2.6348      0.1139      0.9193    120.5556     29.4213
   659.0000      8.1696      2.6296      0.0585      1.2334    124.6897     29.5378
   659.1000      8.1696      2.6420      0.0854      0.4846    123.6503     29.9704
   659.2000      8.1696      2.6666      0.1113     -1.0056    122.9067     30.7473
   659.3000      8.1408      2.6807      0.1157     -1.8621    125.1360     31.0323
   659.4000      8.1408      2.6872      0.0770     -2.2547    128.0804     30.4769
   659.5000      8.1651      2.6937      0.0844     -2.6485    133.5488     29.9327
   659.6000      8.1651      2.6863      0.0987     -2.2013    137.8909     29.7646
   659.7000      8.1651      2.6624      0.0561     -0.7534    132.8109     29.5499
   659.8000      8.1122      2.6372      0.0319      0.7767    119.3757     29.2738
   659.9000      8.1122      2.6161      0.0380      2.0530    105.6602     29.1907
   660.0000      8.1152      2.6057     -0.0298      2.6873    101.5959     29.1661
   660.1000      8.1152      2.6172     -0.0023      1.9891    111.2362     28.8811
   660.2000      8.1152      2.6383      0.0762      0.7066    125.5589     28.3666
   660.3000      8.1109      2.6476      0.0536      0.1456    131.9498     27.6807
   660.4000      8.1109      2.6395      0.1316      0.6356    126.5433     26.7376
   660.5000      8.0855      2.6246      0.0289      1.5392    113.1851     26.0371
   660.6000      8.0855      2.6234      0.0469      1.6108     99.5088     25.9398
   660.7000      8.0855      2.6352      0.0712      0.8986     94.3495     25.9528
   660.8000      8.0613      2.6397      0.0243      0.6263     98.3516     25.6531
   660.9000      8.0613      2.6328      0.0141      1.0439    103.4949     25.3778
   661.0000      8.0662      2.6268      0.0106      1.4056    106.2396     25.3191
   661.1000      8.0662      2.6241      0.0287      1.5680    108.1044     25.0965
   661.2000      8.0662      2.6112      0.0688      2.3532    110.3215     24.7599
   661.3000      8.0757      2.5914      0.0016      3.5492    114.9609     24.6760
   661.4000      8.0757      2.5957     -0.0303      3.2922    117.6720     24.7881
   661.5000      8.0750      2.6294      0.0551      1.2476    112.9502     25.0284
   661.6000      8.0750      2.6623      0.0674     -0.7447    110.3873     25.6835
   661.7000      8.0750      2.6755      0.0917     -1.5477    118.4988     26.6098
   661.8000      8.0674      2.6775      0.0410     -1.6641    126.2969     27.0272
   661.9000      8.0674      2.6777      0.0422     -1.6805    123.9106     26.6740
   662.0000      8.0883      2.6679      0.0897     -1.0865    116.4602     26.2437
   662.1000      8.0883      2.6365      0.0658      0.8211    112.0971     26.3815
   662.2000      8.0883      2.6003     -0.0075      3.0106    113.7305     26.7264
   662.3000      8.0862      2.5876      0.0140      3.7816    117.0832     26.5865
   662.4000      8.0862      2.6003     -0.0057      3.0111    116.8762     26.0222
   662.5000      8.0844      2.6198      0.0671      1.8312    113.8730     25.4702
   662.6000      8.0844      2.6224      0.0494      1.6701    111.0841     25.2103
   662.7000      8.0844      2.5989     -0.0101      3.0977    109.7256     25.2037
   662.8000      8.0774      2.5648     -0.0028      5.1649    107.5532     25.2019
   662.9000      8.0774      2.5470      0.0077      6.2449    104.2738     25.3584
   663.0000      8.1111      2.5596     -0.0038      5.4783    101.2465     25.9339
   663.1000      8.1111      2.5859      0.0455      3.8867     97.9191     26.6332
   663.2000      8.1111      2.5986      0.0314      3.1152     96.7065     27.0317
   663.3000      8.1051      2.6025      0.0240      2.8805     99.3042     27.2730
   663.4000      8.1051      2.6177      0.0030      1.9585    101.4540     27.9617
   663.5000      8.0836      2.6421      0.0616      0.4772    102.0056     29.1437
   663.6000      8.0836      2.6617      0.0488     -0.7097    103.4125     29.7927
