~Version Information
VERS.                      2.0: CWLS Log ASCII Standard - VERSION 2.0
WRAP.                       NO: One line per depth step
~Well Information Block
STRT.FT               475.0000: 
STOP.FT              2336.7500: 
STEP.FT                 0.2500: 
NULL.                -999.2500: 
COMP.          Pioneer Natural Resources: COMPANY
WELL.              Bobsy 34-11: WELL
FLD.           Purgatoire River: FIELD
LOC.           1937' FEL & 451' FSL----: LOCATION
PROV.                 Colorado: PROVINCE
CNTY.               Las Animas: COUNTRY
SRVC.                Patterson: SERVICE COMPANY
DATE.          Fri Apr 08 05:21:25 2005: LOG DATE
UWI.           05 071 08330 00: UNIQUE WELL ID
~Curve Information Block
DEPT.FT            0 000 00 00: Depth
SN.Ohm-m                      : IEL Short Normal
SP.mV                         : IEL Spontaneous Potential
DIR.Ohm-m                     : IEL Induction Resistivity
GR.GAPI                       : Gamma Ray
~Parameter Information Block
~A  Depth        SN          SP         DIR          GR     
# ...
  1580.5000      9.8298   -145.7681      9.2856    130.0414
  1580.7500      9.0845   -145.4361      8.8691    128.9081
  1581.0000      8.5254   -145.1161      8.5044    126.8188
  1581.2500      8.1526   -144.8180      8.1998    125.4044
  1581.5000      7.9224   -144.5488      7.9630    123.5720
  1581.7500      7.7713   -144.3127      7.7980    123.0474
  1582.0000      7.6506   -144.1117      7.7037    124.5809
  1582.2500      7.5517   -143.9447      7.6748    127.4677
  1582.5000      7.5054   -143.8075      7.7049    133.4034
  1582.7500      7.5614   -143.6944      7.7881    137.0271
  1583.0000      7.7644   -143.5987      7.9203    140.1336
  1583.2500      8.1328   -143.5149      8.0985    140.5542
  1583.5000      8.6446   -143.4402      8.3193    139.5824
  1583.7500      9.2399   -143.3748      8.5786    138.2150
  1584.0000      9.8471   -143.3224      8.8717    135.0976
  1584.2500     10.4128   -143.2875      9.1937    132.4146
  1584.5000     10.9158   -143.2738      9.5383    128.2249
  1584.7500     11.3553   -143.2811      9.8962    125.7180
  1585.0000     11.7307   -143.3035     10.2504    122.4575
  1585.2500     12.0282   -143.3290     10.5739    120.5413
  1585.5000     12.2216   -143.3411     10.8318    118.3579
  1585.7500     12.2811   -143.3233     10.9888    117.7165
  1586.0000     12.1856   -143.2641     11.0187    118.2036
  1586.2500     11.9359   -143.1611     10.9113    119.1436
  1586.5000     11.5611   -143.0227     10.6749    120.2236
  1586.7500     11.1095   -142.8651     10.3345    120.0788
  1587.0000     10.6291   -142.7072      9.9269    118.5102
  1587.2500     10.1523   -142.5643      9.4910    117.1112
  1587.5000      9.6938   -142.4420      9.0596    115.5143
  1587.7500      9.2602   -142.3360      8.6558    115.1397
  1588.0000      8.8613   -142.2336      8.2940    115.9557
  1588.2500      8.5154   -142.1202      7.9843    117.4689
  1588.5000      8.2471   -141.9856      7.7360    120.6748
  1588.7500      8.0766   -141.8287      7.5596    122.8154
  1589.0000      8.0106   -141.6595      7.4660    124.9943
  1589.2500      8.0395   -141.4983      7.4646    125.3615
  1589.5000      8.1421   -141.3703      7.5609    123.8012
  1589.7500      8.2951   -141.3010      7.7554    121.0500
  1590.0000      8.4854   -141.3092      8.0435    113.9338
  1590.2500      8.7289   -141.4026      8.4176    107.3918
  1590.5000      9.0873   -141.5753      8.8703     96.7095
  1590.7500      9.6707   -141.8087      9.3980     90.8047
  1591.0000     10.6036   -142.0746     10.0026     86.7236
  1591.2500     11.9538   -142.3415     10.6898     88.0624
  1591.5000     13.6598   -142.5801     11.4615     95.5104
  1591.7500     15.5182   -142.7688     12.3061    102.4228
  1592.0000     17.2662   -142.8952     13.1914    111.3096
  1592.2500     18.7041   -142.9566     14.0668    113.8586
  1592.5000     19.7670   -142.9570     14.8784    111.3583
  1592.7500     20.5074   -142.9043     15.5905    106.9129
  1593.0000     21.0325   -142.8083     16.2014    100.4325
  1593.2500     21.4477   -142.6805     16.7411     98.1402
  1593.5000     21.8251   -142.5336     17.2541     98.1115
  1593.7500     22.1932   -142.3831     17.7807     99.2910
  1594.0000     22.5435   -142.2465     18.3435    100.6593
  1594.2500     22.8500   -142.1415     18.9428    100.4959
  1594.5000     23.0913   -142.0827     19.5588     98.5799
  1594.7500     23.2636   -142.0786     20.1589     96.8755
  1595.0000     23.3810   -142.1298     20.7087     95.0240
  1595.2500     23.4643   -142.2292     21.1805     94.3642
  1595.5000     23.5304   -142.3653     21.5600     93.3910
  1595.7500     23.5833   -142.5260     21.8475     92.5909
  1596.0000     23.6119   -142.7030     22.0535     92.1253
  1596.2500     23.5930   -142.8920     22.1855     92.8247
  1596.5000     23.4973   -143.0911     22.2342     94.9645
  1596.7500     23.2955   -143.2959     22.1702     96.4175
  1597.0000     22.9633   -143.4944     21.9610     97.8413
  1597.2500     22.4928   -143.6637     21.5933     98.2332
  1597.5000     21.9003   -143.7717     21.0824     98.3891
  1597.7500     21.2214   -143.7833     20.4628     98.7470
  1598.0000     20.4935   -143.6697     19.7710    100.9556
  1598.2500     19.7406   -143.4178     19.0333    104.0786
  1598.5000     18.9712   -143.0357     18.2631    110.9843
  1598.7500     18.1857   -142.5527     17.4654    116.2954
  1599.0000     17.3855   -142.0141     16.6456    123.8189
  1599.2500     16.5806   -141.4711     15.8179    128.0013
  1599.5000     15.7923   -140.9722     15.0063    132.9126
  1599.7500     15.0480   -140.5560     14.2387    135.5335
  1600.0000     14.3728   -140.2467     13.5387    139.0298
  1600.2500     13.7832   -140.0541     12.9218    141.3182
  1600.5000     13.2827   -139.9749     12.3957    144.9325
  1600.7500     12.8617   -139.9951     11.9621    147.3807
  1601.0000     12.5047   -140.0931     11.6168    150.3367
  1601.2500     12.2031   -140.2435     11.3496    151.1692
  1601.5000     11.9606   -140.4212     11.1467    150.0616
  1601.7500     11.7855   -140.6059     10.9941    147.9755
  1602.0000     11.6795   -140.7844     10.8817    144.2516
  1602.2500     11.6346   -140.9509     10.8058    142.5127
  1602.5000     11.6395   -141.1048     10.7694    142.3831
  1602.7500     11.6905   -141.2470     10.7827    143.7967
  1603.0000     11.8063   -141.3773     10.8633    146.2497
  1603.2500     12.0452   -141.4947     11.0346    146.6557
  1603.5000     12.5104   -141.6004     11.3215    143.5583
  1603.7500     13.3330   -141.7036     11.7459    138.4564
  1604.0000     14.6363   -141.8241     12.3221    125.8503
  1604.2500     16.5071   -141.9926     13.0551    114.2360
  1604.5000     18.9951   -142.2431     13.9459     93.4128
  1604.7500     22.1387   -142.6026     15.0009     79.1006
  1605.0000     25.9704   -143.0807     16.2409     60.8493
  1605.2500     30.4464   -143.6621     17.7014     52.3474
  1605.5000     35.3187   -144.3068     19.4185     45.2666
  1605.7500     40.0761   -144.9570     21.4014     43.3634
  1606.0000     44.0788   -145.5479     23.5983     42.6732
  1606.2500     46.8279   -146.0204     25.8688     42.7516
  1606.5000     48.1584   -146.3308     27.9850     42.9802
  1606.7500     48.2290   -146.4571     29.6863     43.2626
  1607.0000     47.3832   -146.4017     30.7787     44.5807
  1607.2500     46.0145   -146.1881     31.2188     46.6938
  1607.5000     44.4621   -145.8553     31.1206     52.7427
  1607.7500     42.9207   -145.4488     30.6837     58.8404
  1608.0000     41.4053   -145.0113     30.1005     69.9059
  1608.2500     39.8130   -144.5751     29.4953     77.0977
  1608.5000     38.0460   -144.1586     28.9086     84.8899
  1608.7500     36.1034   -143.7676     28.3167     87.2413
  1609.0000     34.0913   -143.4009     27.6707     87.2083
  1609.2500     32.1693   -143.0562     26.9373     86.1946
  1609.5000     30.4813   -142.7360     26.1226     85.6884
  1609.7500     29.1049   -142.4485     25.2660     86.8598
  1610.0000     28.0351   -142.2049     24.4118     90.8622
  1610.2500     27.2022   -142.0152     23.5850     94.3850
  1610.5000     26.5120   -141.8836     22.7864     99.6124
  1610.7500     25.8873   -141.8064     22.0063    102.6062
  1611.0000     25.2902   -141.7728     21.2419    106.2913
  1611.2500     24.7146   -141.7672     20.5053    108.2004
  1611.5000     24.1566   -141.7739     19.8167    109.6913
  1611.7500     23.5876   -141.7797     19.1903    109.2548
  1612.0000     22.9518   -141.7753     18.6228    105.7474
  1612.2500     22.1964   -141.7554     18.0932    101.3400
  1612.5000     21.3146   -141.7169     17.5745     91.9805
  1612.7500     20.3700   -141.6571     17.0477     84.7736
  1613.0000     19.4769   -141.5715     16.5108     75.4255
  1613.2500     18.7463   -141.4545     15.9772     72.2278
  1613.5000     18.2303   -141.3004     15.4674     74.2094
  1613.7500     17.8980   -141.1073     14.9993     79.8618
