~Version Information
VERS.                      2.0: CWLS Log ASCII Standard - VERSION 2.0
WRAP.                       NO: One line per depth step
~Well Information Block
STRT.FT               250.0000: 
STOP.FT              1573.7500: 
STEP.FT                 0.2500: 
NULL.                -999.2500: 
COMP.          Pioneer Natural Resources: COMPANY
WELL.          Big Cat Federal 44-1: WELL
FLD.           Purgatoire River: FIELD
LOC.           197' FSL & 973' FEL--: LOCATION
CNTY.               Las Animas: COUNTY
SRVC.                Patterson: SERVICE COMPANY
DATE.          Sun Apr 23 14:54:11 2006: LOG DATE
UWI.           05 071 08042 00: UNIQUE WELL ID
STAT.                 Colorado: STATE
~Curve Information Block
DEPT.FT            0 000 00 00: Depth
DIR.Ohm-m                     : IEL Induction Resistivity
GR.GAPI                       : Gamma Ray
~Parameter Information Block
~A  Depth       DIR          GR     
# ...
  1365.0000     10.9083    146.0251
  1365.2500     10.6090    145.8861
  1365.5000     10.3448    144.0889
  1365.7500     10.1344    142.2813
  1366.0000      9.9886    139.2986
  1366.2500      9.9087    137.2847
  1366.5000      9.8881    134.3264
  1366.7500      9.9167    132.6054
  1367.0000      9.9839    130.8416
  1367.2500     10.0795    130.2218
  1367.5000     10.1938    129.8176
  1367.7500     10.3181    129.8691
  1368.0000     10.4475    130.8490
  1368.2500     10.5817    132.3474
  1368.5000     10.7248    135.6857
  1368.7500     10.8809    138.1703
  1369.0000     11.0520    141.2840
  1369.2500     11.2386    142.5253
  1369.5000     11.4435    142.9990
  1369.7500     11.6751    142.5358
  1370.0000     11.9468    140.5632
  1370.2500     12.2691    137.9319
  1370.5000     12.6411    131.1859
  1370.7500     13.0444    124.8881
  1371.0000     13.4436    114.4175
  1371.2500     13.7962    108.5620
  1371.5000     14.0642    104.5557
  1371.7500     14.2209    105.6976
  1372.0000     14.2488    111.3977
  1372.2500     14.1339    116.1105
  1372.5000     13.8691    122.6156
  1372.7500     13.4650    126.4444
  1373.0000     12.9606    131.8518
  1373.2500     12.4188    135.2639
  1373.5000     11.9102    139.7184
  1373.7500     11.4932    142.0139
  1374.0000     11.2033    143.9785
  1374.2500     11.0497    143.7685
  1374.5000     11.0182    139.9578
  1374.7500     11.0768    134.6313
  1375.0000     11.1836    122.9276
  1375.2500     11.2980    113.8638
  1375.5000     11.3925    101.7533
  1375.7500     11.4596     96.6164
  1376.0000     11.5099     94.8271
  1376.2500     11.5586     97.1927
  1376.5000     11.6099    104.5750
  1376.7500     11.6471    111.2691
  1377.0000     11.6363    122.4446
  1377.2500     11.5433    129.3944
  1377.5000     11.3532    137.1640
  1377.7500     11.0817    140.2909
  1378.0000     10.7688    142.7238
  1378.2500     10.4655    143.4294
  1378.5000     10.2183    143.6010
  1378.7500     10.0612    143.2008
  1379.0000     10.0109    141.9263
  1379.2500     10.0666    140.7840
  1379.5000     10.2094    139.1299
  1379.7500     10.4040    138.3354
  1380.0000     10.6050    137.5195
  1380.2500     10.7671    136.8606
  1380.5000     10.8578    135.1833
  1380.7500     10.8643    133.6426
  1381.0000     10.7923    131.2177
  1381.2500     10.6605    129.9149
  1381.5000     10.4951    129.0407
  1381.7500     10.3252    129.4243
  1382.0000     10.1776    131.5479
  1382.2500     10.0718    133.7949
  1382.5000     10.0161    137.4879
  1382.7500     10.0085    139.3848
  1383.0000     10.0430    140.4311
  1383.2500     10.1177    140.0462
  1383.5000     10.2409    139.0921
  1383.7500     10.4298    138.9039
  1384.0000     10.7055    139.3563
  1384.2500     11.0853    139.5684
  1384.5000     11.5767    138.5179
  1384.7500     12.1732    136.3353
  1385.0000     12.8527    130.2693
  1385.2500     13.5809    124.4220
  1385.5000     14.3186    114.1559
  1385.7500     15.0337    107.6438
  1386.0000     15.7106    100.6135
  1386.2500     16.3525     98.2003
  1386.5000     16.9749     97.0011
  1386.7500     17.5929     97.0034
  1387.0000     18.2121     97.7735
  1387.2500     18.8251     98.8726
  1387.5000     19.4161    100.7984
  1387.7500     19.9687    101.4151
  1388.0000     20.4728    100.2695
  1388.2500     20.9281     98.3212
  1388.5000     21.3440     95.1191
  1388.7500     21.7380     93.7025
  1389.0000     22.1345     93.3252
  1389.2500     22.5560     94.0693
  1389.5000     23.0100     95.8569
  1389.7500     23.4741     96.9623
  1390.0000     23.8929     97.9224
  1390.2500     24.1918     98.0843
  1390.5000     24.3072     97.9278
  1390.7500     24.2143     97.7839
  1391.0000     23.9349     97.9257
  1391.2500     23.5184     98.4347
  1391.5000     23.0145     99.6900
  1391.7500     22.4567    100.5957
  1392.0000     21.8642    101.9422
  1392.2500     21.2532    103.0696
  1392.5000     20.6427    105.4076
  1392.7500     20.0485    107.1807
  1393.0000     19.4716    109.3434
  1393.2500     18.8968    110.1287
  1393.5000     18.3060    110.5311
  1393.7500     17.6955    110.7063
  1394.0000     17.0828    111.3514
  1394.2500     16.4958    112.0441
  1394.5000     15.9578    113.3995
  1394.7500     15.4808    114.6216
  1395.0000     15.0666    116.9860
  1395.2500     14.7111    118.5855
  1395.5000     14.4053    120.2204
  1395.7500     14.1356    120.6741
  1396.0000     13.8873    120.9358
  1396.2500     13.6512    121.2983
  1396.5000     13.4296    122.7624
  1396.7500     13.2381    124.4391
  1397.0000     13.1000    127.2924
  1397.2500     13.0375    128.6503
  1397.5000     13.0642    129.0153
  1397.7500     13.1812    128.2717
  1398.0000     13.3775    126.3438
  1398.2500     13.6336    124.6799
  1398.5000     13.9271    121.6560
  1398.7500     14.2389    119.5254
  1399.0000     14.5576    116.7803
  1399.2500     14.8798    115.3899
  1399.5000     15.2064    113.8258
  1399.7500     15.5385    113.1720
  1400.0000     15.8731    113.2046
  1400.2500     16.2023    114.0150
  1400.5000     16.5133    115.8072
  1400.7500     16.7923    116.7924
  1401.0000     17.0314    117.5242
  1401.2500     17.2353    117.8053
  1401.5000     17.4221    118.5324
  1401.7500     17.6185    118.9784
  1402.0000     17.8533    117.8857
  1402.2500     18.1512    114.9419
  1402.5000     18.5280    107.1100
  1402.7500     18.9858    100.8351
  1403.0000     19.5101     92.8504
  1403.2500     20.0742     89.6575
  1403.5000     20.6458     87.9483
  1403.7500     21.1916     87.8563
  1404.0000     21.6756     87.6677
  1404.2500     22.0581     87.3129
  1404.5000     22.3011     87.2822
  1404.7500     22.3810     88.2246
  1405.0000     22.2999     91.5100
  1405.2500     22.0846     94.6917
  1405.5000     21.7752     99.9483
  1405.7500     21.4153    103.2108
  1406.0000     21.0499    107.3055
  1406.2500     20.7275    109.5191
  1406.5000     20.4983    112.0750
  1406.7500     20.4056    113.0303
  1407.0000     20.4729    112.4340
  1407.2500     20.6964    110.1174
  1407.5000     21.0479    103.7300
  1407.7500     21.4884     98.4212
  1408.0000     21.9865     91.2357
  1408.2500     22.5286     87.8695
  1408.5000     23.1113     84.7678
  1408.7500     23.7168     83.3630
  1409.0000     24.2829     81.7716
  1409.2500     24.6906     81.3343
  1409.5000     24.7921     82.2954
  1409.7500     24.4770     84.1850
  1410.0000     23.7329     88.8299
  1410.2500     22.6492     93.0063
  1410.5000     21.3710    100.5466
  1410.7500     20.0473    106.1469
  1411.0000     18.8026    114.9425
  1411.2500     17.7242    120.8547
  1411.5000     16.8584    129.1914
  1411.7500     16.2122    133.6795
  1412.0000     15.7637    137.4189
  1412.2500     15.4772    137.5854
  1412.5000     15.3186    134.7565
  1412.7500     15.2666    131.1236
  1413.0000     15.3164    123.3606
  1413.2500     15.4753    117.1263
  1413.5000     15.7532    107.9241
  1413.7500     16.1504    102.9547
  1414.0000     16.6450     98.1012
  1414.2500     17.1829     96.5221
  1414.5000     17.6759     96.3902
  1414.7500     18.0188     97.8579
  1415.0000     18.1280    102.3711
  1415.2500     17.9814    106.4998
  1415.5000     17.6286    113.3548
  1415.7500     17.1615    118.1559
  1416.0000     16.6730    126.0989
  1416.2500     16.2272    131.9255
  1416.5000     15.8494    139.9993
  1416.7500     15.5296    143.3942
  1417.0000     15.2374    143.7800
  1417.2500     14.9425    141.4756
  1417.5000     14.6330    137.3809
  1417.7500     14.3193    135.9751
  1418.0000     14.0231    136.6835
  1418.2500     13.7633    138.3837
  1418.5000     13.5487    141.0209
  1418.7500     13.3796    141.9181
  1419.0000     13.2555    141.0688
  1419.2500     13.1826    139.1418
  1419.5000     13.1762    135.3028
  1419.7500     13.2567    132.6685
  1420.0000     13.4418    128.5200
  1420.2500     13.7398    125.2066
  1420.5000     14.1489    119.1306
