~Version Information
VERS.                      2.0: CWLS Log ASCII Standard - VERSION 2.0
WRAP.                       NO: One line per depth step
~Well Information Block
STRT.FT               546.2500: 
STOP.FT              2496.7500: 
STEP.FT                 0.2500: 
NULL.                -999.2500: 
COMP.          Petrogulf Corporation: COMPANY
WELL.               Egan 9-11V: WELL
FLD.           Purgatorie River: FIELD
LOC.           724' FNL & 1379' FWL: LOCATION
PROV.                 Colorado: PROVINCE
CNTY.               Las Animas: COUNTRY
SRVC.          Patterson Wireline: SERVICE COMPANY
DATE.          Fri Jul 11 23:32:41 2003: LOG DATE
UWI.           05 071 07875 00: UNIQUE WELL ID
~Curve Information Block
DEPT.FT            0 000 00 00: Depth
SP.mV                         : DIL Spontaneous Potential
RILD.Ohm-m                    : DIL Deep Resistivity
RILM.Ohm-m                    : DIL Medium Resistivity
RLL3.Ohm-m                    : DIL Shallow Resistivity
GR.GAPI                       : Gamma Ray
~Parameter Information Block
~A  Depth        SP         RILD        RILM        RLL3         GR     
# ...
  1330.2500   2000.0000      9.8250      9.4769   2000.0000    135.0156
  1330.5000   2000.0000      9.8421      9.5051   2000.0000    132.6553
  1330.7500   2000.0000      9.9213      9.5939   2000.0000    130.5021
  1331.0000   2000.0000     10.0513      9.7366   2000.0000    126.0959
  1331.2500   2000.0000     10.2181      9.9239   2000.0000    122.6139
  1331.5000   2000.0000     10.4047     10.1441   2000.0000    117.5301
  1331.7500   2000.0000     10.5913     10.3813   2000.0000    114.8405
  1332.0000   2000.0000     10.7565     10.6160   2000.0000    112.6358
  1332.2500   2000.0000     10.8801     10.8259   2000.0000    112.5388
  1332.5000   2000.0000     10.9447     10.9870   2000.0000    113.9397
  1332.7500   2000.0000     10.9381     11.0777   2000.0000    115.2025
  1333.0000   2000.0000     10.8563     11.0819   2000.0000    116.3764
  1333.2500   2000.0000     10.7046     10.9925   2000.0000    116.5021
  1333.5000   2000.0000     10.4969     10.8132   2000.0000    116.7442
  1333.7500   2000.0000     10.2521     10.5573   2000.0000    117.8629
  1334.0000   2000.0000      9.9877     10.2454   2000.0000    121.5005
  1334.2500   2000.0000      9.7169      9.9008   2000.0000    124.6142
  1334.5000   2000.0000      9.4476      9.5459   2000.0000    128.8299
  1334.7500   2000.0000      9.1850      9.1993   2000.0000    130.9660
  1335.0000   2000.0000      8.9328      8.8750   2000.0000    133.3867
  1335.2500   2000.0000      8.6935      8.5817   2000.0000    134.6941
  1335.5000   2000.0000      8.4669      8.3237   2000.0000    136.4620
  1335.7500   2000.0000      8.2506      8.1021   2000.0000    137.7442
  1336.0000   2000.0000      8.0423      7.9152   2000.0000    140.1549
  1336.2500   2000.0000      7.8424      7.7596   2000.0000    141.8518
  1336.5000   2000.0000      7.6551      7.6313   2000.0000    143.1584
  1336.7500   2000.0000      7.4877      7.5255   2000.0000    142.3586
  1337.0000   2000.0000      7.3470      7.4377   2000.0000    138.4736
  1337.2500   2000.0000      7.2374      7.3637   2000.0000    134.9152
  1337.5000   2000.0000      7.1583      7.2999   2000.0000    130.1429
  1337.7500   2000.0000      7.1054      7.2432   2000.0000    128.1599
  1338.0000   2000.0000      7.0716      7.1913   2000.0000    127.3604
  1338.2500   2000.0000      7.0490      7.1424   2000.0000    128.1794
  1338.5000   2000.0000      7.0299      7.0952   2000.0000    131.1203
  1338.7500   2000.0000      7.0080      7.0487   2000.0000    133.7850
  1339.0000   2000.0000      6.9784      7.0025   2000.0000    137.4368
  1339.2500   2000.0000      6.9390      6.9562   2000.0000    138.7903
  1339.5000   2000.0000      6.8900      6.9099   2000.0000    138.6100
  1339.7500   2000.0000      6.8340      6.8643   2000.0000    137.2406
  1340.0000   2000.0000      6.7752      6.8201   2000.0000    133.9342
  1340.2500   2000.0000      6.7179      6.7783   2000.0000    131.0529
  1340.5000   2000.0000      6.6667      6.7403   2000.0000    125.9465
  1340.7500   2000.0000      6.6253      6.7073   2000.0000    122.5041
  1341.0000   2000.0000      6.5967      6.6804   2000.0000    118.6714
  1341.2500   2000.0000      6.5818      6.6605   2000.0000    117.7294
  1341.5000   2000.0000      6.5797      6.6484   2000.0000    119.2526
  1341.7500   2000.0000      6.5876      6.6442   2000.0000    121.9847
  1342.0000   2000.0000      6.6021      6.6479   2000.0000    127.2747
  1342.2500   2000.0000      6.6200      6.6593   2000.0000    130.5072
  1342.5000   2000.0000      6.6390      6.6779   2000.0000    133.6633
  1342.7500   2000.0000      6.6582      6.7032   2000.0000    134.5958
  1343.0000   2000.0000      6.6788      6.7348   2000.0000    134.9435
  1343.2500   2000.0000      6.7034      6.7727   2000.0000    134.9986
  1343.5000   2000.0000      6.7357      6.8168   2000.0000    135.5682
  1343.7500   2000.0000      6.7791      6.8675   2000.0000    136.4993
  1344.0000   2000.0000      6.8359      6.9252   2000.0000    138.6447
  1344.2500   2000.0000      6.9066      6.9903   2000.0000    140.3536
  1344.5000   2000.0000      6.9890      7.0630   2000.0000    142.8221
  1344.7500   2000.0000      7.0782      7.1427   2000.0000    144.1175
  1345.0000   2000.0000      7.1675      7.2286   2000.0000    145.3031
  1345.2500   2000.0000      7.2492      7.3185   2000.0000    145.5599
  1345.5000   2000.0000      7.3170      7.4099   2000.0000    144.8836
  1345.7500   2000.0000      7.3674      7.4995   2000.0000    143.5143
  1346.0000   2000.0000      7.4010      7.5837   2000.0000    140.3411
  1346.2500   2000.0000      7.4230      7.6594   2000.0000    138.1141
  1346.5000   2000.0000      7.4409      7.7241   2000.0000    135.7473
  1346.7500   2000.0000      7.4621      7.7767   2000.0000    135.0458
  1347.0000   2000.0000      7.4917      7.8171   2000.0000    134.7903
  1347.2500   2000.0000      7.5309      7.8468   2000.0000    134.5143
  1347.5000   2000.0000      7.5776      7.8682   2000.0000    132.9328
  1347.7500   2000.0000      7.6272      7.8842   2000.0000    131.0799
  1348.0000   2000.0000      7.6740      7.8975   2000.0000    128.4417
  1348.2500   2000.0000      7.7122      7.9106   2000.0000    127.7685
  1348.5000   2000.0000      7.7366      7.9249   2000.0000    128.6535
  1348.7500   2000.0000      7.7438      7.9411   2000.0000    129.5839
  1349.0000   2000.0000      7.7329      7.9593   2000.0000    129.3491
  1349.2500   2000.0000      7.7077      7.9791   2000.0000    127.3117
  1349.5000   2000.0000      7.6768      8.0000   2000.0000    121.2008
  1349.7500   2000.0000      7.6519      8.0217   2000.0000    115.4737
  1350.0000   2000.0000      7.6448      8.0446   2000.0000    105.9064
  1350.2500   2000.0000      7.6633      8.0695   2000.0000    100.2267
  1350.5000   2000.0000      7.7094      8.0973   2000.0000     95.1715
  1350.7500   2000.0000      7.7772      8.1286   2000.0000     94.9156
  1351.0000   2000.0000      7.8546      8.1636   2000.0000     98.7376
  1351.2500   2000.0000      7.9252      8.2010   2000.0000    102.8640
  1351.5000   2000.0000      7.9736      8.2386   2000.0000    108.4729
  1351.7500   2000.0000      7.9897      8.2728   2000.0000    110.0846
  1352.0000   2000.0000      7.9720      8.2995   2000.0000    107.4984
  1352.2500   2000.0000      7.9283      8.3146   2000.0000    102.8139
  1352.5000   2000.0000      7.8717      8.3149   2000.0000     94.6392
  1352.7500   2000.0000      7.8167      8.2986   2000.0000     90.9174
  1353.0000   2000.0000      7.7740      8.2656   2000.0000     90.8201
  1353.2500   2000.0000      7.7480      8.2176   2000.0000     94.7025
  1353.5000   2000.0000      7.7347      8.1570   2000.0000    104.9885
  1353.7500   2000.0000      7.7233      8.0870   2000.0000    113.3216
  1354.0000   2000.0000      7.7001      8.0104   2000.0000    125.2683
  1354.2500   2000.0000      7.6539      7.9299   2000.0000    131.7414
  1354.5000   2000.0000      7.5806      7.8475   2000.0000    139.0848
  1354.7500   2000.0000      7.4846      7.7646   2000.0000    143.1425
  1355.0000   2000.0000      7.3771      7.6828   2000.0000    148.8731
  1355.2500   2000.0000      7.2718      7.6036   2000.0000    152.1471
  1355.5000   2000.0000      7.1804      7.5288   2000.0000    155.1559
  1355.7500   2000.0000      7.1101      7.4604   2000.0000    155.8065
  1356.0000   2000.0000      7.0630      7.4007   2000.0000    155.7467
  1356.2500   2000.0000      7.0379      7.3516   2000.0000    155.7167
  1356.5000   2000.0000      7.0325      7.3149   2000.0000    156.3439
  1356.7500   2000.0000      7.0442      7.2914   2000.0000    157.2695
  1357.0000   2000.0000      7.0690      7.2817   2000.0000    159.0378
  1357.2500   2000.0000      7.1018      7.2851   2000.0000    159.9442
  1357.5000   2000.0000      7.1365      7.3004   2000.0000    159.7708
  1357.7500   2000.0000      7.1676      7.3257   2000.0000    158.3891
  1358.0000   2000.0000      7.1924      7.3586   2000.0000    155.5666
