~Version Information
VERS.                      2.0: CWLS Log ASCII Standard - VERSION 2.0
WRAP.                       NO: One line per depth step
~Well Information Block
STRT.FT                -4.2500: 
STOP.FT              2218.5000: 
STEP.FT                 0.2500: 
NULL.                -999.2500: 
COMP.          Pioneer Natural Resources: COMPANY
WELL.             Warrior 32-1: WELL
FLD.           Purgatorie River: FIELD
LOC.           2624' FNL & 2392' FEL--: LOCATION
PROV.                       CO: PROVINCE
CNTY.               Las Animas: COUNTRY
SRVC.                         : SERVICE COMPANY
DATE.          Tue Oct 12 10:54:12 2004: LOG DATE
UWI.           005 071 08176 : UNIQUE WELL ID
~Curve Information Block
DEPT.FT            0 000 00 00: Depth
GR.GAPI                       : Gamma Ray
CCL.                          : Casing Collar Locator
TT3.usec                      : CBL 3' Travel Time
AMP3.mV                       : CBL 3' Amplitude
~Parameter Information Block
~A  Depth        GR         CCL         TT3         AMP3    
# ...
  2173.2500     79.4813      0.0000    785.7112      5.1807
  2173.5000     77.3836      0.0000    777.8154      5.3711
  2173.7500     76.2108      0.0000    769.8291      5.7021
  2174.0000     74.6561      0.0000    761.3978      6.1687
  2174.2500     71.5049      0.0000    753.4731      6.7844
  2174.5000     66.9436      0.0000    746.5111      7.5848
  2174.7500     62.5102      0.0000    738.4808      8.6236
  2175.0000     59.7008      0.0000    724.4628      9.9709
  2175.2500     58.9343      0.0000    698.4678     11.7061
  2175.5000     59.7493      0.0000    658.4885     13.8692
  2175.7500     61.4040      0.0000    612.9443     16.3402
  2176.0000     63.1397      0.0000    580.0919     18.7234
  2176.2500     64.1999      0.0000    574.9706     20.4309
  2176.5000     63.9156      0.0000    595.7949     21.0178
  2176.7500     62.0814      0.0000    627.3467     20.4718
  2177.0000     59.3535      0.0000    656.5673     19.1533
  2177.2500     57.0130      0.0000    680.0767     17.5075
  2177.5000     56.1798      0.0000    699.9880     15.8571
  2177.7500     57.3657     -2.0000    719.7869     14.3645
  2178.0000     60.5302      0.0000    742.7045     13.0785
  2178.2500     64.9050      0.0000    767.8365     12.0225
  2178.5000     68.7621      0.0000    787.9272     11.2628
  2178.7500     70.1659      0.0000    795.1420     10.8729
  2179.0000     68.4314      0.0000    789.3417     10.8271
  2179.2500     64.5451      0.0000    778.2023     10.9752
  2179.5000     60.1203      0.0000    769.2828     11.1649
  2179.7500     56.4381      0.0000    764.0021     11.3792
  2180.0000     54.3211      0.0000    759.1050     11.7293
  2180.2500     54.0587      0.0000    751.5757     12.3256
  2180.5000     55.3071      0.0000    741.0747     13.1771
  2180.7500     57.6454      0.0000    729.3577     14.1901
  2181.0000     61.1846      0.0000    719.2183     15.2149
  2181.2500     66.1715      0.0000    713.6483     16.0909
  2181.5000     72.2308      0.0000    714.3032     16.6937
  2181.7500     78.4130      0.0000    719.9855     16.9750
  2182.0000     83.7450      0.0000    727.1273     16.9535
  2182.2500     87.4547      0.0000    732.4730     16.6626
  2182.5000     89.2185      0.0000    735.6221     16.1186
  2182.7500     89.6889      0.0000    739.4181     15.3433
  2183.0000     90.3605      0.0000    747.8111     14.4044
  2183.2500     92.4429      0.0000    762.6290     13.4228
  2183.5000     96.0759      0.0000    782.2522     12.5300
  2183.7500    100.7430      0.0000    803.8723     11.8073
  2184.0000    105.8267      0.0000    826.3062     11.2495
  2184.2500    110.5001      0.0000    849.3477     10.7841
  2184.5000    113.7113      0.0000    871.1830     10.3250
  2184.7500    114.8108      0.0000    888.1385      9.8202
  2185.0000    113.8719      0.0000    896.6153      9.2724
  2185.2500    110.9989      0.0000    894.5244      8.7338
  2185.5000    105.7297      0.0000    881.7996      8.2740
  2185.7500     97.7944      0.0000    860.5253      7.9303
  2186.0000     88.3257      0.0000    834.0958      7.6786
  2186.2500     79.6720      0.0000    805.4037      7.4558
  2186.5000     73.8638      0.0000    775.5007      7.2060
  2186.7500     71.3448      0.0000    744.3380      6.9040
  2187.0000     71.0961      0.0000    713.4940      6.5506
  2187.2500     71.9278      0.0000    688.5478      6.1623
  2187.5000     73.5774      0.0000    677.5369      5.7661
  2187.7500     76.3114      0.0000    685.0684      5.3932
  2188.0000     79.4560      0.0000    706.7770      5.0725
  2188.2500     81.0465      0.0000    730.3104      4.8266
  2188.5000     79.5949      0.0000    743.5414      4.6653
  2188.7500     75.9407      0.0000    742.7639      4.5814
  2189.0000     72.7120      0.0000    733.5674      4.5589
  2189.2500     71.9157      0.0000    725.4826      4.5861
  2189.5000     73.3289      0.0000    726.0394      4.6529
  2189.7500     75.0644      0.0000    737.1324      4.7382
  2190.0000     75.3143      0.0000    754.5954      4.8134
  2190.2500     73.6465      0.0000    771.4634      4.8631
  2190.5000     71.0645      0.0000    782.8101      4.8977
  2190.7500     69.0484      0.0000    788.4025      4.9407
  2191.0000     68.4747      0.0000    791.5436      5.0082
  2191.2500     69.2511      0.0000    795.3336      5.0975
  2191.5000     70.5904      0.0000    798.9073      5.1895
  2191.7500     71.3532      0.0000    797.2369      5.2615
  2192.0000     70.5240      0.0000    786.6996      5.3048
  2192.2500     67.9824      0.0000    772.1449      5.3349
  2192.5000     64.8018      0.0000    766.1327      5.3799
  2192.7500     62.4757      0.0000    778.2742      5.4559
  2193.0000     61.8150      0.0000    805.5117      5.5543
  2193.2500     62.6048      0.0000    833.7252      5.6533
  2193.5000     64.0099      0.0000    847.8344      5.7371
  2193.7500     65.0590      0.0000    840.9767      5.7965
  2194.0000     65.1409      0.0000    817.5328      5.8171
  2194.2500     64.6048      0.0000    789.6039      5.7812
  2194.5000     64.7929      0.0000    769.1947      5.6896
  2194.7500     66.9503      0.0000    762.0865      5.5695
  2195.0000     70.8141      0.0000    768.0724      5.4542
  2195.2500     74.4548      0.0000    784.4123      5.3560
  2195.5000     75.8098      0.0000    807.2897      5.2644
  2195.7500     74.3998      0.0000    832.2298      5.1653
  2196.0000     71.4978      0.0000    855.7264      5.0613
  2196.2500     68.8417      0.0000    876.1887      4.9767
  2196.5000     67.4137      0.0000    892.9375      4.9430
  2196.7500     67.2615      0.0000    905.3021      4.9736
  2197.0000     67.9958      0.0000    912.8583      5.0499
  2197.2500     69.2579      0.0000    915.4713      5.1326
  2197.5000     70.8782      0.0000    912.4256      5.1848
  2197.7500     72.7143      0.0000    901.8465      5.1881
  2198.0000     74.3865      0.0000    881.7450      5.1510
  2198.2500     75.4249      0.0000    852.5815      5.1074
  2198.5000     75.8291      0.0000    819.0892      5.0952
  2198.7500     76.1943      0.0000    788.9398      5.1285
  2199.0000     77.0601      0.0000    768.3310      5.1931
  2199.2500     78.3680      0.0000    757.9503      5.2676
  2199.5000     79.6987      0.0000    753.2431      5.3395
  2199.7500     80.6437      0.0000    749.0025      5.4076
  2200.0000     80.7072      0.0000    743.4363      5.4845
  2200.2500     79.3828      0.0000    737.9094      5.6017
  2200.5000     77.0638      0.0000    734.1832      5.8009
  2200.7500     75.6216      0.0000    732.9071      6.1116
  2201.0000     77.0664      0.0000    733.8737      6.5318
  2201.2500     81.3077      0.0000    736.3224      7.0295
  2201.5000     85.8469      0.0000    738.7037      7.5662
  2201.7500     88.0678      0.0000    739.0766      8.1226
  2202.0000     87.3848      0.0000    736.6506      8.7005
  2202.2500     84.9509      0.0000    732.8662      9.3022
  2202.5000     82.0494      0.0000    730.2756      9.9162
  2202.7500     79.4888      0.0000    730.1584     10.5282
  2203.0000     77.9758      0.0000    731.4924     11.1331
  2203.2500     78.0652      0.0000    732.1745     11.7260
  2203.5000     79.6338      0.0000    730.9067     12.2771
  2203.7500     81.8487      0.0000    728.0694     12.7143
  2204.0000     83.8444      0.0000    725.2098     12.9381
  2204.2500     85.2436      0.0000    723.7538     12.8792
  2204.5000     85.9149      0.0000    723.8868     12.5610
  2204.7500     85.4319      0.0000    724.6635     12.0958
  2205.0000     83.1664      0.0000    725.1174     11.5980
  2205.2500     78.9837      0.0000    723.8077     11.0811
  2205.5000     73.6555      0.0000    713.9641     10.3968
  2205.7500     68.5849      0.0000    678.6928      9.2474
  2206.0000     65.2360      0.0000    597.8322      7.3344
  2206.2500     64.6486      0.0000    467.7296      4.6421
  2206.5000     67.1536      0.0000    313.5480      1.6145
