~Version Information
VERS.                      2.0: CWLS Log ASCII Standard - VERSION 2.0
WRAP.                       NO: One line per depth step
~Well Information Block
STRT.FT               -12.5000: 
STOP.FT              1613.0000: 
STEP.FT                 0.2500: 
NULL.                -999.2500: 
COMP.          Pioneer Natural Resources: COMPANY
WELL.          Peregrine 12-20: WELL
FLD.           Purgatorie River: FIELD
LOC.           1722' FNL & 999' FWL--: LOCATION
PROV.                       CO: PROVINCE
CNTY.               Las Animas: COUNTRY
SRVC.          Patterson Wireline: SERVICE COMPANY
DATE.          Fri Jul 22 12:50:00 2005: LOG DATE
UWI.           05 071 08428 00: UNIQUE WELL ID
~Curve Information Block
DEPT.FT            0 000 00 00: Depth
CCL.                          : Casing Collar Locator
TT3.usec                      : CBL 3' Travel Time
AMP3.mV                       : CBL 3' Amplitude
GR.GAPI                       : Gamma Ray
~Parameter Information Block
~A  Depth       CCL         TT3         AMP3         GR     
# ...
  1160.0000      0.0000    783.2246      5.3673    114.2793
  1160.2500      0.0000    788.5004      5.3292    119.8499
  1160.5000      0.0000    794.7465      5.3528    123.0486
  1160.7500      0.0000    801.1238      5.4228    124.8934
  1161.0000      0.0000    806.4916      5.4963    127.2291
  1161.2500      0.0000    810.0355      5.5381    131.8651
  1161.5000      0.0000    812.1705      5.5261    139.7491
  1161.7500      0.0000    814.3422      5.4424    149.9824
  1162.0000      0.0000    817.2726      5.2906    159.4300
  1162.2500      0.0000    820.1588      5.1189    164.0524
  1162.5000      0.0000    822.3431      5.0047    161.5437
  1162.7500      0.0000    824.7299      4.9992    152.9179
  1163.0000      0.0000    828.4603      5.0868    141.2961
  1163.2500      0.0000    832.9471      5.1952    129.1889
  1163.5000      0.0000    836.3639      5.2497    117.1036
  1163.7500      0.0000    837.8472      5.2146    104.4766
  1164.0000      0.0000    838.3096      5.0839     91.4118
  1164.2500      0.0000    838.9044      4.8537     79.4439
  1164.5000      0.0000    839.3718      4.5355     70.8245
  1164.7500      0.0000    838.2550      4.1838     67.0243
  1165.0000      0.0000    834.5617      3.8780     67.7036
  1165.2500      0.0000    829.1715      3.6674     71.1468
  1165.5000      0.0000    824.6349      3.5441     75.7028
  1165.7500      0.0000    823.0843      3.4615     80.6498
  1166.0000      0.0000    823.8243      3.3655     85.8415
  1166.2500      0.0000    823.2180      3.2214     90.9168
  1166.5000      0.0000    817.5048      3.0309     94.9608
  1166.7500      0.0000    806.3002      2.8291     96.7773
  1167.0000      0.0000    793.7813      2.6592     95.7095
  1167.2500      0.0000    786.4050      2.5500     92.5260
  1167.5000      0.0000    788.7910      2.5127     89.3605
  1167.7500      0.0000    800.6651      2.5455     88.3305
  1168.0000      0.0000    816.5986      2.6360     90.0395
  1168.2500      0.0000    828.7552      2.7702     93.4043
  1168.5000      0.0000    831.8312      2.9505     96.7800
  1168.7500      0.0000    827.0515      3.1988     99.1378
  1169.0000      0.0000    821.1074      3.5308    100.4587
  1169.2500      0.0000    820.2587      3.9219    101.5724
  1169.5000      0.0000    825.3718      4.3101    103.8151
  1169.7500      0.0000    832.5233      4.6402    108.5288
  1170.0000      0.0000    837.1583      4.8954    116.4072
  1170.2500      0.0000    836.2889      5.0826    126.8052
  1170.5000      0.0000    827.1819      5.2123    137.5296
  1170.7500      0.0000    806.6316      5.3041    145.7805
  1171.0000      0.0000    774.0309      5.3837    149.9798
  1171.2500      0.0000    735.2007      5.4559    150.8752
  1171.5000      0.0000    701.1116      5.4954    150.4883
  1171.7500      0.0000    680.8531      5.4771    149.8241
  1172.0000      0.0000    675.5092      5.4100    148.3621
  1172.2500      0.0000    679.1532      5.3329    146.0837
  1172.5000      0.0000    685.3610      5.2778    144.8443
  1172.7500      0.0000    692.0259      5.2458    146.7694
  1173.0000      0.0000    700.8712      5.2260    151.7678
  1173.2500      0.0000    714.1192      5.2244    157.0655
  1173.5000      0.0000    731.8477      5.2600    158.7632
  1173.7500      0.0000    751.7460      5.3371    153.8860
  1174.0000      0.0000    771.2546      5.4357    141.9729
  1174.2500      0.0000    789.4963      5.5262    125.6095
  1174.5000      0.0000    806.6509      5.5944    109.4151
  1174.7500      0.0000    822.2233      5.6524     97.7557
  1175.0000      0.0000    834.8066      5.7260     92.6946
  1175.2500      0.0000    843.1470      5.8263     93.6587
  1175.5000      0.0000    846.9260      5.9369     98.5190
  1175.7500      0.0000    846.8455      6.0272    104.8522
  1176.0000      0.0000    844.1517      6.0683    110.8986
  1176.2500      0.0000    839.4716      6.0361    116.0667
  1176.5000      0.0000    831.5727      5.9202    120.6867
  1176.7500      0.0000    817.5966      5.7396    125.1916
  1177.0000      0.0000    795.4055      5.5388    129.5753
  1177.2500      0.0000    766.2405      5.3647    133.5766
  1177.5000      0.0000    735.2038      5.2498    137.1608
  1177.7500      0.0000    708.9423      5.2104    140.4829
  1178.0000      0.0000    692.5348      5.2471    143.3018
  1178.2500      0.0000    687.9586      5.3412    144.7763
  1178.5000      0.0000    694.3086      5.4577    144.1024
  1178.7500      0.0000    708.3258      5.5594    141.1960
  1179.0000      0.0000    724.9896      5.6219    136.8595
  1179.2500      0.0000    739.1221      5.6402    132.5625
  1179.5000      0.0000    747.4115      5.6280    129.8071
  1179.7500      0.0000    749.2247      5.6091    129.2384
  1180.0000      0.0000    746.2164      5.5983    130.3189
  1180.2500      0.0000    741.6995      5.5895    131.9466
  1180.5000      0.0000    739.2789      5.5714    133.1554
  1180.7500      0.0000    740.6293      5.5549    133.1196
  1181.0000      0.0000    744.7110      5.5637    131.0189
  1181.2500      0.0000    749.8860      5.5927    126.4735
  1181.5000      0.0000    756.1812      5.5956    120.1457
  1181.7500      0.0000    764.6842      5.5349    113.7180
  1182.0000      0.0000    775.1840      5.4280    109.0014
  1182.2500      0.0000    785.3448      5.3246    106.6293
  1182.5000      0.0000    792.2900      5.2523    105.4953
  1182.7500      0.0000    794.6979      5.2015    103.8143
  1183.0000      0.0000    793.4785      5.1489    100.9876
  1183.2500      0.0000    790.5447      5.0691     98.3623
  1183.5000      0.0000    786.4362      4.9442     98.0625
  1183.7500      0.0000    778.9244      4.7908    101.0564
  1184.0000      0.0000    765.2230      4.6650    106.3084
  1184.2500      0.0000    746.3364      4.6215    111.7614
  1184.5000      0.0000    727.6359      4.6661    116.1676
  1184.7500      2.0000    714.2427      4.7530    119.8844
  1185.0000      2.0000    707.4549      4.8174    123.8384
  1185.2500      0.0000    706.3019      4.8212    127.9605
  1185.5000      0.0000    710.1084      4.7904    130.9541
  1185.7500      0.0000    717.3155      4.8061    131.6156
  1186.0000      0.0000    722.9509      4.9318    129.9686
  1186.2500      0.0000    720.2643      5.1516    126.8826
  1186.5000      0.0000    706.4523      5.4050    123.0043
  1186.7500      0.0000    686.7213      5.6531    118.6858
  1187.0000      0.0000    671.8900      5.8756    114.7131
  1187.2500      0.0000    670.7694      6.0442    112.1222
  1187.5000      0.0000    683.7350      6.1409    110.9237
  1187.7500      0.0000    703.0827      6.1778    109.8320
  1188.0000      0.0000    719.6254      6.1747    107.8626
  1188.2500      0.0000    729.0929      6.1471    105.6601
  1188.5000      0.0000    732.8051      6.1271    104.7467
  1188.7500      0.0000    733.7376      6.1580    105.7911
  1189.0000      0.0000    733.2985      6.2476    108.0812
  1189.2500      0.0000    731.4274      6.3470    110.5108
  1189.5000      0.0000    727.9877      6.3919    112.6157
  1189.7500      0.0000    723.1418      6.3601    114.6367
  1190.0000      0.0000    717.1796      6.2842    116.8499
  1190.2500      0.0000    711.0834      6.2117    119.0480
  1190.5000      0.0000    706.9421      6.1619    120.8690
  1190.7500      0.0000    706.4877      6.1302    122.5565
  1191.0000      0.0000    708.7062      6.1273    124.8848
  1191.2500      0.0000    709.9636      6.1848    128.0890
  1191.5000      0.0000    707.4411      6.3116    131.3126
  1191.7500      0.0000    701.8939      6.4623    133.4642
  1192.0000      0.0000    696.5845      6.5667    134.1698
  1192.2500      0.0000    694.5921      6.5836    133.5596
  1192.5000      0.0000    697.7902      6.5207    131.7375
  1192.7500      0.0000    706.9955      6.4078    128.8208
  1193.0000      0.0000    721.3079      6.2678    125.1003
  1193.2500      0.0000    737.2532      6.1179    120.9385
