~Version Information
VERS.                      2.0: CWLS Log ASCII Standard - VERSION 2.0
WRAP.                       NO: One line per depth step
~Well Information Block
STRT.FT               430.0000: 
STOP.FT              2826.2500: 
STEP.FT                 0.2500: 
NULL.                -999.2500: 
COMP.          Pioneer Natural Resources: COMPANY
WELL.           Ei-ei-oh 31-24: WELL
FLD.           Purgatoire River: FIELD
LOC.           235' FNL & 2001' FEL--: LOCATION
PROV.                 Colorado: PROVINCE
CNTY.               Las Animas: COUNTRY
SRVC.                Patterson: SERVICE COMPANY
DATE.          Thu Jun 16 06:46:37 2005: LOG DATE
UWI.           05 071 08403 00: UNIQUE WELL ID
~Curve Information Block
DEPT.FT            0 000 00 00: Depth
DIR.Ohm-m                     : IEL Induction Resistivity
SN.Ohm-m                      : IEL Short Normal
SP.mV                         : IEL Spontaneous Potential
GR.GAPI                       : Gamma Ray
~Parameter Information Block
~A  Depth       DIR          SN          SP          GR     
# ...
  1200.5000     14.6272     16.8730   -119.3252    116.0807
  1200.7500     15.0292     17.0543   -119.6696    111.4442
  1201.0000     15.5161     17.3132   -119.9823    106.9623
  1201.2500     16.0603     17.6382   -120.2552    105.6433
  1201.5000     16.6239     17.9972   -120.4899    105.7500
  1201.7500     17.1646     18.3508   -120.6998    106.7536
  1202.0000     17.6441     18.6700   -120.9089    108.4432
  1202.2500     18.0380     18.9508   -121.1480    108.9762
  1202.5000     18.3425     19.2185   -121.4489    108.4385
  1202.7500     18.5758     19.5205   -121.8373    107.4234
  1203.0000     18.7730     19.9055   -122.3260    105.3883
  1203.2500     18.9754     20.3957   -122.9104    103.7363
  1203.5000     19.2186     20.9654   -123.5676    100.7746
  1203.7500     19.5213     21.5431   -124.2594     98.4869
  1204.0000     19.8780     22.0386   -124.9384     94.4445
  1204.2500     20.2571     22.3772   -125.5553     91.2720
  1204.5000     20.6059     22.5203   -126.0660     86.4722
  1204.7500     20.8602     22.4644   -126.4365     84.2176
  1205.0000     20.9553     22.2253   -126.6454     83.8491
  1205.2500     20.8378     21.8216   -126.6840     85.7792
  1205.5000     20.4793     21.2712   -126.5557     90.7137
  1205.7500     19.8871     20.6011   -126.2742     94.4055
  1206.0000     19.1055     19.8546   -125.8630     99.9216
  1206.2500     18.2024     19.0784   -125.3546    103.9774
  1206.5000     17.2496     18.2946   -124.7903    111.4782
  1206.7500     16.3063     17.4896   -124.2174    117.2952
  1207.0000     15.4129     16.6378   -123.6868    125.7636
  1207.2500     14.5940     15.7397   -123.2462    130.1946
  1207.5000     13.8652     14.8416   -122.9333    134.0904
  1207.7500     13.2400     14.0241   -122.7683    135.0604
  1208.0000     12.7339     13.3808   -122.7494    135.4320
  1208.2500     12.3655     13.0062   -122.8511    135.8553
  1208.5000     12.1537     12.9880   -123.0276    137.3070
  1208.7500     12.1102     13.3736   -123.2205    138.1703
  1209.0000     12.2302     14.0968   -123.3674    137.0526
  1209.2500     12.4841     14.9095   -123.4116    133.5076
  1209.5000     12.8178     15.4254   -123.3100    123.4690
  1209.7500     13.1636     15.3306   -123.0379    114.5038
  1210.0000     13.4606     14.6369   -122.5897    100.9275
  1210.2500     13.6741     13.7358   -121.9780     94.2149
  1210.5000     13.8018     13.1550   -121.2290     91.0714
  1210.7500     13.8641     13.2030   -120.3770     94.2624
  1211.0000     13.8848     13.7956   -119.4595    105.1874
  1211.2500     13.8739     14.5821   -118.5133    114.2847
  1211.5000     13.8206     15.2261   -117.5732    126.4681
  1211.7500     13.7036     15.5890   -116.6722    131.8462
  1212.0000     13.5116     15.7073   -115.8427    134.6206
  1212.2500     13.2611     15.6668   -115.1158    133.4229
  1212.5000     12.9953     15.5264   -114.5191    129.4313
  1212.7500     12.7678     15.3266   -114.0718    126.9339
  1213.0000     12.6229     15.1129   -113.7803    125.3158
  1213.2500     12.5835     14.9265   -113.6358    125.8726
  1213.5000     12.6477     14.7830   -113.6161    128.2126
  1213.7500     12.7907     14.6733   -113.6910    129.9220
  1214.0000     12.9727     14.5828   -113.8288    131.7569
  1214.2500     13.1506     14.5025   -114.0035    132.4450
  1214.5000     13.2926     14.4240   -114.1985    133.0418
  1214.7500     13.3863     14.3411   -114.4067    133.3484
  1215.0000     13.4373     14.2594   -114.6291    133.8063
  1215.2500     13.4603     14.1980   -114.8700    134.1008
  1215.5000     13.4703     14.1766   -115.1338    134.5423
  1215.7500     13.4778     14.1988   -115.4218    134.9456
  1216.0000     13.4887     14.2477   -115.7306    135.8578
  1216.2500     13.5034     14.2952   -116.0522    136.4640
  1216.5000     13.5163     14.3171   -116.3745    136.3663
  1216.7500     13.5173     14.3028   -116.6827    135.0634
  1217.0000     13.4951     14.2564   -116.9603    131.3887
  1217.2500     13.4439     14.1959   -117.1907    128.6510
  1217.5000     13.3670     14.1481   -117.3591    125.8437
  1217.7500     13.2736     14.1357   -117.4549    125.3271
  1218.0000     13.1701     14.1574   -117.4737    126.4167
  1218.2500     13.0508     14.1766   -117.4196    128.0685
  1218.5000     12.8964     14.1311   -117.3060    131.3823
  1218.7500     12.6834     13.9624   -117.1537    133.8447
  1219.0000     12.3987     13.6442   -116.9880    137.6080
  1219.2500     12.0502     13.1935   -116.8341    140.0511
  1219.5000     11.6647     12.6557   -116.7125    143.0759
  1219.7500     11.2766     12.0775   -116.6358    144.1578
  1220.0000     10.9149     11.4905   -116.6087    143.9127
  1220.2500     10.5963     10.9139   -116.6295    142.6734
  1220.5000     10.3255     10.3701   -116.6947    139.7119
  1220.7500     10.1003      9.8927   -116.8036    137.1449
  1221.0000      9.9166      9.5139   -116.9611    132.6307
  1221.2500      9.7730      9.2445   -117.1779    129.5328
  1221.5000      9.6708      9.0716   -117.4675    125.6628
  1221.7500      9.6134      8.9830   -117.8380    124.0980
  1222.0000      9.6040      8.9949   -118.2822    123.7650
  1222.2500      9.6439      9.1486   -118.7686    124.8451
  1222.5000      9.7300      9.4736   -119.2377    127.5957
  1222.7500      9.8548      9.9473   -119.6078    129.3075
  1223.0000     10.0066     10.4871   -119.7913    130.0902
  1223.2500     10.1717     10.9846   -119.7180    128.9618
  1223.5000     10.3371     11.3578   -119.3605    125.4588
  1223.7500     10.4934     11.5833   -118.7495    122.9335
  1224.0000     10.6373     11.6886   -117.9744    120.4100
  1224.2500     10.7717     11.7220   -117.1650    119.7992
  1224.5000     10.9022     11.7263   -116.4613    119.8239
  1224.7500     11.0320     11.7311   -115.9801    120.0265
  1225.0000     11.1572     11.7572   -115.7885    120.4352
  1225.2500     11.2657     11.8170   -115.8936    120.7801
  1225.5000     11.3407     11.9062   -116.2478    121.0614
  1225.7500     11.3671     12.0041   -116.7664    120.8712
  1226.0000     11.3374     12.0871   -117.3489    120.2749
  1226.2500     11.2539     12.1438   -117.9002    120.1586
  1226.5000     11.1278     12.1706   -118.3438    121.1065
  1226.7500     10.9746     12.1533   -118.6299    122.4988
  1227.0000     10.8092     12.0573   -118.7359    125.2547
  1227.2500     10.6414     11.8353   -118.6640    127.3196
  1227.5000     10.4743     11.4439   -118.4357    130.5594
  1227.7500     10.3064     10.8587   -118.0851    132.4926
  1228.0000     10.1363     10.0890   -117.6534    134.1451
  1228.2500      9.9667      9.1906   -117.1827    134.2169
  1228.5000      9.8058      8.2715   -116.7122    133.6865
  1228.7500      9.6658      7.4737   -116.2749    133.6764
  1229.0000      9.5612      6.9309   -115.8964    134.3212
  1229.2500      9.5050      6.7238   -115.5950    134.5008
  1229.5000      9.5061      6.8596   -115.3823    133.5933
  1229.7500      9.5672      7.2828   -115.2637    132.6929
  1230.0000      9.6832      7.9053   -115.2402    132.4415
  1230.2500      9.8408      8.6322   -115.3087    133.1406
  1230.5000     10.0195      9.3748   -115.4624    133.7644
  1230.7500     10.1957     10.0604   -115.6904    132.6865
  1231.0000     10.3499     10.6463   -115.9783    128.6585
  1231.2500     10.4733     11.1285   -116.3090    125.6118
  1231.5000     10.5693     11.5320   -116.6639    123.1211
  1231.7500     10.6487     11.8850   -117.0246    123.5533
  1232.0000     10.7231     12.1933   -117.3754    126.7505
  1232.2500     10.7983     12.4285   -117.7034    129.6817
  1232.5000     10.8716     12.5309   -117.9979    133.6374
  1232.7500     10.9310     12.4250   -118.2473    135.2153
  1233.0000     10.9583     12.0494   -118.4343    135.3075
  1233.2500     10.9371     11.3930   -118.5326    133.9429
  1233.5000     10.8628     10.5218   -118.5063    130.7107
  1233.7500     10.7480      9.5800   -118.3157    128.5597
