~Version Information
VERS.                      2.0: CWLS Log ASCII Standard - VERSION 2.0
WRAP.                       NO: One line per depth step
~Well Information Block
STRT.FT               500.0000: 
STOP.FT              2732.5000: 
STEP.FT                 0.1000: 
NULL.                -999.2500: 
COMP.          Pioneer Natural Resources: COMPANY
WELL.          Dude Canyon 22-32: WELL
FLD.           Purgatoire River: FIELD
LOC.           1662' FNL & 2446' FWL----: LOCATION
PROV.                 Colorado: PROVINCE
CNTY.               Las Animas: COUNTRY
SRVC.                Patterson: SERVICE COMPANY
DATE.          Thu Mar 10 07:06:34 2005: LOG DATE
UWI.           05 071 08257 00: UNIQUE WELL ID
~Curve Information Block
DEPT.FT            0 000 00 00: Depth
GR.GAPI                       : Gamma Ray
DCAL.in                       : CDL Caliper
DPOR.pu                       : CDL Density Porosity
NPOR.pu                       : Neutron Porosity
RHOB.g/cc                     : CDL Bulk Density
RHOC.g/cc                     : CDL Density Correction
~Parameter Information Block
~A  Depth        GR         DCAL        DPOR        NPOR        RHOB        RHOC    
# ...
  1536.8000    125.8000      7.4309     10.5217     28.2370      2.4764      0.0360
  1536.9000    123.8964      7.4309     10.8341     28.0236      2.4712      0.0437
  1537.0000    126.0787      7.4300     10.9663     27.8232      2.4691      0.0646
  1537.1000    125.7255      7.4300     11.2633     26.9781      2.4642      0.0736
  1537.2000    126.2999      7.4300     11.3214     26.2112      2.4632      0.0556
  1537.3000    133.1091      7.4305     10.8699     26.2008      2.4706      0.0780
  1537.4000    141.1365      7.4305     10.4030     26.3851      2.4784      0.0877
  1537.5000    140.9245      7.4324      9.9904     26.3841      2.4852      0.0797
  1537.6000    134.2198      7.4324      9.4740     26.5277      2.4937      0.0962
  1537.7000    132.0619      7.4324      9.2055     26.7836      2.4981      0.1109
  1537.8000    135.8102      7.4359      9.2779     26.6062      2.4969      0.0907
  1537.9000    134.2540      7.4359      9.1557     26.1175      2.4989      0.0722
  1538.0000    124.7934      7.4401      8.2378     25.9091      2.5141      0.0848
  1538.1000    116.2390      7.4401      6.4752     25.7705      2.5432      0.1125
  1538.2000    112.5869      7.4401      4.6645     25.0850      2.5730      0.1333
  1538.3000    113.0292      7.4493      3.6692     24.0175      2.5895      0.1409
  1538.4000    117.7684      7.4493      2.7880     23.2085      2.6040      0.1033
  1538.5000    123.6899      7.4693      0.4140     22.8268      2.6432      0.1297
  1538.6000    123.1580      7.4693     -3.2888     22.9524      2.7043      0.1427
  1538.7000    114.3761      7.4693     -6.0886     23.6524      2.7505      0.1943
  1538.8000    105.1163      7.4998     -6.2032     24.4004      2.7524      0.1648
  1538.9000    103.8836      7.4998     -4.2095     24.3963      2.7195      0.1169
  1539.0000    109.1891      7.5354     -1.8889     23.8167      2.6812      0.0956
  1539.1000    112.8698      7.5354     -0.1227     23.6315      2.6520      0.0676
  1539.2000    113.3356      7.5354      1.0632     24.1674      2.6325      0.0052
  1539.3000    115.0320      7.5713      1.3786     24.7969      2.6273     -0.0527
  1539.4000    118.1352      7.5713      0.4695     24.6234      2.6423     -0.0404
  1539.5000    118.1281      7.6015     -1.4898     23.4687      2.6746     -0.0342
  1539.6000    113.6382      7.6015     -3.9899     22.0637      2.7158      0.0364
  1539.7000    108.0926      7.6015     -6.7583     21.0005      2.7615      0.0680
  1539.8000    102.9002      7.6175    -10.2382     20.5336      2.8189      0.1143
  1539.9000     98.1198      7.6175    -14.9661     20.8429      2.8969      0.1322
  1540.0000     93.8633      7.6291    -19.8947     21.6613      2.9783      0.1813
  1540.1000     89.9123      7.6291    -22.6923     22.2225      3.0244      0.1644
  1540.2000     84.5306      7.6291    -22.8628     22.1014      3.0272      0.0865
  1540.3000     76.6446      7.6507    -21.4953     21.9084      3.0047      0.0507
  1540.4000     69.7597      7.6507    -19.0823     22.2417      2.9649      0.0028
  1540.5000     66.1893      7.6719    -16.2262     22.7836      2.9177     -0.1138
  1540.6000     66.4285      7.6719    -12.6895     23.1811      2.8594      0.0135
  1540.7000     68.8068      7.6719     -7.0548     23.1013      2.7664     -0.0404
  1540.8000     70.8035      7.6819     -0.4660     22.1037      2.6577     -0.1318
  1540.9000     73.2793      7.6819      3.6918     20.4763      2.5891     -0.0851
  1541.0000     77.2258      7.6860      4.2806     19.1709      2.5794     -0.0337
  1541.1000     80.2938      7.6860      2.7884     18.6940      2.6040      0.0383
  1541.2000     80.6432      7.6860      0.9508     18.2910      2.6343      0.0778
  1541.3000     78.9018      7.6943     -0.2684     17.4445      2.6544      0.0305
  1541.4000     75.2482      7.6943     -0.3413     17.0317      2.6556      0.0945
  1541.5000     69.9830      7.7090      0.9014     17.5814      2.6351      0.0565
  1541.6000     66.6631      7.7090      2.6872     18.5412      2.6057      0.0563
  1541.7000     68.5478      7.7090      3.9696     19.2313      2.5845      0.0386
  1541.8000     73.5819      7.7256      4.3155     19.6067      2.5788      0.0160
  1541.9000     78.5274      7.7256      3.9432     19.8538      2.5849      0.0350
  1542.0000     82.3265      7.7430      3.6690     19.8766      2.5895      0.0699
  1542.1000     82.4749      7.7430      4.3049     19.5844      2.5790      0.0585
  1542.2000     77.7136      7.7430      5.2520     19.2038      2.5633     -0.0251
  1542.3000     72.4384      7.7585      5.0525     19.0744      2.5666      0.0086
  1542.4000     72.1898      7.7585      3.8508     19.4423      2.5865      0.0446
  1542.5000     76.7523      7.7690      2.8817     20.1220      2.6025      0.0444
  1542.6000     80.9687      7.7690      2.0304     20.6234      2.6165      0.0076
  1542.7000     81.9026      7.7690      0.5695     20.2359      2.6406      0.0568
  1542.8000     80.8612      7.7816     -0.9144     18.9541      2.6651      0.1010
  1542.9000     80.3171      7.7816     -1.6088     17.9318      2.6765      0.0612
  1543.0000     80.3366      7.7992     -1.6567     17.9483      2.6773      0.0733
  1543.1000     77.7664      7.7992     -1.1617     18.3752      2.6692      0.0517
  1543.2000     72.2954      7.7992      0.3709     18.3156      2.6439      0.0821
  1543.3000     65.6006      7.8156      2.5708     18.1647      2.6076      0.0451
  1543.4000     57.6177      7.8156      3.5260     18.6248      2.5918      0.0075
  1543.5000     52.3891      7.8258      2.6224     19.0599      2.6067      0.0585
  1543.6000     53.1086      7.8258      1.4039     18.7200      2.6268      0.0352
  1543.7000     54.9466      7.8258      1.0787     18.2606      2.6322      0.0552
  1543.8000     55.0479      7.8311      1.8808     18.3630      2.6190      0.0618
  1543.9000     56.9253      7.8311      3.1129     18.8326      2.5986      0.0195
  1544.0000     60.4700      7.8330      3.4059     18.9569      2.5938      0.0011
  1544.1000     62.0768      7.8330      2.5363     18.5342      2.6082      0.0316
  1544.2000     61.8348      7.8330      1.6145     18.2362      2.6234      0.0523
  1544.3000     60.2132      7.8346      1.1581     18.1686      2.6309      0.0415
  1544.4000     59.2807      7.8346      0.6878     18.1079      2.6387      0.0671
  1544.5000     61.7818      7.8359      0.1049     18.4534      2.6483      0.0817
  1544.6000     67.8712      7.8359      0.1388     19.2188      2.6477      0.0866
  1544.7000     75.7869      7.8359      1.2552     19.6205      2.6293      0.0900
  1544.8000     81.2415      7.8359      2.6579     19.4341      2.6061      0.0528
  1544.9000     81.2604      7.8359      3.2047     19.2002      2.5971      0.0516
  1545.0000     78.8700      7.8362      3.0896     19.1111      2.5990      0.0754
  1545.1000     81.5447      7.8362      3.1138     18.9730      2.5986      0.0516
  1545.2000     90.3313      7.8362      3.2127     18.9904      2.5970      0.0573
  1545.3000     95.5781      7.8341      3.1980     19.6549      2.5972      0.0833
  1545.4000     93.0903      7.8341      3.5262     20.5867      2.5918      0.0404
  1545.5000     91.0849      7.8301      4.6676     21.0957      2.5730      0.0565
  1545.6000     95.0261      7.8301      6.0993     21.1682      2.5494     -0.0050
  1545.7000    101.1650      7.8301      6.4132     21.0540      2.5442     -0.0199
  1545.8000    104.8821      7.8280      5.4039     21.4658      2.5608      0.0726
  1545.9000    105.5045      7.8280      4.4785     22.5218      2.5761      0.0872
  1546.0000    102.7348      7.8306      4.6071     23.3779      2.5740      0.0872
  1546.1000    100.1632      7.8306      5.5311     23.9586      2.5587      0.0350
  1546.2000    103.6693      7.8306      6.5379     24.6118      2.5421      0.0404
  1546.3000    112.7997      7.8386      7.2715     25.3234      2.5300      0.0299
