~Version Information
VERS.                      2.0: CWLS Log ASCII Standard - VERSION 2.0
WRAP.                       NO: One line per depth step
~Well Information Block
STRT.FT               546.2500: 
STOP.FT              2488.5000: 
STEP.FT                 0.2500: 
NULL.                -999.2500: 
COMP.          Petrogulf Corporation: COMPANY
WELL.               Egan 9-11V: WELL
FLD.           Purgatorie River: FIELD
LOC.           724' FNL & 1379' FWL: LOCATION
PROV.                 Colorado: PROVINCE
CNTY.               Las Animas: COUNTRY
SRVC.          Patterson Wireline: SERVICE COMPANY
DATE.          Fri Jul 11 23:16:48 2003: LOG DATE
UWI.           05 071 07875 00: UNIQUE WELL ID
~Curve Information Block
DEPT.FT            0 000 00 00: Depth
DCAL.in                       : CDL Caliper
RHOB.g/cc                     : CDL Bulk Density
RHOC.g/cc                     : CDL Density Correction
DPOR.pu                       : CDL Density Porosity
GR.GAPI                       : Gamma Ray
NPOR.pu                       : Neutron Porosity
~Parameter Information Block
~A  Depth       DCAL        RHOB        RHOC        DPOR         GR         NPOR    
# ...
   690.2500      8.3740      2.5834      0.0091      4.0346    100.4027     25.4944
   690.5000      8.3772      2.5784      0.0124      4.3396    101.8385     24.9955
   690.7500      8.3773      2.5761      0.0154      4.4785    102.7114     24.6477
   691.0000      8.3769      2.5745      0.0198      4.5769    104.3624     24.1168
   691.2500      8.3767      2.5742      0.0228      4.5949    105.8862     23.8146
   691.5000      8.3771      2.5737      0.0288      4.6243    108.1083     23.5556
   691.7500      8.3769      2.5727      0.0334      4.6852    109.0549     23.5468
   692.0000      8.3761      2.5697      0.0382      4.8675    109.8234     23.7532
   692.2500      8.3762      2.5669      0.0388      5.0361    110.2959     23.9909
   692.5000      8.3768      2.5626      0.0359      5.2979    110.9029     24.4170
   692.7500      8.3768      2.5603      0.0328      5.4358    110.6581     24.7011
   693.0000      8.3770      2.5588      0.0281      5.5289    108.2352     25.0147
   693.2500      8.3768      2.5593      0.0257      5.4950    105.0853     25.0694
   693.5000      8.3762      2.5627      0.0240      5.2894     98.7890     24.8504
   693.7500      8.3752      2.5665      0.0247      5.0578     94.2331     24.5455
   694.0000      8.3703      2.5738      0.0272      4.6206     87.7401     24.0166
   694.2500      8.3630      2.5787      0.0283      4.3228     83.9199     23.6899
   694.5000      8.3589      2.5843      0.0267      3.9798     79.5166     23.2232
   694.7500      8.3570      2.5861      0.0231      3.8745     77.9431     22.8666
   695.0000      8.3549      2.5852      0.0161      3.9280     78.2778     22.2318
   695.2500      8.3530      2.5828      0.0132      4.0714     80.2605     21.8171
   695.5000      8.3524      2.5785      0.0167      4.3359     84.8932     21.4092
   695.7500      8.3552      2.5761      0.0252      4.4808     88.1856     21.3508
   696.0000      8.3602      2.5742      0.0423      4.5960     92.0241     21.5564
   696.2500      8.3636      2.5739      0.0509      4.6120     93.4083     21.8145
   696.5000      8.3619      2.5742      0.0527      4.5910     93.7050     22.2390
   696.7500      8.3617      2.5746      0.0468      4.5682     92.9850     22.4790
   697.0000      8.3679      2.5754      0.0336      4.5227     91.1620     22.7102
   697.2500      8.3748      2.5762      0.0262      4.4709     89.8136     22.7779
   697.5000      8.3730      2.5785      0.0205      4.3357     87.9296     22.8158
   697.7500      8.3665      2.5807      0.0202      4.2025     86.7241     22.8603
   698.0000      8.3655      2.5847      0.0243      3.9587     84.9960     23.0484
   698.2500      8.3675      2.5873      0.0297      3.8005     84.2645     23.2658
   698.5000      8.3663      2.5895      0.0388      3.6637     84.5107     23.6393
   698.7500      8.3660      2.5889      0.0422      3.7024     85.4117     23.8226
   699.0000      8.3699      2.5837      0.0390      4.0203     86.8803     23.8786
   699.2500      8.3735      2.5776      0.0329      4.3871     87.7743     23.7892
   699.5000      8.3774      2.5672      0.0265      5.0211     89.8658     23.6522
   699.7500      8.3871      2.5614      0.0295      5.3693     92.2290     23.7022
   700.0000      8.4060      2.5580      0.0457      5.5748     96.7509     24.1651
   700.2500      8.4259      2.5602      0.0596      5.4429     99.5598     24.7310
   700.5000      8.4368      2.5692      0.0760      4.8985    102.1487     25.7291
   700.7500      8.4419      2.5771      0.0799      4.4189    102.5590     26.2789
   701.0000      8.4468      2.5876      0.0728      3.7801    101.7429     26.6689
   701.2500      8.4495      2.5917      0.0607      3.5343    100.8617     26.6210
   701.5000      8.4499      2.5918      0.0385      3.5301    100.3265     26.2045
   701.7500      8.4508      2.5882      0.0260      3.7439    101.2570     25.8077
   702.0000      8.4532      2.5799      0.0152      4.2507    105.2742     25.3097
   702.2500      8.4541      2.5738      0.0127      4.6188    109.3815     25.2180
   702.5000      8.4556      2.5659      0.0127      5.0951    116.0837     25.5643
   702.7500      8.4657      2.5621      0.0140      5.3268    119.7991     26.0262
   703.0000      8.4866      2.5586      0.0164      5.5374    122.8176     26.7477
   703.2500      8.5054      2.5576      0.0176      5.6015    122.9404     27.0857
   703.5000      8.5142      2.5572      0.0186      5.6263    121.4184     27.2666
   703.7500      8.5181      2.5572      0.0191      5.6260    120.4594     27.2058
   704.0000      8.5238      2.5567      0.0202      5.6571    120.7434     27.0269
   704.2500      8.5367      2.5555      0.0210      5.7290    122.2573     26.9748
   704.5000      8.5558      2.5520      0.0208      5.9420    125.5916     27.1145
   704.7500      8.5687      2.5486      0.0190      6.1449    127.8118     27.3296
   705.0000      8.5726      2.5432      0.0141      6.4714    130.6029     27.7159
   705.2500      8.5734      2.5404      0.0113      6.6417    132.2411     27.9713
   705.5000      8.5755      2.5390      0.0108      6.7288    134.5770     28.3520
   705.7500      8.5782      2.5402      0.0138      6.6534    135.8406     28.6083
   706.0000      8.5809      2.5445      0.0218      6.3951    136.7038     28.9513
   706.2500      8.5897      2.5477      0.0271      6.2013    136.5119     29.1097
   706.5000      8.6041      2.5506      0.0311      6.0227    135.5894     29.1917
   706.7500      8.6165      2.5504      0.0301      6.0373    135.0410     29.1390
   707.0000      8.6278      2.5462      0.0252      6.2923    134.9386     28.9302
   707.2500      8.6356      2.5410      0.0220      6.6052    135.3134     28.7292
   707.5000      8.6436      2.5305      0.0182      7.2432    135.7696     28.3491
   707.7500      8.6547      2.5222      0.0152      7.7456    135.5967     28.0315
   708.0000      8.6672      2.5092      0.0091      8.5322    135.0571     27.4671
   708.2500      8.6809      2.5011      0.0058      9.0217    135.4350     27.0886
   708.5000      8.6896      2.4911      0.0070      9.6312    138.4392     26.6754
   708.7500      8.6942      2.4857      0.0131      9.9579    141.8063     26.5700
   709.0000      8.6986      2.4777      0.0266     10.4434    146.5798     26.6304
   709.2500      8.7036      2.4704      0.0347     10.8859    148.0596     26.6916
   709.5000      8.7090      2.4521      0.0406     11.9922    146.7979     26.5058
   709.7500      8.7164      2.4322      0.0409     13.2008    144.3475     26.0442
   710.0000      8.7253      2.3848      0.0414     16.0724    140.5758     24.7463
   710.2500      8.7308      2.3378      0.0437     18.9196    139.0595     23.5174
   710.5000      8.7343      2.2392      0.0456     24.8945    138.1711     21.3043
   710.7500      8.7404      2.1547      0.0402     30.0190    137.1904     19.7207
   711.0000      8.7537      2.0077      0.0215     38.9245    132.3141     17.4460
   711.2500      8.7695      1.9060      0.0108     45.0910    126.0882     16.1489
   711.5000      8.7805      1.7682      0.0181     53.4445    113.6644     14.7732
   711.7500      8.7986      1.6968      0.0422     57.7704    105.0552     14.3610
   712.0000      8.8322      1.6314      0.0932     61.7341     94.5602     14.6475
   712.2500      8.9005      1.6169      0.1233     62.6148     90.3385     15.4245
   712.5000      8.9921      1.6336      0.1474     61.6002     88.8411     17.1559
   712.7500      8.9726      1.6642      0.1493     59.7425     90.6455     18.3483
   713.0000      8.8292      1.7244      0.1424     56.0963     95.9677     19.5979
   713.2500      8.7290      1.7636      0.1375     53.7235    100.3328     19.9017
   713.5000      8.7035      1.8047      0.1275     51.2332    106.9746     19.6923
   713.7500      8.6971      1.8154      0.1128     50.5825    110.9038     19.3534
   714.0000      8.6939      1.8106      0.0817     50.8701    114.9459     19.0327
