~Version Information
VERS.                      2.0: CWLS Log ASCII Standard - VERSION 2.0
WRAP.                       NO: One line per depth step
~Well Information Block
STRT.FT               430.0000: 
STOP.FT              2826.2500: 
STEP.FT                 0.2500: 
NULL.                -999.2500: 
COMP.          Pioneer Natural Resources: COMPANY
WELL.           Ei-ei-oh 31-24: WELL
FLD.           Purgatoire River: FIELD
LOC.           235' FNL & 2001' FEL--: LOCATION
PROV.                 Colorado: PROVINCE
CNTY.               Las Animas: COUNTRY
SRVC.                Patterson: SERVICE COMPANY
DATE.          Thu Jun 16 06:46:37 2005: LOG DATE
UWI.           05 071 08403 00: UNIQUE WELL ID
~Curve Information Block
DEPT.FT            0 000 00 00: Depth
DIR.Ohm-m                     : IEL Induction Resistivity
SN.Ohm-m                      : IEL Short Normal
SP.mV                         : IEL Spontaneous Potential
GR.GAPI                       : Gamma Ray
~Parameter Information Block
~A  Depth       DIR          SN          SP          GR     
# ...
  1502.0000     23.7161     28.5154    -70.7926    105.2084
  1502.2500     24.2492     29.4005    -70.6292    109.8278
  1502.5000     24.7241     29.9445    -70.3995    117.3630
  1502.7500     25.1289     30.1698    -70.1485    121.8270
  1503.0000     25.4435     30.1537    -69.9252    126.4207
  1503.2500     25.6557     29.9979    -69.7779    127.8082
  1503.5000     25.7820     29.8259    -69.7507    127.9057
  1503.7500     25.8790     29.7768    -69.8828    127.1699
  1504.0000     26.0332     29.9856    -70.2077    125.1193
  1504.2500     26.3354     30.5613    -70.7542    122.9125
  1504.5000     26.8540     31.5716    -71.5438    118.2916
  1504.7500     27.6180     33.0269    -72.5868    114.6659
  1505.0000     28.6109     34.8662    -73.8761    108.9821
  1505.2500     29.7749     36.9584    -75.3815    105.1382
  1505.5000     31.0214     39.1114    -77.0470     99.2840
  1505.7500     32.2456     41.0652    -78.7931     95.2566
  1506.0000     33.3364     42.4876    -80.5239     88.6861
  1506.2500     34.1819     43.0378    -82.1378     83.7784
  1506.5000     34.6731     42.5294    -83.5382     76.0828
  1506.7500     34.7175     41.0943    -84.6413     71.5446
  1507.0000     34.2614     39.1700    -85.3802     67.3217
  1507.2500     33.3163     37.2564    -85.7048     66.9620
  1507.5000     31.9663     35.6238    -85.5798     70.6339
  1507.7500     30.3459     34.2094    -84.9826     75.7757
  1508.0000     28.5998     32.7591    -83.9051     86.4322
  1508.2500     26.8471     31.0653    -82.3579     94.3065
  1508.5000     25.1659     29.1053    -80.3794    104.9338
  1508.7500     23.5965     27.0153    -78.0443    110.2401
  1509.0000     22.1531     24.9737    -75.4689    114.9616
  1509.2500     20.8363     23.1094    -72.8078    116.2297
  1509.5000     19.6424     21.4763    -70.2393    116.8074
  1509.7500     18.5659     20.0710    -67.9407    117.5600
  1510.0000     17.5994     18.8631    -66.0586    120.6670
  1510.2500     16.7329     17.8187    -64.6823    123.8221
  1510.5000     15.9571     16.9132    -63.8289    128.5937
  1510.7500     15.2654     16.1287    -63.4449    131.1136
  1511.0000     14.6529     15.4456    -63.4244    133.7337
  1511.2500     14.1120     14.8387    -63.6364    134.8349
  1511.5000     13.6285     14.2823    -63.9547    135.5932
  1511.7500     13.1825     13.7591    -64.2791    135.4696
  1512.0000     12.7523     13.2636    -64.5463    134.2423
  1512.2500     12.3213     12.8010    -64.7282    132.7549
  1512.5000     11.8829     12.3816    -64.8231    129.9578
  1512.7500     11.4426     12.0137    -64.8445    128.1500
  1513.0000     11.0150     11.6976    -64.8116    126.0550
  1513.2500     10.6174     11.4251    -64.7433    125.0675
  1513.5000     10.2636     11.1863    -64.6561    123.7395
  1513.7500      9.9599     10.9776    -64.5643    122.6545
  1514.0000      9.7056     10.8036    -64.4798    120.5869
  1514.2500      9.4951     10.6722    -64.4122    119.1133
  1514.5000      9.3214     10.5878    -64.3684    117.1602
  1514.7500      9.1788     10.5498    -64.3525    116.0739
  1515.0000      9.0632     10.5513    -64.3666    114.7851
  1515.2500      8.9718     10.5761    -64.4120    114.4047
  1515.5000      8.9011     10.5934    -64.4911    115.0984
  1515.7500      8.8460     10.5618    -64.6088    116.3143
  1516.0000      8.7999     10.4435    -64.7730    118.3888
  1516.2500      8.7555     10.2228    -64.9930    119.5725
  1516.5000      8.7066      9.9137    -65.2770    121.1705
  1516.7500      8.6494      9.5562    -65.6285    122.0643
  1517.0000      8.5825      9.2034    -66.0430    122.0063
  1517.2500      8.5079      8.9055    -66.5062    120.4480
  1517.5000      8.4305      8.6963    -66.9946    116.9250
  1517.7500      8.3579      8.5824    -67.4779    115.4144
  1518.0000      8.2980      8.5404    -67.9240    116.1765
  1518.2500      8.2566      8.5194    -68.3039    118.2153
  1518.5000      8.2360      8.4516    -68.5962    121.2102
  1518.7500      8.2358      8.2751    -68.7891    122.0772
  1519.0000      8.2559      7.9698    -68.8818    121.4258
  1519.2500      8.2988      7.5926    -68.8828    120.3831
  1519.5000      8.3708      7.2846    -68.8090    119.6572
  1519.7500      8.4799      7.2312    -68.6831    120.3737
  1520.0000      8.6326      7.5817    -68.5319    122.7690
  1520.2500      8.8308      8.3623    -68.3833    124.3539
  1520.5000      9.0704      9.4340    -68.2639    125.7532
  1520.7500      9.3423     10.5360    -68.1958    126.1909
  1521.0000      9.6354     11.4110    -68.1946    126.7303
  1521.2500      9.9400     11.9299    -68.2689    127.0320
  1521.5000     10.2503     12.1281    -68.4206    126.9749
  1521.7500     10.5646     12.1454    -68.6472    126.5317
  1522.0000     10.8845     12.1375    -68.9436    125.7431
  1522.2500     11.2137     12.2201    -69.3043    125.4530
  1522.5000     11.5566     12.4521    -69.7236    125.3581
  1522.7500     11.9172     12.8403    -70.1960    125.2296
  1523.0000     12.2990     13.3512    -70.7156    124.4495
  1523.2500     12.7049     13.9302    -71.2754    123.4123
  1523.5000     13.1378     14.5242    -71.8669    121.0695
  1523.7500     13.6016     15.0979    -72.4805    119.0774
  1524.0000     14.1006     15.6348    -73.1054    115.9690
  1524.2500     14.6368     16.1308    -73.7293    114.3242
  1524.5000     15.2068     16.5913    -74.3375    113.0400
  1524.7500     15.7993     17.0290    -74.9112    112.7052
  1525.0000     16.3938     17.4530    -75.4259    111.9012
  1525.2500     16.9594     17.8477    -75.8509    110.8936
  1525.5000     17.4505     18.1540    -76.1514    109.4620
  1525.7500     17.8039     18.2789    -76.2932    109.1606
  1526.0000     17.9474     18.1403    -76.2494    109.4005
  1526.2500     17.8241     17.7182    -76.0079    109.0325
  1526.5000     17.4241     17.0713    -75.5776    106.3449
  1526.7500     16.7967     16.3109    -74.9904    103.5851
  1527.0000     16.0324     15.5608    -74.2986    100.8218
  1527.2500     15.2279     14.9293    -73.5671    101.4602
  1527.5000     14.4586     14.4913    -72.8625    106.1202
  1527.7500     13.7697     14.2721    -72.2413    110.0166
  1528.0000     13.1817     14.2370    -71.7415    113.7369
  1528.2500     12.7004     14.3045    -71.3790    114.0677
  1528.5000     12.3284     14.3826    -71.1507    112.4090
  1528.7500     12.0717     14.4123    -71.0431    110.8639
  1529.0000     11.9425     14.3933    -71.0434    108.9839
  1529.2500     11.9572     14.3776    -71.1479    108.4907
  1529.5000     12.1315     14.4371    -71.3656    109.6034
  1529.7500     12.4757     14.6267    -71.7145    111.5007
  1530.0000     12.9892     14.9627    -72.2122    114.7120
  1530.2500     13.6553     15.4246    -72.8643    116.1536
  1530.5000     14.4384     15.9734    -73.6537    116.6081
  1530.7500     15.2874     16.5746    -74.5376    116.0207
  1531.0000     16.1449     17.2094    -75.4507    114.7167
  1531.2500     16.9619     17.8731    -76.3161    114.0683
  1531.5000     17.7094     18.5621    -77.0597    113.8139
  1531.7500     18.3796     19.2573    -77.6240    113.9546
  1532.0000     18.9779     19.9142    -77.9765    113.9946
  1532.2500     19.5114     20.4704    -78.1136    113.7419
  1532.5000     19.9835     20.8712    -78.0561    113.4946
  1532.7500     20.3963     21.0961    -77.8414    114.0079
  1533.0000     20.7545     21.1602    -77.5142    116.1891
  1533.2500     21.0609     21.0894    -77.1188    118.0775
  1533.5000     21.3026     20.8992    -76.6937    119.9437
  1533.7500     21.4446     20.6003    -76.2708    119.8037
  1534.0000     21.4436     20.2257    -75.8757    117.3729
  1534.2500     21.2732     19.8470    -75.5305    114.8425
  1534.5000     20.9405     19.5615    -75.2551    111.2306
  1534.7500     20.4789     19.4558    -75.0698    109.7478
  1535.0000     19.9308     19.5633    -74.9958    109.6394
  1535.2500     19.3356     19.8406    -75.0543    111.0196
