~Version Information
 VERS.                                  2.0 : CWLS LAS VERSION
 WRAP.                                   NO : WRAPING MODE
 SWARE .                 MController 2.5.0J : SOFTWARE VERSION
~Well Information
 WELL.                       Montoya 07-21R : WELL
 COMP.                Petrogulf Corporation : COMPANY
 FLD.                      Purgatoire River : FIELD
 LOC.                 NE/NW Sec 7 T33S R67W : LOCATION
 DATE.                           9/13-15/05 : DATE(S) LOGGED
 SRVC.       BLANCO Geological Services LLC : SERVICE COMPANY
 STAT.                                   CO : STATE
 CNTY.                           Las Animas : COUNTY
 CTRY.                                  USA : COUNTRY
 API.                       05-071-08435-00 : API NUMBER
 STRT.FT                             374.00 : START DEPTH
 STOP.FT                            1830.00 : STOP DEPTH
 STEP.FT                               1.00 : DEPTH INCREMENT
 NULL.                                -9999 : NULL VALUE
~Curve information
 DEPTH.FT                                   :
 ROP.MIN/FT                                 :
 GAS.UNITS                                  :
~ASCII Log data
# ...
       774.0         0.23         21.4 
       775.0         0.25         20.6 
       776.0         2.00         19.7 
       777.0         0.30         12.6 
       778.0         0.33         12.7 
       779.0         0.40         11.8 
       780.0         0.32         11.6 
       781.0         0.20         11.4 
       782.0         0.23         11.4 
       783.0         0.27         10.5 
       784.0         0.23         10.1 
       785.0         0.20         10.0 
       786.0         0.20          9.3 
       787.0         0.17          9.1 
       788.0         0.20          9.2 
       789.0         0.20          8.5 
       790.0         0.20          8.1 
       791.0         0.20          8.4 
       792.0         0.20          8.3 
       793.0         0.20          8.1 
       794.0         0.17          8.1 
       795.0         0.23          7.9 
       796.0         0.18          7.6 
       797.0         0.20          7.8 
       798.0         0.17          7.4 
       799.0         0.13          6.8 
       800.0         0.13          7.4 
       801.0         0.13          6.9 
       802.0         0.10          6.9 
       803.0         0.13          6.9 
       804.0         0.13          6.8 
       805.0         0.13          7.3 
       806.0         2.05          7.5 
       807.0         0.13          6.0 
       808.0         0.17          6.0 
       809.0         0.20          5.6 
       810.0         0.17          5.3 
       811.0         0.10          4.9 
       812.0         0.20          4.8 
       813.0         0.23          4.5 
       814.0         0.27          4.3 
       815.0         0.27          3.8 
       816.0         0.20          3.7 
       817.0         0.13          3.1 
       818.0         0.17          3.1 
       819.0         0.17          2.9 
       820.0         0.20          2.9 
       821.0         0.17          2.8 
       822.0         0.17          2.5 
       823.0         0.22          2.2 
       824.0         0.13          2.4 
       825.0         0.17          2.0 
       826.0         0.13          2.0 
       827.0         0.07          1.7 
       828.0         0.10          1.8 
       829.0         0.10          1.4 
       830.0         0.10          1.3 
       831.0         0.10          1.4 
       832.0         0.17          1.4 
       833.0         0.17          1.4 
       834.0         0.20          1.2 
       835.0         0.20          1.5 
       836.0         2.05          1.2 
       837.0         0.23          0.6 
       838.0         0.30          0.7 
       839.0         0.27          0.8 
       840.0         0.27          0.8 
       841.0         0.27          0.6 
       842.0         0.23          0.5 
       843.0         0.23          0.6 
       844.0         0.23          1.7 
       845.0         0.17          3.3 
       846.0         0.20          3.0 
       847.0         0.17          3.9 
       848.0         0.18          4.1 
       849.0         0.13          4.0 
       850.0         0.20          4.2 
       851.0         0.23          3.8 
       852.0         0.13          4.1 
       853.0         0.20          3.6 
       854.0         0.20          3.9 
       855.0         0.17          3.4 
       856.0         0.17          3.4 
       857.0         0.20          3.1 
       858.0         0.10          2.7 
       859.0         0.13          2.8 
       860.0         0.07          2.3 
       861.0         0.10          2.6 
       862.0         0.07          2.4 
       863.0         0.13          2.5 
       864.0         0.23          3.0 
       865.0         0.23          2.4 
       866.0         2.52        995.8 
       867.0         0.33        612.7 
       868.0         0.37        440.0 
       869.0         0.27         87.9 
       870.0         0.22         49.4 
       871.0         0.37         31.7 
       872.0         0.27         15.6 
       873.0         0.30         10.0 
       874.0         0.27          8.4 
       875.0         0.20          7.1 
       876.0         0.17          6.4 
       877.0         0.13          6.1 
       878.0         0.10          5.8 
       879.0         0.23          7.0 
       880.0         0.23          8.9 
       881.0         0.17          9.2 
       882.0         0.23          9.3 
       883.0         0.27          9.4 
       884.0         0.23          8.6 
       885.0         0.25          8.0 
       886.0         0.23          6.9 
       887.0         0.23          7.3 
       888.0         0.20          7.5 
       889.0         0.23          7.3 
       890.0         0.20          5.9 
       891.0         0.23          4.8 
       892.0         0.23          3.2 
       893.0         0.27          2.6 
       894.0         0.23          2.2 
       895.0         0.33          1.6 
       896.0         2.75         90.8 
       897.0         0.37         19.2 
       898.0         0.33          9.6 
       899.0         0.23          3.6 
       900.0         0.25          1.4 
       901.0         0.20          0.3 
       902.0         0.17          0.0 
       903.0         0.23          0.0 
       904.0         0.23          0.0 
       905.0         0.17          0.6 
       906.0         0.23          1.7 
       907.0         0.23          3.4 
       908.0         0.23          4.4 
       909.0         0.23          5.4 
       910.0         0.20          4.5 
       911.0         0.23          3.6 
       912.0         0.23          2.0 
       913.0         0.20          1.5 
       914.0         0.23          0.8 
       915.0         0.22          0.3 
       916.0         0.20         -0.3 
       917.0         0.23         -0.2 
       918.0         0.17          0.2 
       919.0         0.17          0.2 
       920.0         0.20          2.1 
       921.0         0.20          4.6 
       922.0         0.27          6.4 
       923.0         0.23          7.0 
       924.0         0.23          6.4 
       925.0         0.27          4.5 
       926.0         2.98        357.1 
       927.0         0.27         81.3 
       928.0         0.33         49.1 
       929.0         0.27         28.1 
       930.0         0.33         15.8 
       931.0         0.35          5.9 
       932.0         0.27          3.7 
       933.0         0.27          4.7 
       934.0         0.27          4.9 
       935.0         0.23          4.8 
       936.0         0.30          3.8 
       937.0         0.23          3.9 
       938.0         0.23          4.6 
       939.0         0.20          4.8 
       940.0         0.23          4.7 
       941.0         0.27          4.9 
       942.0         0.23          3.9 
       943.0         0.20          2.7 
       944.0         0.25          1.7 
       945.0         0.23          1.5 
       946.0         0.23          2.1 
       947.0         0.20          2.2 
       948.0         0.20          2.2 
       949.0         0.13          2.6 
       950.0         0.23          5.7 
       951.0         0.23          7.6 
       952.0         0.27          8.1 
       953.0         0.23          7.4 
       954.0         0.27          6.9 
       955.0         0.30          6.1 
       956.0         2.65       1496.6 
       957.0         0.27        801.2 
       958.0         0.40        463.5 
       959.0         0.40        104.3 
       960.0         0.42         41.9 
       961.0         0.23         18.9 
       962.0         0.27         10.8 
       963.0         0.27          6.5 
       964.0         0.23          7.2 
       965.0         0.20          7.4 
       966.0         0.23          7.0 
       967.0         0.27          7.2 
       968.0         0.20          6.4 
       969.0         0.20          6.9 
       970.0         0.23          7.2 
       971.0         0.17          7.8 
       972.0         0.23          7.8 
       973.0         0.25          8.3 
