~Version Information
VERS.                      2.0: CWLS Log ASCII Standard - VERSION 2.0
WRAP.                       NO: One line per depth step
~Well Information Block
STRT.FT               260.0000: 
STOP.FT              2610.0000: 
STEP.FT                 0.1000: 
NULL.                -999.2500: 
COMP.          Pioneer Natural Resources: COMPANY
WELL.           Costello 44-24: WELL
FLD.           Purgatoire River: FIELD
LOC.           327' FSL & 378' FEL: LOCATION
PROV.                 Colorado: PROVINCE
CNTY.               Las Animas: COUNTRY
SRVC.                Patterson: SERVICE COMPANY
DATE.          Mon Jul 11 10:42:19 2005: LOG DATE
UWI.           05 071 08413 00: UNIQUE WELL ID
~Curve Information Block
DEPT.FT            0 000 00 00: Depth
DCAL.in                       : CDL Caliper
RHOB.g/cc                     : CDL Bulk Density
RHOC.g/cc                     : CDL Density Correction
DPOR.pu                       : CDL Density Porosity
GR.GAPI                       : Gamma Ray
NPOR.pu                       : Neutron Porosity
~Parameter Information Block
~A  Depth       DCAL        RHOB        RHOC        DPOR         GR         NPOR    
# ...
  2285.6000      8.1358      1.4722      0.0271     71.3819    111.3783     11.7209
  2285.7000      8.1358      1.4490      0.0565     72.7900     98.8359     10.9758
  2285.8000      8.0915      1.4729      0.0480     71.3393     92.9812     10.5242
  2285.9000      8.0915      1.5478      0.1008     66.8014     89.8751     10.1124
  2286.0000      8.1298      1.6579      0.1586     60.1270     88.6980      9.5043
  2286.1000      8.1298      1.7718      0.1661     53.2215     88.4889      8.8408
  2286.2000      8.1298      1.8664      0.2098     47.4923     87.3820      8.6106
  2286.3000      8.3270      1.9392      0.2421     43.0814     87.5953   -454.2582
  2286.4000      8.3270      2.0055      0.2174     39.0577     94.2861   -333.7462
  2286.5000      8.5449      2.0880      0.2105     34.0601    107.9658   -172.3425
  2286.6000      8.5449      2.1962      0.1939     27.5041    120.0965    -53.9244
  2286.7000      8.5449      2.3072      0.1812     20.7787    121.6262     -9.6243
  2286.8000      8.5289      2.3849      0.1661     16.0688    116.8655      0.3248
  2286.9000      8.5289      2.4226      0.1270     13.7831    114.2753      3.6388
  2287.0000      8.1169      2.4424      0.1405     12.5801    113.3873      6.3304
  2287.1000      8.1169      2.4677      0.1447     11.0468    112.1820      9.7557
  2287.2000      8.1169      2.5035      0.1983      8.8770    110.2767     13.9130
  2287.3000      8.0759      2.5340      0.2061      7.0292    108.5061     18.0837
  2287.4000      8.0759      2.5520      0.1306      5.9418    110.5049     21.7550
  2287.5000      8.0480      2.5644      0.1480      5.1908    115.2772     24.2380
  2287.6000      8.0480      2.5617      0.1743      5.3488    116.1236     25.3528
  2287.7000      8.0480      2.5398      0.1048      6.6796    110.6638     25.5498
  2287.8000      7.9152      2.5213      0.1132      7.8026    103.4755     25.2006
  2287.9000      7.9152      2.5166      0.0968      8.0846    101.9284     25.1359
  2288.0000      7.9568      2.5189      0.0707      7.9447    104.6861     25.5791
  2288.1000      7.9568      2.5326      0.0616      7.1122    106.3103     25.5240
  2288.2000      7.9568      2.5607      0.0897      5.4133    108.1272     24.6063
  2288.3000      7.9711      2.5850      0.0951      3.9416    109.0301     23.9270
  2288.4000      7.9711      2.5938      0.0836      3.4031    110.7389     24.1675
  2288.5000      7.9687      2.5971      0.0934      3.2069    120.6344     24.6054
  2288.6000      7.9687      2.6017      0.1409      2.9252    134.7039     24.6375
  2288.7000      7.9687      2.6070      0.1143      2.6055    140.4873     24.6941
  2288.8000      7.9596      2.6128      0.1241      2.2521    133.1973     25.5216
  2288.9000      7.9596      2.6118      0.1391      2.3141    120.8257     26.7149
  2289.0000      7.9423      2.5927      0.1047      3.4752    114.1629     27.2557
  2289.1000      7.9423      2.5609      0.0285      5.4012    114.9143     26.8071
  2289.2000      7.9423      2.5324      0.0377      7.1265    115.5482     25.6336
  2289.3000      7.9429      2.5113      0.0604      8.4042    111.2828     24.4944
  2289.4000      7.9429      2.4999      0.0570      9.0969    107.6275     23.8947
  2289.5000      7.9669      2.5105      0.0537      8.4526    108.6927     23.6883
  2289.6000      7.9669      2.5380      0.0905      6.7860    111.6529     23.9912
  2289.7000      7.9669      2.5599      0.1190      5.4616    112.7569     24.6143
  2289.8000      7.9582      2.5801      0.1068      4.2352    109.2395     24.4262
  2289.9000      7.9582      2.6160      0.1769      2.0589    104.2811     23.6743
  2290.0000      7.8998      2.6575      0.1984     -0.4543    104.2576     23.7589
  2290.1000      7.8998      2.6803      0.2377     -1.8355    109.2995     24.6046
  2290.2000      7.8998      2.6719      0.2414     -1.3276    114.9250     24.9998
  2290.3000      7.7931      2.6429      0.1161      0.4321    117.3645     24.5357
  2290.4000      7.7931      2.6200      0.1323      1.8182    117.0602     23.6919
  2290.5000      7.7752      2.6118      0.1186      2.3157    116.3019     23.1481
  2290.6000      7.7752      2.5975      0.1642      3.1802    115.7816     23.3293
  2290.7000      7.7752      2.5636      0.0341      5.2350    120.2802     24.0746
  2290.8000      7.8251      2.5317      0.0008      7.1708    132.0544     24.5914
  2290.9000      7.8251      2.5213      0.0093      7.8016    140.7157     24.3359
  2291.0000      7.9713      2.5252      0.0304      7.5630    141.2705     23.6573
  2291.1000      7.9713      2.5396      0.0336      6.6889    140.5040     22.8553
  2291.2000      7.9713      2.5581      0.0790      5.5693    142.4074     22.6516
  2291.3000      8.0106      2.5688      0.0621      4.9226    143.8344     23.6903
  2291.4000      8.0106      2.5736      0.0332      4.6308    142.1339     25.0751
  2291.5000      8.0054      2.5675      0.0708      4.9996    136.7840     25.3464
  2291.6000      8.0054      2.5396     -0.0175      6.6932    131.5569     23.9445
  2291.7000      8.0054      2.5005      0.0030      9.0587    133.0875     21.9157
  2291.8000      8.0034      2.4719     -0.0241     10.7959    143.5823     21.0432
  2291.9000      8.0034      2.4732     -0.0370     10.7157    157.2845     22.1590
  2292.0000      8.0065      2.5073      0.0270      8.6466    163.5732     24.6800
  2292.1000      8.0065      2.5415      0.1001      6.5766    156.2075     26.5351
  2292.2000      8.0065      2.5473      0.0225      6.2235    142.3102     26.0207
  2292.3000      8.0082      2.5330      0.0489      7.0882    134.6215     24.6298
  2292.4000      8.0082      2.5158     -0.0036      8.1322    134.6346     24.3680
  2292.5000      8.0172      2.4980      0.0533      9.2118    136.3459     24.6867
  2292.6000      8.0172      2.4770     -0.0170     10.4869    137.5859     24.9478
  2292.7000      8.0172      2.4635     -0.0069     11.3010    138.3657     25.5765
  2292.8000      8.0114      2.4669     -0.0205     11.0977    139.5878     26.2644
  2292.9000      8.0114      2.4784      0.0296     10.3973    142.5910     26.3319
  2293.0000      8.0074      2.4857     -0.0102      9.9571    145.6877     25.5440
  2293.1000      8.0074      2.4884      0.0021      9.7947    144.3319     24.2918
  2293.2000      8.0074      2.4834      0.0092     10.0984    138.5005     23.6626
  2293.3000      8.0132      2.4731      0.0132     10.7210    134.8707     24.5509
  2293.4000      8.0132      2.4831      0.0362     10.1170    137.9325     26.7659
  2293.5000      8.0027      2.5166      0.0609      8.0842    148.7115     28.6115
  2293.6000      8.0027      2.5454      0.0714      6.3395    163.7662     28.5453
  2293.7000      8.0027      2.5583      0.0626      5.5596    172.3326     27.6590
  2293.8000      7.9988      2.5647      0.0677      5.1698    168.6901     27.5661
  2293.9000      7.9988      2.5750      0.0222      4.5437    157.8360     27.7109
  2294.0000      7.9978      2.5917      0.1105      3.5316    145.9048     26.9784
  2294.1000      7.9978      2.6045      0.1029      2.7581    132.9355     25.7881
  2294.2000      7.9978      2.6092      0.1131      2.4737    116.9552     25.0589
  2294.3000      7.9948      2.6113      0.0750      2.3463    101.6678     24.5821
  2294.4000      7.9948      2.6117      0.0699      2.3225     92.3703     23.6301
  2294.5000      7.9885      2.6016      0.0528      2.9310     85.9180     22.5416
  2294.6000      7.9885      2.5846      0.0458      3.9611     79.1740     22.2901
  2294.7000      7.9885      2.5774      0.0527      4.4018     76.5994     23.1272
  2294.8000      8.0004      2.5805      0.0538      4.2124     82.1116     24.3359
  2294.9000      8.0004      2.5825      0.0870      4.0908     92.9980     24.6202
  2295.0000      8.0214      2.5834      0.0386      4.0353    101.4140     23.1172
  2295.1000      8.0214      2.5918      0.0515      3.5259    100.5148     20.8456
