~Version Information
VERS.                      2.0: CWLS Log ASCII Standard - VERSION 2.0
WRAP.                       NO: One line per depth step
~Well Information Block
STRT.FT               510.0000: 
STOP.FT              1845.5000: 
STEP.FT                 0.1000: 
NULL.                -999.2500: 
COMP.          Pioneer Natural Resources: COMPANY
WELL.           Stampede 42-18: WELL
FLD.           Purgatoire River: FIELD
LOC.           2479' FNL & 160' FEL--: LOCATION
CNTY.               Las Animas: COUNTY
SRVC.          Superior Well Services: SERVICE COMPANY
DATE.          Sat Jun 09 02:39:23 2007: LOG DATE
UWI.           05 071 08237 00: UNIQUE WELL ID
STAT.                 Colorado: STATE
~Curve Information Block
DEPT.FT            0 000 00 00: Depth
DCAL.in                       : CDL Caliper
RHOB.g/cc                     : CDL Bulk Density
RHOC.g/cc                     : CDL Density Correction
DPOR.pu                       : CDL Density Porosity
GR.GAPI                       : Gamma Ray
~Parameter Information Block
~A  Depth       DCAL        RHOB        RHOC        DPOR         GR     
# ...
  1394.8000      7.8064      2.5544      0.0930      5.7948     77.9474
  1394.9000      7.8064      2.5566      0.0950      5.6628     78.0774
  1395.0000      7.8104      2.5465      0.0918      6.2724     78.6335
  1395.1000      7.8104      2.5251      0.0641      7.5715     81.2509
  1395.2000      7.8104      2.5087      0.0235      8.5656     84.4484
  1395.3000      7.8134      2.5137      0.0334      8.2619     86.4725
  1395.4000      7.8134      2.5306      0.0878      7.2352     88.5873
  1395.5000      7.8140      2.5336      0.0910      7.0562     90.1297
  1395.6000      7.8140      2.5150      0.0357      8.1841     90.9345
  1395.7000      7.8140      2.4949      0.0032      9.3976     91.3839
  1395.8000      7.8132      2.4913      0.0550      9.6162     88.2627
  1395.9000      7.8132      2.5051      0.0521      8.7801     81.6549
  1396.0000      7.8129      2.5236      0.0907      7.6586     79.0227
  1396.1000      7.8129      2.5286      0.0891      7.3573     83.1329
  1396.2000      7.8129      2.5176      0.0645      8.0242     86.4707
  1396.3000      7.8142      2.5021      0.0446      8.9662     83.7345
  1396.4000      7.8142      2.4960      0.0322      9.3347     76.1315
  1396.5000      7.8179      2.5069      0.0735      8.6744     67.4625
  1396.6000      7.8179      2.5235      0.0731      7.6667     63.0183
  1396.7000      7.8179      2.5325      0.0545      7.1216     63.9255
  1396.8000      7.8238      2.5320      0.0866      7.1522     66.5382
  1396.9000      7.8238      2.5284      0.0502      7.3684     68.7073
  1397.0000      7.8280      2.5302      0.0822      7.2634     72.2102
  1397.1000      7.8280      2.5322      0.0580      7.1391     77.0705
  1397.2000      7.8280      2.5303      0.0380      7.2533     80.4885
  1397.3000      7.8274      2.5322      0.0374      7.1408     81.9564
  1397.4000      7.8274      2.5345      0.0520      7.0005     80.3338
  1397.5000      7.8257      2.5249      0.0658      7.5817     75.0201
  1397.6000      7.8257      2.5057      0.0501      8.7459     68.9761
  1397.7000      7.8257      2.4901      0.0321      9.6893     66.7421
  1397.8000      7.8254      2.4843      0.0368     10.0452     69.8304
  1397.9000      7.8254      2.4834      0.0366     10.0965     73.1215
  1398.0000      7.8260      2.4814      0.0554     10.2163     71.3178
  1398.1000      7.8260      2.4763      0.0428     10.5261     67.0986
  1398.2000      7.8260      2.4694      0.0150     10.9453     64.1455
  1398.3000      7.8247      2.4647      0.0173     11.2295     62.3811
  1398.4000      7.8247      2.4693      0.0283     10.9503     63.7579
  1398.5000      7.8220      2.4859      0.0664      9.9434     68.2842
  1398.6000      7.8220      2.5092      0.0532      8.5317     71.2284
  1398.7000      7.8220      2.5280      0.0890      7.3950     72.4454
  1398.8000      7.8215      2.5288      0.0724      7.3428     75.8378
  1398.9000      7.8215      2.5163      0.0504      8.1053     78.4767
  1399.0000      7.8240      2.5102      0.0176      8.4742     76.6388
  1399.1000      7.8240      2.5183      0.0871      7.9803     73.5016
  1399.2000      7.8240      2.5278      0.0715      7.4084     72.9099
  1399.3000      7.8263      2.5259      0.0545      7.5232     76.2110
  1399.4000      7.8263      2.5143      0.0448      8.2247     80.5617
  1399.5000      7.8257      2.5011      0.0065      9.0269     81.4337
  1399.6000      7.8257      2.4919      0.0197      9.5824     77.5934
  1399.7000      7.8257      2.4874      0.0395      9.8539     71.1070
  1399.8000      7.8197      2.4863      0.0246      9.9230     65.3752
  1399.9000      7.8197      2.4908      0.0625      9.6485     62.3754
  1400.0000      7.8102      2.5026      0.0729      8.9355     61.5291
  1400.1000      7.8102      2.5135      0.1198      8.2702     59.5357
  1400.2000      7.8102      2.5131      0.1361      8.2960     55.3346
  1400.3000      7.8052      2.5045      0.0660      8.8156     53.3122
  1400.4000      7.8052      2.4972      0.0885      9.2626     57.7407
  1400.5000      7.8076      2.4960      0.0474      9.3305     65.8695
  1400.6000      7.8076      2.4994      0.0988      9.1247     69.4526
  1400.7000      7.8076      2.4990      0.0832      9.1536     65.4349
  1400.8000      7.8159      2.4919      0.0548      9.5791     61.4254
  1400.9000      7.8159      2.4849      0.0556     10.0074     61.9465
  1401.0000      7.8245      2.4873      0.0499      9.8602     63.2858
  1401.1000      7.8245      2.4951      0.0866      9.3879     63.4122
  1401.2000      7.8245      2.4917      0.0625      9.5918     62.8373
  1401.3000      7.8295      2.4817      0.0423     10.1981     60.3574
  1401.4000      7.8295      2.4801      0.0904     10.2966     54.8803
  1401.5000      7.8328      2.4844      0.0469     10.0350     50.5210
  1401.6000      7.8328      2.4909      0.0258      9.6424     53.1337
  1401.7000      7.8328      2.5024      0.0290      8.9479     61.4091
  1401.8000      7.8329      2.5196      0.0392      7.9052     69.2357
  1401.9000      7.8329      2.5383      0.0630      6.7707     74.0112
  1402.0000      7.8279      2.5497      0.0168      6.0776     76.7493
  1402.1000      7.8279      2.5449      0.0576      6.3710     76.5894
  1402.2000      7.8279      2.5268      0.0318      7.4682     73.0743
  1402.3000      7.8181      2.5134      0.0106      8.2777     69.9578
  1402.4000      7.8181      2.5124      0.0460      8.3371     71.1862
  1402.5000      7.8090      2.5144      0.0253      8.2174     75.4901
  1402.6000      7.8090      2.5158      0.0669      8.1347     78.7523
  1402.7000      7.8090      2.5181      0.0626      7.9953     79.7176
  1402.8000      7.8042      2.5228      0.0386      7.7093     79.6253
  1402.9000      7.8042      2.5268      0.0989      7.4672     80.4600
  1403.0000      7.8012      2.5224      0.0783      7.7362     83.2934
  1403.1000      7.8012      2.5169      0.0700      8.0689     85.8585
  1403.2000      7.8012      2.5221      0.0804      7.7510     85.8365
  1403.3000      7.8002      2.5325      0.0848      7.1236     84.5181
  1403.4000      7.8002      2.5411      0.0757      6.5993     84.2138
  1403.5000      7.8017      2.5478      0.0679      6.1909     82.5584
  1403.6000      7.8017      2.5429      0.0925      6.4921     76.0237
  1403.7000      7.8017      2.5203      0.0538      7.8596     69.1077
  1403.8000      7.8037      2.4942      0.0420      9.4444     67.3110
  1403.9000      7.8037      2.4836      0.0097     10.0866     70.9062
  1404.0000      7.8057      2.4974      0.0108      9.2509     77.4645
  1404.1000      7.8057      2.5248      0.0349      7.5908     82.0577
  1404.2000      7.8057      2.5449      0.0891      6.3699     80.1145
  1404.3000      7.8079      2.5499      0.0866      6.0668     75.6609
  1404.4000      7.8079      2.5481      0.0816      6.1757     75.9068
  1404.5000      7.8116      2.5430      0.1266      6.4871     77.3962
  1404.6000      7.8116      2.5306      0.0539      7.2360     73.4850
  1404.7000      7.8116      2.5154      0.0556      8.1603     65.8621
  1404.8000      7.8149      2.5046      0.0722      8.8124     62.0208
  1404.9000      7.8149      2.5032      0.0276      8.8992     65.0053
  1405.0000      7.8132      2.5121      0.0393      8.3571     68.9935
  1405.1000      7.8132      2.5213      0.0990      7.8018     69.0558
  1405.2000      7.8132      2.5163      0.0884      8.1054     69.4123
  1405.3000      7.8032      2.4928      0.0736      9.5282     73.1676
  1405.4000      7.8032      2.4576      0.0657     11.6593     78.2987
  1405.5000      7.7864      2.4267      0.0013     13.5307     81.2587
  1405.6000      7.7864      2.4199     -0.0079     13.9432     77.3026
  1405.7000      7.7864      2.4433      0.0205     12.5248     67.3043
  1405.8000      7.7738      2.4824      0.0519     10.1587     57.6791
  1405.9000      7.7738      2.5176      0.1121      8.0258     54.2991
