~Version Information
VERS.                      2.0: CWLS Log ASCII Standard - VERSION 2.0
WRAP.                       NO: One line per depth step
~Well Information Block
STRT.FT               899.1000: 
STOP.FT              2501.5000: 
STEP.FT                 0.1000: 
NULL.                -999.2500: 
COMP.          Petrogulf Corporation: COMPANY
WELL.           Deremer 17-21V: WELL
FLD.           Purgatorie River: FIELD
LOC.           851' FNL & 963' FWL: LOCATION
CNTY.               Las Animas: COUNTY
SRVC.                         : SERVICE COMPANY
DATE.          Tue Nov 18 09:12:06 2003: LOG DATE
UWI.                          : UNIQUE WELL ID
STAT.                 Colorado: STATE
~Curve Information Block
DEPT.FT            0 000 00 00: Depth
DPOR.pu                       : CDL Density Porosity
NEU.NAPI                      : Neutron
NPOR.pu                       : Neutron Porosity
RHOB.g/cc                     : CDL Bulk Density
RHOC.g/cc                     : CDL Density Correction
GR.GAPI                       : Gamma Ray
DCAL.in                       : CDL Caliper
~Parameter Information Block
~A  Depth       DPOR        NEU         NPOR        RHOB        RHOC         GR         DCAL    
# ...
  1033.5000      4.6633   1008.0693     30.4130      2.5731      0.0697    118.9832      7.9514
  1033.6000      4.2744   1005.2377     30.5326      2.5795      0.0424    119.6107      7.9514
  1033.7000      4.6326   1001.4792     30.6913      2.5736      0.0999    118.7942      7.9514
  1033.8000      5.7245    990.2378     31.1654      2.5555      0.0476    119.4283      7.9630
  1033.9000      6.6405    977.0729     31.7199      2.5404     -0.0135    120.4724      7.9630
  1034.0000      6.3371    972.0050     31.9331      2.5454      0.0165    121.5059      7.9807
  1034.1000      5.2689    981.2201     31.5453      2.5631      0.0339    127.1833      7.9807
  1034.2000      4.9073    997.7673     30.8479      2.5690      0.1218    131.7686      7.9807
  1034.3000      6.1799   1009.3986     30.3569      2.5480      0.0299    129.2845      7.9942
  1034.4000      8.4146   1019.8793     29.9137      2.5112      0.0201    127.1968      7.9942
  1034.5000      9.7452   1030.9146     29.4463      2.4892     -0.1122    128.5991      8.0020
  1034.6000      9.1768   1033.6587     29.3299      2.4986      0.0024    127.3197      8.0020
  1034.7000      8.3510   1034.3264     29.3016      2.5122      0.0887    123.8853      8.0020
  1034.8000      8.2879   1044.7743     28.8581      2.5132     -0.0900    124.4029      8.0003
  1034.9000      7.2048   1061.8881     28.1298      2.5311     -0.0449    129.1512      8.0003
  1035.0000      4.8602   1078.0159     27.4412      2.5698      0.0814    130.6077      7.9833
  1035.1000      3.6968   1090.3036     26.9151      2.5890      0.0476    124.4298      7.9833
  1035.2000      4.6587   1096.5503     26.6470      2.5731      0.0246    116.2890      7.9833
  1035.3000      6.0283   1103.7638     26.3371      2.5505     -0.0149    111.6015      7.9623
  1035.4000      6.4688   1124.4675     25.4444      2.5433     -0.0157    107.6665      7.9623
  1035.5000      6.8574   1153.3170     24.1926      2.5369      0.0948    100.0022      7.9448
  1035.6000      7.9191   1172.0192     23.3757      2.5193      0.0097     89.3760      7.9448
  1035.7000      8.5990   1177.5886     23.1316      2.5081     -0.0363     81.4840      7.9448
  1035.8000      8.6328   1184.3435     22.8349      2.5076      0.0150     78.7120      7.9332
  1035.9000      9.0409   1199.1183     22.1838      2.5008      0.0240     77.1739      7.9332
  1036.0000      9.8956   1216.1232     21.4306      2.4867      0.0097     72.7910      7.9218
  1036.1000     10.4414   1230.1284     20.8070      2.4777      0.0065     67.9091      7.9218
  1036.2000     10.6768   1243.8890     20.1913      2.4738      0.0803     67.1716      7.9218
  1036.3000     11.3438   1260.8937     19.4262      2.4628      0.0511     68.7426      7.9064
  1036.4000     12.3293   1269.1754     19.0518      2.4466      0.0493     67.1519      7.9064
  1036.5000     12.8526   1260.8241     19.4294      2.4379      0.0574     61.0945      7.8933
  1036.6000     12.6760   1248.7949     19.9711      2.4408      0.1176     53.0303      7.8933
  1036.7000     11.6737   1244.8108     20.1500      2.4574      0.0428     47.2819      7.8933
  1036.8000     10.1371   1245.8091     20.1052      2.4827      0.0878     46.6935      7.8873
  1036.9000      9.5553   1245.0929     20.1373      2.4923      0.1401     48.0861      7.8873
  1037.0000     10.8372   1247.5256     20.0281      2.4712      0.0566     48.0064      7.8840
  1037.1000     12.9751   1263.1309     19.3252      2.4359      0.0250     49.4693      7.8840
  1037.2000     14.3242   1285.3728     18.3161      2.4137     -0.0096     56.1826      7.8840
  1037.3000     14.6809   1302.5826     17.5293      2.4078      0.0979     64.1419      7.8807
  1037.4000     15.1249   1317.7607     16.8306      2.4004      0.0317     65.7621      7.8807
  1037.5000     15.6538   1330.8555     16.2243      2.3917     -0.0032     62.3451      7.8829
  1037.6000     15.6003   1330.9954     16.2178      2.3926      0.0287     60.3708      7.8829
  1037.7000     15.0525   1317.8583     16.8261      2.4016      0.0168     59.8842      7.8829
  1037.8000     14.5082   1302.7494     17.5216      2.4106      0.0544     57.5888      7.8981
  1037.9000     14.4251   1292.7271     17.9805      2.4120      0.0281     52.8486      7.8981
  1038.0000     14.4275   1290.0403     18.1033      2.4119      0.0235     47.0914      7.9200
  1038.1000     14.2717   1293.7114     17.9356      2.4145      0.0562     43.2232      7.9200
  1038.2000     14.8334   1305.2717     17.4058      2.4052      0.0709     44.8104      7.9200
  1038.3000     16.2559   1321.1799     16.6726      2.3818     -0.0024     49.9817      7.9326
  1038.4000     17.5801   1324.2275     16.5316      2.3599      0.0051     54.3478      7.9326
  1038.5000     18.4474   1310.9825     17.1432      2.3456      0.0397     57.4292      7.9376
  1038.6000     18.8301   1294.2919     17.9090      2.3393     -0.0063     57.5367      7.9376
  1038.7000     18.5366   1283.4608     18.4032      2.3441     -0.0330     52.6685      7.9376
  1038.8000     17.9681   1285.2295     18.3227      2.3535     -0.0006     46.3532      7.9425
  1038.9000     17.8462   1295.6715     17.8459      2.3555     -0.0153     44.7770      7.9425
  1039.0000     18.1689   1299.0859     17.6896      2.3502      0.0442     49.4236      7.9432
  1039.1000     18.6659   1291.9626     18.0155      2.3420      0.0209     54.2160      7.9432
  1039.2000     18.9177   1291.7366     18.0258      2.3379      0.0128     55.3049      7.9432
  1039.3000     18.1648   1308.5269     17.2562      2.3503     -0.0214     56.6351      7.9398
  1039.4000     16.5958   1325.1748     16.4878      2.3762      0.0723     60.2998      7.9398
  1039.5000     15.4888   1329.4246     16.2907      2.3944      0.0171     63.6686      7.9418
  1039.6000     15.5864   1325.7926     16.4591      2.3928      0.0372     64.5113      7.9418
  1039.7000     16.4926   1315.8826     16.9173      2.3779     -0.0035     63.0660      7.9418
  1039.8000     17.0117   1300.3702     17.6307      2.3693     -0.0668     61.4257      7.9559
  1039.9000     16.8871   1282.3292     18.4547      2.3714      0.0458     62.0902      7.9559
  1040.0000     16.9802   1270.4464     18.9943      2.3698     -0.0246     64.3939      7.9749
  1040.1000     16.8816   1269.5531     19.0347      2.3715     -0.0508     63.9838      7.9749
  1040.2000     15.7726   1268.9061     19.0640      2.3898     -0.0455     59.0759      7.9749
  1040.3000     14.5248   1260.7866     19.4311      2.4103      0.0717     53.4798      7.9909
  1040.4000     14.2591   1248.5326     19.9829      2.4147      0.0508     51.1803      7.9909
  1040.5000     14.1421   1232.6151     20.6960      2.4167      0.0138     50.9221      7.9976
  1040.6000     13.4920   1214.9438     21.4830      2.4274      0.0478     50.0247      7.9976
  1040.7000     13.2446   1207.6891     21.8047      2.4315      0.0470     48.8278      7.9976
  1040.8000     13.5599   1219.6785     21.2726      2.4263     -0.0191     50.4345      7.9898
  1040.9000     13.9531   1237.5176     20.4768      2.4198      0.0306     55.5712      7.9898
  1041.0000     14.1688   1242.2661     20.2641      2.4162     -0.0449     58.8217      7.9728
  1041.1000     13.7367   1239.1599     20.4033      2.4233      0.0225     56.3118      7.9728
  1041.2000     12.8542   1240.3735     20.3489      2.4379     -0.0234     50.9305      7.9728
  1041.3000     12.0324   1244.4550     20.1660      2.4515     -0.0109     46.6722      7.9551
  1041.4000     11.6187   1242.6283     20.2479      2.4583     -0.0312     43.1940      7.9551
  1041.5000     12.0451   1227.3213     20.9323      2.4513     -0.0479     41.7577      7.9377
  1041.6000     13.2606   1204.0560     21.9656      2.4312     -0.0585     45.2497      7.9377
  1041.7000     14.2453   1193.0037     22.4536      2.4150     -0.1084     49.4736      7.9377
  1041.8000     14.1919   1200.3037     22.1315      2.4158     -0.0207     48.2439      7.9257
