~Version Information
 VERS.                                  2.0 : CWLS LAS VERSION
 WRAP.                                   NO : WRAPING MODE
 SWARE .                 MController 2.5.0E : SOFTWARE VERSION
~Well Information
 WELL.                        Triumph 13 10 : WELL
 COMP.             Evergreen Operating Corp : COMPANY
 FLD.                      Purgatorie River : FIELD
 LOC.                NW/SW Sec 10 T32S R66W : LOCATION
 DATE.                           7/22 23/04 : DATE(S) LOGGED
 SRVC.       Blanco Geological Services LLC : SERVICE COMPANY
 STAT.                                   CO : STATE
 CNTY.                           Las Animas : COUNTY
 CTRY.                                  USA : COUNTRY
 API.                       05 071 08108 00 : API NUMBER
 STRT.FT                             414.00 : START DEPTH
 STOP.FT                            2210.00 : STOP DEPTH
 STEP.FT                               1.00 : DEPTH INCREMENT
 NULL.                                 9999 : NULL VALUE
~Curve information
 DEPTH.FT                                   :
 ROP.MIN/FT                                 :
 GAS.UNITS                                  :
~ASCII Log data
# ...
     1414.00        0.233       3307.0 
     1415.00        0.333       3258.8 
     1416.00        0.300       3211.6 
     1417.00        0.300       3174.9 
     1418.00        0.300       3207.6 
     1419.00        0.267       3256.1 
     1420.00        0.300       3248.7 
     1421.00        0.333       3194.1 
     1422.00        0.333       3240.3 
     1423.00        0.300       3189.7 
     1424.00        0.350       3108.5 
     1425.00        0.300       3035.4 
     1426.00        0.267       2881.8 
     1427.00        0.267       2996.0 
     1428.00        0.200       3174.6 
     1429.00        0.200       3370.0 
     1430.00        0.200       3585.9 
     1431.00        0.200       3502.0 
     1432.00        0.267       3386.8 
     1433.00        0.267       3291.8 
     1434.00        0.233       3154.7 
     1435.00        0.267       2820.5 
     1436.00        2.383       5034.3 
     1437.00        0.633       4751.0 
     1438.00        0.433       3696.8 
     1439.00        0.317       3380.1 
     1440.00        0.267       3414.8 
     1441.00        0.233       3489.6 
     1442.00        0.267       3579.5 
     1443.00        0.233       3597.1 
     1444.00        0.233       3557.6 
     1445.00        0.267       3394.2 
     1446.00        0.233       3175.9 
     1447.00        0.300       2973.1 
     1448.00        0.267       2894.9 
     1449.00        0.267       2826.9 
     1450.00        0.300       2716.4 
     1451.00        0.267       2693.5 
     1452.00        0.250       2864.9 
     1453.00        0.233       3040.1 
     1454.00        0.167       3083.6 
     1455.00        0.200       2973.1 
     1456.00        0.267       2880.8 
     1457.00        0.267       2860.6 
     1458.00        0.200       3080.6 
     1459.00        0.233       3176.6 
     1460.00        0.200       3296.2 
     1461.00        0.300       3333.9 
     1462.00        0.300       3286.8 
     1463.00        0.333       2828.9 
     1464.00        0.200       2359.2 
     1465.00        0.233       2254.8 
     1466.00        2.350       4895.9 
     1467.00        0.600       4720.0 
     1468.00        0.367       4230.8 
     1469.00        0.317       3036.4 
     1470.00        0.233       2807.3 
     1471.00        0.267       2725.5 
     1472.00        0.333       3090.0 
     1473.00        0.300       3391.9 
     1474.00        0.267       3404.0 
     1475.00        0.267       3467.7 
     1476.00        0.200       3490.3 
     1477.00        0.133       3434.0 
     1478.00        0.133       3434.0 
     1479.00        0.200       3380.8 
     1480.00        0.400       3195.1 
     1481.00        0.167       3171.9 
     1482.00        0.167       3160.4 
     1483.00        0.283       3113.9 
     1484.00        0.300       3107.2 
     1485.00        0.300       2992.6 
     1486.00        0.267       2581.6 
     1487.00        0.200       2858.2 
     1488.00        0.167       3016.6 
     1489.00        0.167       3265.2 
     1490.00        0.200       3368.3 
     1491.00        0.100       3368.3 
     1492.00        0.133       3272.3 
     1493.00        0.233       2955.2 
     1494.00        0.300       2430.0 
     1495.00        0.267       2084.3 
     1496.00        2.283       5064.7 
     1497.00        0.267       4424.9 
     1498.00        0.267       4240.2 
     1499.00        0.133       3383.8 
     1500.00        0.167       3134.1 
     1501.00        0.300       2928.6 
     1502.00        0.267       2859.2 
     1503.00        0.250       2962.3 
     1504.00        0.233       2978.5 
     1505.00        0.200       2837.7 
     1506.00        0.200       2840.3 
     1507.00        0.200       3022.6 
     1508.00        0.200       3377.7 
     1509.00        0.133       3559.0 
     1510.00        0.167       3570.8 
     1511.00        0.133       3559.7 
     1512.00        0.233       3518.9 
     1513.00        0.267       3264.9 
     1514.00        0.233       2846.7 
     1515.00        0.200       2783.7 
     1516.00        0.233       2804.0 
     1517.00        0.233       2839.0 
     1518.00        0.200       2848.1 
     1519.00        0.233       2850.5 
     1520.00        0.250       2850.1 
     1521.00        0.233       2838.7 
     1522.00        0.200       2686.7 
     1523.00        0.233       2312.1 
     1524.00        0.233       2193.8 
     1525.00        0.267       2005.5 
     1526.00        2.083       5097.7 
     1527.00        0.467       5053.2 
     1528.00        0.433       4243.9 
     1529.00        0.367       3701.5 
     1530.00        0.300       2889.5 
     1531.00        0.300       2566.4 
     1532.00        0.267       2564.1 
     1533.00        0.300       2759.8 
     1534.00        0.267       2920.9 
     1535.00        0.267       3034.4 
     1536.00        0.250       3117.0 
     1537.00        0.233       3124.0 
     1538.00        0.233       3101.1 
     1539.00        0.233       3077.5 
     1540.00        0.233       3019.6 
     1541.00        0.233       2903.4 
     1542.00        0.267       2709.6 
     1543.00        0.233       2456.3 
     1544.00        0.267       2162.5 
     1545.00        0.200       1928.3 
     1546.00        0.200       1837.0 
     1547.00        0.167       2063.8 
     1548.00        0.167       2157.1 
     1549.00        0.167       2451.2 
     1550.00        0.133       2558.0 
     1551.00        0.167       2857.5 
     1552.00        0.217       3101.8 
     1553.00        0.200       3145.9 
     1554.00        0.200       2886.5 
     1555.00        0.267       2567.4 
     1556.00        3.083       5346.7 
     1557.00        0.567       4697.1 
     1558.00        0.300       3377.7 
     1559.00        0.233       3009.8 
     1560.00        0.233       2685.7 
     1561.00        0.200       2397.3 
     1562.00        0.200       2181.7 
     1563.00        0.433       2353.5 
     1564.00        0.233       2586.7 
     1565.00        0.200       2651.7 
     1566.00        0.217       2894.6 
     1567.00        0.200       2975.1 
     1568.00        0.200       2982.9 
     1569.00        0.233       2934.0 
     1570.00        0.200       2865.3 
     1571.00        0.167       2866.6 
     1572.00        0.133       2874.7 
     1573.00        0.167       2852.8 
     1574.00        0.167       2682.0 
     1575.00        0.300       2601.5 
     1576.00        0.167       2436.7 
     1577.00        0.167       2514.9 
     1578.00        0.167       2514.9 
     1579.00        0.133       2589.0 
     1580.00        0.167       2655.7 
     1581.00        0.200       2656.4 
     1582.00        0.167       2439.8 
     1583.00        0.133       2439.8 
     1584.00        0.167       2337.0 
     1585.00        0.183       2050.3 
     1586.00        2.967       5820.4 
     1587.00        0.417       4606.1 
     1588.00        0.267       3811.7 
     1589.00        0.267       3261.5 
     1590.00        0.200       2763.2 
     1591.00        0.200       2549.6 
     1592.00        0.200       2332.3 
     1593.00        0.233       2133.2 
     1594.00        0.167       2197.5 
     1595.00        0.167       2352.5 
     1596.00        0.167       2443.5 
     1597.00        0.167       2730.2 
     1598.00        0.200       2972.4 
     1599.00        0.200       3148.0 
     1600.00        0.267       3211.6 
     1601.00        0.200       3228.5 
     1602.00        0.167       3208.6 
     1603.00        0.183       3156.4 
     1604.00        0.200       3080.6 
     1605.00        0.200       3005.4 
     1606.00        0.233       2926.3 
     1607.00        0.200       2858.2 
     1608.00        0.233       2814.1 
     1609.00        0.200       2795.5 
     1610.00        0.200       2783.1 
     1611.00        0.200       2637.2 
     1612.00        0.200       2521.0 
     1613.00        0.200       2452.6 
