~Version Information
 VERS.                                  2.0 : CWLS LAS VERSION
 WRAP.                                   NO : WRAPING MODE
 SWARE .                 MController 2.5.0J : SOFTWARE VERSION
~Well Information
 WELL.                          Tonto 42-23 : WELL
 COMP.    Pioneer Natural Resources USA Inc : COMPANY
 FLD.                      Purgatoire River : FIELD
 LOC.                SE/NE Sec 23 T32S R66W : LOCATION
 DATE.                              4/16/05 : DATE(S) LOGGED
 SRVC.       Blanco Geological Services LLC : SERVICE COMPANY
 STAT.                                   CO : STATE
 CNTY.                           Las Animas : COUNTY
 CTRY.                                  USA : COUNTRY
 API.                       05-071-08335-00 : API NUMBER
 STRT.FT                             892.00 : START DEPTH
 STOP.FT                            2270.00 : STOP DEPTH
 STEP.FT                               1.00 : DEPTH INCREMENT
 NULL.                                -9999 : NULL VALUE
~Curve information
 DEPTH.FT                                   :
 ROP.MIN/FT                                 :
 GAS.UNITS                                  :
~ASCII Log data
# ...
      1692.0         0.20         55.0 
      1693.0         0.17         55.6 
      1694.0         0.20         56.8 
      1695.0         0.15         55.6 
      1696.0         0.20         50.0 
      1697.0         0.17         37.8 
      1698.0         0.17         31.9 
      1699.0         0.13         30.3 
      1700.0         0.20         33.1 
      1701.0         0.17         37.7 
      1702.0         0.20         46.1 
      1703.0         0.23         64.8 
      1704.0         0.27         96.5 
      1705.0         0.30        140.8 
      1706.0         1.08        205.8 
      1707.0         0.43        183.7 
      1708.0         0.40        134.2 
      1709.0         0.27        100.8 
      1710.0         0.33         84.2 
      1711.0         0.30         72.5 
      1712.0         0.30         67.1 
      1713.0         0.30         64.9 
      1714.0         0.23         63.4 
      1715.0         0.17         63.1 
      1716.0         0.20         63.1 
      1717.0         0.23         63.2 
      1718.0         0.25         62.5 
      1719.0         0.23         61.8 
      1720.0         0.23         61.3 
      1721.0         0.20         60.9 
      1722.0         0.20         60.9 
      1723.0         0.17         59.2 
      1724.0         0.20         57.7 
      1725.0         0.17         54.0 
      1726.0         0.20         53.3 
      1727.0         0.20         50.9 
      1728.0         0.23         41.2 
      1729.0         0.20         29.7 
      1730.0         0.20         29.2 
      1731.0         0.20         39.3 
      1732.0         0.13         47.1 
      1733.0         0.13         59.4 
      1734.0         0.13         73.8 
      1735.0         0.18        100.9 
      1736.0         2.37        245.8 
      1737.0         0.30         81.7 
      1738.0         0.40         68.9 
      1739.0         0.25         59.9 
      1740.0         0.13         59.3 
      1741.0         0.43         60.4 
      1742.0         0.33         60.9 
      1743.0         0.27         61.6 
      1744.0         0.23         61.7 
      1745.0         0.23         61.4 
      1746.0         0.20         60.7 
      1747.0         0.23         59.5 
      1748.0         0.20         58.4 
      1749.0         0.20         58.1 
      1750.0         0.20         57.2 
      1751.0         0.23         56.6 
      1752.0         0.23         55.4 
      1753.0         0.25         54.4 
      1754.0         0.23         53.6 
      1755.0         0.30         52.2 
      1756.0         0.27         49.0 
      1757.0         0.20         45.1 
      1758.0         0.17         40.7 
      1759.0         0.20         30.4 
      1760.0         0.20         22.2 
      1761.0         0.20         19.9 
      1762.0         0.20         22.8 
      1763.0         0.20         29.1 
      1764.0         0.20         40.6 
      1765.0         0.23         58.4 
      1766.0         2.12        247.6 
      1767.0         0.37        242.1 
      1768.0         0.20        236.9 
      1769.0         0.37        220.3 
      1770.0         0.13        185.1 
      1771.0         0.30        174.2 
      1772.0         0.37        154.7 
      1773.0         0.32        143.9 
      1774.0         0.27        135.7 
      1775.0         0.23        132.3 
      1776.0         0.27        131.0 
      1777.0         0.23        129.7 
      1778.0         0.13        128.1 
      1779.0         0.17        125.8 
      1780.0         0.20        123.0 
      1781.0         0.23        119.7 
      1782.0         0.20        116.7 
      1783.0         0.20        115.3 
      1784.0         0.17        114.0 
      1785.0         0.20        112.7 
      1786.0         0.17        106.7 
      1787.0         0.17         92.7 
      1788.0         0.17         79.9 
      1789.0         0.18         78.9 
      1790.0         0.20         75.9 
      1791.0         0.17         65.3 
      1792.0         0.23         59.0 
      1793.0         0.27         58.5 
      1794.0         0.37         69.3 
      1795.0         0.30         92.2 
      1796.0         2.25        356.3 
      1797.0         0.33        216.5 
      1798.0         0.27        175.3 
      1799.0         0.40        146.8 
      1800.0         0.33        119.1 
      1801.0         0.30        107.7 
      1802.0         0.27        101.1 
      1803.0         0.30         96.1 
      1804.0         0.23         93.6 
      1805.0         0.20         92.5 
      1806.0         0.25         92.9 
      1807.0         0.20         94.5 
      1808.0         0.20         96.2 
      1809.0         0.13         97.2 
      1810.0         0.17         97.1 
      1811.0         0.13         97.0 
      1812.0         0.17         96.3 
      1813.0         0.17         94.7 
      1814.0         0.17         93.0 
      1815.0         0.20         92.3 
      1816.0         0.23         91.9 
      1817.0         0.20         89.1 
      1818.0         0.20         87.6 
      1819.0         0.23         85.9 
      1820.0         0.27         73.2 
      1821.0         0.20         51.5 
      1822.0         0.27         43.4 
      1823.0         0.22         45.0 
      1824.0         0.23         48.5 
      1825.0         0.27         57.9 
      1826.0         3.25        329.5 
      1827.0         0.30        121.3 
      1828.0         0.17        106.5 
      1829.0         0.30         99.7 
      1830.0         0.33         91.2 
      1831.0         0.33         85.2 
      1832.0         0.27         84.5 
      1833.0         0.27         84.7 
      1834.0         0.27         84.9 
      1835.0         0.23         85.9 
      1836.0         0.23         86.5 
      1837.0         0.32         86.6 
      1838.0         0.23         86.8 
      1839.0         0.23         85.5 
      1840.0         0.20         84.6 
      1841.0         0.23         83.8 
      1842.0         0.23         84.7 
      1843.0         0.23         84.8 
      1844.0         0.23         83.0 
      1845.0         0.17         80.9 
      1846.0         0.17         76.4 
      1847.0         0.17         63.6 
      1848.0         0.20         48.5 
      1849.0         0.17         37.7 
      1850.0         0.17         36.4 
      1851.0         0.17         40.0 
      1852.0         0.17         45.5 
      1853.0         0.22         59.5 
      1854.0         0.23         84.3 
      1855.0         0.37        142.9 
      1856.0         2.60        325.5 
      1857.0         0.42        130.7 
      1858.0         0.30        106.0 
      1859.0         0.27         91.8 
      1860.0         0.27         83.8 
      1861.0         0.27         76.6 
      1862.0         0.27         75.4 
      1863.0         0.27         78.6 
      1864.0         0.23         83.3 
      1865.0         0.20         86.8 
      1866.0         0.20         88.4 
      1867.0         0.23         88.6 
      1868.0         0.17         88.3 
      1869.0         0.20         87.6 
      1870.0         0.13         85.5 
      1871.0         0.18         83.6 
      1872.0         0.17         81.6 
      1873.0         0.13         79.7 
      1874.0         0.17         78.7 
      1875.0         0.17         78.6 
      1876.0         0.17         78.3 
      1877.0         0.13         74.0 
      1878.0         0.20         65.1 
      1879.0         0.17         49.7 
      1880.0         0.20         40.6 
      1881.0         0.17         37.4 
      1882.0         0.20         39.4 
      1883.0         0.17         44.9 
      1884.0         0.17         51.9 
      1885.0         0.30         69.9 
      1886.0         2.38        196.3 
      1887.0         0.40        115.3 
      1888.0         0.33         96.6 
      1889.0         0.47         82.4 
      1890.0         0.43         82.8 
      1891.0         0.42         76.4 
