~Version Information
VERS.                      2.0: CWLS Log ASCII Standard - VERSION 2.0
WRAP.                       NO: One line per depth step
~Well Information Block
STRT.FT               580.0000: 
STOP.FT              1756.0000: 
STEP.FT                 0.1000: 
NULL.                -999.2500: 
COMP.          Pioneer Natural Resources: COMPANY
WELL.          Lookout Point 31-23 Tr: WELL
FLD.           Purgatoire River: FIELD
LOC.           541' FNL & 1768' FEL: LOCATION
PROV.                 Colorado: PROVINCE
CNTY.               Las Animas: COUNTRY
SRVC.                Patterson: SERVICE COMPANY
DATE.          Mon Jan 24 07:20:20 2005: LOG DATE
UWI.           05 071 08260 00: UNIQUE WELL ID
~Curve Information Block
DEPT.FT            0 000 00 00: Depth
DCAL.in                       : CDL Caliper
DPOR.pu                       : CDL Density Porosity
GR.GAPI                       : Gamma Ray
NPOR.pu                       : Neutron Porosity
RHOB.g/cc                     : CDL Bulk Density
RHOC.g/cc                     : CDL Density Correction
~Parameter Information Block
~A  Depth       DCAL        DPOR         GR         NPOR        RHOB        RHOC    
# ...
  1184.8000      7.9143      0.8058     75.9673     18.3720      2.6367      0.0648
  1184.9000      7.9143      1.5689     70.4354     18.7040      2.6241      0.0835
  1185.0000      7.9112      3.2904     66.6800     19.2989      2.5957      0.0558
  1185.1000      7.9112      5.2340     69.4870     20.4141      2.5636     -0.0009
  1185.2000      7.9112      6.4794     74.3846     21.5612      2.5431      0.0288
  1185.3000      7.9113      6.9106     76.7712     22.1467      2.5360      0.0060
  1185.4000      7.9113      6.8830     80.3976     22.3891      2.5364      0.0368
  1185.5000      7.9143      6.6505     86.5034     22.6685      2.5403      0.0148
  1185.6000      7.9143      6.0878     91.7173     22.8048      2.5496      0.0403
  1185.7000      7.9143      5.0430     96.7617     22.6153      2.5668      0.0524
  1185.8000      7.9191      3.9130    102.2860     22.4478      2.5854      0.1348
  1185.9000      7.9191      3.4622    104.1895     22.8164      2.5929      0.1164
  1186.0000      7.9265      3.6981    100.9128     23.5079      2.5890      0.0991
  1186.1000      7.9265      3.9358     97.7352     23.5611      2.5851      0.0964
  1186.2000      7.9265      3.8617     98.5898     23.2524      2.5863      0.0705
  1186.3000      7.9320      3.7667     99.7907     23.7386      2.5878      0.0934
  1186.4000      7.9320      3.9810     97.1582     24.9256      2.5843      0.0546
  1186.5000      7.9313      4.8649     93.5724     25.8743      2.5697      0.0703
  1186.6000      7.9313      6.6021     93.8000     26.1409      2.5411      0.0593
  1186.7000      7.9313      7.6832     95.6625     25.8221      2.5232     -0.0086
  1186.8000      7.9285      6.5323     96.6345     24.9994      2.5422      0.0504
  1186.9000      7.9285      4.6454     97.8938     23.9403      2.5734      0.1140
  1187.0000      7.9292      4.4183     99.9669     23.2123      2.5771      0.1075
  1187.1000      7.9292      5.4511    102.2007     22.8512      2.5601      0.0049
  1187.2000      7.9292      5.8296    103.5635     22.6599      2.5538      0.0232
  1187.3000      7.9337      5.1933    103.5711     22.6450      2.5643      0.0719
  1187.4000      7.9337      4.2592    102.2956     22.4650      2.5797      0.0997
  1187.5000      7.9377      3.1762    102.4089     21.7286      2.5976      0.0846
  1187.6000      7.9377      1.7581    106.6193     20.5305      2.6210      0.0770
  1187.7000      7.9377      0.5173    110.7858     19.5750      2.6415      0.1374
  1187.8000      7.9395      0.5607    110.8487     19.6172      2.6407      0.1208
  1187.9000      7.9395      2.1789    108.7103     20.3960      2.6140      0.0885
  1188.0000      7.9393      4.2047    106.0470     20.8437      2.5806      0.0385
  1188.1000      7.9393      5.3768    102.6210     20.6424      2.5613      0.0422
  1188.2000      7.9393      5.3088    100.5576     20.6389      2.5624     -0.0326
  1188.3000      7.9376      4.2112    101.0331     21.3699      2.5805      0.0144
  1188.4000      7.9376      3.1857    101.8374     22.2841      2.5974      0.0576
  1188.5000      7.9370      3.0797    103.6819     22.9770      2.5992      0.0393
  1188.6000      7.9370      3.2940    105.5873     23.6053      2.5956      0.0537
  1188.7000      7.9370      3.2479    104.8846     24.0107      2.5964      0.0797
  1188.8000      7.9387      3.2907    104.0289     23.8373      2.5957      0.0606
  1188.9000      7.9387      3.7917    104.2271     23.0730      2.5874      0.0651
  1189.0000      7.9427      4.6996    104.5602     22.1239      2.5725      0.0402
  1189.1000      7.9427      5.4587    104.4688     21.7888      2.5599      0.0015
  1189.2000      7.9427      5.5255    103.0908     22.3254      2.5588      0.0324
  1189.3000      7.9470      5.2561    101.7749     23.0345      2.5633      0.0224
  1189.4000      7.9470      5.2946    102.4083     23.2562      2.5626      0.0613
  1189.5000      7.9446      5.5191    103.7118     23.0804      2.5589      0.0020
  1189.6000      7.9446      5.5216    103.7360     22.9203      2.5589      0.0409
  1189.7000      7.9446      5.4611    104.4613     22.8329      2.5599      0.0444
  1189.8000      7.9407      5.2167    109.0714     22.8107      2.5639      0.0442
  1189.9000      7.9407      4.8762    115.6787     23.1438      2.5695      0.0776
  1190.0000      7.9387      5.2208    118.6744     23.9364      2.5639      0.0419
  1190.1000      7.9387      6.3160    117.9504     24.7708      2.5458      0.0430
  1190.2000      7.9387      7.5772    118.0726     25.2775      2.5250     -0.0083
  1190.3000      7.9368      8.0417    119.1761     25.6027      2.5173      0.0093
  1190.4000      7.9368      7.0904    118.5574     25.7807      2.5330      0.0501
  1190.5000      7.9356      5.6856    118.1788     25.9377      2.5562      0.0792
  1190.6000      7.9356      5.0016    119.8288     26.0424      2.5675      0.0523
  1190.7000      7.9356      4.7193    119.9660     25.7125      2.5721      0.0488
  1190.8000      7.9345      3.8981    119.6073     25.4903      2.5857      0.0384
  1190.9000      7.9345      2.7870    122.6108     25.7610      2.6040      0.0985
  1191.0000      7.9334      2.6601    125.5749     25.6996      2.6061      0.1040
  1191.1000      7.9334      3.6028    123.9358     24.7188      2.5906      0.0527
  1191.2000      7.9334      4.4273    120.0305     23.1293      2.5769      0.0784
  1191.3000      7.9318      4.6591    116.2389     21.7480      2.5731      0.0657
  1191.4000      7.9318      4.6157    112.3975     20.8724      2.5738      0.0730
  1191.5000      7.9231      4.2835    109.9127     20.3916      2.5793      0.0696
  1191.6000      7.9231      3.4545    109.1180     20.3462      2.5930      0.0930
  1191.7000      7.9231      2.4513    106.3276     20.4605      2.6096      0.0841
  1191.8000      7.9144      1.8207    100.2694     20.4392      2.6200      0.0901
  1191.9000      7.9144      1.4375     96.4586     20.2325      2.6263      0.0443
  1192.0000      7.9201      1.0086     97.8674     20.0221      2.6334      0.0752
  1192.1000      7.9201      1.2167    100.7175     20.3814      2.6299      0.0673
  1192.2000      7.9201      2.1630    100.7635     20.9273      2.6143      0.0812
  1192.3000      7.9266      2.5673     98.7121     20.8176      2.6076      0.0596
  1192.4000      7.9266      1.9019     97.3118     20.6727      2.6186      0.0675
  1192.5000      7.9287      1.3536     97.7881     21.1917      2.6277      0.0820
  1192.6000      7.9287      2.0352     99.7255     22.1282      2.6164      0.0963
  1192.7000      7.9287      3.3648    100.1042     23.1732      2.5945      0.0249
  1192.8000      7.9335      4.2039     97.1283     24.0438      2.5806      0.0356
  1192.9000      7.9335      4.8618     94.5427     24.6848      2.5698      0.0607
  1193.0000      7.9427      5.9711     96.8289     25.0158      2.5515      0.0632
  1193.1000      7.9427      6.7102    102.7938     24.7141      2.5393      0.0225
  1193.2000      7.9427      6.2042    109.4848     24.5069      2.5476      0.0562
  1193.3000      7.9532      5.1019    115.0202     25.2033      2.5658      0.0609
  1193.4000      7.9532      4.3113    116.2381     25.8055      2.5789      0.0420
  1193.5000      7.9596      4.1630    115.9169     25.6038      2.5813      0.0452
  1193.6000      7.9596      4.8130    119.9480     25.4531      2.5706      0.0285
  1193.7000      7.9596      6.2980    124.8381     25.7195      2.5461      0.0689
  1193.8000      7.9614      7.9445    125.2676     25.6901      2.5189     -0.0103
  1193.9000      7.9614      8.4106    123.5004     25.1480      2.5112      0.0502
  1194.0000      7.9617      7.4921    122.2360     24.5977      2.5264      0.0475
  1194.1000      7.9617      6.5238    122.0986     24.2035      2.5424      0.0791
  1194.2000      7.9617      6.6371    123.7104     23.6342      2.5405      0.0879
  1194.3000      7.9619      6.9700    123.7309     22.6810      2.5350      0.0646
