~Version Information
VERS.                      2.0: CWLS Log ASCII Standard - VERSION 2.0
WRAP.                       NO: One line per depth step
~Well Information Block
STRT.FT                -7.5000: 
STOP.FT              2226.0000: 
STEP.FT                 0.2500: 
NULL.                -999.2500: 
COMP.          Pioneer Natural Resources: COMPANY
WELL.              Tonto 42-23: WELL
FLD.           Purgatorie River: FIELD
LOC.           2217' FNL & 423' FEL----: LOCATION
PROV.                       CO: PROVINCE
CNTY.               Las Animas: COUNTRY
SRVC.          Patterson Wireline: SERVICE COMPANY
DATE.          Fri Apr 22 11:40:07 2005: LOG DATE
UWI.           05 071 08335 00: UNIQUE WELL ID
~Curve Information Block
DEPT.FT            0 000 00 00: Depth
CCL.                          : Casing Collar Locator
TT3.usec                      : CBL 3' Travel Time
AMP3.mV                       : CBL 3' Amplitude
GR.GAPI                       : Gamma Ray
~Parameter Information Block
~A  Depth       CCL         TT3         AMP3         GR     
# ...
   863.5000      0.0000    770.5435      6.9803    112.6796
   863.7500      0.0000    770.5287      7.0174    112.8978
   864.0000      0.0000    770.4825      7.0901    108.4922
   864.2500      0.0000    770.6031      7.1574    101.6147
   864.5000      0.0000    771.1871      7.1758     96.0215
   864.7500      0.0000    772.7664      7.1294     94.4186
   865.0000      0.0000    776.1354      7.0267     97.2128
   865.2500      0.0000    781.9680      6.8890    102.9025
   865.5000      0.0000    790.0889      6.7491    108.9983
   865.7500      0.0000    799.1021      6.6456    113.0189
   866.0000      0.0000    807.0294      6.6026    113.7207
   866.2500      0.0000    812.5304      6.6142    111.9993
   866.5000      0.0000    815.5197      6.6556    110.2230
   866.7500      0.0000    816.7551      6.7113    110.1464
   867.0000      0.0000    817.0194      6.7849    111.5713
   867.2500      0.0000    816.5096      6.8757    112.9935
   867.5000      0.0000    814.4974      6.9569    113.0041
   867.7500      0.0000    809.3384      6.9886    111.2440
   868.0000      0.0000    799.2605      6.9567    108.9847
   868.2500      0.0000    783.8784      6.8978    108.8542
   868.5000      0.0000    765.1599      6.8749    113.1180
   868.7500      0.0000    746.6851      6.9202    121.5334
   869.0000      0.0000    731.9314      7.0083    130.7477
   869.2500      0.0000    723.0544      7.0882    136.2011
   869.5000      0.0000    720.2900      7.1304    135.4519
   869.7500      0.0000    721.7377      7.1346    130.1975
   870.0000      0.0000    724.2787      7.1035    124.9552
   870.2500      0.0000    725.7103      7.0183    123.4702
   870.5000      0.0000    726.3602      6.8368    126.0378
   870.7500      0.0000    728.7004      6.5190    129.6933
   871.0000      0.0000    735.4560      6.0707    130.6787
   871.2500      0.0000    747.7847      5.5720    127.1783
   871.5000      0.0000    764.4445      5.1529    120.5190
   871.7500      0.0000    782.1655      4.9233    114.1389
   872.0000      0.0000    797.2557      4.9123    111.1717
   872.2500      0.0000    807.5997      5.0597    112.6082
   872.5000      0.0000    813.3917      5.2668    117.3720
   872.7500      0.0000    816.1602      5.4665    123.6229
   873.0000      0.0000    817.3947      5.6539    129.7237
   873.2500      0.0000    817.9545      5.8571    134.4644
   873.5000      0.0000    818.1965      6.0938    137.1780
   873.7500      0.0000    818.1815      6.3528    137.8960
   874.0000      0.0000    817.6428      6.5943    137.0996
   874.2500      0.0000    815.7764      6.7648    135.2628
   874.5000      0.0000    811.2968      6.8272    132.7234
   874.7500      0.0000    803.2350      6.7882    129.6926
   875.0000      0.0000    792.1440      6.6925    126.1400
   875.2500      0.0000    780.2766      6.5942    121.9725
   875.5000      0.0000    770.1324      6.5307    117.6176
   875.7500      0.0000    763.1511      6.5203    114.0406
   876.0000      0.0000    760.0764      6.5725    111.8506
   876.2500      0.0000    761.4033      6.6899    110.6947
   876.5000      0.0000    766.4600      6.8494    109.9038
   876.7500      0.0000    773.2139      6.9856    109.6344
   877.0000      0.0000    780.2225      7.0185    110.9331
   877.2500      0.0000    787.7608      6.9296    114.5996
   877.5000      0.0000    796.0004      6.8046    120.3205
   877.7500      0.0000    803.3364      6.7746    127.0817
   878.0000      0.0000    807.8113      6.9125    133.9521
   878.2500      0.0000    809.4736      7.1977    139.9513
   878.5000      0.0000    810.2897      7.5545    143.5748
   878.7500      0.0000    811.9390      7.8866    143.4286
   879.0000      0.0000    814.4129      8.0905    139.6055
   879.2500      0.0000    816.6948      8.0923    133.9940
   879.5000      0.0000    818.0984      7.8999    129.1271
   879.7500      0.0000    818.6431      7.6152    126.8923
   880.0000      0.0000    818.5869      7.3855    127.9632
   880.2500      0.0000    817.9882      7.3213    131.7316
   880.5000      0.0000    816.7109      7.4394    136.7949
   880.7500      0.0000    814.8070      7.6661    142.1185
   881.0000      0.0000    812.8960      7.8889    147.7552
   881.2500      0.0000    811.8637      8.0120    154.0496
   881.5000      0.0000    811.7906      7.9902    160.2616
   881.7500      0.0000    811.3339      7.8406    164.3648
   882.0000      0.0000    808.6301      7.6356    164.2252
   882.2500      0.0000    802.9874      7.4749    159.1898
   882.5000      0.0000    795.6166      7.4378    150.9826
   882.7500      0.0000    788.7373      7.5368    142.9525
   883.0000      0.0000    784.0706      7.7126    137.9348
   883.2500      0.0000    782.0924      7.8697    136.6815
   883.5000      0.0000    782.2156      7.9251    138.2062
   883.7500      0.0000    783.0468      7.8487    141.1444
   884.0000      0.0000    782.5309      7.6854    144.7424
   884.2500      0.0000    778.8099      7.5371    149.0227
   884.5000      0.0000    771.9581      7.4977    154.1766
   884.7500      0.0000    764.6458      7.5859    159.6627
   885.0000      0.0000    760.0787      7.7365    163.9491
   885.2500      0.0000    759.0817      7.8531    165.2454
   885.5000      0.0000    760.0939      7.8650    162.5656
   885.7500      0.0000    762.1802      7.7483    156.3354
   886.0000      0.0000    766.5872      7.5204    148.2273
   886.2500      0.0000    774.1157      7.2297    140.3313
   886.5000      0.0000    781.8460      6.9441    134.3132
   886.7500      0.0000    784.2649      6.7226    131.1246
   887.0000      0.0000    778.2224      6.5800    130.9029
   887.2500      0.0000    766.3062      6.4859    132.7095
   887.5000      0.0000    755.1597      6.4036    134.7997
   887.7500      0.0000    750.6978      6.3199    135.8649
   888.0000      0.0000    754.6570      6.2313    136.1022
   888.2500      0.0000    764.7532      6.1207    136.8260
   888.5000      0.0000    777.3513      5.9714    138.9613
   888.7500      0.0000    789.8499      5.8062    142.0383
   889.0000      0.0000    801.0817      5.7012    144.7294
   889.2500     -2.0000    809.9725      5.7476    146.1300
   889.5000     -2.0000    814.1454      5.9901    146.3752
   889.7500      0.0000    809.7207      6.4095    146.2486
   890.0000      0.0000    793.3282      6.9451    146.2463
   890.2500      0.0000    766.5450      7.4981    145.8658
   890.5000      0.0000    739.3303      7.9268    144.0074
   890.7500      0.0000    725.6278      8.1037    140.3699
   891.0000      0.0000    731.5948      8.0172    136.3142
   891.2500      0.0000    749.4362      7.7888    133.9595
   891.5000      0.0000    765.2244      7.5717    134.2532
   891.7500      0.0000    770.7654      7.4506    136.0623
   892.0000      0.0000    766.6932      7.4265    137.3443
   892.2500      0.0000    757.7476      7.4569    137.0692
   892.5000      0.0000    748.1602      7.5046    135.7027
   892.7500      0.0000    740.4725      7.5663    134.1674
   893.0000      0.0000    736.4824      7.6597    132.8844
   893.2500      0.0000    738.0220      7.7843    131.5800
   893.5000      0.0000    746.3625      7.9033    129.5973
   893.7500      0.0000    760.8109      7.9661    126.6265
   894.0000      0.0000    778.3395      7.9426    123.2744
   894.2500      0.0000    794.8987      7.8444    120.6403
   894.5000      0.0000    807.4826      7.7243    119.5417
   894.7500      0.0000    815.3380      7.6455    120.5650
   895.0000      0.0000    819.5444      7.6243    124.2812
   895.2500      0.0000    821.6879      7.6048    130.4338
   895.5000      0.0000    822.8742      7.5109    137.0772
   895.7500      0.0000    823.5449      7.3341    141.2651
   896.0000      0.0000    823.6685      7.1606    140.8539
   896.2500      0.0000    822.7797      7.1024    135.7462
   896.5000      0.0000    819.7359      7.1973    127.7467
   896.7500      0.0000    812.7176      7.3666    119.3851
