~Version Information
VERS.                      2.0: CWLS Log ASCII Standard - VERSION 2.0
WRAP.                       NO: One line per depth step
~Well Information Block
STRT.FT               -14.0000: 
STOP.FT              2565.5000: 
STEP.FT                 0.5000: 
NULL.                -999.2500: 
COMP.          Pioneer Natural Resources: COMPANY
WELL.             Carbon 34-21: WELL
FLD.           Purgatorie River: FIELD
LOC.           56' FSL & 2304' FEL: LOCATION
PROV.                 Colorado: PROVINCE
CNTY.               Las Animas: COUNTRY
SRVC.          Patterson Wireline: SERVICE COMPANY
DATE.          Mon Nov 08 08:55:10 2004: LOG DATE
UWI.           05-071-08117-00: UNIQUE WELL ID
~Curve Information Block
DEPT.FT            0 000 00 00: Depth
TT3.usec                      : CBL 3' Travel Time
AMP3.mV                       : CBL 3' Amplitude
GR.GAPI                       : Gamma Ray
CCL.                          : Casing Collar Locator
~Parameter Information Block
~A  Depth       TT3         AMP3         GR         CCL     
# ...
  2532.0000    467.3201      8.9489    118.2109      0.0000
  2532.5000    585.8076      7.9321    118.6322      0.0000
  2533.0000    693.1196      6.2597    113.2632      0.0000
  2533.5000    749.0687      4.6977    105.2110      0.0000
  2534.0000    785.0166      3.6597     99.9269      0.0000
  2534.5000    801.3666      3.1324     92.8535      0.0000
  2535.0000    803.0051      2.8806     86.2889      0.0000
  2535.5000    812.8817      2.9289     88.0835      0.0000
  2536.0000    833.8686      3.8018     91.9416      0.0000
  2536.5000    836.2421      5.9072     94.8452      0.0000
  2537.0000    739.9302      9.2194     98.4736      0.0000
  2537.5000    540.3958     13.9571     97.8027      0.0000
  2538.0000    381.7807     20.8905     96.3073      0.0000
  2538.5000    319.0841     30.5172     98.1911      0.0000
  2539.0000    295.7819     40.9274     98.0028      0.0000
  2539.5000    286.5606     48.1790     96.7268      0.0000
  2540.0000    284.6384     49.7204     98.3118      0.0000
  2540.5000    284.7643     47.0775    102.1085      0.0000
  2541.0000    285.2209     43.7018    106.4050      0.0000
  2541.5000    285.5483     41.6987    109.1279      0.0000
  2542.0000    285.7683     40.5879    109.0224      0.0000
  2542.5000    286.0151     39.5861    106.1913      0.0000
  2543.0000    286.2121     38.7784    105.0188      0.0000
  2543.5000    286.3266     38.2087    102.6117      0.0000
  2544.0000    286.3124     37.8601     92.5290      0.0000
  2544.5000    286.2292     37.4515     79.9915      0.0000
  2545.0000    286.2264     36.7656     73.4750      0.0000
  2545.5000    286.2631     36.0918     72.5304      0.0000
  2546.0000    286.2167     35.6197     75.9685      0.0000
  2546.5000    286.0193     35.4961     81.3098      0.0000
  2547.0000    285.6902     35.6741     81.0924      0.0000
  2547.5000    285.5432     35.6979     77.7069      0.0000
  2548.0000    287.0769     35.1588     76.3851      0.0000
  2548.5000    297.0719     33.3558     76.8253      0.0000
  2549.0000    321.5349     28.7582     77.9769      0.0000
  2549.5000    340.8319     23.5363     75.9305      0.0000
  2550.0000    342.1815     21.8493     74.0678      0.0000
  2550.5000    342.2681     21.8756     76.2974      0.0000
  2551.0000    351.9329     21.0058     70.2562   -999.2500
  2551.5000    363.9649     19.9998     45.6383   -999.2500
  2552.0000    355.6920     21.7564     16.6986   -999.2500
  2552.5000    337.5995     24.7212      2.8544   -999.2500
  2553.0000    333.8607     24.2914      0.2023   -999.2500
  2553.5000    353.0562     19.9490      0.0051   -999.2500
  2554.0000    393.9091     15.3309   -999.2500   -999.2500
  2554.5000    461.9259     11.7818   -999.2500   -999.2500
  2555.0000    531.2424      9.1941   -999.2500   -999.2500
  2555.5000    527.1745      8.4301   -999.2500   -999.2500
  2556.0000    478.2978      9.5413   -999.2500   -999.2500
  2556.5000    427.3355     12.7292   -999.2500   -999.2500
  2557.0000    385.7207     17.3189   -999.2500   -999.2500
  2557.5000    347.8623     20.0013   -999.2500   -999.2500
  2558.0000    275.0213     17.3072   -999.2500   -999.2500
  2558.5000    141.4522      9.6976   -999.2500   -999.2500
  2559.0000     36.2374      3.6294   -999.2500   -999.2500
  2559.5000      3.9903      1.7649   -999.2500   -999.2500
  2560.0000      0.1734      1.5419   -999.2500   -999.2500
  2560.5000   -999.2500   -999.2500   -999.2500   -999.2500
  2561.0000   -999.2500   -999.2500   -999.2500   -999.2500
  2561.5000   -999.2500   -999.2500   -999.2500   -999.2500
  2562.0000   -999.2500   -999.2500   -999.2500   -999.2500
  2562.5000   -999.2500   -999.2500   -999.2500   -999.2500
  2563.0000   -999.2500   -999.2500   -999.2500   -999.2500
  2563.5000   -999.2500   -999.2500   -999.2500   -999.2500
  2564.0000   -999.2500   -999.2500   -999.2500   -999.2500
  2564.5000   -999.2500   -999.2500   -999.2500   -999.2500
  2565.0000   -999.2500   -999.2500   -999.2500   -999.2500
  2565.5000   -999.2500   -999.2500   -999.2500   -999.2500
