~Version Information
VERS.                      2.0: CWLS Log ASCII Standard - VERSION 2.0
WRAP.                       NO: One line per depth step
~Well Information Block
STRT.FT               494.2500: 
STOP.FT              1992.0000: 
STEP.FT                 0.2500: 
NULL.                -999.2500: 
COMP.          Petrogulf Corporation: COMPANY
WELL.               Furu 6-23R: WELL
FLD.           Purgatoire River: FIELD
LOC.           2211' FSL & 1780' FWL--: LOCATION
CNTY.               Las Animas: COUNTY
SRVC.                Patterson: SERVICE COMPANY
DATE.          Wed Jun 21 14:57:59 2006: LOG DATE
UWI.           05 071 08266 00: UNIQUE WELL ID
STAT.                 Colorado: STATE
~Curve Information Block
DEPT.FT            0 000 00 00: Depth
GR.GAPI                       : Gamma Ray
RILD.Ohm-m                    : DIL Deep Resistivity
RILM.Ohm-m                    : DIL Medium Resistivity
RLL3.Ohm-m                    : DIL Shallow Resistivity
SP.mV                         : DIL Spontaneous Potential
~Parameter Information Block
~A  Depth        GR         RILD        RILM        RLL3         SP     
# ...
   522.2500     90.6561   -999.2500   -999.2500   -999.2500   2020.0000
   522.5000     90.9843   -999.2500   -999.2500   -999.2500   2020.0000
   522.7500     91.9009   -999.2500   -999.2500   -999.2500   2020.0000
   523.0000     93.6298   -999.2500   -999.2500   -999.2500   2020.0000
   523.2500     94.6544   -999.2500   -999.2500   -999.2500   2020.0000
   523.5000     95.9489   -999.2500   -999.2500   -999.2500   2020.0000
   523.7500     96.9196   -999.2500   -999.2500   -999.2500   2020.0000
   524.0000     98.8905   -999.2500   -999.2500   -999.2500   2020.0000
   524.2500    100.4146   -999.2500   -999.2500   -999.2500   2020.0000
   524.5000    102.5059   -999.2500   -999.2500   -999.2500   2020.0000
   524.7500    103.7830   -999.2500   -999.2500   -999.2500   2020.0000
   525.0000    106.2512   -999.2500   -999.2500   -999.2500   2020.0000
   525.2500    108.5588   -999.2500   -999.2500   -999.2500   2020.0000
   525.5000    112.4037   -999.2500   -999.2500   -999.2500   2020.0000
   525.7500    114.4727   -999.2500   -999.2500   -999.2500   2020.0000
   526.0000    115.9129   -999.2500   -999.2500   -999.2500   2020.0000
   526.2500    115.5977   -999.2500   -999.2500   -999.2500   2020.0000
   526.5000    113.2942   -999.2500   -999.2500   -999.2500   2020.0000
   526.7500    110.8160   -999.2500   -999.2500   -999.2500   2020.0000
   527.0000    106.6603   -999.2500   -999.2500   -999.2500   2020.0000
   527.2500    104.1866   -999.2500   -999.2500   -999.2500   2020.0000
   527.5000    101.2587   -999.2500   -999.2500   -999.2500   2020.0000
   527.7500     99.6217   -999.2500   -999.2500   -999.2500   2020.0000
   528.0000     97.2420   -999.2500   -999.2500   -999.2500   2020.0000
   528.2500     95.6642      9.6898   -999.2500   -999.2500   2020.0000
   528.5000     93.2575      9.8498   -999.2500   -999.2500   2020.0000
   528.7500     91.4445      9.9915   -999.2500   -999.2500   2020.0000
   529.0000     88.3083     10.1001   -999.2500   -999.2500   2020.0000
   529.2500     86.3461     10.1722   -999.2500   -999.2500   2020.0000
   529.5000     84.7975     10.2144   -999.2500   -999.2500   2020.0000
   529.7500     85.1608     10.2380   -999.2500   -999.2500   2020.0000
   530.0000     87.7907     10.2533   -999.2500   -999.2500   2020.0000
   530.2500     90.7224     10.2683   -999.2500   2000.0000   2020.0000
   530.5000     96.7235     10.2893   -999.2500   2000.0000   2020.0000
   530.7500    101.8189     10.3205   -999.2500   2000.0000   2020.0000
   531.0000    110.8099     10.3613   -999.2500   2000.0000   2020.0000
   531.2500    116.9652     10.4057   -999.2500   2000.0000   2020.0000
   531.5000    124.3652     10.4431   -999.2500   2000.0000   2020.0000
   531.7500    127.1682     10.4655   -999.2500   2000.0000   2020.0000
   532.0000    128.4504     10.4730   -999.2500   2000.0000   2020.0000
   532.2500    128.3179     10.4761   -999.2500   2000.0000   2020.0000
   532.5000    127.9470     10.4892   -999.2500   2000.0000   2020.0000
   532.7500    127.7147     10.5215   -999.2500   2000.0000   2020.0000
   533.0000    127.1767     10.5716 100000.0000   2000.0000   2020.0000
   533.2500    126.6800     10.6294 100000.0000   2000.0000   2020.0000
   533.5000    125.8144     10.6834 100000.0000   2000.0000   2020.0000
   533.7500    125.1327     10.7260 100000.0000   2000.0000   2020.0000
   534.0000    123.8075     10.7536 100000.0000   2000.0000   2020.0000
   534.2500    122.5924     10.7637 100000.0000   2000.0000   2020.0000
   534.5000    119.9626     10.7545 100000.0000   2000.0000   2020.0000
   534.7500    117.5168     10.7279 100000.0000   2000.0000   2020.0000
   535.0000    112.8195     10.6917 100000.0000   2000.0000   2020.0000
   535.2500    109.2407     10.6586 100000.0000   2000.0000   2020.0000
   535.5000    103.9254     10.6400 100000.0000   2000.0000   2020.0000
   535.7500    100.8582     10.6413 100000.0000   2000.0000   2020.0000
   536.0000     97.3953     10.6601 100000.0000   2000.0000   2020.0000
   536.2500     95.9000     10.6875 100000.0000   2000.0000   2020.0000
   536.5000     95.0403     10.7123 100000.0000   2000.0000   2020.0000
   536.7500     95.6250     10.7243 100000.0000   2000.0000   2020.0000
   537.0000     98.4434     10.7169 100000.0000   2000.0000   2020.0000
   537.2500    101.3178     10.6878 100000.0000   2000.0000   2020.0000
   537.5000    105.9110     10.6389 100000.0000   2000.0000   2020.0000
   537.7500    108.3029     10.5762 100000.0000   2000.0000   2020.0000
   538.0000    109.5421     10.5078 100000.0000   2000.0000   2020.0000
   538.2500    108.2131     10.4417 100000.0000   2000.0000   2020.0000
   538.5000    102.7521     10.3833 100000.0000   2000.0000   2020.0000
   538.7500     97.4324     10.3361 100000.0000   2000.0000   2020.0000
   539.0000     89.1716     10.3038 100000.0000   2000.0000   2020.0000
   539.2500     84.7507     10.2921 100000.0000   2000.0000   2020.0000
   539.5000     80.5469     10.3066 100000.0000   2000.0000   2020.0000
   539.7500     78.9702     10.3462 100000.0000   2000.0000   2020.0000
   540.0000     77.3756     10.3996 100000.0000   2000.0000   2020.0000
   540.2500     76.5782     10.4473 100000.0000   2000.0000   2020.0000
   540.5000     76.2591     10.4718 100000.0000   2000.0000   2020.0000
   540.7500     77.1301     10.4699 100000.0000   2000.0000   2020.0000
   541.0000     80.5031     10.4554 100000.0000   2000.0000   2020.0000
   541.2500     83.9029     10.4517 100000.0000   2000.0000   2020.0000
   541.5000     89.6426     10.4787 100000.0000   2000.0000   2020.0000
   541.7500     93.2115     10.5436 100000.0000   2000.0000   2020.0000
   542.0000     97.5882     10.6389 100000.0000   2000.0000   2020.0000
   542.2500     99.9729     10.7465 100000.0000   2000.0000   2020.0000
   542.5000    103.5418     10.8440 100000.0000   2000.0000   2020.0000
   542.7500    106.5360     10.9122 100000.0000   2000.0000   2020.0000
   543.0000    112.6423     10.9449 100000.0000   2000.0000   2020.0000
   543.2500    117.3969     10.9622 100000.0000   2000.0000   2020.0000
   543.5000    123.0066     11.0193 100000.0000   2000.0000   2020.0000
   543.7500    123.9009     11.1991 100000.0000   2000.0000   2020.0000
   544.0000    119.8716     11.5857 100000.0000   2000.0000   2020.0000
   544.2500    114.7518     12.2262 100000.0000   2000.0000   2020.0000
   544.5000    106.7171     13.0859 100000.0000   2000.0000   2020.0000
   544.7500    102.4528     14.0119 100000.0000   2000.0000   2020.0000
   545.0000     98.0943     14.7511 100000.0000   2000.0000   2020.0000
   545.2500     96.1041     15.0705 100000.0000   2000.0000   2020.0000
   545.5000     93.5840     14.9108 100000.0000   2000.0000   2020.0000
   545.7500     91.8830     14.4156 100000.0000   2000.0000   2020.0000
   546.0000     89.2075     13.8212 100000.0000   2000.0000   2020.0000
   546.2500     87.4915     13.3405 100000.0000   2000.0000   2020.0000
   546.5000     85.1436     13.1085 100000.0000   2000.0000   2020.0000
   546.7500     83.4210     13.1560 100000.0000   2000.0000   2020.0000
   547.0000     79.6551     13.3664 100000.0000   2000.0000   2020.0000
   547.2500     76.1703     13.4401 100000.0000   2000.0000   2020.0000
   547.5000     70.4048     13.0079 100000.0000   2000.0000   2020.0000
   547.7500     67.0290     11.9526 100000.0000   2000.0000   2020.0000
   548.0000     63.4685     10.5581 100000.0000   2000.0000   2020.0000
   548.2500     62.1136      9.2219 100000.0000   2000.0000   2020.0000
   548.5000     61.3402      8.1660 100000.0000   2000.0000   2020.0000
   548.7500     61.5280      7.4315 100000.0000   2000.0000   2020.0000
   549.0000     62.8502      6.9855 100000.0000   2000.0000   2020.0000
   549.2500     64.5710      6.8009 100000.0000   2000.0000   2020.0000
   549.5000     68.7626      6.8905 100000.0000   2000.0000   2020.0000
   549.7500     72.7677      7.3071 100000.0000   2000.0000   2020.0000
   550.0000     80.5898      8.0960 100000.0000   2000.0000   2020.0000
