~Version Information
VERS.                      2.0: CWLS Log ASCII Standard - VERSION 2.0
WRAP.                       NO: One line per depth step
~Well Information Block
STRT.FT                -2.5000: 
STOP.FT              2329.5000: 
STEP.FT                 0.2500: 
NULL.                -999.2500: 
COMP.          Pioneer Natural Resources: COMPANY
WELL.              Whinny 42-2: WELL
FLD.           Purgatorie River: FIELD
LOC.           1836' FNL & 466' FEL--: LOCATION
PROV.                       CO: PROVINCE
CNTY.               Las Animas: COUNTRY
SRVC.          Patterson Wireline: SERVICE COMPANY
DATE.          Mon Aug 29 13:18:04 2005: LOG DATE
UWI.           05 071 08406 00: UNIQUE WELL ID
~Curve Information Block
DEPT.FT            0 000 00 00: Depth
CCL.                          : Casing Collar Locator
TT3.usec                      : CBL 3' Travel Time
AMP3.mV                       : CBL 3' Amplitude
GR.GAPI                       : Gamma Ray
~Parameter Information Block
~A  Depth       CCL         TT3         AMP3         GR     
# ...
  1371.0000      0.0000    728.8615      4.7934    112.8523
  1371.2500      2.0000    741.9916      4.7480    116.6225
  1371.5000      0.0000    752.2242      4.7854    121.1928
  1371.7500      0.0000    759.8358      4.8641    125.9110
  1372.0000     -2.0000    765.3542      4.9364    129.8210
  1372.2500      0.0000    767.1379      4.9816    132.1207
  1372.5000      0.0000    762.6160      5.0348    132.2989
  1372.7500      0.0000    751.5088      5.1746    130.4369
  1373.0000      0.0000    736.7461      5.4562    127.5731
  1373.2500      0.0000    721.7886      5.8525    125.3588
  1373.5000      0.0000    707.8763      6.2680    124.9495
  1373.7500      0.0000    694.6970      6.6051    126.1106
  1374.0000      0.0000    682.7582      6.8159    127.4757
  1374.2500      0.0000    673.5691      6.9059    127.8312
  1374.5000      0.0000    667.9222      6.9057    127.1535
  1374.7500      0.0000    665.1545      6.8437    126.3122
  1375.0000      0.0000    664.0021      6.7377    125.9363
  1375.2500      0.0000    663.5734      6.6002    125.8702
  1375.5000      0.0000    663.6804      6.4454    125.5694
  1375.7500      0.0000    664.8751      6.2898    124.7171
  1376.0000      0.0000    668.4468      6.1480    123.4781
  1376.2500      0.0000    676.1417      6.0283    122.2115
  1376.5000      0.0000    689.3485      5.9315    120.9105
  1376.7500      0.0000    707.9482      5.8545    119.0502
  1377.0000      0.0000    729.6377      5.7948    116.1743
  1377.2500      0.0000    750.4507      5.7515    112.5483
  1377.5000      0.0000    766.3936      5.7230    109.0513
  1377.7500      0.0000    774.9318      5.7052    106.6140
  1378.0000      0.0000    775.1156      5.6945    106.0216
  1378.2500      0.0000    766.8940      5.6878    108.0960
  1378.5000      0.0000    751.1765      5.6797    113.4274
  1378.7500      0.0000    730.5951      5.6563    121.5453
  1379.0000      0.0000    709.4111      5.5971    130.8325
  1379.2500      0.0000    692.1551      5.4862    139.5776
  1379.5000      0.0000    682.3240      5.3248    146.7375
  1379.7500      0.0000    681.9225      5.1337    151.6414
  1380.0000      0.0000    690.8995      4.9441    153.4511
  1380.2500      0.0000    705.9418      4.7860    151.2011
  1380.5000      0.0000    720.5538      4.6797    144.4984
  1380.7500      0.0000    728.5197      4.6307    134.4043
  1381.0000      0.0000    728.4502      4.6305    123.4939
  1381.2500      0.0000    724.4518      4.6650    114.6601
  1381.5000      0.0000    722.1500      4.7248    109.8314
  1381.7500      0.0000    724.0773      4.8106    109.6393
  1382.0000      0.0000    727.8412      4.9330    113.4882
  1382.2500      0.0000    727.8788      5.1026    119.5717
  1382.5000      0.0000    719.9663      5.3092    125.4343
  1382.7500      0.0000    705.0938      5.5060    129.1394
  1383.0000      0.0000    688.6721      5.6207    130.0875
  1383.2500      0.0000    675.9301      5.5912    128.8163
  1383.5000      0.0000    668.7380      5.3916    126.3471
  1383.7500      0.0000    666.4540      5.0304    123.7156
  1384.0000      0.0000    668.3057      4.5399    121.5732
  1384.2500      0.0000    674.0982      3.9770    119.7614
  1384.5000      0.0000    682.9014      3.4201    117.2676
  1384.7500      0.0000    691.9588      2.9424    112.9535
  1385.0000      0.0000    698.0616      2.5790    106.6187
  1385.2500      0.0000    700.5843      2.3232     99.3035
  1385.5000      0.0000    702.6455      2.1503     92.3955
  1385.7500      0.0000    708.3126      2.0414     86.6867
  1386.0000      0.0000    718.3568      1.9908     82.4459
  1386.2500      0.0000    729.0606      2.0020     80.0676
  1386.5000      0.0000    735.4123      2.0798     80.3012
  1386.7500      0.0000    735.3017      2.2259     83.7964
  1387.0000      0.0000    730.4313      2.4432     90.3558
  1387.2500      0.0000    723.6650      2.7447     98.4672
  1387.5000      0.0000    716.5258      3.1546    105.8357
  1387.7500      0.0000    709.4536      3.6883    110.8592
  1388.0000      0.0000    703.3800      4.3195    113.6216
  1388.2500      0.0000    700.2019      4.9659    115.3519
  1388.5000      0.0000    701.8266      5.5199    117.2523
  1388.7500      0.0000    708.8101      5.9086    119.9115
  1389.0000      0.0000    719.3467      6.1308    123.1122
  1389.2500      0.0000    729.5302      6.2413    125.7262
  1389.5000      0.0000    735.4598      6.3041    126.2527
  1389.7500      0.0000    735.7175      6.3582    124.0726
  1390.0000      0.0000    731.9458      6.4134    120.1508
  1390.2500      0.0000    726.9651      6.4677    116.1915
  1390.5000      0.0000    722.3129      6.5231    113.1884
  1390.7500      0.0000    717.8860      6.5822    111.0944
  1391.0000      0.0000    714.0087      6.6387    109.5117
  1391.2500      0.0000    712.7800      6.6759    107.9725
  1391.5000      0.0000    716.3148      6.6805    105.8998
  1391.7500      0.0000    723.9488      6.6560    103.1986
  1392.0000      0.0000    731.9764      6.6223    100.8147
  1392.2500      0.0000    736.3672      6.6005    100.1036
  1392.5000      0.0000    735.6287      6.6009    101.6107
  1392.7500      0.0000    731.2897      6.6232    104.5666
  1393.0000      0.0000    726.0389      6.6646    107.3773
  1393.2500      0.0000    721.8989      6.7233    108.6021
  1393.5000      0.0000    720.0969      6.7939    107.7459
  1393.7500      0.0000    721.6696      6.8642    105.3790
  1394.0000      0.0000    727.1407      6.9178    102.5609
  1394.2500      0.0000    735.5545      6.9440     99.9920
  1394.5000      0.0000    744.5178      6.9443     97.7385
  1394.7500      0.0000    751.6677      6.9306     95.9975
  1395.0000      0.0000    756.0709      6.9179     95.8538
  1395.2500      0.0000    758.2081      6.9166     98.3502
  1395.5000      0.0000    759.0272      6.9255    102.4929
  1395.7500      0.0000    759.2289      6.9295    105.2584
  1396.0000      0.0000    759.1605      6.9063    104.4866
  1396.2500      0.0000    758.9937      6.8410    101.1610
  1396.5000      0.0000    758.8290      6.7365     98.0956
  1396.7500      0.0000    758.7133      6.6143     96.8397
  1397.0000      0.0000    758.6298      6.5030     96.5779
  1397.2500      0.0000    758.5411      6.4254     95.6931
  1397.5000      0.0000    758.4369      6.3884     93.4588
  1397.7500      0.0000    758.3411      6.3837     90.0496
  1398.0000      0.0000    758.2709      6.3969     85.7809
  1398.2500      0.0000    758.1251      6.4157     81.0446
  1398.5000      0.0000    757.4756      6.4322     76.6945
  1398.7500      0.0000    755.3360      6.4398     73.7326
  1399.0000      0.0000    750.3223      6.4313     72.5162
  1399.2500      0.0000    741.8560      6.4002     72.7652
  1399.5000      0.0000    732.0013      6.3431     74.4718
  1399.7500      0.0000    725.6240      6.2662     78.2667
  1400.0000      0.0000    727.1556      6.1915     84.5043
  1400.2500      0.0000    736.4938      6.1535     92.0755
  1400.5000      0.0000    748.6868      6.1844     98.3341
  1400.7500      0.0000    757.7635      6.2974    100.4109
  1401.0000      0.0000    760.3661      6.4784     97.1228
  1401.2500      0.0000    756.5928      6.6932     90.1333
  1401.5000      0.0000    749.4350      6.9070     83.3099
  1401.7500      0.0000    743.7156      7.1015     80.4789
  1402.0000      0.0000    743.1588      7.2712     83.1718
  1402.2500      0.0000    746.7098      7.4093     90.0131
  1402.5000      0.0000    748.9034      7.5090     98.0243
  1402.7500      0.0000    745.3519      7.5732    104.4274
  1403.0000      0.0000    737.3718      7.6136    107.4569
  1403.2500      0.0000    730.3212      7.6359    106.2957
  1403.5000      0.0000    727.8232      7.6346    101.1987
  1403.7500      0.0000    728.4595      7.6007     93.8144
  1404.0000      0.0000    728.0756      7.5289     86.8148
  1404.2500      0.0000    724.4955      7.4207     82.5820
