~Version Information
VERS.                      2.0: CWLS Log ASCII Standard - VERSION 2.0
WRAP.                       NO: One line per depth step
~Well Information Block
STRT.FT               451.7500: 
STOP.FT              1387.0000: 
STEP.FT                 0.2500: 
NULL.                -999.2500: 
COMP.          Petrogulf Corporation: COMPANY
WELL.          Great Plains 22-22R: WELL
FLD.           Purgatoire River: FIELD
LOC.           2042' FNL & 1657' FWL--: LOCATION
PROV.                 Colorado: PROVINCE
CNTY.               Las Animas: COUNTRY
SRVC.                Patterson: SERVICE COMPANY
DATE.          Fri Sep 09 10:42:01 2005: LOG DATE
UWI.           05 071 08028 00: UNIQUE WELL ID
~Curve Information Block
DEPT.FT            0 000 00 00: Depth
SP.mV                         : DIL Spontaneous Potential
RILD.Ohm-m                    : DIL Deep Resistivity
RILM.Ohm-m                    : DIL Medium Resistivity
RLL3.Ohm-m                    : DIL Shallow Resistivity
GR.GAPI                       : Gamma Ray
~Parameter Information Block
~A  Depth        SP         RILD        RILM        RLL3         GR     
# ...
  1347.7500     85.8814      9.8055     10.4429     11.3411    137.4500
  1348.0000     85.7042      9.8158     10.5202     11.6642    138.2707
  1348.2500     85.5714      9.8335     10.5951     11.9186    138.6117
  1348.5000     85.4943      9.8648     10.6678     12.1025    138.8195
  1348.7500     85.4767      9.9151     10.7387     12.2307    139.1909
  1349.0000     85.5172      9.9870     10.8075     12.3247    140.2794
  1349.2500     85.6129     10.0789     10.8725     12.3995    140.7793
  1349.5000     85.7619     10.1862     10.9307     12.4578    139.8360
  1349.7500     85.9597     10.3040     10.9798     12.4932    137.8816
  1350.0000     86.1957     10.4295     11.0214     12.4988    134.1191
  1350.2500     86.4517     10.5624     11.0644     12.4737    132.0690
  1350.5000     86.7054     10.7035     11.1256     12.4264    130.7418
  1350.7500     86.9344     10.8525     11.2259     12.3832    131.0220
  1351.0000     87.1209     11.0082     11.3830     12.4027    132.4008
  1351.2500     87.2533     11.1708     11.6034     12.5765    133.2251
  1351.5000     87.3273     11.3443     11.8789     12.9942    133.0826
  1351.7500     87.3441     11.5364     12.1887     13.6818    131.8366
  1352.0000     87.3093     11.7579     12.5079     14.5579    129.3607
  1352.2500     87.2326     12.0187     12.8186     15.4436    128.4854
  1352.5000     87.1271     12.3267     13.1176     16.1278    129.4566
  1352.7500     87.0060     12.6862     13.4174     16.4637    131.1801
  1353.0000     86.8789     13.0987     13.7423     16.4513    133.6730
  1353.2500     86.7507     13.5627     14.1222     16.2595    134.6282
  1353.5000     86.6226     14.0726     14.5896     16.1686    134.8072
  1353.7500     86.4941     14.6169     15.1755     16.4725    133.9226
  1354.0000     86.3648     15.1779     15.9029     17.3969    130.0905
  1354.2500     86.2364     15.7349     16.7801     19.0586    125.4226
  1354.5000     86.1151     16.2720     17.7924     21.4412    116.2333
  1354.7500     86.0125     16.7845     18.9005     24.3662    110.1845
  1355.0000     85.9439     17.2803     20.0456     27.4736    103.5566
  1355.2500     85.9281     17.7746     21.1611     30.2621    101.0234
  1355.5000     85.9867     18.2806     22.1874     32.2188     98.8604
  1355.7500     86.1439     18.8025     23.0809     33.0011     97.7146
  1356.0000     86.4210     19.3294     23.8172     32.5902     96.0521
  1356.2500     86.8248     19.8360     24.3876     31.3208     95.2846
  1356.5000     87.3334     20.2874     24.7949     29.7422     95.0950
  1356.7500     87.8932     20.6484     25.0487     28.3570     95.4497
  1357.0000     88.4381     20.8921     25.1611     27.3899     95.9813
  1357.2500     88.9189     21.0059     25.1421     26.7465     96.1100
  1357.5000     89.3231     20.9933     24.9977     26.1806     96.3114
  1357.7500     89.6678     20.8734     24.7329     25.5151     96.9235
  1358.0000     89.9798     20.6756     24.3602     24.7406     99.1051
  1358.2500     90.2795     20.4320     23.9060     23.9598    101.1290
  1358.5000     90.5782     20.1695     23.4074     23.2758    103.2242
  1358.7500     90.8784     19.9057     22.8996     22.7250    102.6283
  1359.0000     91.1768     19.6490     22.4053     22.2743     97.7153
  1359.2500     91.4668     19.4021     21.9328     21.8495     92.6091
  1359.5000     91.7402     19.1690     21.4807     21.3806     85.1862
  1359.7500     91.9883     18.9587     21.0455     20.8533     81.7456
  1360.0000     92.2024     18.7831     20.6284     20.3288     79.1679
  1360.2500     92.3771     18.6494     20.2388     19.8939     78.5763
  1360.5000     92.5125     18.5559     19.8931     19.5834     78.4328
  1360.7500     92.6142     18.4929     19.6096     19.3594     78.6246
  1361.0000     92.6877     18.4473     19.4032     19.1737     79.0585
  1361.2500     92.7336     18.4075     19.2843     19.0483     79.0407
  1361.5000     92.7478     18.3651     19.2580     19.0898     77.8238
  1361.7500     92.7269     18.3161     19.3233     19.4132     76.1939
  1362.0000     92.6734     18.2631     19.4691     20.0313     73.2956
  1362.2500     92.5963     18.2148     19.6710     20.8052     71.6527
  1362.5000     92.5050     18.1833     19.8916     21.5115     70.1925
  1362.7500     92.4047     18.1798     20.0868     21.9738     69.8202
  1363.0000     92.2963     18.2102     20.2199     22.1491     69.6364
  1363.2500     92.1820     18.2736     20.2762     22.1066     69.5631
  1363.5000     92.0678     18.3631     20.2682     21.9413     69.7872
  1363.7500     91.9620     18.4686     20.2255     21.7032     70.4917
  1364.0000     91.8706     18.5798     20.1774     21.3921     72.6281
  1364.2500     91.7964     18.6884     20.1413     21.0045     74.6649
  1364.5000     91.7410     18.7875     20.1249     20.5735     78.4599
  1364.7500     91.7053     18.8727     20.1355     20.1687     81.5110
  1365.0000     91.6898     18.9425     20.1843     19.8818     86.8199
  1365.2500     91.6943     18.9964     20.2812     19.8268     90.5568
  1365.5000     91.7177     19.0326     20.4268     20.1187     95.6014
  1365.7500     91.7583     19.0443     20.6094     20.7894     98.0702
  1366.0000     91.8133     19.0205     20.8104     21.6967     99.4842
  1366.2500     91.8791     18.9500     21.0116     22.5554     98.3158
  1366.5000     91.9533     18.8296     21.1992     23.1218     93.0908
  1366.7500     92.0357     18.6725     21.3627     23.3768     87.9275
  1367.0000     92.1272     18.5084     21.4932     23.5135     79.3400
  1367.2500     92.2269     18.3734     21.5836     23.7234     73.3084
  1367.5000     92.3305     18.2947     21.6320     23.9894     62.2807
  1367.7500     92.4319     18.2805     21.6425     24.0910     52.5863
  1368.0000     92.5255     18.3220     21.6249     23.8141     35.2106
  1368.2500     92.6056     18.4026     21.5909     23.1513     23.7691
  1368.5000     92.6654     18.5067     21.5532     22.3152     10.5562
  1368.7500     92.6984     18.6221     21.5254     21.5851      5.2261
  1369.0000     92.7017     18.7381     21.5213     21.1549      1.4052
  1369.2500     92.6779     18.9044     21.5541     21.0932      0.4885
  1369.5000     92.6332     19.0648     21.6331     21.3810      0.0750
  1369.7500     92.5773     19.1714     21.7618     21.9365      0.0169
  1370.0000     92.5214     19.3009     21.9334     22.6156      0.0000
  1370.2500     92.4753     19.4666     22.1278     23.2342   -999.2500
  1370.5000     92.4447     19.6663     22.3148     23.6353   -999.2500
  1370.7500     92.4282     19.8858     22.4667     23.7601   -999.2500
  1371.0000     92.4190     20.1120     22.5736     23.6702   -999.2500
  1371.2500     92.4087     20.3427     22.6483     23.5017   -999.2500
  1371.5000     92.3785     20.5907     22.7171     23.3765   -999.2500
  1371.7500     92.2681     20.8869     22.8049     23.3381   -999.2500
  1372.0000     91.7973     21.3013     22.9261     23.3629   -999.2500
  1372.2500     90.0125     21.9868     23.0831     23.4239   -999.2500
  1372.5000     84.5747     23.2392     23.2663     23.5366   -999.2500
  1372.7500     71.5744     25.5753     23.4562     23.7444   -999.2500
  1373.0000     47.3198     29.7204     23.6282     24.0707   -999.2500
  1373.2500     12.0540     37.5727     23.7611     24.4838   -999.2500
  1373.5000    -27.8902     52.3433     23.8447     24.8988   -999.2500
  1373.7500    -63.1297     81.6008     23.8823     25.2052   -999.2500
  1374.0000    -87.3436    144.4854     23.8875     25.3097   -999.2500
  1374.2500   -100.3019    296.7183     23.8766     25.1792   -999.2500
  1374.5000   -105.7029    745.1286     23.8635     24.8681   -999.2500
  1374.7500   -107.4561   2959.0500     23.8564     24.5042   -999.2500
  1375.0000   -107.8993 100000.0000     23.8570     24.2286   -999.2500
  1375.2500   -107.9866 100000.0000     23.8685     24.1216   -999.2500
  1375.5000   -999.2500 100000.0000     23.9157     24.1741   -999.2500
