~Version Information
VERS.                      2.0: CWLS Log ASCII Standard - VERSION 2.0
WRAP.                       NO: One line per depth step
~Well Information Block
STRT.FT               472.0000: 
STOP.FT              2641.5000: 
STEP.FT                 0.1000: 
NULL.                -999.2500: 
COMP.          Pioneer Natural Resources: COMPANY
WELL.              Wagner 13-9: WELL
FLD.           Purgatoire River: FIELD
LOC.           1819' FSL & 1111' FWL: LOCATION
PROV.                 Colorado: PROVINCE
CNTY.               Las Animas: COUNTRY
SRVC.                Patterson: SERVICE COMPANY
DATE.          Tue Apr 19 08:56:38 2005: LOG DATE
UWI.           05 071 08302 00: UNIQUE WELL ID
~Curve Information Block
DEPT.FT            0 000 00 00: Depth
DCAL.in                       : CDL Caliper
RHOB.g/cc                     : CDL Bulk Density
RHOC.g/cc                     : CDL Density Correction
DPOR.pu                       : CDL Density Porosity
GR.GAPI                       : Gamma Ray
NPOR.pu                       : Neutron Porosity
~Parameter Information Block
~A  Depth       DCAL        RHOB        RHOC        DPOR         GR         NPOR    
# ...
   904.0000      7.8919      2.6490      0.1126      0.0581     82.9183     28.9158
   904.1000      7.8919      2.6712      0.0878     -1.2819     83.2081     28.2990
   904.2000      7.8919      2.6882      0.1109     -2.3178     84.7471     27.6486
   904.3000      7.8776      2.6939      0.0833     -2.6591     84.1434     27.5591
   904.4000      7.8776      2.6933      0.0831     -2.6242     82.7955     27.5987
   904.5000      7.8710      2.6904      0.0540     -2.4462     80.7280     27.4920
   904.6000      7.8710      2.6808      0.1077     -1.8637     78.2990     27.2543
   904.7000      7.8710      2.6674      0.0370     -1.0537     79.1663     26.9232
   904.8000      7.8792      2.6626      0.0513     -0.7658     83.4732     26.7990
   904.9000      7.8792      2.6622      0.0274     -0.7401     87.6387     26.8255
   905.0000      7.9017      2.6543      0.0180     -0.2602     88.4801     26.5573
   905.1000      7.9017      2.6389      0.0388      0.6702     87.5038     26.3922
   905.2000      7.9017      2.6206      0.0062      1.7825     86.8415     26.6907
   905.3000      7.9248      2.6087      0.0133      2.5036     84.6531     26.7754
   905.4000      7.9248      2.6127      0.0136      2.2584     81.4160     26.2035
   905.5000      7.9361      2.6249      0.0287      1.5185     81.9796     25.7043
   905.6000      7.9361      2.6253      0.0031      1.4964     88.0393     25.9449
   905.7000      7.9361      2.6115     -0.0213      2.3303     94.6740     26.6342
   905.8000      7.9386      2.6033     -0.0356      2.8315     97.6556     27.1857
   905.9000      7.9386      2.6092      0.0309      2.4718     96.5728     27.0904
   906.0000      7.9381      2.6174      0.0416      1.9774     91.9856     26.0828
   906.1000      7.9381      2.6192      0.0611      1.8660     86.7685     24.7353
   906.2000      7.9381      2.6163      0.0191      2.0425     83.9205     24.0477
   906.3000      7.9365      2.6141      0.0183      2.1779     82.6367     24.1522
   906.4000      7.9365      2.6122      0.0525      2.2884     82.2190     24.3684
   906.5000      7.9328      2.6066      0.0080      2.6300     85.5300     24.3239
   906.6000      7.9328      2.5969      0.0407      3.2161     93.2742     24.4941
   906.7000      7.9328      2.5855      0.0322      3.9097     99.7856     25.1144
   906.8000      7.9289      2.5802      0.0244      4.2289    100.9023     25.7706
   906.9000      7.9289      2.5828      0.0310      4.0701    100.4563     26.1669
   907.0000      7.9279      2.5838      0.0264      4.0143    102.7952     26.2081
   907.1000      7.9279      2.5840      0.0341      3.9970    106.1158     26.1614
   907.2000      7.9279      2.5959      0.0495      3.2788    108.8020     26.8284
   907.3000      7.9230      2.6111      0.1082      2.3566    114.4552     28.2527
   907.4000      7.9230      2.6081      0.0721      2.5386    123.3108     29.3562
   907.5000      7.9143      2.5976      0.0102      3.1728    126.7929     29.5735
   907.6000      7.9143      2.6022      0.0631      2.8992    121.6387     29.5855
   907.7000      7.9143      2.6179      0.0455      1.9449    114.5052     30.0594
   907.8000      7.9100      2.6365      0.0900      0.8208    113.0125     30.8774
   907.9000      7.9100      2.6454      0.1097      0.2787    117.2546     31.4422
   908.0000      7.9101      2.6321      0.0542      1.0867    118.1274     31.1574
   908.1000      7.9101      2.6055      0.0583      2.6969    110.7162     30.1505
   908.2000      7.9101      2.5844     -0.0116      3.9759     99.2691     29.1701
   908.3000      7.9118      2.5798      0.0305      4.2517     90.7293     28.5399
   908.4000      7.9118      2.5897      0.0101      3.6540     89.2295     28.1816
   908.5000      7.9152      2.6106      0.0148      2.3905     94.7691     28.1038
   908.6000      7.9152      2.6347      0.0260      0.9286    102.0393     28.1859
   908.7000      7.9152      2.6485      0.0677      0.0928    103.0849     27.9013
   908.8000      7.9185      2.6536      0.0184     -0.2200     99.2258     27.2531
   908.9000      7.9185      2.6551      0.0888     -0.3117     97.6501     26.5695
   909.0000      7.9177      2.6396      0.0642      0.6277    101.2837     25.5946
   909.1000      7.9177      2.6063      0.0096      2.6474    108.3235     24.6548
   909.2000      7.9177      2.5765     -0.0150      4.4571    113.6050     24.7660
   909.3000      7.9191      2.5609      0.0197      5.3998    115.2939     25.6832
   909.4000      7.9191      2.5598     -0.0415      5.4645    118.6243     26.5330
   909.5000      7.9275      2.5730      0.0175      4.6678    125.2490     27.3126
   909.6000      7.9275      2.5893      0.0290      3.6777    129.6909     27.8050
   909.7000      7.9275      2.5911      0.0715      3.5720    129.6008     27.6119
   909.8000      7.9353      2.5728      0.0229      4.6801    128.1708     27.1384
   909.9000      7.9353      2.5523     -0.0063      5.9215    128.2030     26.8211
   910.0000      7.9380      2.5506     -0.0108      6.0214    129.1931     26.8880
   910.1000      7.9380      2.5644      0.0337      5.1880    132.1802     27.6416
   910.2000      7.9380      2.5771      0.0137      4.4172    137.7483     29.0079
   910.3000      7.9375      2.5820      0.0460      4.1227    142.2757     30.0480
   910.4000      7.9375      2.5803      0.0200      4.2228    142.6270     30.2754
   910.5000      7.9359      2.5759      0.0360      4.4889    139.8463     30.4140
   910.6000      7.9359      2.5653      0.0387      5.1324    138.8511     30.8659
   910.7000      7.9359      2.5422      0.0284      6.5307    142.3270     31.4504
   910.8000      7.9340      2.5189     -0.0438      7.9478    145.9447     32.0649
   910.9000      7.9340      2.5184     -0.0086      7.9735    143.0699     32.5141
   911.0000      7.9327      2.5424     -0.0089      6.5234    134.1536     32.4103
   911.1000      7.9327      2.5656      0.0495      5.1172    125.8076     32.1010
   911.2000      7.9327      2.5700      0.0079      4.8499    123.0469     32.2549
   911.3000      7.9305      2.5681      0.0066      4.9662    124.7547     32.4512
   911.4000      7.9305      2.5729      0.0302      4.6719    123.8396     31.9318
   911.5000      7.9214      2.5749      0.0204      4.5496    118.1692     30.9077
   911.6000      7.9214      2.5667     -0.0254      5.0484    112.5368     29.9866
   911.7000      7.9214      2.5616      0.0159      5.3582    108.9240     29.5144
   911.8000      7.9083      2.5763      0.0035      4.4659    107.4277     29.3741
   911.9000      7.9083      2.6061      0.0683      2.6585    109.1635     28.9249
   912.0000      7.8996      2.6213      0.0851      1.7382    112.9654     27.7631
   912.1000      7.8996      2.6078      0.0503      2.5563    114.4447     26.5274
   912.2000      7.8996      2.5865      0.0341      3.8501    112.4196     26.1820
   912.3000      7.8931      2.5799      0.0249      4.2470    109.2940     26.4722
   912.4000      7.8931      2.5952      0.0541      3.3186    106.8383     26.3955
   912.5000      7.8865      2.6217      0.0478      1.7156    107.3193     25.9858
   912.6000      7.8865      2.6387      0.1051      0.6827    110.3273     25.9204
   912.7000      7.8865      2.6409      0.0600      0.5487    112.0967     26.1401
   912.8000      7.8806      2.6354      0.0861      0.8825    109.1351     26.1905
   912.9000      7.8806      2.6233      0.0891      1.6184    102.5984     26.0588
   913.0000      7.8799      2.6074      0.0607      2.5810     98.1012     26.1044
   913.1000      7.8799      2.5949      0.0602      3.3383     98.6280     26.5792
   913.2000      7.8799      2.5941      0.0428      3.3876    104.7252     27.2672
   913.3000      7.8936      2.6076      0.0735      2.5710    115.5670     27.8234
   913.4000      7.8936      2.6197      0.1016      1.8359    127.0536     27.9619
   913.5000      7.9197      2.6210     -0.0049      1.7568    135.2903     27.6214
