~Version Information
VERS.                      2.0: CWLS Log ASCII Standard - VERSION 2.0
WRAP.                       NO: One line per depth step
~Well Information Block
STRT.FT               765.4000: 
STOP.FT              2581.2000: 
STEP.FT                 0.1000: 
NULL.                -999.2500: 
COMP.          Petrogulf Corporation: COMPANY
WELL.            Montoya 7-12V: WELL
FLD.           Purgatorie River: FIELD
LOC.           728' FWL & 1764' FNL: LOCATION
CNTY.               Las Animas: COUNTY
SRVC.                         : SERVICE COMPANY
DATE.          Fri Feb 20 09:23:58 2004: LOG DATE
UWI.           05-071-07887-00: UNIQUE WELL ID
STAT.                 Colorado: STATE
~Curve Information Block
DEPT.FT            0 000 00 00: Depth
DCAL.in                       : CDL Caliper
RHOB.g/cc                     : CDL Bulk Density
RHOC.g/cc                     : CDL Density Correction
DPOR.pu                       : CDL Density Porosity
GR.GAPI                       : Gamma Ray
NPOR.pu                       : Neutron Porosity
~Parameter Information Block
~A  Depth       DCAL        RHOB        RHOC        DPOR         GR         NPOR    
# ...
  1735.0000      8.0916      2.5811      0.2573      4.1746    129.5700     32.9684
  1735.1000      8.0916      2.5748      0.1328      4.5568    125.5669     32.5461
  1735.2000      8.0916      2.5589      0.1021      5.5207    120.4174     31.9392
  1735.3000      8.1604      2.5620      0.1646      5.3327    116.9836     31.5595
  1735.4000      8.1604      2.5791      0.0888      4.2956    115.6191     31.4642
  1735.5000      8.1272      2.5984      0.1206      3.1276    111.6841     31.0128
  1735.6000      8.1272      2.6184      0.1164      1.9176    104.1890     29.8525
  1735.7000      8.1272      2.6419      0.1504      0.4919     99.7484     29.0979
  1735.8000      8.1247      2.6619      0.1364     -0.7237    104.2797     29.5321
  1735.9000      8.1247      2.6709      0.1484     -1.2661    112.1797     30.5318
  1736.0000      8.1140      2.6682      0.0779     -1.1047    113.4710     31.1701
  1736.1000      8.1140      2.6459      0.1337      0.2462    112.2402     31.0702
  1736.2000      8.1140      2.5991      0.0511      3.0849    116.8412     30.5930
  1736.3000      8.1329      2.5510     -0.0249      5.9976    120.5199     30.1682
  1736.4000      8.1329      2.5234      0.0453      7.6744    112.9697     29.9095
  1736.5000      8.1112      2.5110      0.0418      8.4244     98.5454     29.7512
  1736.6000      8.1112      2.5038      0.0132      8.8590     90.8199     29.6049
  1736.7000      8.1112      2.4965      0.0359      9.3055     95.0131     29.5689
  1736.8000      8.0929      2.4829      0.0080     10.1244    104.6709     29.7078
  1736.9000      8.0929      2.4665      0.0159     11.1199    109.4595     29.8805
  1737.0000      8.1618      2.4567     -0.0163     11.7168    104.8752     30.1573
  1737.1000      8.1618      2.4531      0.0225     11.9339     97.5013     30.8651
  1737.2000      8.1618      2.4562      0.0030     11.7479     96.2119     31.9873
  1737.3000      8.4020      2.4768      0.0362     10.4994     99.5409     32.7803
  1737.4000      8.4020      2.5071      0.0644      8.6629     97.8089     32.6346
  1737.5000      8.5437      2.5175      0.1012      8.0322     93.8116     31.8882
  1737.6000      8.5437      2.5090      0.0271      8.5448     96.3779     31.0294
  1737.7000      8.5437      2.5165      0.0563      8.0917    102.8201     30.4747
  1737.8000      8.4527      2.5371      0.1134      6.8448    108.8058     30.5307
  1737.9000      8.4527      2.5408      0.0630      6.6188    109.4709     30.7702
  1738.0000      8.3004      2.5402      0.0259      6.6554    102.6960     30.6361
  1738.1000      8.3004      2.5618      0.0727      5.3460     95.2591     30.2923
  1738.2000      8.3004      2.5943      0.0424      3.3787     92.2958     29.7944
  1738.3000      8.4169      2.6120      0.1230      2.3007     91.9363     29.1460
  1738.4000      8.4169      2.6148      0.1002      2.1350     90.5374     28.6193
  1738.5000      8.3907      2.6202      0.1029      1.8045     87.8382     28.0396
  1738.6000      8.3907      2.6325      0.1369      1.0600     82.4278     27.0693
  1738.7000      8.3907      2.6369      0.1182      0.7951     77.9778     26.0023
  1738.8000      8.2850      2.6239      0.0563      1.5847     84.2129     25.5975
  1738.9000      8.2850      2.5996      0.0810      3.0562     96.3887     26.2089
  1739.0000      8.3029      2.5794     -0.0046      4.2758    102.7457     27.0880
  1739.1000      8.3029      2.5824     -0.0280      4.0970    102.3014     27.3480
  1739.2000      8.3029      2.6035      0.0162      2.8194     98.4255     27.0588
  1739.3000      8.3979      2.6109      0.0768      2.3691     94.5544     27.1241
  1739.4000      8.3979      2.5952      0.0493      3.3229     90.3359     28.0079
  1739.5000      8.6137      2.5814     -0.0184      4.1596     83.3309     28.8434
  1739.6000      8.6137      2.5694      0.0659      4.8844     81.2353     29.2546
  1739.7000      8.6137      2.5411      0.0089      6.5996     90.3477     29.7506
  1739.8000      8.8431      2.5096     -0.0097      8.5088    100.8054     30.0947
  1739.9000      8.8431      2.4913     -0.0186      9.6193     99.6832     30.1979
  1740.0000      9.1322      2.4726      0.0063     10.7511     89.3443     30.7561
  1740.1000      9.1322      2.4330     -0.0682     13.1513     82.7314     31.6801
  1740.2000      9.1322      2.3847     -0.0988     16.0771     84.4048     32.4372
  1740.3000      9.1814      2.3587     -0.0332     17.6573     89.8012     33.2304
  1740.4000      9.1814      2.3620      0.0455     17.4520     93.0044     34.0907
  1740.5000      9.0540      2.3834      0.0618     16.1557     93.5884     34.3141
  1740.6000      9.0540      2.4143      0.0857     14.2839     97.3165     33.6723
  1740.7000      9.0540      2.4538      0.0810     11.8893    103.7554     32.9191
  1740.8000      9.1669      2.4896      0.2498      9.7194    104.0952     32.6749
  1740.9000      9.1669      2.4965      0.2279      9.3057     98.4024     32.7632
  1741.0000      9.5570      2.4759      0.1736     10.5524     98.7962     32.9754
  1741.1000      9.5570      2.4547      0.1212     11.8358    110.6472     33.1783
  1741.2000      9.5570      2.4381      0.1800     12.8404    125.6413     33.1177
  1741.3000      9.6994      2.4050      0.1252     14.8495    132.3921     32.6270
  1741.4000      9.6994      2.3579      0.0250     17.7044    126.4061     32.0016
  1741.5000      9.7155      2.3202      0.0503     19.9904    114.3662     31.7815
  1741.6000      9.7155      2.3042      0.0134     20.9589    104.3460     31.9828
  1741.7000      9.7155      2.3215      0.0358     19.9072     94.5536     32.3840
  1741.8000      9.6476      2.3706      0.1113     16.9357     83.2867     32.9069
  1741.9000      9.6476      2.4322      0.1068     13.2002     80.4046     33.3069
  1742.0000      9.2991      2.4951      0.1657      9.3871     87.8409     33.3086
  1742.1000      9.2991      2.5531      0.1988      5.8729     94.9173     33.2323
  1742.2000      9.2991      2.6030      0.2128      2.8475     94.9653     33.2886
  1742.3000      9.3544      2.6358      0.3831      0.8577     89.4931     33.3011
  1742.4000      9.3544      2.6378      0.3514      0.7395     87.2304     33.5615
  1742.5000      9.3945      2.6212      0.2767      1.7442     91.7779     34.1571
  1742.6000      9.3945      2.6070      0.2618      2.6089    102.4324     34.4000
  1742.7000      9.3945      2.5959      0.2362      3.2764    116.6975     33.8142
  1742.8000      9.2963      2.5823      0.1397      4.1032    121.4098     32.7383
  1742.9000      9.2963      2.5673      0.0798      5.0138    112.5606     31.9343
  1743.0000      8.9374      2.5518      0.1380      5.9522    104.5201     31.8931
  1743.1000      8.9374      2.5385      0.0744      6.7576    103.5819     32.5210
  1743.2000      8.9374      2.5366      0.0946      6.8714    104.0769     33.4194
  1743.3000      8.6692      2.5425      0.1231      6.5123    103.6828     33.8412
  1743.4000      8.6692      2.5434      0.1309      6.4613    102.3584     33.6000
  1743.5000      8.7620      2.5365      0.0761      6.8776     99.7688     33.4958
  1743.6000      8.7620      2.5282      0.0716      7.3807     96.7602     33.7113
  1743.7000      8.7620      2.5143      0.1095      8.2254     94.0074     33.4271
  1743.8000      9.0430      2.4800      0.0534     10.3045     91.3461     32.4796
  1743.9000      9.0430      2.4308     -0.0001     13.2845     90.3065     31.5985
  1744.0000      8.9662      2.3858      0.0556     16.0150     92.0057     31.2309
  1744.1000      8.9662      2.3524      0.0307     18.0382     93.9674     31.4130
  1744.2000      8.9662      2.3376      0.0152     18.9313     93.0241     31.7044
  1744.3000      8.6602      2.3490      0.0110     18.2432     86.9366     31.8004
  1744.4000      8.6602      2.3733      0.0792     16.7683     79.5916     31.6718
  1744.5000      8.6650      2.3896      0.1222     15.7815     80.3443     31.3147
