~Version Information
VERS.                      2.0: CWLS Log ASCII Standard - VERSION 2.0
WRAP.                       NO: One line per depth step
~Well Information Block
STRT.FT               491.0000: 
STOP.FT              1056.0000: 
STEP.FT                 0.2500: 
NULL.                -999.2500: 
COMP.          Evergreen Operating Corporation: COMPANY
WELL.              Sunset 24-3: WELL
FLD.           Purgatorie River: FIELD
LOC.           467' FSL & 2262' FWL: LOCATION
PROV.                 Colorado: PROVINCE
CNTY.               Las Animas: COUNTRY
SRVC.                         : SERVICE COMPANY
DATE.          Wed Sep 22 11:23:45 2004: LOG DATE
UWI.           05 071 08158 00: UNIQUE WELL ID
~Curve Information Block
DEPT.FT            0 000 00 00: Depth
SN.Ohm-m                      : IEL Short Normal
SP.mV                         : IEL Spontaneous Potential
DIR.Ohm-m                     : IEL Induction Resistivity
GR.GAPI                       : Gamma Ray
~Parameter Information Block
~A  Depth        SN          SP         DIR          GR     
# ...
   993.5000     23.1521     13.9225     20.4537     91.8110
   993.7500     22.9563     13.7943     20.2753     92.8133
   994.0000     22.6950     13.6950     20.0116     93.4417
   994.2500     22.3790     13.6239     19.6741     93.1270
   994.5000     22.0265     13.5761     19.2913     92.4621
   994.7500     21.6554     13.5444     18.8972     92.9942
   995.0000     21.2788     13.5204     18.5202     96.4490
   995.2500     20.9062     13.4956     18.1774    100.0624
   995.5000     20.5472     13.4628     17.8731    105.3263
   995.7500     20.2119     13.4157     17.6021    107.8364
   996.0000     19.9114     13.3502     17.3558    110.4251
   996.2500     19.6572     13.2651     17.1288    112.2466
   996.5000     19.4606     13.1625     16.9225    116.0919
   996.7500     19.3297     13.0484     16.7444    119.1537
   997.0000     19.2649     12.9330     16.6060    123.2477
   997.2500     19.2575     12.8293     16.5181    125.0648
   997.5000     19.2942     12.7514     16.4854    126.3000
   997.7500     19.3643     12.7121     16.5038    126.3905
   998.0000     19.4615     12.7211     16.5622    125.8234
   998.2500     19.5803     12.7828     16.6477    125.2015
   998.5000     19.7111     12.8963     16.7489    124.7960
   998.7500     19.8392     13.0553     16.8550    125.5450
   999.0000     19.9498     13.2495     16.9538    128.3202
   999.2500     20.0357     13.4665     17.0318    130.3989
   999.5000     20.0995     13.6929     17.0765    131.8599
   999.7500     20.1503     13.9161     17.0807    131.1506
  1000.0000     20.1971     14.1249     17.0472    128.1105
  1000.2500     20.2431     14.3096     16.9900    125.6094
  1000.5000     20.2854     14.4629     16.9289    122.5304
  1000.7500     20.3185     14.5795     16.8790    121.3708
  1001.0000     20.3368     14.6566     16.8435    121.0029
  1001.2500     20.3362     14.6944     16.8128    121.4190
  1001.5000     20.3117     14.6958     16.7713    122.4639
  1001.7500     20.2559     14.6664     16.7075    123.1061
  1002.0000     20.1610     14.6137     16.6200    123.2328
  1002.2500     20.0252     14.5466     16.5162    122.1298
  1002.5000     19.8575     14.4740     16.4040    117.8400
  1002.7500     19.6781     14.4039     16.2841    113.4589
  1003.0000     19.5109     14.3426     16.1503    106.6157
  1003.2500     19.3714     14.2945     15.9968    103.3850
  1003.5000     19.2580     14.2615     15.8247    102.0282
  1003.7500     19.1536     14.2434     15.6416    103.2091
  1004.0000     19.0371     14.2386     15.4555    106.2272
  1004.2500     18.8973     14.2441     15.2698    107.7448
  1004.5000     18.7381     14.2566     15.0838    107.8235
  1004.7500     18.5717     14.2731     14.8989    106.5469
  1005.0000     18.4068     14.2913     14.7242    104.6241
  1005.2500     18.2421     14.3103     14.5743    104.7254
  1005.5000     18.0689     14.3310     14.4618    107.6668
  1005.7500     17.8799     14.3563     14.3912    110.6269
  1006.0000     17.6774     14.3912     14.3591    114.3890
  1006.2500     17.4776     14.4419     14.3614    115.7151
  1006.5000     17.3079     14.5154     14.4001    116.0677
  1006.7500     17.1994     14.6183     14.4851    115.7047
  1007.0000     17.1778     14.7557     14.6280    115.0096
  1007.2500     17.2559     14.9300     14.8338    114.7431
  1007.5000     17.4341     15.1400     15.0943    115.2452
  1007.7500     17.7074     15.3806     15.3868    116.5191
  1008.0000     18.0721     15.6428     15.6790    119.6334
  1008.2500     18.5267     15.9141     15.9371    121.7412
  1008.5000     19.0637     16.1799     16.1339    123.3127
  1008.7500     19.6609     16.4246     16.2562    122.7332
  1009.0000     20.2770     16.6337     16.3081    119.5404
  1009.2500     20.8563     16.7948     16.3104    116.4774
  1009.5000     21.3378     16.8993     16.2936    112.0925
  1009.7500     21.6647     16.9427     16.2886    110.2299
  1010.0000     21.7913     16.9256     16.3170    109.9196
  1010.2500     21.6919     16.8529     16.3862    111.2815
  1010.5000     21.3715     16.7338     16.4880    114.6037
  1010.7500     20.8730     16.5800     16.6030    116.9526
  1011.0000     20.2727     16.4055     16.7070    120.2721
  1011.2500     19.6617     16.2243     16.7791    122.6038
  1011.5000     19.1206     16.0496     16.8049    126.4217
  1011.7500     18.7015     15.8925     16.7755    128.6074
  1012.0000     18.4256     15.7616     16.6858    129.7063
  1012.2500     18.2925     15.6624     16.5355    128.4523
  1012.5000     18.2916     15.5973     16.3332    124.3790
  1012.7500     18.4040     15.5659     16.0993    121.3227
  1013.0000     18.5984     15.5654     15.8646    117.6276
  1013.2500     18.8274     15.5906     15.6637    115.8245
  1013.5000     19.0332     15.6348     15.5257    113.6907
  1013.7500     19.1628     15.6903     15.4642    112.7232
  1014.0000     19.1831     15.7491     15.4714    112.6028
  1014.2500     19.0875     15.8041     15.5207    113.5022
  1014.5000     18.8920     15.8504     15.5787    115.4564
  1014.7500     18.6243     15.8862     15.6198    116.5240
  1015.0000     18.3154     15.9137     15.6349    117.6134
  1015.2500     17.9950     15.9383     15.6268    118.4682
  1015.5000     17.6908     15.9686     15.5972    120.7039
  1015.7500     17.4278     16.0138     15.5386    122.7717
  1016.0000     17.2239     16.0831     15.4379    125.8140
  1016.2500     17.0844     16.1829     15.2873    127.1700
  1016.5000     16.9996     16.3161     15.0924    127.6648
  1016.7500     16.9479     16.4818     14.8700    127.0997
  1017.0000     16.9050     16.6747     14.6389    125.6274
  1017.2500     16.8508     16.8862     14.4129    124.6950
  1017.5000     16.7728     17.1053     14.1982    123.9856
  1017.7500     16.6634     17.3195     13.9971    124.1620
  1018.0000     16.5174     17.5160     13.8101    125.2592
  1018.2500     16.3326     17.6828     13.6368    126.2560
  1018.5000     16.1105     17.8096     13.4742    128.0050
  1018.7500     15.8572     17.8890     13.3164    129.6948
  1019.0000     15.5813     17.9168     13.1584    133.7119
  1019.2500     15.2920     17.8935     13.0001    137.3612
  1019.5000     14.9985     17.8237     12.8500    143.3808
  1019.7500     14.7118     17.7159     12.7230    146.9216
  1020.0000     14.4455     17.5813     12.6347    150.2896
  1020.2500     14.2165     17.4323     12.5956    151.1704
  1020.5000     14.0443     17.2804     12.6063    151.6872
  1020.7500     13.9474     17.1353     12.6581    152.3259
  1021.0000     13.9410     17.0034     12.7375    153.7737
  1021.2500     14.0348     16.8883     12.8330    154.2639
  1021.5000     14.2344     16.7905     12.9394    152.9900
  1021.7500     14.5419     16.7089     13.0585    150.7932
  1022.0000     14.9548     16.6409     13.1993    146.4331
  1022.2500     15.4617     16.5830     13.3753    143.2717
  1022.5000     16.0379     16.5313     13.6025    138.4382
  1022.7500     16.6457     16.4820     13.8938    135.4040
  1023.0000     17.2392     16.4314     14.2529    131.8224
  1023.2500     17.7765     16.3770     14.6705    130.1231
  1023.5000     18.2316     16.3182     15.1264    127.5276
  1023.7500     18.6018     16.2571     15.5943    124.9771
  1024.0000     18.9021     16.1990     16.0474    119.8375
  1024.2500     19.1512     16.1517     16.4621    116.4883
  1024.5000     19.3575     16.1251     16.8214    113.6308
  1024.7500     19.5151     16.1293     17.1152    113.5931
  1025.0000     19.6124     16.1733     17.3397    115.2608
  1025.2500     19.6430     16.2633     17.4947    116.5425
  1025.5000     19.6125     16.4016     17.5811    117.7970
  1025.7500     19.5378     16.5864     17.6032    118.1565
  1026.0000     19.4404     16.8118     17.5734    118.2867
  1026.2500     19.3398     17.0682     17.5129    118.3663
  1026.5000     19.2475     17.3432     17.4470    119.0990
  1026.7500     19.1638     17.6226     17.3948    120.3500
