~Version Information
VERS.                      2.0: CWLS Log ASCII Standard - VERSION 2.0
WRAP.                       NO: One line per depth step
~Well Information Block
STRT.FT               741.2000: 
STOP.FT              2461.0000: 
STEP.FT                 0.1000: 
NULL.                -999.2500: 
COMP.          Petrogulf Corporation: COMPANY
WELL.           Montoya 12-44V: WELL
FLD.           Purgatorie River: FIELD
LOC.           698' FSL & 599' FEL: LOCATION
CNTY.               Las Animas: COUNTY
SRVC.                         : SERVICE COMPANY
DATE.          Mon Aug 09 06:09:04 2004: LOG DATE
UWI.           05 071 08094 00: UNIQUE WELL ID
STAT.                 Colorado: STATE
~Curve Information Block
DEPT.FT            0 000 00 00: Depth
DCAL.in                       : CDL Caliper
RHOB.g/cc                     : CDL Bulk Density
RHOC.g/cc                     : CDL Density Correction
DPOR.pu                       : CDL Density Porosity
GR.GAPI                       : Gamma Ray
NPOR.pu                       : Neutron Porosity
~Parameter Information Block
~A  Depth       DCAL        RHOB        RHOC        DPOR         GR         NPOR    
# ...
  1883.6000      7.7665      2.5876      0.0897      3.7814     59.4762     20.5195
  1883.7000      7.7665      2.5983      0.0813      3.1306     57.7068     20.9131
  1883.8000      7.7638      2.6033      0.1177      2.8309     58.8303     21.5438
  1883.9000      7.7638      2.6011      0.1386      2.9622     59.9901     22.2852
  1884.0000      7.7325      2.5902      0.1106      3.6242     60.9161     22.4484
  1884.1000      7.7325      2.5734      0.1066      4.6444     63.5088     22.1205
  1884.2000      7.7325      2.5531      0.1352      5.8713     69.8232     21.9701
  1884.3000      7.7152      2.5327      0.1205      7.1069     80.1456     22.5340
  1884.4000      7.7152      2.5171      0.1287      8.0540     92.4154     23.6793
  1884.5000      7.7545      2.5055      0.0886      8.7573    104.1055     24.8343
  1884.6000      7.7545      2.4969      0.0532      9.2786    116.3922     25.5706
  1884.7000      7.7545      2.4943      0.0629      9.4364    128.6271     25.7948
  1884.8000      7.7983      2.5040      0.0596      8.8484    134.0061     25.6781
  1884.9000      7.7983      2.5300      0.1438      7.2732    131.9684     25.3736
  1885.0000      7.8497      2.5678      0.1900      4.9823    130.7612     25.2194
  1885.1000      7.8497      2.6015      0.2741      2.9373    133.5648     25.5112
  1885.2000      7.8497      2.6134      0.2455      2.2202    138.5313     26.0032
  1885.3000      7.9176      2.6051      0.1918      2.7202    142.3904     26.2432
  1885.4000      7.9176      2.5938      0.1774      3.4044    142.3683     26.0474
  1885.5000      7.8864      2.5935      0.1733      3.4229    140.6228     25.8796
  1885.6000      7.8864      2.6060      0.1857      2.6639    142.6062     26.2598
  1885.7000      7.8864      2.6192      0.1921      1.8672    147.8838     26.9771
  1885.8000      7.8846      2.6173      0.2090      1.9835    150.3455     27.3131
  1885.9000      7.8846      2.5981      0.1336      3.1453    147.7266     27.0763
  1886.0000      7.8875      2.5749      0.1132      4.5492    144.1161     26.7570
  1886.1000      7.8875      2.5611      0.0818      5.3863    143.1809     26.7926
  1886.2000      7.8875      2.5577      0.0938      5.5948    142.8956     27.3743
  1886.3000      7.9160      2.5570      0.0810      5.6352    142.5630     28.2154
  1886.4000      7.9160      2.5564      0.0503      5.6720    142.6214     28.5376
  1886.5000      7.8432      2.5557      0.0675      5.7167    141.8247     27.6915
  1886.6000      7.8432      2.5518      0.0854      5.9541    140.9861     26.0305
  1886.7000      7.8432      2.5473      0.0562      6.2271    140.2817     24.8272
  1886.8000      7.8324      2.5499      0.0411      6.0655    140.4393     24.7364
  1886.9000      7.8324      2.5593      0.0957      5.4970    143.2989     25.1105
  1887.0000      7.8241      2.5654      0.0794      5.1256    146.4074     25.3421
  1887.1000      7.8241      2.5624      0.1010      5.3106    149.0397     25.6273
  1887.2000      7.8241      2.5545      0.0863      5.7853    152.5476     26.3187
  1887.3000      7.8108      2.5510      0.0909      5.9974    152.4969     27.0886
  1887.4000      7.8108      2.5574      0.0925      5.6091    145.9395     27.3860
  1887.5000      7.8133      2.5717      0.1226      4.7425    139.2091     27.6982
  1887.6000      7.8133      2.5812      0.1557      4.1696    139.0921     28.5782
  1887.7000      7.8133      2.5778      0.0729      4.3740    144.5535     29.2974
  1887.8000      7.8175      2.5762      0.0973      4.4706    147.7518     28.9121
  1887.9000      7.8175      2.5902      0.1338      3.6230    143.9640     27.7244
  1888.0000      7.8235      2.6127      0.1815      2.2577    136.4361     26.5806
  1888.1000      7.8235      2.6302      0.1866      1.1987    128.4760     25.6212
  1888.2000      7.8235      2.6365      0.1714      0.8159    120.8336     24.7695
  1888.3000      7.8834      2.6290      0.1518      1.2757    116.7494     24.6549
  1888.4000      7.8834      2.6133      0.1016      2.2248    118.4481     26.0488
  1888.5000      7.8984      2.6067      0.1025      2.6222    123.6255     28.1604
  1888.6000      7.8984      2.6165      0.1455      2.0302    128.5338     29.3542
  1888.7000      7.8984      2.6269      0.1853      1.3973    132.5638     29.2128
  1888.8000      7.8810      2.6230      0.1444      1.6368    137.1946     28.2521
  1888.9000      7.8810      2.6140      0.1171      2.1815    144.3405     27.2143
  1889.0000      7.8668      2.6132      0.1367      2.2318    149.2976     26.7315
  1889.1000      7.8668      2.6162      0.1324      2.0506    146.0275     26.7365
  1889.2000      7.8668      2.6045      0.1548      2.7603    140.8097     26.9615
  1889.3000      7.8912      2.5703      0.0648      4.8327    140.5978     27.6400
  1889.4000      7.8912      2.5353      0.0564      6.9505    140.8906     28.8431
  1889.5000      7.9308      2.5227      0.0292      7.7122    135.6336     29.8633
  1889.6000      7.9308      2.5326      0.0697      7.1146    130.4106     29.9599
  1889.7000      7.9308      2.5462      0.0795      6.2933    133.4267     29.1614
  1889.8000      7.8733      2.5540      0.0929      5.8180    140.2529     28.0558
  1889.9000      7.8733      2.5722      0.0426      4.7136    143.5619     27.4532
  1890.0000      7.8649      2.6064      0.1302      2.6447    143.1765     27.5748
  1890.1000      7.8649      2.6325      0.1637      1.0593    141.3886     27.8624
  1890.2000      7.8649      2.6462      0.1513      0.2322    140.5453     27.8070
  1890.3000      7.8733      2.6633      0.2306     -0.8058    141.5118     27.3713
  1890.4000      7.8733      2.6752      0.1967     -1.5294    141.7380     26.7800
  1890.5000      7.8933      2.6688      0.1758     -1.1406    142.1150     26.2671
  1890.6000      7.8933      2.6545      0.1319     -0.2718    147.6572     25.9812
  1890.7000      7.8933      2.6453      0.1369      0.2847    155.3779     26.1843
  1890.8000      7.9198      2.6441      0.0594      0.3552    159.0667     26.9526
  1890.9000      7.9198      2.6487      0.0661      0.0773    159.8945     27.8665
  1891.0000      7.9630      2.6454      0.0918      0.2761    156.2425     28.7205
  1891.1000      7.9630      2.6230      0.0810      1.6352    147.1471     29.3019
  1891.2000      7.9630      2.5933      0.0526      3.4348    142.9582     28.8348
  1891.3000      7.9698      2.5742      0.0167      4.5955    149.6503     27.7051
  1891.4000      7.9698      2.5711      0.0070      4.7813    156.8646     26.8281
  1891.5000      7.9329      2.5832      0.0196      4.0504    154.3634     26.0419
  1891.6000      7.9329      2.5956      0.0731      3.3000    148.1797     25.7863
  1891.7000      7.9329      2.5938      0.0297      3.4087    159.4465     26.5628
  1891.8000      7.8881      2.5935      0.0049      3.4227    162.6942     27.4181
  1891.9000      7.8881      2.6088      0.0704      2.4973    165.9931     27.7821
  1892.0000      7.8297      2.6207      0.0850      1.7747    164.5940     28.1411
  1892.1000      7.8297      2.6176      0.0445      1.9629    155.8036     28.4543
  1892.2000      7.8297      2.6108      0.0448      2.3758    148.3814     28.2956
  1892.3000      7.8091      2.6047      0.0875      2.7462    152.8136     27.4922
  1892.4000      7.8091      2.5934      0.0711      3.4317    165.6961     26.1223
  1892.5000      7.8060      2.5767      0.0320      4.4420    175.9779     24.8793
  1892.6000      7.8060      2.5656     -0.0115      5.1141    181.1481     24.1999
  1892.7000      7.8060      2.5676      0.0169      4.9921    197.6870     23.9076
  1892.8000      7.7919      2.5773      0.0202      4.4074    195.2541     23.9831
  1892.9000      7.7919      2.5889      0.0523      3.7021    188.2515     24.4334
  1893.0000      7.7914      2.5995      0.0496      3.0621    182.1799     25.0949
  1893.1000      7.7914      2.6012      0.0456      2.9591    179.2656     25.7137
