~Version Information
 VERS.                                  2.0 : CWLS LAS VERSION
 WRAP.                                   NO : WRAPING MODE
 SWARE .                 MController 2.5.0N : SOFTWARE VERSION
~Well Information
 WELL.                    DrewMeister 34-34 : WELL
 COMP.    Pioneer Natural Resources USA Inc : COMPANY
 FLD.                      Purgatoire River : FIELD
 LOC.                 SW/SE SEC34 T32S R65W : LOCATION
 DATE.                             10/03/05 : DATE(S) LOGGED
 SRVC.       Blanco Geological Services LLC : SERVICE COMPANY
 STAT.                             Colorado : STATE
 CNTY.                           Las Animas : COUNTY
 CTRY.                                  USA : COUNTRY
 API.                       05-071-08131-00 : API NUMBER
 STRT.FT                             495.00 : START DEPTH
 STOP.FT                            1150.00 : STOP DEPTH
 STEP.FT                               1.00 : DEPTH INCREMENT
 NULL.                                -9999 : NULL VALUE
~Curve information
 DEPTH.FT                                   :
 ROP.MIN/FT                                 :
 GAS.UNITS                                  :
~ASCII Log data
# ...
       895.0         0.20        140.4 
       896.0         1.87        461.5 
       897.0         0.13        432.5 
       898.0         0.30        452.4 
       899.0         0.17       1201.9 
       900.0         0.15       1207.0 
       901.0         0.13       1224.4 
       902.0         0.13       1225.7 
       903.0         0.07       1225.7 
       904.0         0.10       1221.2 
       905.0         0.17       1235.7 
       906.0         0.20       1297.6 
       907.0         0.13       1297.6 
       908.0         0.20       1388.8 
       909.0         0.20       1463.6 
       910.0         0.13       1463.6 
       911.0         0.10       1507.7 
       912.0         0.07       1507.7 
       913.0         0.10       1507.7 
       914.0         0.10       1539.9 
       915.0         0.13       1539.9 
       916.0         0.23       1580.9 
       917.0         0.17       1580.9 
       918.0         0.20       1571.8 
       919.0         0.20       1497.7 
       920.0         0.20       1497.7 
       921.0         0.23       1434.6 
       922.0         0.28       1402.0 
       923.0         0.27       1387.5 
       924.0         0.23       1525.4 
       925.0         0.30       1811.3 
       926.0         1.83       3372.3 
       927.0         0.55       2951.1 
       928.0         0.30       2237.3 
       929.0         0.37       1944.7 
       930.0         0.30       1650.8 
       931.0         0.37       1480.6 
       932.0         0.37       1364.6 
       933.0         0.13       1290.5 
       934.0         0.17       1290.5 
       935.0         0.20       1279.5 
       936.0         0.20       1270.2 
       937.0         0.23       1256.3 
       938.0         0.20       1249.9 
       939.0         0.17       1235.1 
       940.0         0.13       1248.9 
       941.0         0.22       1263.4 
       942.0         0.20       1263.4 
       943.0         0.20       1247.0 
       944.0         0.23       1224.8 
       945.0         0.23       1184.8 
       946.0         0.23       1150.6 
       947.0         0.20       1132.9 
       948.0         0.33       1100.7 
       949.0         0.77       1153.9 
       950.0         0.20       1133.2 
       951.0         0.23       1094.6 
       952.0         0.23       1073.6 
       953.0         0.25       1067.8 
       954.0         0.17       1059.8 
       955.0         0.27       1066.5 
       956.0         2.92       2215.1 
       957.0         0.30       1963.1 
       958.0         0.33       1944.1 
       959.0         0.30       1654.0 
       960.0         0.33       1635.3 
       961.0         0.30       1408.8 
       962.0         0.27       1394.0 
       963.0         0.27       1290.5 
       964.0         0.23       1166.1 
       965.0         0.20       1166.1 
       966.0         0.20       1159.0 
       967.0         0.23       1121.0 
       968.0         0.30       1090.7 
       969.0         0.32       1074.6 
       970.0         0.30       1068.1 
       971.0         0.30       1030.1 
       972.0         0.30        980.8 
       973.0         0.30        976.0 
       974.0         0.33        957.6 
       975.0         0.40        934.1 
       976.0         0.30        918.3 
       977.0         0.33        910.2 
       978.0         0.33        888.3 
       979.0         0.32        861.9 
       980.0         0.30        845.1 
       981.0         0.27        833.2 
       982.0         0.27        825.2 
       983.0         0.40        822.6 
       984.0         0.13        816.5 
       985.0         0.10        819.7 
       986.0         2.15       1968.6 
       987.0         0.30       2012.7 
       988.0         0.30       2024.6 
       989.0         0.23       1996.9 
       990.0         0.23       1931.5 
       991.0         0.60       1816.4 
       992.0         0.30       1431.7 
       993.0         0.30       1315.0 
       994.0         0.30       1189.3 
       995.0         0.28       1006.3 
       996.0         0.23        977.6 
       997.0         0.20        949.5 
       998.0         0.23        931.2 
       999.0         0.30        912.8 
      1000.0         0.30        885.7 
      1001.0         0.20        879.0 
      1002.0         0.23        875.1 
      1003.0         0.20        864.8 
      1004.0         0.20        858.3 
      1005.0         0.23        854.5 
      1006.0         0.17        851.9 
      1007.0         0.20        853.2 
      1008.0         0.20        891.2 
      1009.0         0.20        891.2 
      1010.0         0.25        913.1 
      1011.0         0.23        903.8 
      1012.0         0.37        875.1 
      1013.0         0.27        828.4 
      1014.0         0.20        828.4 
      1015.0         0.23        816.5 
      1016.0         2.28       1098.8 
      1017.0         0.17       1152.9 
      1018.0         0.23       1152.9 
      1019.0         0.33       1198.7 
      1020.0         0.30       1240.2 
      1021.0         0.40       1263.1 
      1022.0         0.50       1311.8 
      1023.0         0.40       1309.2 
      1024.0         0.33       1305.0 
      1025.0         0.33       1276.3 
      1026.0         0.38       1220.9 
      1027.0         0.30       1160.0 
      1028.0         0.37       1057.5 
      1029.0         0.30       1033.7 
      1030.0         0.33        946.6 
      1031.0         0.33        921.2 
      1032.0         0.30        849.6 
      1033.0         0.33        827.1 
      1034.0         0.33        803.6 
      1035.0         0.37        795.2 
      1036.0         0.32        779.1 
      1037.0         0.23        772.0 
      1038.0         0.23        787.8 
      1039.0         0.20        792.6 
      1040.0         0.27        791.0 
      1041.0         0.23        782.0 
      1042.0         0.20        764.6 
      1043.0         0.23        749.1 
      1044.0         0.23        745.9 
      1045.0         0.23        742.7 
      1046.0         2.85       1116.5 
      1047.0         0.47       1233.5 
      1048.0         0.43       1336.3 
      1049.0         0.33       1340.1 
      1050.0         0.28       1345.9 
      1051.0         0.30       1353.3 
      1052.0         0.27       1360.1 
      1053.0         0.23       1363.3 
      1054.0         0.30       1360.4 
      1055.0         0.43       1350.4 
      1056.0         0.40       1302.4 
      1057.0         0.30       1243.8 
      1058.0         0.27       1221.5 
      1059.0         0.27       1153.5 
      1060.0         0.27       1102.3 
      1061.0         0.28       1094.9 
      1062.0         0.27       1001.8 
      1063.0         0.23        981.8 
      1064.0         0.27        921.2 
      1065.0         0.23        914.1 
      1066.0         0.23        881.2 
      1067.0         0.27        855.8 
      1068.0         0.23        880.9 
      1069.0         0.27        900.9 
      1070.0         0.27        877.4 
      1071.0         0.27        863.8 
      1072.0         0.23        800.3 
      1073.0         0.30        791.6 
      1074.0         0.23        762.6 
      1075.0         0.72        737.5 
      1076.0         2.27       1028.2 
      1077.0         0.38       1043.3 
      1078.0         0.27       1054.6 
      1079.0         0.27       1054.9 
      1080.0         0.30       1055.3 
      1081.0         0.33       1067.5 
      1082.0         0.33       1067.5 
      1083.0         0.30       1065.9 
      1084.0         0.30       1060.1 
      1085.0         0.23       1053.3 
      1086.0         0.30       1044.0 
      1087.0         0.23       1030.8 
      1088.0         0.23       1008.5 
      1089.0         0.25       1008.5 
      1090.0         0.33        991.1 
      1091.0         0.27        953.1 
      1092.0         0.27        942.1 
      1093.0         0.27        895.4 
      1094.0         0.27        891.2 
