~Version Information
VERS.                      2.0: CWLS Log ASCII Standard - VERSION 2.0
WRAP.                       NO: One line per depth step
~Well Information Block
STRT.FT                -8.2500: 
STOP.FT              1175.7500: 
STEP.FT                 0.2500: 
NULL.                -999.2500: 
COMP.          Evergreen Operating Corporation: COMPANY
WELL.             Justin 32-10: WELL
FLD.           Purgatorie River: FIELD
LOC.           2994' FNL & 1449' FEL: LOCATION
PROV.                 Colorado: PROVINCE
CNTY.               Las Animas: COUNTRY
SRVC.                         : SERVICE COMPANY
DATE.          Wed Sep 29 10:00:10 2004: LOG DATE
UWI.           05 071 08053 00: UNIQUE WELL ID
~Curve Information Block
DEPT.FT            0 000 00 00: Depth
GR.GAPI                       : Gamma Ray
CCL.                          : Casing Collar Locator
TT3.usec                      : CBL 3' Travel Time
AMP3.mV                       : CBL 3' Amplitude
~Parameter Information Block
~A  Depth        GR         CCL         TT3         AMP3    
# ...
   159.2500     82.1013      0.0000    792.1155      5.1886
   159.5000     78.5833      0.0000    794.8540      5.0024
   159.7500     75.2822      0.0000    817.5237      4.7932
   160.0000     71.6545      0.0000    861.9162      4.5324
   160.2500     67.5786      0.0000    918.2555      4.2431
   160.5000     63.1101      0.0000    974.1572      3.9952
   160.7500     58.6409      0.0000   1022.6851      3.8403
   161.0000     55.0164      2.0078   1059.0389      3.7761
   161.2500     52.8429      1.1902   1074.8673      3.7740
   161.5000     51.6749      0.0000   1061.8512      3.8253
   161.7500     50.4312      0.0000   1018.4246      3.9573
   162.0000     48.8305      0.0000    950.1024      4.2037
   162.2500     48.1442      0.0000    867.7186      4.5544
   162.5000     50.2477      0.0000    788.1135      4.9439
   162.7500     55.8602      0.0000    731.0693      5.3063
   163.0000     63.7191      0.0000    710.9645      5.6199
   163.2500     71.4191      0.0000    730.2819      5.8858
   163.5000     76.9501      0.0000    778.8668      6.0991
   163.7500     79.6067      0.0000    839.2163      6.2601
   164.0000     80.0609      0.0000    895.8986      6.3836
   164.2500     80.0428      0.0000    942.0135      6.4785
   164.5000     81.4548      0.0000    976.1411      6.5333
   164.7500     84.9337      0.0000    993.8729      6.5314
   165.0000     89.2309      0.0000    984.4191      6.4736
   165.2500     92.4223      0.0000    939.9670      6.3778
   165.5000     93.6480      0.0000    870.7216      6.2639
   165.7500     93.2906      0.0000    805.2817      6.1430
   166.0000     91.8351      0.0000    769.5680      6.0206
   166.2500     89.4789      0.0000    765.7137      5.9013
   166.5000     86.8194      0.0000    773.9907      5.7863
   166.7500     84.9944      0.0000    774.7672      5.6682
   167.0000     84.8146      0.0000    768.0635      5.5363
   167.2500     86.0649      0.0000    771.2803      5.3883
   167.5000     87.6666      0.0000    798.1022      5.2378
   167.7500     88.3516      0.0000    842.3830      5.1070
   168.0000     87.4395      0.0000    884.3651      5.0127
   168.2500     85.2175      0.0000    909.3123      4.9618
   168.5000     82.3439      0.0000    915.7597      4.9568
   168.7500     78.9295      0.0000    908.7459      5.0009
   169.0000     74.6281      0.0000    891.9492      5.0898
   169.2500     69.4188      0.0000    867.9221      5.2007
   169.5000     63.8291      0.0000    841.6337      5.2939
   169.7500     58.6197      0.0000    820.7390      5.3368
   170.0000     54.6331      0.0000    812.5452      5.3306
   170.2500     52.6248      0.0000    820.2275      5.3118
   170.5000     52.7955      0.0000    840.3867      5.3164
   170.7500     54.6177      0.0000    864.2881      5.3503
   171.0000     57.3007      0.0000    882.7243      5.3997
   171.2500     60.2009      0.0000    890.4059      5.4605
   171.5000     62.7767      0.0000    886.9512      5.5430
   171.7500     64.6150      0.0000    875.9739      5.6550
   172.0000     65.8373      0.0000    864.5257      5.7915
   172.2500     67.1580      0.0000    861.3287      5.9389
   172.5000     69.1715      0.0000    873.0245      6.0798
   172.7500     71.5536      0.0000    902.0456      6.1948
   173.0000     72.9842      0.0000    946.4642      6.2651
   173.2500     71.9590      0.0000    998.7955      6.2824
   173.5000     68.0185      0.0000   1046.4164      6.2575
   173.7500     62.3128      0.0000   1077.7471      6.2150
   174.0000     56.7935      0.0000   1087.4641      6.1783
   174.2500     52.8136      0.0000   1075.0410      6.1583
   174.5000     50.6319      0.0000   1043.2051      6.1551
   174.7500     50.1006      0.0000    999.7535      6.1667
   175.0000     51.2234      0.0000    954.7785      6.1956
   175.2500     53.8144      0.0000    913.1368      6.2478
   175.5000     57.1876      0.0000    873.9080      6.3257
   175.7500     60.6032      0.0000    839.4656      6.4230
   176.0000     63.6650      0.0000    819.4340      6.5253
   176.2500     66.0429      0.0000    820.6368      6.6165
   176.5000     67.2052      0.0000    837.2856      6.6822
   176.7500     66.6608      0.0000    856.0561      6.7096
   177.0000     64.3668      0.0000    868.1229      6.6885
   177.2500     60.9233      0.0000    873.1880      6.6195
   177.5000     57.4279      0.0000    875.0015      6.5202
   177.7500     54.9670      0.0000    876.7789      6.4203
   178.0000     54.0679      0.0000    879.7812      6.3499
   178.2500     54.6062      0.0000    883.7935      6.3253
   178.5000     56.0986      0.0000    887.9851      6.3418
   178.7500     57.9429      0.0000    891.2788      6.3785
   179.0000     59.5500      0.0000    891.7542      6.4162
   179.2500     60.5242      0.0000    886.6902      6.4538
   179.5000     60.7318      0.0000    874.4894      6.5083
   179.7500     60.2720      0.0000    857.0737      6.5889
   180.0000     59.6101      0.0000    839.5707      6.6693
   180.2500     59.5993      0.0000    826.8992      6.6959
   180.5000     60.7712      0.0000    820.8744      6.6400
   180.7500     62.4649      0.0000    820.5984      6.5354
   181.0000     63.1564      0.0000    824.4238      6.4533
   181.2500     61.8861      0.0000    830.8608      6.4420
   181.5000     59.0931      0.0000    838.9543      6.4940
   181.7500     55.9978      0.0000    849.0373      6.5635
   182.0000     53.5523      0.0000    861.7428      6.6074
   182.2500     52.1697      0.0000    875.1683      6.6150
   182.5000     52.1955      0.0000    884.6736      6.6061
   182.7500     54.1669      0.0000    886.8722      6.6079
   183.0000     58.2234      0.0000    882.7432      6.6320
   183.2500     63.3800      0.0000    876.6299      6.6697
   183.5000     67.8185      0.0000    873.5817      6.6997
   183.7500     70.1062      1.0052    877.1557      6.7049
   184.0000     70.0641      0.0000    887.5005      6.6857
   184.2500     68.6436      0.0000    901.0582      6.6539
   184.5000     67.3310      0.0000    913.0937      6.6076
   184.7500     67.4662      0.0000    920.6068      6.5225
   185.0000     69.4298      0.0000    922.6418      6.3813
   185.2500     72.4038      0.0000    918.4732      6.2034
   185.5000     75.2663      0.0000    906.3434      6.0301
   185.7500     77.5487      0.0000    884.6868      5.8888
   186.0000     79.2366      0.0000    854.9958      5.7775
   186.2500     80.0806      0.0000    823.1625      5.6792
   186.5000     79.6934      0.0000    796.6759      5.5843
   186.7500     78.2217      0.0000    779.8825      5.5050
   187.0000     76.5094      0.0000    772.4349      5.4627
   187.2500     75.4243      0.0000    772.0971      5.4576
   187.5000     75.0548      0.0000    777.4849      5.4603
   187.7500     74.6678      0.0000    787.3173      5.4440
   188.0000     73.5625      0.0000    798.3262      5.4072
   188.2500     72.0566      0.0000    805.5622      5.3537
   188.5000     71.5420      0.0000    805.3025      5.2675
   188.7500     73.4241      0.0000    797.6425      5.1331
   189.0000     77.9323      0.0000    786.3475      4.9683
   189.2500     83.8129      0.0000    776.1005      4.8163
   189.5000     88.9636      0.0000    769.5375      4.7130
   189.7500     91.5117      0.0000    766.5671      4.6672
   190.0000     90.6091      0.0000    765.7758      4.6614
   190.2500     86.4463      0.0000    765.9332      4.6654
   190.5000     79.8504      0.0000    766.7188      4.6555
   190.7500     72.1553      0.0000    768.8200      4.6311
   191.0000     65.0424      0.0000    772.8536      4.6140
   191.2500     59.6713      0.0000    777.8144      4.6280
   191.5000     55.7736      0.0000    781.3688      4.6746
   191.7500     52.0589      0.0000    781.9924      4.7271
   192.0000     47.5896      0.0000    780.2961      4.7524
   192.2500     42.4790      0.0000    778.4528      4.7388
   192.5000     37.4712      0.0000    778.8983      4.7030
