~Version Information
VERS.                      2.0: CWLS Log ASCII Standard - VERSION 2.0
WRAP.                       NO: One line per depth step
~Well Information Block
STRT.FT               430.0000: 
STOP.FT              1910.2000: 
STEP.FT                 0.1000: 
NULL.                -999.2500: 
COMP.          Pioneer Natural Resources: COMPANY
WELL.          Formula 23-11 Tr: WELL
FLD.           Purgatoire River: FIELD
LOC.           1976' FSL & 1935' FWL--: LOCATION
PROV.                 Colorado: PROVINCE
CNTY.               Las Animas: COUNTRY
SRVC.                Patterson: SERVICE COMPANY
DATE.          Mon Jun 13 07:32:15 2005: LOG DATE
UWI.           05 071 08399 00: UNIQUE WELL ID
~Curve Information Block
DEPT.FT            0 000 00 00: Depth
DCAL.in                       : CDL Caliper
RHOB.g/cc                     : CDL Bulk Density
RHOC.g/cc                     : CDL Density Correction
DPOR.pu                       : CDL Density Porosity
NPOR.pu                       : Neutron Porosity
GR.GAPI                       : Gamma Ray
~Parameter Information Block
~A  Depth       DCAL        RHOB        RHOC        DPOR        NPOR         GR     
# ...
   622.0000      8.0564      2.5726      0.0497      4.6923     31.0381    126.8451
   622.1000      8.0564      2.5623      0.0478      5.3178     31.7685    127.7745
   622.2000      8.0564      2.5396      0.0338      6.6912     32.2370    127.7601
   622.3000      8.0548      2.5223      0.0060      7.7372     32.5502    128.6777
   622.4000      8.0548      2.5189      0.0431      7.9451     32.7074    131.6736
   622.5000      8.0539      2.5218      0.0266      7.7726     32.6317    136.1613
   622.6000      8.0539      2.5231      0.0547      7.6914     32.0416    137.8407
   622.7000      8.0539      2.5213      0.0204      7.8000     31.1194    133.2295
   622.8000      8.0537      2.5255      0.0011      7.5471     30.4495    125.6160
   622.9000      8.0537      2.5423      0.0525      6.5283     30.1608    119.7670
   623.0000      8.0557      2.5580      0.0867      5.5782     29.9164    116.0871
   623.1000      8.0557      2.5554      0.0512      5.7331     29.1649    114.7964
   623.2000      8.0557      2.5389      0.0448      6.7309     27.8780    118.0110
   623.3000      8.0582      2.5293      0.0392      7.3153     26.9458    122.8590
   623.4000      8.0582      2.5344      0.0920      7.0079     26.9877    125.0444
   623.5000      8.0587      2.5452      0.0948      6.3498     27.4423    125.5618
   623.6000      8.0587      2.5517      0.0648      5.9600     27.4491    126.1762
   623.7000      8.0587      2.5496      0.0331      6.0832     27.0111    126.9770
   623.8000      8.0569      2.5431      0.0504      6.4814     26.8594    127.1746
   623.9000      8.0569      2.5352      0.0213      6.9592     27.1930    124.8045
   624.0000      8.0553      2.5255      0.0695      7.5464     27.3309    121.0974
   624.1000      8.0553      2.5163      0.0572      8.1060     26.9117    122.3274
   624.2000      8.0553      2.5124      0.0703      8.3397     26.2277    127.9035
   624.3000      8.0559      2.5109      0.0848      8.4327     25.6827    131.2949
   624.4000      8.0559      2.5063      0.0724      8.7073     25.4921    131.1433
   624.5000      8.0554      2.5055      0.0842      8.7574     25.6141    128.6964
   624.6000      8.0554      2.5174      0.0799      8.0350     25.7666    124.2131
   624.7000      8.0554      2.5353      0.1095      6.9518     25.8002    116.5111
   624.8000      8.0536      2.5452      0.0845      6.3512     25.8754    106.3439
   624.9000      8.0536      2.5499      0.0657      6.0693     25.9612    100.0254
   625.0000      8.0545      2.5611      0.0979      5.3876     25.7730    101.1814
   625.1000      8.0545      2.5790      0.1240      4.3023     25.6329    108.0897
   625.2000      8.0545      2.5905      0.1278      3.6060     25.9642    117.3694
   625.3000      8.0573      2.5843      0.0986      3.9813     26.7295    121.3565
   625.4000      8.0573      2.5653      0.0690      5.1342     27.8419    118.0374
   625.5000      8.0581      2.5541      0.0181      5.8149     28.9682    114.9850
   625.6000      8.0581      2.5656      0.0490      5.1174     29.7418    115.2919
   625.7000      8.0581      2.5828      0.1252      4.0711     30.0599    116.5055
   625.8000      8.0581      2.5851      0.0527      3.9346     30.0013    116.2008
   625.9000      8.0581      2.5818      0.0575      4.1354     30.1402    113.9549
   626.0000      8.0575      2.5843      0.0608      3.9838     30.9444    111.5793
   626.1000      8.0575      2.5898      0.0890      3.6496     32.0327    112.7098
   626.2000      8.0575      2.5893      0.0999      3.6805     32.6377    117.5970
   626.3000      8.0562      2.5764      0.1011      4.4631     32.6085    118.5504
   626.4000      8.0562      2.5602      0.0586      5.4435     32.3168    112.4042
   626.5000      8.0557      2.5565      0.0488      5.6690     31.7898    107.4126
   626.6000      8.0557      2.5619      0.0884      5.3387     30.8749    108.2704
   626.7000      8.0557      2.5599      0.1004      5.4595     29.7759    112.3550
   626.8000      8.0547      2.5509      0.0543      6.0062     28.8176    117.8801
   626.9000      8.0547      2.5517      0.0628      5.9596     28.2471    123.1530
   627.0000      8.0542      2.5682      0.0697      4.9547     28.0060    124.0826
   627.1000      8.0542      2.5881      0.1017      3.7496     27.7122    119.2953
   627.2000      8.0542      2.5995      0.0723      3.0619     27.2391    114.8870
   627.3000      8.0554      2.5999      0.0936      3.0354     26.8956    114.7576
   627.4000      8.0554      2.5875      0.1084      3.7874     26.9522    114.4606
   627.5000      8.0565      2.5736      0.0340      4.6329     27.1652    112.0760
   627.6000      8.0565      2.5746      0.0468      4.5709     27.5022    111.3646
   627.7000      8.0565      2.5840      0.0587      4.0002     28.2277    114.2933
   627.8000      8.0570      2.5875      0.0748      3.7905     28.8789    118.1216
   627.9000      8.0570      2.5830      0.0822      4.0625     28.9270    118.0783
   628.0000      8.0570      2.5703      0.0421      4.8274     28.5220    112.8368
   628.1000      8.0570      2.5517     -0.0273      5.9597     28.0448    106.8365
   628.2000      8.0570      2.5386     -0.0258      6.7540     27.8243    104.3052
   628.3000      8.0586      2.5391     -0.0198      6.7184     27.7974    106.2554
   628.4000      8.0586      2.5491      0.0096      6.1175     27.7345    111.2469
   628.5000      8.0599      2.5524      0.0802      5.9154     27.8304    116.8843
   628.6000      8.0599      2.5424     -0.0238      6.5240     28.2976    122.4570
   628.7000      8.0599      2.5340      0.0173      7.0279     28.7122    128.4984
   628.8000      8.0585      2.5388      0.0055      6.7402     28.5190    132.6948
   628.9000      8.0585      2.5527      0.0280      5.8988     27.8769    132.6809
   629.0000      8.0554      2.5634      0.0058      5.2467     27.4804    131.6380
   629.1000      8.0554      2.5676      0.0058      4.9925     27.4878    131.7879
   629.2000      8.0554      2.5739      0.0097      4.6139     27.5350    132.3729
   629.3000      8.0539      2.5880      0.0242      3.7566     27.5878    132.0025
   629.4000      8.0539      2.6035      0.0664      2.8202     27.6906    130.1822
   629.5000      8.0559      2.6128      0.0569      2.2523     27.6236    127.5154
   629.6000      8.0559      2.6170      0.0468      2.0016     27.2393    123.2539
   629.7000      8.0559      2.6060      0.0821      2.6681     26.6920    117.9333
   629.8000      8.0572      2.5692      0.0278      4.8968     26.4747    116.1916
   629.9000      8.0572      2.5275     -0.0319      7.4258     26.5173    119.9409
   630.0000      8.0559      2.5050      0.0180      8.7886     26.0978    122.6238
   630.1000      8.0559      2.5022     -0.0118      8.9595     25.4301    119.9030
   630.2000      8.0559      2.5125      0.0386      8.3351     24.9350    115.9032
   630.3000      8.0545      2.5243      0.0397      7.6153     24.1729    115.3553
   630.4000      8.0545      2.5319      0.0404      7.1546     23.2203    118.6930
   630.5000      8.0546      2.5414      0.0387      6.5796     22.8632    121.5383
   630.6000      8.0546      2.5529      0.0574      5.8878     23.2317    121.1817
   630.7000      8.0546      2.5534      0.0845      5.8520     23.9401    120.0630
   630.8000      8.0570      2.5433      0.0539      6.4683     24.7262    119.9836
   630.9000      8.0570      2.5398      0.0554      6.6791     25.0596    121.3205
   631.0000      8.0579      2.5445      0.0748      6.3958     24.5754    122.7777
   631.1000      8.0579      2.5432      0.0743      6.4709     24.0031    121.7110
   631.2000      8.0579      2.5381      0.0573      6.7813     23.9930    118.5543
   631.3000      8.0572      2.5478      0.0476      6.1914     24.3840    115.8603
   631.4000      8.0572      2.5711      0.1069      4.7811     24.9031    113.7779
   631.5000      8.0572      2.5875      0.0684      3.7854     25.2577    112.2927
