~Version Information
 VERS.                                  2.0 : CWLS LAS VERSION
 WRAP.                                   NO : WRAPING MODE
 SWARE .                 MController 2.5.0J : SOFTWARE VERSION
~Well Information
 WELL.                      Robinson 15-12R : WELL
 COMP.                Petrogulf Corporation : COMPANY
 FLD.                      Purgatoire River : FIELD
 LOC.                SW/NW Sec 15 T33S R67W : LOCATION
 DATE.                          09/12-13/05 : DATE(S) LOGGED
 SRVC.       BLANCO Geological Services LLC : SERVICE COMPANY
 STAT.                                   CO : STATE
 CNTY.                           Las Animas : COUNTY
 CTRY.                                  USA : COUNTRY
 API.                       05-071-08307-00 : API NUMBER
 STRT.FT                               1.00 : START DEPTH
 STOP.FT                            1460.00 : STOP DEPTH
 STEP.FT                               1.00 : DEPTH INCREMENT
 NULL.                                -9999 : NULL VALUE
~Curve information
 DEPTH.FT                                   :
 ROP.MIN/FT                                 :
 GAS.UNITS                                  :
~ASCII Log data
# ...
      1001.0         0.27        685.1 
      1002.0         0.27        680.6 
      1003.0         0.22        675.5 
      1004.0         0.20        662.5 
      1005.0         0.20        663.5 
      1006.0         0.17        662.5 
      1007.0         0.13        662.8 
      1008.0         0.17        663.5 
      1009.0         0.20        655.5 
      1010.0         0.17        658.7 
      1011.0         0.17        670.8 
      1012.0         0.10        675.5 
      1013.0         0.13        674.3 
      1014.0         0.10        667.0 
      1015.0         0.17        656.2 
      1016.0         0.20        622.2 
      1017.0         0.27        577.5 
      1018.0         2.15       2958.5 
      1019.0         0.40       1753.1 
      1020.0         0.23       1229.7 
      1021.0         0.23       1052.6 
      1022.0         0.27        951.0 
      1023.0         0.27        883.1 
      1024.0         0.28        837.7 
      1025.0         0.23        803.8 
      1026.0         0.23        779.6 
      1027.0         0.17        747.9 
      1028.0         0.17        730.5 
      1029.0         0.17        712.7 
      1030.0         0.27        700.6 
      1031.0         0.27        678.1 
      1032.0         0.27        671.7 
      1033.0         0.20        671.1 
      1034.0         0.17        675.2 
      1035.0         0.17        675.9 
      1036.0         0.23        681.6 
      1037.0         0.20        681.6 
      1038.0         0.22        684.1 
      1039.0         0.20        674.3 
      1040.0         0.23        673.0 
      1041.0         0.20        674.6 
      1042.0         0.20        673.6 
      1043.0         0.20        669.2 
      1044.0         0.27        658.4 
      1045.0         0.20        644.8 
      1046.0         0.23        611.1 
      1047.0         0.20        563.8 
      1048.0         0.27        531.8 
      1049.0         0.27        634.9 
      1050.0         1.92       1438.5 
      1051.0         0.20        974.5 
      1052.0         0.23        905.6 
      1053.0         0.20        854.2 
      1054.0         0.27        829.2 
      1055.0         0.30        797.7 
      1056.0         0.27        766.6 
      1057.0         0.17        747.0 
      1058.0         0.17        735.8 
      1059.0         0.20        726.3 
      1060.0         0.35        715.9 
      1061.0         0.23        688.2 
      1062.0         0.17        676.5 
      1063.0         0.30        670.1 
      1064.0         0.23        655.2 
      1065.0         0.23        649.2 
      1066.0         0.30        649.5 
      1067.0         0.23        647.0 
      1068.0         0.20        641.6 
      1069.0         0.13        639.7 
      1070.0         0.20        639.0 
      1071.0         0.13        639.4 
      1072.0         0.13        647.3 
      1073.0         0.23        659.0 
      1074.0         0.28        660.3 
      1075.0         0.30        633.6 
      1076.0         0.30        566.7 
      1077.0         0.20        526.1 
      1078.0         0.27        629.5 
      1079.0         0.23        793.3 
      1080.0         1.10       1392.8 
      1081.0         0.30       1303.0 
      1082.0         0.23       1135.7 
      1083.0         0.23       1005.3 
      1084.0         0.32        917.7 
      1085.0         0.30        855.5 
      1086.0         0.20        853.3 
      1087.0         0.20        843.4 
      1088.0         0.17        819.3 
      1089.0         0.27        796.1 
      1090.0         0.17        763.8 
      1091.0         0.17        750.1 
      1092.0         0.17        737.8 
      1093.0         0.17        721.9 
      1094.0         0.17        715.5 
      1095.0         0.30        713.6 
      1096.0         0.30        707.6 
      1097.0         0.20        689.5 
      1098.0         0.17        671.4 
      1099.0         0.13        659.0 
      1100.0         0.15        653.3 
      1101.0         0.13        654.9 
      1102.0         0.17        666.0 
      1103.0         0.17        670.1 
      1104.0         0.17        675.2 
      1105.0         0.17        672.7 
      1106.0         0.27        654.0 
      1107.0         0.27        587.6 
      1108.0         0.20        540.0 
      1109.0         0.17        588.3 
      1110.0         1.27       1398.5 
      1111.0         0.25       1363.9 
      1112.0         0.27       1242.4 
      1113.0         0.23       1087.8 
      1114.0         0.27        982.1 
      1115.0         0.17        891.0 
      1116.0         0.27        856.8 
      1117.0         0.20        824.1 
      1118.0         0.23        811.7 
      1119.0         0.27        793.0 
      1120.0         0.27        777.7 
      1121.0         0.30        753.6 
      1122.0         0.17        729.2 
      1123.0         0.13        724.7 
      1124.0         0.20        716.5 
      1125.0         0.23        703.8 
      1126.0         0.25        692.0 
      1127.0         0.23        682.2 
      1128.0         0.20        674.9 
      1129.0         0.20        671.7 
      1130.0         0.20        665.7 
      1131.0         0.20        667.3 
      1132.0         0.23        670.8 
      1133.0         0.27        681.3 
      1134.0         0.27        702.2 
      1135.0         0.23        703.5 
      1136.0         0.17        683.2 
      1137.0         0.20        639.0 
      1138.0         0.30        574.9 
      1139.0         0.23        520.0 
      1140.0         0.22        591.4 
      1141.0         2.50       1538.8 
      1142.0         0.23        863.8 
      1143.0         0.23        803.8 
      1144.0         0.25        771.1 
      1145.0         0.33        755.8 
      1146.0         0.30        748.5 
      1147.0         0.27        736.8 
      1148.0         0.23        729.8 
      1149.0         0.20        717.4 
      1150.0         0.20        705.1 
      1151.0         0.17        689.2 
      1152.0         0.17        669.8 
      1153.0         0.17        654.9 
      1154.0         0.13        651.1 
      1155.0         0.17        658.7 
      1156.0         0.10        663.8 
      1157.0         0.13        669.5 
      1158.0         0.13        672.4 
      1159.0         0.17        678.4 
      1160.0         0.17        684.7 
      1161.0         0.13        680.6 
      1162.0         0.15        674.6 
      1163.0         0.17        671.1 
      1164.0         0.20        665.7 
      1165.0         0.13        638.1 
      1166.0         0.10        612.1 
      1167.0         0.13        591.8 
      1168.0         0.17        570.5 
      1169.0         0.20        595.2 
      1170.0         2.22       1528.4 
      1171.0         0.20       1004.7 
      1172.0         0.23        920.6 
      1173.0         0.33        850.4 
      1174.0         0.17        795.5 
      1175.0         0.23        779.0 
      1176.0         0.23        760.9 
      1177.0         0.13        747.3 
      1178.0         0.13        743.5 
      1179.0         0.27        741.6 
      1180.0         0.20        731.1 
      1181.0         0.23        725.4 
      1182.0         0.27        713.6 
      1183.0         0.17        702.8 
      1184.0         0.13        691.4 
      1185.0         0.22        678.4 
      1186.0         0.20        664.1 
      1187.0         0.27        654.6 
      1188.0         0.30        660.9 
      1189.0         0.23        661.9 
      1190.0         0.17        659.7 
      1191.0         0.20        660.3 
      1192.0         0.23        663.5 
      1193.0         0.23        666.3 
      1194.0         0.20        664.4 
      1195.0         0.20        654.3 
      1196.0         0.20        625.1 
      1197.0         0.17        580.0 
      1198.0         0.20        548.6 
      1199.0         0.20        544.1 
      1200.0         2.08       1575.3 
