~Version Information
 VERS.                                  2.0 : CWLS LAS VERSION
 WRAP.                                   NO : WRAPING MODE
 SWARE .                 MController 2.5.0J : SOFTWARE VERSION
~Well Information
 WELL.                                  N/A : WELL
 COMP.                                  N/A : COMPANY
 FLD.                                   N/A : FIELD
 LOC.                                   N/A : LOCATION
 DATE.                                  N/A : DATE(S) LOGGED
 SRVC.                                  N/A : SERVICE COMPANY
 STAT.                                  N/A : STATE
 CNTY.                                  N/A : COUNTY
 CTRY.                                  N/A : COUNTRY
 API.                                   N/A : API NUMBER
 STRT.FT                             986.00 : START DEPTH
 STOP.FT                            2126.00 : STOP DEPTH
 STEP.FT                               1.00 : DEPTH INCREMENT
 NULL.                                -9999 : NULL VALUE
~Curve information
 DEPTH.FT                                   :
 ROP.MIN/FT                                 :
 GAS.UNITS                                  :
~ASCII Log data
       986.0     -9999.00         12.4 
       987.0         0.42         15.0 
       988.0         0.13         15.2 
       989.0         0.10         15.7 
       990.0         0.10         15.9 
       991.0         0.07         14.8 
       992.0         0.30         15.0 
       993.0         0.20         14.3 
       994.0         0.23         48.7 
       995.0         0.27        178.0 
       996.0         0.20        180.5 
       997.0         0.27        143.3 
       998.0         0.40         72.6 
       999.0         0.30         27.9 
      1000.0         0.23         18.0 
      1001.0         0.35         13.6 
      1002.0         0.23         12.4 
      1003.0         0.37         11.8 
      1004.0         0.37         11.0 
      1005.0         0.37         11.3 
      1006.0         0.30         11.3 
      1007.0         0.43         11.8 
      1008.0         0.37         12.3 
      1009.0         0.32         12.2 
      1010.0         0.23         13.0 
      1011.0         0.27         13.0 
      1012.0         0.37         13.3 
      1013.0         0.30         13.4 
      1014.0         0.20         13.4 
      1015.0         0.20         13.6 
      1016.0         2.15         17.6 
      1017.0         0.30         18.0 
      1018.0         0.23         17.0 
      1019.0         0.20         16.4 
      1020.0         0.17         16.0 
      1021.0         0.17         15.9 
      1022.0         0.17         15.5 
      1023.0         0.17         15.6 
      1024.0         0.20         16.0 
      1025.0         0.13         17.4 
      1026.0         0.27         18.8 
      1027.0         0.22         19.0 
      1028.0         0.17         18.0 
      1029.0         0.20         17.5 
      1030.0         0.17         17.0 
      1031.0         0.17         16.6 
      1032.0         0.13         16.6 
      1033.0         0.20         16.4 
      1034.0         0.30         16.7 
      1035.0         0.20         16.2 
      1036.0         0.30         16.4 
      1037.0         0.27         16.6 
      1038.0         0.30         16.8 
      1039.0         0.30         16.6 
      1040.0         0.27         16.7 
      1041.0         0.28         16.8 
      1042.0         0.30         16.8 
      1043.0         0.23         16.1 
      1044.0         0.27         16.6 
      1045.0         0.20         17.0 
      1046.0         0.97         17.8 
      1047.0         0.30         17.6 
      1048.0         0.30         17.1 
      1049.0         0.42         17.2 
      1050.0         0.37         18.6 
      1051.0         0.27         20.2 
      1052.0         0.27         19.8 
      1053.0         0.20         19.2 
      1054.0         0.17         18.6 
      1055.0         0.17         18.3 
      1056.0         0.10         17.9 
      1057.0         0.13         17.5 
      1058.0         0.20         17.5 
      1059.0         0.60         17.8 
      1060.0         0.30         17.7 
      1061.0         0.28         17.6 
      1062.0         0.23         17.8 
      1063.0         0.23         18.3 
      1064.0         0.17         19.0 
      1065.0         0.20         19.1 
      1066.0         0.20         19.1 
      1067.0         0.33         19.4 
      1068.0         0.30         19.3 
      1069.0         0.23         18.7 
      1070.0         0.23         18.7 
      1071.0         0.23         18.4 
      1072.0         0.33         18.3 
      1073.0         0.33         18.5 
      1074.0         0.32         18.5 
      1075.0         0.27         17.8 
      1076.0         2.40         21.8 
      1077.0         0.30         19.7 
      1078.0         0.32         19.1 
      1079.0         0.27         19.1 
      1080.0         0.37         19.3 
      1081.0         0.27         19.1 
      1082.0         0.27         19.4 
      1083.0         0.27         19.4 
      1084.0         0.30         19.3 
      1085.0         0.23         19.6 
      1086.0         0.30         19.6 
      1087.0         0.43         19.8 
      1088.0         0.65         19.9 
      1089.0         0.53         25.8 
      1090.0         0.33         26.1 
      1091.0         0.23         23.7 
      1092.0         0.23         22.1 
      1093.0         0.20         21.2 
      1094.0         0.37         21.1 
      1095.0         0.53         21.8 
      1096.0         0.43         21.6 
      1097.0         0.35         21.5 
      1098.0         0.37         21.5 
      1099.0         0.40         21.5 
      1100.0         0.30         21.9 
      1101.0         0.43         22.0 
      1102.0         0.33         22.0 
      1103.0         0.27         21.3 
      1104.0         0.27         21.1 
      1105.0         0.23         21.6 
      1106.0         3.15         25.4 
      1107.0         0.18         22.2 
      1108.0         0.40         22.5 
      1109.0         0.23         22.7 
      1110.0         0.27         23.0 
      1111.0         0.23         23.1 
      1112.0         0.20         23.1 
      1113.0         0.23         23.0 
      1114.0         0.20         22.6 
      1115.0         0.20         22.1 
      1116.0         0.20         21.5 
      1117.0         0.17         21.5 
      1118.0         0.23         21.4 
      1119.0         0.23         21.2 
      1120.0         0.25         21.0 
      1121.0         0.23         20.9 
      1122.0         0.23         20.8 
      1123.0         0.23         20.7 
      1124.0         0.27         21.0 
      1125.0         0.23         20.7 
      1126.0         0.27         21.3 
      1127.0         0.27         21.3 
      1128.0         0.17         21.5 
      1129.0         0.17         21.7 
      1130.0         0.13         21.5 
      1131.0         0.17         21.5 
      1132.0         0.20         21.6 
      1133.0         0.17         21.6 
      1134.0         0.20         21.8 
      1135.0         0.15         21.8 
      1136.0         2.10         25.5 
      1137.0         0.27         22.0 
      1138.0         0.50         21.9 
      1139.0         0.58         23.1 
      1140.0         0.57         23.4 
      1141.0         0.43         22.5 
      1142.0         0.30         22.3 
      1143.0         0.30         22.2 
      1144.0         0.30         22.3 
      1145.0         0.33         22.4 
      1146.0         0.33         22.5 
      1147.0         0.23         22.3 
      1148.0         0.35         22.6 
      1149.0         0.23         22.4 
      1150.0         0.37         22.4 
      1151.0         0.30         22.4 
      1152.0         0.20         22.5 
      1153.0         0.20         22.5 
      1154.0         0.20         22.0 
      1155.0         0.20         22.5 
      1156.0         0.20         22.6 
      1157.0         0.17         22.7 
      1158.0         0.40         22.6 
      1159.0         0.38         22.9 
      1160.0         0.20         22.5 
      1161.0         0.20         22.4 
      1162.0         0.17         22.3 
      1163.0         0.20         22.7 
      1164.0         0.17         22.6 
      1165.0         0.17         22.9 
      1166.0         2.58         27.8 
      1167.0         0.40         23.2 
      1168.0         0.37         23.8 
      1169.0         0.33         23.7 
      1170.0         0.33         23.6 
      1171.0         0.20         23.1 
      1172.0         0.17         23.3 
      1173.0         0.15         22.7 
      1174.0         0.20         23.2 
      1175.0         0.30         23.0 
      1176.0         0.40         23.2 
      1177.0         0.23         23.6 
      1178.0         0.17         24.5 
      1179.0         0.20         27.5 
      1180.0         0.17         28.5 
      1181.0         0.30         28.9 
      1182.0         0.20         29.5 
      1183.0         0.17         31.3 
      1184.0         0.17         32.2 
      1185.0         0.20         32.7 
