~Version Information
VERS.                      2.0: CWLS Log ASCII Standard - VERSION 2.0
WRAP.                       NO: One line per depth step
~Well Information Block
STRT.FT               240.0000: 
STOP.FT              1453.0000: 
STEP.FT                 0.2500: 
NULL.                -999.2500: 
COMP.          Petrogulf Corporation: COMPANY
WELL.          Robinson 15-12R: WELL
FLD.           Purgatorie River: FIELD
LOC.           1752' FNL & 561' FWL: LOCATION
PROV.                 Colorado: PROVINCE
CNTY.               Las Animas: COUNTRY
SRVC.                Patterson: SERVICE COMPANY
DATE.          Tue Sep 13 15:11:42 2005: LOG DATE
UWI.                          : UNIQUE WELL ID
~Curve Information Block
DEPT.FT            0 000 00 00: Depth
SP.mV                         : DIL Spontaneous Potential
RILD.Ohm-m                    : DIL Deep Resistivity
RILM.Ohm-m                    : DIL Medium Resistivity
RLL3.Ohm-m                    : DIL Shallow Resistivity
GR.GAPI                       : Gamma Ray
~Parameter Information Block
~A  Depth        SP         RILD        RILM        RLL3         GR     
# ...
   800.0000    184.2028     38.4839     75.8320    771.0998     39.0872
   800.2500    183.5385     36.6612     73.0253    701.2303     28.4871
   800.5000    183.1956     34.5252     68.7715    480.1458     53.0471
   800.7500    183.0309     32.8674     60.0139    296.3544     52.1983
   801.0000    183.0775     31.6445     49.0817    159.3525     82.9450
   801.2500    183.7204     30.2576     41.9044     86.6521    107.5009
   801.5000    184.7654     27.7529     36.8982     45.6438    104.5530
   801.7500    185.7277     26.3011     32.3401     28.4591    118.4625
   802.0000    186.5957     23.6903     28.4966     23.3368    119.2269
   802.2500    187.6758     22.6758     27.7331     27.0010    111.3677
   802.5000    188.8907     21.4706     25.9318     42.7188     96.1610
   802.7500    190.2855     20.5813     23.7586     62.1475    100.1394
   803.0000    191.5446     19.3621     21.6316     48.5105    126.5682
   803.2500    192.9424     18.7739     19.9949     26.2300    123.0132
   803.5000    194.1934     18.3697     17.9861     18.4382    142.8065
   803.7500    195.3785     18.2864     16.9415     17.0307    178.1824
   804.0000    196.1172     18.7035     16.6802     17.5577    169.5154
   804.2500    196.1962     18.6910     16.9974     18.7102    159.8169
   804.5000    196.0413     19.0330     17.2642     19.7976    143.7581
   804.7500    195.7850     19.5752     18.1838     21.1446    136.2915
   805.0000    195.4420     19.6410     19.0047     23.9775    134.2414
   805.2500    195.0347     20.2945     20.7220     29.1355    133.7334
   805.5000    194.5022     20.3603     22.2284     39.7584     94.0681
   805.7500    194.0658     21.3822     24.6143     57.1220     88.7268
   806.0000    193.5658     21.8780     25.9838     75.8890     96.0283
   806.2500    192.8602     23.3105     26.2183     81.1719     94.8274
   806.5000    191.8712     24.7541     26.4871     73.7328     99.2993
   806.7500    190.7053     26.3316     29.1009     69.4734    112.0684
   807.0000    189.6857     28.3410     30.5713     64.8239    100.9452
   807.2500    188.3672     27.6127     33.7554     62.1891     93.9193
   807.5000    186.7061     27.6472     36.2476     69.7060     78.7175
   807.7500    184.8840     31.8540     37.4164     86.3202     73.6386
   808.0000    183.0103     33.2313     41.4836     96.6997     65.1775
   808.2500    181.1839     33.6571     43.1109     89.8950     65.2861
   808.5000    178.8990     32.8535     44.9226     80.0718     62.8232
   808.7500    175.9613     34.3579     45.7861     69.9742     58.3284
   809.0000    172.6873     37.5063     45.5746     61.5804     58.4778
   809.2500    169.1407     34.6275     49.7708     58.2523     61.9646
   809.5000    165.7215     35.1654     47.6960     59.6034     56.5174
   809.7500    162.2355     35.0308     46.7017     63.2580     37.5283
   810.0000    159.0279     36.1910     46.3936     65.7464     32.4847
   810.2500    156.3561     35.2565     44.1622     68.0709     39.4585
   810.5000    154.0202     34.7615     42.8789     70.0268     50.8963
   810.7500    152.1174     35.5251     40.5639     69.2307     50.4717
   811.0000    150.2220     34.9895     44.2183     66.2849     60.5480
   811.2500    148.4053     35.0287     46.7694     63.7748     55.1740
   811.5000    147.1135     35.4595     40.1183     59.5409     36.1002
   811.7500    145.8818     35.9699     40.4037     56.5684     52.1672
   812.0000    144.7004     36.3626     39.6199     56.2342     52.3726
   812.2500    143.3850     36.0059     40.9962     55.5238     45.3025
   812.5000    142.4203     35.7952     40.3441     53.5545     50.9698
   812.7500    141.5879     36.0259     38.2385     50.9766     61.0562
   813.0000    140.7869     36.2611     39.9828     51.0614     43.1109
   813.2500    139.5076     37.0876     42.5001     56.1892     39.4482
   813.5000    137.7688     38.7134     43.3881     63.5285     44.0921
   813.7500    136.5623     39.1203     45.0215     66.7704     40.5057
   814.0000    135.8873     39.4480     45.8603     65.4794     33.7664
   814.2500    135.5578     40.8208     45.3812     65.3450     35.7471
   814.5000    135.1864     39.1694     46.4866     67.6378     32.5700
   814.7500    135.0277     39.2391     50.5516     71.8705     42.2181
   815.0000    135.6784     40.9176     51.4720     83.3839     40.5331
   815.2500    137.0049     38.8321     50.8954    100.9757     40.8261
   815.5000    138.3400     41.4981     53.7679    111.0468     39.0115
   815.7500    139.3990     40.5070     54.8215    110.5891     34.6505
   816.0000    140.7746     40.9233     56.2762    103.9361     38.0464
   816.2500    142.8378     40.3723     57.0549    100.5030     39.8346
   816.5000    145.1075     38.8047     52.5950    100.3559     32.0058
   816.7500    147.0224     41.5550     51.3551     95.6292     35.6884
   817.0000    149.2287     39.0344     50.2688     89.8828     51.0352
   817.2500    151.2365     37.1700     49.2629     83.0749     78.4746
   817.5000    153.4417     35.9844     45.5020     67.6680    100.5936
   817.7500    155.3040     37.1199     42.2858     51.5995    101.7772
   818.0000    156.3387     36.7679     40.1568     44.3146    114.3432
   818.2500    157.2835     35.9451     40.1452     41.6434    122.7048
   818.5000    158.7364     34.9675     39.4566     40.7016    115.2900
   818.7500    160.7320     34.8277     40.4634     41.4939    107.8875
   819.0000    162.2849     34.8862     41.5605     50.4573    103.7500
   819.2500    163.7964     33.2683     37.8875     70.1725     99.9232
   819.5000    165.1796     32.6160     38.6972     91.1431     87.8749
   819.7500    167.0316     33.0351     38.4431     88.0694     74.7683
   820.0000    168.5588     33.7524     36.6606     65.7583    116.6606
   820.2500    169.4322     32.0358     34.9336     44.4489    125.2494
   820.5000    170.1930     30.3149     34.3670     32.9095    122.3382
   820.7500    171.4970     31.6716     36.5892     34.8394    115.9726
   821.0000    173.1510     31.9387     38.5761     49.2143    137.3247
   821.2500    174.3831     31.9021     39.4909     68.0071    119.3725
   821.5000    175.2403     32.7337     38.3619     77.0322    104.7488
   821.7500    176.1154     32.6590     37.6490     79.9815     92.1041
   822.0000    177.4816     32.9016     37.0719     69.0946    109.4285
   822.2500    178.7478     32.5485     37.1947     47.8164    121.7034
   822.5000    179.4052     32.0471     36.7784     36.1681    103.9542
   822.7500    179.9984     32.0903     35.5811     39.7348    107.0731
   823.0000    180.2913     31.6065     36.5270     51.3028    116.2396
   823.2500    180.4554     31.3007     39.9708     59.4508    105.8193
   823.5000    180.6164     31.4385     39.3276     57.6235    103.7100
   823.7500    180.5977     32.3903     39.2692     48.3973    103.0785
   824.0000    180.6667     30.9848     40.1131     49.9135     85.0482
   824.2500    181.0852     31.5198     41.8338     70.2068     98.5689
   824.5000    181.7416     31.7696     38.3812     88.9964     93.8652
   824.7500    182.2168     32.4474     36.9903     63.5045     92.1601
   825.0000    182.5743     31.5071     37.0657     37.8177     94.7472
   825.2500    182.7851     31.3780     35.4522     29.2349     94.9734
   825.5000    182.9616     31.2951     35.3778     31.7164     93.5505
   825.7500    182.9606     31.5155     35.0800     38.7633     93.1165
   826.0000    182.5250     31.1892     35.6250     47.1286     82.4769
   826.2500    182.3201     31.0400     34.6889     52.5814     84.3899
   826.5000    182.0792     31.2607     33.9723     53.2412     95.4425
   826.7500    182.0595     31.8852     35.4008     48.8940    109.7492
   827.0000    181.3678     31.9853     32.8292     43.5264    106.6923
   827.2500    180.3711     32.5055     33.5932     40.4802    106.3475
   827.5000    179.1697     32.3563     33.2954     41.5919    103.4905
   827.7500    177.9392     32.2878     34.3701     44.0270     94.9823
