~Version Information
VERS.                      2.0: CWLS Log ASCII Standard - VERSION 2.0
WRAP.                       NO: One line per depth step
~Well Information Block
STRT.FT                -4.2500: 
STOP.FT              2018.7500: 
STEP.FT                 0.2500: 
NULL.                -999.2500: 
COMP.          Petrogulf Corporation: COMPANY
WELL.             State 16-21R: WELL
FLD.           Purgatoire River: FIELD
LOC.           203' FNL & 1560' FWL----: LOCATION
PROV.                 Colorado: PROVINCE
CNTY.               Las Animas: COUNTRY
SRVC.                         : SERVICE COMPANY
DATE.          Thu Sep 29 11:32:19 2005: LOG DATE
API.           05-071-08313 : API Number
~Curve Information Block
DEPT.FT            0 000 00 00: Depth
GR.GAPI                       : Gamma Ray
CCL.                          : Casing Collar Locator
AMP3.mV                       : CBL 3' Amplitude
AMP5.mV                       : CBL 5' Amplitude
~Parameter Information Block
~A  Depth        GR         CCL         AMP3        AMP5    
    -4.2500   -999.2500   -999.2500   -999.2500      0.0401
    -4.0000   -999.2500   -999.2500   -999.2500      0.0076
    -3.7500   -999.2500   -999.2500   -999.2500     -0.0121
    -3.5000   -999.2500   -999.2500      0.1973     -0.0156
    -3.2500   -999.2500   -999.2500      0.1730     -0.0082
    -3.0000   -999.2500   -999.2500      0.1701      0.0020
    -2.7500   -999.2500   -999.2500      0.1866      0.0102
    -2.5000   -999.2500   -999.2500      0.2100      0.0173
    -2.2500   -999.2500   -999.2500      0.2238      0.0287
    -2.0000   -999.2500   -999.2500      0.2168      0.0496
    -1.7500   -999.2500   -999.2500      0.1883      0.0802
    -1.5000   -999.2500   -999.2500      0.1485      0.1143
    -1.2500   -999.2500   -999.2500      0.1144      0.1408
    -1.0000   -999.2500   -999.2500      0.1038      0.1500
    -0.7500   -999.2500   -999.2500      0.1261      0.1392
    -0.5000   -999.2500   -999.2500      0.1750      0.1150
    -0.2500   -999.2500   -999.2500      0.2291      0.0897
     0.0000   -999.2500   -999.2500      0.2863      0.0706
     0.2500   -999.2500   -999.2500      0.2959      0.0754
     0.5000   -999.2500   -999.2500      0.3063      0.0816
     0.7500   -999.2500   -999.2500      0.3163      0.0855
     1.0000   -999.2500   -999.2500      0.3204      0.0881
     1.2500   -999.2500   -999.2500      0.3189      0.0911
     1.5000   -999.2500      0.0000      0.3178      0.0949
     1.7500   -999.2500      0.0000      0.3204      0.0994
     2.0000   -999.2500      0.0000      0.3221      0.1055
     2.2500   -999.2500      0.0000      0.3133      0.1144
     2.5000   -999.2500      0.0000      0.2878      0.1242
     2.7500   -999.2500      0.0000      0.2530      0.1306
     3.0000   -999.2500      0.0000      0.2286      0.1312
     3.2500   -999.2500      0.0000      0.2378      0.1291
     3.5000   -999.2500      0.0000      0.3044      0.1308
     3.7500   -999.2500      0.0000      0.5221      0.1433
     4.0000   -999.2500      0.0000      1.2484      0.1807
     4.2500   -999.2500      0.0000      3.3988      0.3064
     4.5000   -999.2500      0.0000      8.5146      0.7467
     4.7500   -999.2500      0.0000     18.0452      2.0709
     5.0000   -999.2500      0.0000     31.8838      5.2836
     5.2500   -999.2500      0.0000     47.5392     11.4828
     5.5000   -999.2500      0.0000     61.3480     20.9621
     5.7500   -999.2500      0.0000     70.8698     32.4322
     6.0000   -999.2500      0.0000     76.0426     43.4037
     6.2500   -999.2500      0.0000     78.3083     51.6917
     6.5000   -999.2500      0.0000     79.1659     56.6369
     6.7500     40.8269      0.0000     79.5049     58.9902
     7.0000     39.8403      0.0000     79.6937     59.9358
     7.2500     40.7349      0.0000     79.8471     60.3339
     7.5000     42.2258      0.0000     79.9897     60.5805
     7.7500     43.1517      0.0000     80.1242     60.7981
     8.0000     43.2589      0.0000     80.2470     61.0123
     8.2500     43.0184      0.0000     80.3521     61.2227
     8.5000     42.8357      0.0000     80.4303     61.4235
     8.7500     42.7865      0.0000     80.4771     61.6240
     9.0000     43.1207      0.0000     80.5069     61.8460
     9.2500     44.5723      0.0000     80.5576     62.0889
     9.5000     47.7901      0.0000     80.6688     62.3154
     9.7500     52.4749      0.0000     80.8449     62.4999
    10.0000     57.2910      0.0000     81.0445     62.6797
    10.2500     60.6754      0.0000     81.2107     62.9272
    10.5000     61.6960      0.0000     81.3118     63.2587
    10.7500     60.3239      0.0000     81.3609     63.5912
    11.0000     57.3265      0.0000     81.4055     63.8112
    11.2500     54.0101      0.0000     81.4922     63.8804
    11.5000     51.6185      0.0000     81.6280     63.8565
    11.7500     50.6230      0.0000     81.7698     63.8222
    12.0000     50.6740      0.0000     81.8596     63.8153
    12.2500     51.1524      0.0000     81.8745     63.8296
    12.5000     51.4988      0.0000     81.8394     63.8552
    12.7500     51.2563      0.0000     81.7926     63.8896
    13.0000     50.4105      0.0000     81.7517     63.9176
    13.2500     49.7442      0.0000     81.7187     63.9104
    13.5000     50.2569      0.0000     81.7077     63.8626
    13.7500     51.9728      0.0000     81.7463     63.8128
    14.0000     53.7208      0.0000     81.8478     63.8050
    14.2500     54.3094      0.0000     81.9905     63.8408
    14.5000     53.6006      0.0000     82.1289     63.8919
    14.7500     52.3495      0.0000     82.2197     63.9541
    15.0000     51.4120      0.0000     82.2417     64.0504
    15.2500     51.2223      0.0000     82.2010     64.1773
    15.5000     51.6942      0.0000     82.1263     64.2851
    15.7500     52.4947      0.0000     82.0565     64.3239
    16.0000     53.4305      0.0000     82.0196     64.2817
    16.2500     54.4639      0.0000     82.0142     64.1638
    16.5000     55.4681      0.0000     82.0156     63.9542
    16.7500     56.3336      0.0000     82.0067     63.6048
    17.0000     57.2799      0.0000     81.9965     63.0405
    17.2500     58.6431      0.0000     81.9964     62.1526
    17.5000     60.2699      0.0000     81.9764     60.7813
    17.7500     61.4450      0.0000     81.8559     58.7226
    18.0000     61.6607      0.0000     81.5372     55.7966
    18.2500     61.3655      0.0000     80.9308     51.9614
    18.5000     61.6224      0.0000     79.9313     47.3858
    18.7500     62.8567      0.0000     78.3777     42.4025
    19.0000     64.2497      0.0000     76.0685     37.3712
    19.2500     64.6753      0.0000     72.8518     32.5612
    19.5000     64.0203      0.0000     68.7161     28.1314
    19.7500     63.3028      0.0000     63.8107     24.1751
    20.0000     63.5346      0.0000     58.3966     20.7432
    20.2500     64.5900      0.0000     52.7698     17.8239
    20.5000     65.2472      0.0000     47.1866     15.3421
    20.7500     64.4033      0.0000     41.8204     13.2050
    21.0000     62.1289      0.0000     36.7775     11.3474
    21.2500     59.4671      0.0000     32.1466      9.7362
    21.5000     57.4768      0.0000     28.0285      8.3522
    21.7500     56.5401      0.0000     24.5284      7.1792
    22.0000     56.2350      0.0000     21.7304      6.2002
    22.2500     55.7427      0.0000     19.6677      5.3932
    22.5000     54.6550      0.0000     18.2941      4.7306
    22.7500     53.4991      0.0000     17.4771      4.1881
    23.0000     53.4315      0.0000     17.0390      3.7524
    23.2500     55.3807      0.0000     16.8328      3.4190
    23.5000     59.2585      0.0000     16.7871      3.1833
    23.7500     63.8409      0.0000     16.8805      3.0345
    24.0000     67.7055      0.0000     17.0776      2.9546
    24.2500     70.5154      0.0000     17.2984      2.9214
    24.5000     73.2093      0.0000     17.4523      2.9170
    24.7500     76.8576      0.0000     17.4959      2.9340
    25.0000     81.5333      0.0000     17.4498      2.9722
    25.2500     86.2581      0.0000     17.3697      3.0263
    25.5000     89.7710      0.0000     17.3054      3.0797
    25.7500     91.2913      0.0000     17.2753      3.1115
    26.0000     90.8009      0.0000     17.2667      3.1076
    26.2500     88.8038      0.0000     17.2615      3.0620
    26.5000     85.8678      0.0000     17.2597      2.9707
    26.7500     82.4369      0.0000     17.2720      2.8303
    27.0000     78.9769      0.0000     17.2801      2.6494
    27.2500     75.9024      0.0000     17.2033      2.4551
    27.5000     73.1435      0.0000     16.9030      2.2739
    27.7500     70.0493      0.0000     16.2525      2.1112
    28.0000     66.1190      0.0000     15.2569      1.9616
    28.2500     61.8832      0.0000     14.1133      1.8360
    28.5000     58.6801      0.0000     13.0897      1.7555
    28.7500     57.3037      0.0000     12.3208      1.7235
    29.0000     57.1429      0.0000     11.7671      1.7187
