~Version Information
VERS.                      2.0: CWLS Log ASCII Standard - VERSION 2.0
WRAP.                       NO: One line per depth step
~Well Information Block
STRT.FT               870.0000: 
STOP.FT              2517.5000: 
STEP.FT                 0.1000: 
NULL.                -999.2500: 
COMP.          Pioneer Natural Resources: COMPANY
WELL.              Tiaga 23-14: WELL
FLD.           Purgatoire River: FIELD
LOC.           2168' FSL & 2030' FWL: LOCATION
PROV.                 Colorado: PROVINCE
CNTY.               Las Animas: COUNTRY
SRVC.                         : SERVICE COMPANY
DATE.          Sat May 07 09:09:05 2005: LOG DATE
UWI.           05 071 08329 00: UNIQUE WELL ID
~Curve Information Block
DEPT.FT            0 000 00 00: Depth
LTEN.lb                       : Surface Line Tension
DCAL.in                       : CDL Caliper
RHOC.g/cc                     : CDL Density Correction
DPOR.pu                       : CDL Density Porosity
GR.GAPI                       : Gamma Ray
NPOR.pu                       : Neutron Porosity
~Parameter Information Block
~A  Depth       LTEN        DCAL        RHOC        DPOR         GR         NPOR    
# ...
  2175.6000   1159.4912      7.9111      0.0421      8.1583     45.5085     23.5115
  2175.7000   1159.4912      7.9111      0.0167      8.8980     45.5755     23.2534
  2175.8000   1175.5454      7.9213     -0.0131      8.7263     44.3006     23.1549
  2175.9000   1175.5454      7.9213      0.0611      8.3663     44.8337     22.5587
  2176.0000   1159.1337      7.9483      0.0384      8.5265     46.1992     22.1593
  2176.1000   1159.1337      7.9483      0.0440      7.9281     46.5356     22.5027
  2176.2000   1159.1337      7.9483      0.0849      5.6291     47.0173     22.8768
  2176.3000   1169.8727      7.9302      0.1422      3.3431     48.1051     23.1189
  2176.4000   1169.8727      7.9302      0.1338      2.5389     49.8496     23.4899
  2176.5000   1150.5762      7.8879      0.1512      2.9044     51.7752     23.6682
  2176.6000   1150.5762      7.8879      0.0913      3.3216     51.5583     23.7732
  2176.7000   1150.5762      7.8879      0.1223      2.7171     49.5529     24.2811
  2176.8000   1146.5367      7.8986      0.1243      1.7016     47.9167     24.5999
  2176.9000   1146.5367      7.8986      0.1121      1.9984     46.6069     23.9544
  2177.0000   1157.6666      7.9538      0.0353      3.3420     46.6804     23.1479
  2177.1000   1157.6666      7.9538      0.0859      3.8452     48.9057     23.3432
  2177.2000   1157.6666      7.9538      0.0467      3.4418     50.9002     23.7860
  2177.3000   1131.0813      7.9570      0.0557      3.6248     51.0085     23.3976
  2177.4000   1131.0813      7.9570      0.0627      5.0585     49.1359     22.5982
  2177.5000   1179.6733      7.9503     -0.0245      6.5463     45.2510     22.1938
  2177.6000   1179.6733      7.9503     -0.0074      6.8669     40.7867     22.3064
  2177.7000   1179.6733      7.9503      0.0564      6.9631     37.5467     22.2345
  2177.8000   1166.3784      7.9736      0.0282      7.6630     35.1060     21.7273
  2177.9000   1166.3784      7.9736      0.0740      8.3922     33.3701     21.4065
  2178.0000   1165.3779      7.9689      0.0637      9.2591     33.2567     21.7589
  2178.1000   1165.3779      7.9689      0.0760     10.8347     34.9007     22.7669
  2178.2000   1165.3779      7.9689     -0.0115     12.4119     38.0977     23.9581
  2178.3000   1170.4077      7.9761      0.0053     13.0090     42.1201     24.8202
  2178.4000   1170.4077      7.9761      0.0545     13.3989     44.4972     25.3064
  2178.5000   1165.1663      7.9975     -0.0230     14.5426     44.0474     25.9071
  2178.6000   1165.1663      7.9975      0.0108     16.3387     41.3168     27.0531
  2178.7000   1165.1663      7.9975      0.0387     18.6434     37.7081     27.9496
  2178.8000   1138.0145      7.9915      0.0298     20.5424     36.3713     27.7362
  2178.9000   1138.0145      7.9915      0.0839     20.9714     37.6872     27.0161
  2179.0000   1166.8483      7.9256      0.0715     20.8611     39.0354     26.3160
  2179.1000   1166.8483      7.9256      0.0385     21.3559     39.0276     25.3893
  2179.2000   1166.8483      7.9256     -0.0108     21.2463     37.8491     24.5264
  2179.3000   1176.2415      7.8833      0.0215     19.0392     36.2829     24.4292
  2179.4000   1176.2415      7.8833      0.1349     16.1966     35.5785     24.9086
  2179.5000   1177.9039      7.8625      0.1292     15.1545     35.7975     25.5182
  2179.6000   1177.9039      7.8625      0.1796     16.3135     36.0216     26.1287
  2179.7000   1177.9039      7.8625      0.1454     19.0306     35.6475     26.3072
  2179.8000   1163.7926      7.8496      0.0826     22.9861     33.8402     26.0343
  2179.9000   1163.7926      7.8496      0.0358     28.6105     31.6980     25.7814
  2180.0000   1181.4897      7.8520      0.0055     36.7441     30.2362     25.8769
  2180.1000   1181.4897      7.8520     -0.0830     46.4941     27.5353     26.3820
  2180.2000   1181.4897      7.8520     -0.0910     54.7952     23.3083     27.1885
  2180.3000   1167.2466      7.8920     -0.0988     59.8517     20.0132     28.3766
  2180.4000   1167.2466      7.8920     -0.0658     63.5912     19.1085     29.6082
  2180.5000   1179.4551      7.9317     -0.0513     69.0224     19.5967     30.3582
  2180.6000   1179.4551      7.9317     -0.1855     75.5133     20.3773     30.7609
  2180.7000   1179.4551      7.9317     -0.1171     79.5263     20.5914     31.2759
  2180.8000   1152.3462      7.9121      0.0522     80.0375     19.5104     32.1765
  2180.9000   1152.3462      7.9121      0.0481     78.7913     19.4237     33.3879
  2181.0000   1167.7512      7.8809      0.0508     76.7054     22.4117     34.7288
  2181.1000   1167.7512      7.8809      0.0597     73.8735     25.7565     35.6800
  2181.2000   1167.7512      7.8809      0.1195     71.2706     26.9172     35.7497
  2181.3000   1140.0428      8.2219      0.0660     70.0501     27.9216     35.5246
  2181.4000   1140.0428      8.2219      0.0197     69.7665     31.0745     35.7554
  2181.5000   1155.9358      8.7127      0.0625     69.3662     34.3647     36.2659
  2181.6000   1155.9358      8.7127      0.0626     68.5100     33.9966     36.5217
  2181.7000   1155.9358      8.7127      0.0127     67.0333     31.4212     36.1070
  2181.8000   1143.8473      8.7644      0.0874     65.6178     30.8046     35.2603
  2181.9000   1143.8473      8.7644      0.0630     65.9244     31.0929     34.7282
  2182.0000   1173.9900      8.3900      0.0044     68.4183     29.2353     34.9203
  2182.1000   1173.9900      8.3900     -0.0176     72.2106     26.3954     35.1445
  2182.2000   1173.9900      8.3900     -0.1114     76.2607     25.3554     34.5731
  2182.3000   1119.0770      8.3586     -0.0820     79.4782     26.3838     33.6355
  2182.4000   1119.0770      8.3586     -0.0469     81.2634     27.7312     33.3182
  2182.5000   1211.4741      8.1361      0.0261     81.9486     27.3994     34.0842
  2182.6000   1211.4741      8.1361     -0.0110     81.9769     26.1851     35.0297
  2182.7000   1211.4741      8.1361      0.0534     81.2858     27.3568     34.5295
  2182.8000   1144.8214      8.0057      0.0692     80.0353     30.7240     32.9038
  2182.9000   1144.8214      8.0057      0.0419     78.3358     33.6046     32.0390
  2183.0000   1186.4283      7.9460      0.0392     75.6991     36.5073     32.5907
  2183.1000   1186.4283      7.9460      0.0545     71.5385     41.3281     33.6119
  2183.2000   1186.4283      7.9460      0.0962     65.7161     47.0605     34.1566
  2183.3000   1115.1722      7.9440      0.1224     58.8588     50.6208     34.0896
  2183.4000   1115.1722      7.9440      0.1131     52.0037     52.4065     33.9599
  2183.5000   1180.1831      8.0098      0.1727     46.4250     54.1676     34.0796
  2183.6000   1180.1831      8.0098      0.1811     42.9565     56.2813     33.8828
  2183.7000   1180.1831      8.0098      0.1420     40.2720     59.4125     33.3273
  2183.8000   1224.7617      8.2785      0.1006     35.9078     63.8843     33.3446
  2183.9000   1224.7617      8.2785      0.1256     29.7382     70.7181     34.2287
  2184.0000   1203.3235      8.2034      0.2074     24.7669     79.5263     34.8414
  2184.1000   1203.3235      8.2034      0.0622     23.2265     86.1783     34.3121
  2184.2000   1203.3235      8.2034      0.0778     23.9844     89.6185     33.4683
  2184.3000   1078.8082      8.1081      0.0412     24.9126     92.5469     33.1756
  2184.4000   1078.8082      8.1081      0.0631     24.7393     95.0061     32.7845
  2184.5000   1172.3269      8.0932      0.0324     23.4605     94.7429     31.8692
  2184.6000   1172.3269      8.0932      0.0883     22.0765     94.5825     31.2446
  2184.7000   1172.3269      8.0932      0.0907     21.1028    100.0356     30.8059
  2184.8000   1115.5535      8.0590      0.0644     19.7013    108.8516     29.9213
  2184.9000   1115.5535      8.0590      0.1275     17.6248    116.1211     29.3715
  2185.0000   1107.7916      8.0062      0.1289     16.1654    122.6319     29.8844
  2185.1000   1107.7916      8.0062      0.0667     15.8933    128.8884     31.1039
