~Version Information
VERS.                      2.0: CWLS Log ASCII Standard - VERSION 2.0
WRAP.                       NO: One line per depth step
~Well Information Block
STRT.FT               430.0000: 
STOP.FT              1910.2500: 
STEP.FT                 0.2500: 
NULL.                -999.2500: 
COMP.          Pioneer Natural Resources: COMPANY
WELL.          Formula 23-11 Tr: WELL
FLD.           Purgatoire River: FIELD
LOC.           1976' FSL & 1935' FWL--: LOCATION
PROV.                 Colorado: PROVINCE
CNTY.               Las Animas: COUNTRY
SRVC.                Patterson: SERVICE COMPANY
DATE.          Fri Jun 10 22:41:39 2005: LOG DATE
UWI.           05 071 08399 00: UNIQUE WELL ID
~Curve Information Block
DEPT.FT            0 000 00 00: Depth
SN.Ohm-m                      : IEL Short Normal
SP.mV                         : IEL Spontaneous Potential
DIR.Ohm-m                     : IEL Induction Resistivity
GR.GAPI                       : Gamma Ray
~Parameter Information Block
~A  Depth        SN          SP         DIR          GR     
# ...
   899.0000     23.7694   -141.9678     20.3758    104.2106
   899.2500     24.8410   -141.2784     21.5943    100.7549
   899.5000     25.7191   -140.4922     22.7964     96.3655
   899.7500     26.3505   -139.6210     23.8718     94.7213
   900.0000     26.7861   -138.6868     24.7338     95.4991
   900.2500     27.1345   -137.7187     25.3509     98.5268
   900.5000     27.4791   -136.7487     25.7414    106.2223
   900.7500     27.8238   -135.8072     25.9385    112.4705
   901.0000     28.1076   -134.9190     25.9651    121.5021
   901.2500     28.2665   -134.1019     25.8368    126.3560
   901.5000     28.2890   -133.3659     25.5846    130.9191
   901.7500     28.2295   -132.7155     25.2665    131.9684
   902.0000     28.1808   -132.1516     24.9601    131.0836
   902.2500     28.2321   -131.6739     24.7439    129.4951
   902.5000     28.4366   -131.2824     24.6806    126.3748
   902.7500     28.8013   -130.9779     24.8072    123.9138
   903.0000     29.2958   -130.7607     25.1308    119.9474
   903.2500     29.8712   -130.6290     25.6321    117.4390
   903.5000     30.4803   -130.5761     26.2751    113.9298
   903.7500     31.0892   -130.5891     27.0179    111.4226
   904.0000     31.6740   -130.6487     27.8114    107.1142
   904.2500     32.2074   -130.7320     28.5848    104.2223
   904.5000     32.6466   -130.8170     29.2292    100.9771
   904.7500     32.9299   -130.8875     29.6033    100.0768
   905.0000     32.9877   -130.9377     29.5749    100.8456
   905.2500     32.7656   -130.9738     29.0786    102.5634
   905.5000     32.2486   -131.0118     28.1508    106.4300
   905.7500     31.4723   -131.0730     26.9070    109.6152
   906.0000     30.5098   -131.1773     25.4858    115.0327
   906.2500     29.4378   -131.3386     24.0012    119.1221
   906.5000     28.3022   -131.5615     22.5285    126.2747
   906.7500     27.1039   -131.8416     21.1144    131.5148
   907.0000     25.8111   -132.1687     19.7903    138.2815
   907.2500     24.3889   -132.5299     18.5795    140.6468
   907.5000     22.8314   -132.9136     17.4978    140.0151
   907.7500     21.1849   -133.3116     16.5554    137.5922
   908.0000     19.5514   -133.7198     15.7594    133.3137
   908.2500     18.0612   -134.1372     15.1159    131.0804
   908.5000     16.8280   -134.5649     14.6277    129.4188
   908.7500     15.9175   -135.0038     14.2877    129.4363
   909.0000     15.3440   -135.4531     14.0725    130.5768
   909.2500     15.0745   -135.9092     13.9388    131.4144
   909.5000     15.0169   -136.3652     13.8269    131.1593
   909.7500     15.0123   -136.8132     13.6717    129.0109
   910.0000     14.8749   -137.2452     13.4199    122.2510
   910.2500     14.4863   -137.6563     13.0478    116.2479
   910.5000     13.8769   -138.0457     12.5703    108.1813
   910.7500     13.2174   -138.4163     12.0347    105.2517
   911.0000     12.7185   -138.7731     11.5027    105.6688
   911.2500     12.5146   -139.1208     11.0280    108.4469
   911.5000     12.6059   -139.4607     10.6433    113.8597
   911.7500     12.8790   -139.7904     10.3584    116.7603
   912.0000     13.1760   -140.1044     10.1672    118.1073
   912.2500     13.3703   -140.3966     10.0590    116.7160
   912.5000     13.4135   -140.6626     10.0270    112.6591
   912.7500     13.3377   -140.9020     10.0724    110.1552
   913.0000     13.2259   -141.1183     10.2042    108.4239
   913.2500     13.1851   -141.3177     10.4353    108.5399
   913.5000     13.3404   -141.5069     10.7804    109.6107
   913.7500     13.8324   -141.6904     11.2528    110.6273
   914.0000     14.7741   -141.8694     11.8615    112.7450
   914.2500     16.1632   -142.0411     12.6023    114.5808
   914.5000     17.8177   -142.1994     13.4456    117.6577
   914.7500     19.4167   -142.3364     14.3254    119.7979
   915.0000     20.6457   -142.4428     15.1437    123.2276
   915.2500     21.3380   -142.5093     15.7972    125.6145
   915.5000     21.5103   -142.5269     16.2168    128.6798
   915.7500     21.2936   -142.4873     16.3927    129.8742
   916.0000     20.8409   -142.3841     16.3664    130.2024
   916.2500     20.2757   -142.2132     16.2021    129.9269
   916.5000     19.6852   -141.9738     15.9606    130.1662
   916.7500     19.1274   -141.6689     15.6883    131.4395
   917.0000     18.6385   -141.3051     15.4162    135.2143
   917.2500     18.2359   -140.8918     15.1640    138.4679
   917.5000     17.9232   -140.4396     14.9455    143.1869
   917.7500     17.6937   -139.9595     14.7746    145.6360
   918.0000     17.5340   -139.4606     14.6664    147.5392
   918.2500     17.4295   -138.9500     14.6351    147.1608
   918.5000     17.3743   -138.4318     14.6886    143.3607
   918.7500     17.3804   -137.9077     14.8264    138.6852
   919.0000     17.4745   -137.3770     15.0400    129.8956
   919.2500     17.6820   -136.8370     15.3184    124.2393
   919.5000     18.0116   -136.2836     15.6535    117.9370
   919.7500     18.4510   -135.7106     16.0433    115.4371
   920.0000     18.9724   -135.1112     16.4921    113.5013
   920.2500     19.5378   -134.4775     17.0046    112.8654
   920.5000     20.1028   -133.8039     17.5778    112.4628
   920.7500     20.6227   -133.0899     18.1952    112.6753
   921.0000     21.0614   -132.3434     18.8254    114.0272
   921.2500     21.3934   -131.5839     19.4281    115.4675
   921.5000     21.6009   -130.8425     19.9618    117.4619
   921.7500     21.6779   -130.1582     20.3895    118.1178
   922.0000     21.6396   -129.5691     20.6808    118.1105
   922.2500     21.5259   -129.1000     20.8159    118.1622
   922.5000     21.3907   -128.7498     20.7960    119.9091
   922.7500     21.2838   -128.4843     20.6530    122.5708
   923.0000     21.2347   -128.2390     20.4474    127.9949
   923.2500     21.2477   -127.9351     20.2496    131.7121
   923.5000     21.3050   -127.5037     20.1171    136.5407
   923.7500     21.3743   -126.9116     20.0769    139.1193
   924.0000     21.4194   -126.1767     20.1220    141.5094
   924.2500     21.4159   -125.3666     20.2217    141.3129
   924.5000     21.3678   -124.5780     20.3419    136.9328
   924.7500     21.3106   -123.9040     20.4654    131.4994
   925.0000     21.3024   -123.4031     20.6004    122.5331
   925.2500     21.4065   -123.0804     20.7728    118.2886
   925.5000     21.6718   -122.8892     21.0100    116.6160
   925.7500     22.1105   -122.7510     21.3257    118.3206
   926.0000     22.6807   -122.5854     21.7115    123.2292
   926.2500     23.2911   -122.3380     22.1384    126.8782
   926.5000     23.8411   -121.9962     22.5666    131.1133
   926.7500     24.2764   -121.5906     22.9614    132.3951
   927.0000     24.6204   -121.1803     23.3079    131.9370
   927.2500     24.9577   -120.8329     23.6180    130.5695
   927.5000     25.3904   -120.6031     23.9225    127.8055
   927.7500     26.0040   -120.5198     24.2572    125.6684
   928.0000     26.8560   -120.5820     24.6524    122.2071
   928.2500     27.9736   -120.7654     25.1332    120.1090
   928.5000     29.3427   -121.0328     25.7267    118.0601
   928.7500     30.8877   -121.3459     26.4628    117.3943
   929.0000     32.4585   -121.6739     27.3580    116.1968
   929.2500     33.8451   -121.9966     28.3893    114.3323
   929.5000     34.8331   -122.3046     29.4750    109.2660
   929.7500     35.2837   -122.5954     30.4809    104.8009
   930.0000     35.1946   -122.8709     31.2566     98.2427
   930.2500     34.7024   -123.1346     31.6863     95.2049
   930.5000     34.0179   -123.3901     31.7251     94.2606
   930.7500     33.3282   -123.6406     31.4046     96.1886
   931.0000     32.7261   -123.8876     30.8128    101.3951
   931.2500     32.2205   -124.1304     30.0644    104.9038
   931.5000     31.8110   -124.3653     29.2694    108.3257
   931.7500     31.5446   -124.5856     28.5084    109.3528
   932.0000     31.4940   -124.7836     27.8218    110.2974
   932.2500     31.6838   -124.9518     27.2173    111.1319
