~Version Information
 VERS.                      2.0: CWLS Log ASCII Standard - VERSION 2.0
 WRAP.                       NO: One line per depth step
 ~Well Information Block
 STRT.FT                -8.0000: 
 STOP.FT              2581.0000: 
 STEP.FT                 0.2500: 
 NULL.                -999.2500: 
 COMP.          Petrogulf Corporation: COMPANY
 WELL.               YWAM 7-23V: WELL
 FLD.           Purgatorie River: FIELD
 LOC.           230' FSL & 225' FWL: LOCATION
 CNTY.               Las Animas: COUNTY
 SRVC.                         : SERVICE COMPANY
 DATE.          Mon Nov 22 10:51:24 2004: LOG DATE
 UWI.           05-071-08227-00: UNIQUE WELL ID
 STAT.                 Colorado: STATE
 PROV.                         :Province
 ~Curve Information Block
 DEPT.FT            0 000 00 00: Depth
 TT3.usec                      : CBL 3' Travel Time
 AMP3.mV                       : CBL 3' Amplitude
 GR.GAPI                       : Gamma Ray
 CCL.                          : Casing Collar Locator
 ~Parameter Information Block
 ~A  Depth       TT3         AMP3         GR         CCL     
# ...
  1533.0000    779.6645      1.8965    119.7083      0.0000
  1533.2500    777.5731      1.7831    116.3916      0.0000
  1533.5000    776.2300      1.7090    117.7639      0.0000
  1533.7500    772.3184      1.6657    123.6994      0.0000
  1534.0000    762.1357      1.6529    133.6689      0.0000
  1534.2500    741.9187      1.6696    145.9121      0.0000
  1534.5000    708.3615      1.7094    157.5905      0.0000
  1534.7500    660.8700      1.7686    165.9952      0.0000
  1535.0000    604.3384      1.8522    169.8995      0.0000
  1535.2500    548.7869      1.9606    170.0404      0.0000
  1535.5000    504.4082      2.0696    168.3180      0.0000
  1535.7500    475.8044      2.1380    166.4513      0.0000
  1536.0000    460.7591      2.1435    165.1872      0.0000
  1536.2500    453.7829      2.1034    164.3199      0.0000
  1536.5000    450.1110      2.0571    162.9801      0.0000
  1536.7500    447.1837      2.0341    160.0076      0.0000
  1537.0000    444.1647      2.0411    154.5112      0.0000
  1537.2500    441.0633      2.0663    146.3627      0.0000
  1537.5000    438.1268      2.0888    136.2639      0.0000
  1537.7500    435.5600      2.0909    125.6761      0.0000
  1538.0000    433.5295      2.0693    116.8017      0.0000
  1538.2500    432.2565      2.0348    111.9854      0.0000
  1538.5000    432.2384      2.0021    112.4061      0.0000
  1538.7500    434.8160      1.9778    117.4100      0.0000
  1539.0000    442.9723      1.9559    125.4417      0.0000
  1539.2500    460.9768      1.9242    135.4303      0.0000
  1539.5000    490.9247      1.8778    146.8490      0.0000
  1539.7500    527.6105      1.8236    158.6404      0.0000
  1540.0000    558.9037      1.7739    168.7378      0.0000
  1540.2500    575.7643      1.7380    174.8908      0.0000
  1540.5000    581.9701      1.7216    175.8387      0.0000
  1540.7500    589.3735      1.7282    171.7926      0.0000
  1541.0000    602.5991      1.7569    164.1638      0.0000
  1541.2500    612.2790      1.8020    155.0199      0.0000
  1541.5000    604.5871      1.8582    146.4582      0.0000
  1541.7500    575.1036      1.9291    139.9212      0.0000
  1542.0000    532.7188      2.0252    135.7818      0.0000
  1542.2500    491.8044      2.1481    133.4368      0.0000
  1542.5000    461.9649      2.2747    131.7397      0.0000
  1542.7500    444.4956      2.3661    129.4266      0.0000
  1543.0000    435.8654      2.4029    125.4147      0.0000
  1543.2500    432.4077      2.4052    119.1919      0.0000
  1543.5000    432.4973      2.4123    111.1742      0.0000
  1543.7500    436.7542      2.4443    102.5941      0.0000
  1544.0000    447.2238      2.4863     94.9342      0.0000
  1544.2500    464.7427      2.5041     89.3123      0.0000
  1544.5000    485.1680      2.4732     86.0154      0.0000
  1544.7500    499.1158      2.3961     84.4050      0.0000
  1545.0000    498.4559      2.2972     83.4954      0.0000
  1545.2500    483.7876      2.2034     82.8648      0.0000
  1545.5000    463.7646      2.1276     82.9418      0.0000
  1545.7500    447.3680      2.0671     84.3319      0.0000
  1546.0000    438.8676      2.0090     86.9250      0.0000
  1546.2500    438.7746      1.9374     89.6064      0.0000
  1546.5000    445.3204      1.8430     90.8490      0.0000
  1546.7500    453.7875      1.7310     89.9009      0.0000
  1547.0000    457.6771      1.6209     87.7427      0.0000
  1547.2500    453.4604      1.5358     86.9072      0.0000
  1547.5000    443.5772      1.4884     89.9626      0.0000
  1547.7500    433.5281      1.4755     97.6511      0.0000
  1548.0000    426.8795      1.4853    108.1479      0.0000
  1548.2500    423.7780      1.5080    118.0579      0.0000
  1548.5000    422.8292      1.5408    124.2021      0.0000
  1548.7500    423.1504      1.5878    124.8767      0.0000
  1549.0000    425.1579      1.6561    120.3562      0.0000
  1549.2500    430.8935      1.7483    112.9551      0.0000
  1549.5000    443.9581      1.8540    106.3224      0.0000
  1549.7500    467.9784      1.9478    103.8358      0.0000
  1550.0000    503.8191      2.0011    107.0796      0.0000
  1550.2500    548.2001      2.0001    115.3136      0.0000
  1550.5000    595.1586      1.9542    125.9596      0.0000
  1550.7500    638.1156      1.8899    135.9419      0.0000
  1551.0000    671.2563      1.8379    143.4070      0.0000
  1551.2500    691.6011      1.8214    148.5036      0.0000
  1551.5000    700.6934      1.8436    152.4473      0.0000
  1551.7500    703.1156      1.8858    156.0350      0.0000
  1552.0000    702.7351      1.9256    159.0763      0.0000
  1552.2500    700.1170      1.9645    160.5880      0.0000
  1552.5000    692.6962      2.0320    159.1201      0.0000
  1552.7500    676.7966      2.1568    153.5150      0.0000
  1553.0000    649.7451      2.3380    144.1660      0.0000
  1553.2500    611.5695      2.5426    133.6062      2.1881
  1553.5000    566.5714      2.7280    125.2563      0.0000
  1553.7500    523.8796      2.8645    121.0727      0.0000
  1554.0000    495.0132      2.9481    120.3257      0.0000
  1554.2500    489.0004      2.9966    120.5930      0.0000
  1554.5000    507.0174      3.0306    119.6310      0.0000
  1554.7500    538.4553      3.0554    116.3885      0.0000
  1555.0000    563.0170      3.0607    111.0040      0.0000
  1555.2500    562.7913      3.0349    104.4327      0.0000
  1555.5000    536.1147      2.9757     98.0114      0.0000
  1555.7500    497.8315      2.8892     93.0510      0.0000
  1556.0000    465.2144      2.7845     90.3947      0.0000
  1556.2500    445.7931      2.6710     89.9187      0.0000
  1556.5000    437.4891      2.5548     90.5316      0.0000
  1556.7500    435.4808      2.4363     91.1273      0.0000
  1557.0000    436.9575      2.3125     91.5389      0.0000
  1557.2500    441.9008      2.1833     92.2675      0.0000
  1557.5000    452.3245      2.0577     93.4781      0.0000
  1557.7500    471.1229      1.9542     94.7426      0.0000
  1558.0000    499.0583      1.8930     95.6825      0.0000
  1558.2500    530.2591      1.8826     96.4128      0.0000
  1558.5000    552.1141      1.9104     97.2171      0.0000
  1558.7500    554.5499      1.9454     98.1769      0.0000
  1559.0000    540.4356      1.9549     99.6103      0.0000
  1559.2500    522.6880      1.9245    102.6746      0.0000
  1559.5000    509.9279      1.8657    108.5879      0.0000
  1559.7500    499.2827      1.8037    116.7762      0.0000
  1560.0000    484.5178      1.7587    124.4032      0.0000
  1560.2500    466.0271      1.7357    128.4467      0.0000
  1560.5000    449.7538      1.7306    128.1413      0.0000
  1560.7500    439.9286      1.7415    125.3135      0.0000
  1561.0000    436.1138      1.7717    122.7759      0.0000
  1561.2500    435.5415      1.8185    122.4528      0.0000
  1561.5000    435.8591      1.8642    124.4131      0.0000
  1561.7500    436.2666      1.8850    127.1755      0.0000
  1562.0000    437.9883      1.8742    128.8381      0.0000
  1562.2500    444.9066      1.8502    128.2004      0.0000
  1562.5000    463.2841      1.8415    125.3936      0.0000
  1562.7500    498.4650      1.8656    121.8532      0.0000
  1563.0000    547.9485      1.9253    119.5664      0.0000
  1563.2500    596.7224      2.0186    119.9729      0.0000
  1563.5000    624.0298      2.1412    123.2393      0.0000
  1563.7500    620.8740      2.2789    128.3152      0.0000
  1564.0000    601.6069      2.4025    133.7866      0.0000
  1564.2500    594.2015      2.4804    138.9827      0.0000
  1564.5000    616.4780      2.4998    144.2563      0.0000
  1564.7500    662.3070      2.4759    150.2940      0.0000
  1565.0000    710.3901      2.4435    157.4544      0.0000
  1565.2500    743.4158      2.4366    165.5727      0.0000
  1565.5000    757.8547      2.4705    173.7642      0.0000
  1565.7500    759.7368      2.5385    180.4378      0.0000
  1566.0000    756.3703      2.6227    184.1349      0.0000
  1566.2500    752.4037      2.7043    184.6016      0.0000
