~Version Information
VERS.                      2.0: CWLS Log ASCII Standard - VERSION 2.0
WRAP.                       NO: One line per depth step
~Well Information Block
STRT.FT               425.0000: 
STOP.FT              2461.0000: 
STEP.FT                 0.1000: 
NULL.                -999.2500: 
COMP.          Evergreen Operating Corporation: COMPANY
WELL.              Nomad 32-10: WELL
FLD.           Purgatorie River: FIELD
LOC.           2281' FNL & 1585' FEL: LOCATION
PROV.                 Colorado: PROVINCE
CNTY.               Las Animas: COUNTRY
SRVC.                Patterson: SERVICE COMPANY
DATE.          Thu Aug 12 11:13:52 2004: LOG DATE
UWI.           05 071 08127 00: UNIQUE WELL ID
~Curve Information Block
DEPT.FT            0 000 00 00: Depth
DCAL.in                       : CDL Caliper
RHOB.g/cc                     : CDL Bulk Density
RHOC.g/cc                     : CDL Density Correction
DPOR.pu                       : CDL Density Porosity
NPOR.pu                       : Neutron Porosity
GR.GAPI                       : Gamma Ray
~Parameter Information Block
~A  Depth       DCAL        RHOB        RHOC        DPOR        NPOR         GR     
# ...
  2287.4000      8.1154      2.4781     -0.0161     10.4189     16.7134     55.0520
  2287.5000      8.1028      2.4592     -0.0052     11.5641     16.8354     54.8218
  2287.6000      8.1028      2.4601      0.0014     11.5070     17.8099     52.1350
  2287.7000      8.1028      2.4693      0.0192     10.9529     19.1345     48.9210
  2287.8000      8.0794      2.4765      0.0169     10.5166     19.8731     48.1195
  2287.9000      8.0794      2.4826      0.0150     10.1433     19.8007     50.4809
  2288.0000      8.0784      2.4961      0.0446      9.3285     18.9949     54.9850
  2288.1000      8.0784      2.5184      0.0515      7.9744     18.1004     57.1524
  2288.2000      8.0784      2.5400      0.1017      6.6671     17.7848     55.3493
  2288.3000      8.0726      2.5485      0.1256      6.1521     17.5779     53.8707
  2288.4000      8.0726      2.5477      0.0522      6.2002     17.0060     53.2423
  2288.5000      8.0691      2.5539      0.0513      5.8250     16.7812     51.8417
  2288.6000      8.0691      2.5647      0.0862      5.1723     17.4369     52.3021
  2288.7000      8.0691      2.5669      0.0531      5.0340     18.3300     55.4688
  2288.8000      8.0748      2.5624      0.0530      5.3083     18.5504     58.4568
  2288.9000      8.0748      2.5626      0.0369      5.2990     18.2650     61.0673
  2289.0000      8.0647      2.5745      0.0692      4.5787     18.4592     65.3347
  2289.1000      8.0647      2.5865      0.0758      3.8462     19.2923     70.0599
  2289.2000      8.0647      2.5781      0.0751      4.3559     20.1757     72.1335
  2289.3000      8.0509      2.5468      0.0358      6.2532     21.0239     70.5525
  2289.4000      8.0509      2.5076      0.0383      8.6280     21.7793     66.7036
  2289.5000      8.0533      2.4665      0.0253     11.1230     22.4407     62.7024
  2289.6000      8.0533      2.4195      0.0075     13.9719     23.3690     61.9474
  2289.7000      8.0533      2.3673     -0.0049     17.1341     24.5785     66.6737
  2289.8000      8.0495      2.3127     -0.0345     20.4437     26.0837     73.6767
  2289.9000      8.0495      2.2507     -0.0363     24.2014     27.8951     79.0569
  2290.0000      8.0455      2.1822     -0.0708     28.3540     29.5037     83.2473
  2290.1000      8.0455      2.1273     -0.0692     31.6812     30.4147     85.5803
  2290.2000      8.0455      2.1006     -0.0532     33.2942     30.8698     85.8545
  2290.3000      8.0588      2.0984     -0.0278     33.4308     31.1607     85.8457
  2290.4000      8.0588      2.1083      0.0066     32.8301     30.9560     84.3690
  2290.5000      8.1092      2.1167      0.0862     32.3216     30.4637     82.9099
  2290.6000      8.1092      2.1205      0.0757     32.0922     30.4244     83.7004
  2290.7000      8.1092      2.1282      0.0917     31.6241     30.6539     83.5367
  2290.8000      8.1801      2.1424      0.0877     30.7628     30.7355     78.8737
  2290.9000      8.1801      2.1599      0.0892     29.7052     30.7220     72.9930
  2291.0000      8.1899      2.1797      0.0771     28.5051     30.5553     73.8459
  2291.1000      8.1899      2.2006      0.0734     27.2391     30.2613     83.4317
  2291.2000      8.1899      2.2185      0.0621     26.1487     30.0774     96.6315
  2291.3000      8.2045      2.2257      0.0802     25.7167     30.1711    106.1156
  2291.4000      8.2045      2.2173      0.0636     26.2241     30.5123    105.2700
  2291.5000      8.1172      2.2005      0.0737     27.2424     31.0197     97.4897
  2291.6000      8.1172      2.1875      0.0551     28.0302     31.5223     93.1458
  2291.7000      8.1172      2.1867      0.0533     28.0775     31.8642     96.2183
  2291.8000      8.1125      2.1956      0.0842     27.5375     32.0462    103.2807
  2291.9000      8.1125      2.2076      0.0712     26.8102     31.8236    105.8790
  2292.0000      8.1518      2.2191      0.0904     26.1164     31.4359     99.9369
  2292.1000      8.1518      2.2191      0.0854     26.1180     31.2850     93.2382
  2292.2000      8.1518      2.1989      0.0687     27.3400     31.2443     91.5345
  2292.3000      8.1324      2.1702      0.0228     29.0812     31.4607     92.8642
  2292.4000      8.1324      2.1478      0.0676     30.4341     31.7056     93.7600
  2292.5000      8.1159      2.1273      0.0605     31.6782     31.1944     92.0530
  2292.6000      8.1159      2.0993      0.0349     33.3757     30.0252     89.1381
  2292.7000      8.1159      2.0645      0.0461     35.4823     29.2074     84.8097
  2292.8000      8.1067      2.0325      0.0031     37.4222     29.1649     79.3917
  2292.9000      8.1067      2.0175      0.0171     38.3345     29.0917     77.9001
  2293.0000      8.1131      2.0247      0.0370     37.8942     28.3196     81.9869
  2293.1000      8.1131      2.0478      0.0604     36.4956     27.4805     87.0407
  2293.2000      8.1131      2.0752      0.1158     34.8388     27.1385     87.6616
  2293.3000      8.1201      2.0989      0.1120     33.3980     27.6513     84.9161
  2293.4000      8.1201      2.1230      0.0830     31.9383     29.2963     83.9176
  2293.5000      8.1108      2.1471      0.1181     30.4793     30.9444     83.4208
  2293.6000      8.1108      2.1522      0.1094     30.1726     31.3738     81.1078
  2293.7000      8.1108      2.1196      0.0949     32.1476     31.1561     83.6342
  2293.8000      8.1062      2.0439      0.0500     36.7350     31.3975     93.7932
  2293.9000      8.1062      1.9330     -0.0371     43.4521     32.1685    101.4551
  2294.0000      8.0893      1.8154     -0.1440     50.5789     33.0456    100.2382
  2294.1000      8.0893      1.7290     -0.1378     55.8179     33.4407     96.2488
  2294.2000      8.0893      1.6880     -0.1365     58.3055     32.9700     91.2817
  2294.3000      8.1325      1.6679     -0.0912     59.5216     32.3762     80.3354
  2294.4000      8.1325      1.6221     -0.0421     62.2944     32.4817     68.8317
  2294.5000      8.1251      1.5260      0.0290     68.1196     32.9983     63.8243
  2294.6000      8.1251      1.4098      0.0250     75.1625     33.3483     61.8741
  2294.7000      8.1251      1.3242      0.0306     80.3497     33.3937     59.5442
  2294.8000      8.1976      1.2851      0.0306     82.7224     33.3955     57.1517
  2294.9000      8.1976      1.2772      0.0334     83.2027     33.3920     55.4252
  2295.0000      8.5089      1.2850      0.0562     82.7285     33.2939     55.9624
  2295.1000      8.5089      1.3011      0.0705     81.7495     33.1001     60.5891
  2295.2000      8.5089      1.3265      0.0671     80.2151     32.6888     68.0999
  2295.3000      8.5750      1.3737      0.0512     77.3506     31.9177     76.2994
  2295.4000      8.5750      1.4614      0.0687     72.0379     30.5593     82.7632
  2295.5000      8.2427      1.5915      0.1295     64.1504     28.6341     86.0008
  2295.6000      8.2427      1.7379      0.2114     55.2769     26.9021     90.3473
  2295.7000      8.2427      1.8671      0.2456     47.4503     25.8104     99.3992
  2295.8000      8.2105      1.9678      0.2427     41.3470     24.8046    111.2621
  2295.9000      8.2105      2.0521      0.2446     36.2386     23.4800    122.1710
  2296.0000      8.2096      2.1370      0.2337     31.0879     22.1760    127.4532
  2296.1000      8.2096      2.2296      0.1970     25.4793     21.1703    126.8349
  2296.2000      8.2096      2.3226      0.1556     19.8408     20.2667    125.9141
  2296.3000      8.1162      2.4078      0.1154     14.6785     19.4397    130.3660
  2296.4000      8.1162      2.4813      0.0895     10.2265     18.7811    139.8143
  2296.5000      8.0576      2.5321      0.1164      7.1465     18.4022    145.8536
  2296.6000      8.0576      2.5471      0.0842      6.2377     18.1730    142.9957
  2296.7000      8.0576      2.5378      0.0489      6.7991     17.6459    132.6377
  2296.8000      8.0536      2.5308      0.0491      7.2224     16.8701    124.0722
  2296.9000      8.0536      2.5348      0.0631      6.9836     16.0952    123.3781
