~Version Information
VERS.                      2.0: CWLS Log ASCII Standard - VERSION 2.0
WRAP.                       NO: One line per depth step
~Well Information Block
STRT.FT               650.0000: 
STOP.FT              2087.0000: 
STEP.FT                 0.2500: 
NULL.                -999.2500: 
COMP.          Pioneer Natural Resources: COMPANY
WELL.           Galloway 32-13: WELL
FLD.           Purgatoire River: FIELD
LOC.           1809' FNL & 2004' FEL: LOCATION
PROV.                 Colorado: PROVINCE
CNTY.               Las Animas: COUNTRY
SRVC.                Patterson: SERVICE COMPANY
DATE.          Fri Jul 08 15:50:04 2005: LOG DATE
UWI.           05 071 08423 00: UNIQUE WELL ID
~Curve Information Block
DEPT.FT            0 000 00 00: Depth
SN.Ohm-m                      : IEL Short Normal
SP.mV                         : IEL Spontaneous Potential
DIR.Ohm-m                     : IEL Induction Resistivity
GR.GAPI                       : Gamma Ray
~Parameter Information Block
~A  Depth        SN          SP         DIR          GR     
# ...
   851.0000   2000.0000   2000.0000     37.1510     95.6769
   851.2500   2000.0000   2000.0000     35.1877    103.5173
   851.5000   2000.0000   2000.0000     33.2304    114.4381
   851.7500   2000.0000   2000.0000     31.3367    119.8671
   852.0000   2000.0000   2000.0000     29.5458    124.8658
   852.2500   2000.0000   2000.0000     27.8685    126.9622
   852.5000   2000.0000   2000.0000     26.2710    130.0222
   852.7500   2000.0000   2000.0000     24.6826    132.2619
   853.0000   2000.0000   2000.0000     23.0466    135.0608
   853.2500   2000.0000   2000.0000     21.3779    136.1208
   853.5000   2000.0000   2000.0000     19.7664    136.6560
   853.7500   2000.0000   2000.0000     18.3240    136.5476
   854.0000   2000.0000   2000.0000     17.1277    135.8270
   854.2500   2000.0000   2000.0000     16.1983    135.1621
   854.5000   2000.0000   2000.0000     15.5103    134.6751
   854.7500   2000.0000   2000.0000     15.0137    135.0799
   855.0000   2000.0000   2000.0000     14.6546    136.7311
   855.2500   2000.0000   2000.0000     14.3899    138.1945
   855.5000   2000.0000   2000.0000     14.1892    140.2473
   855.7500   2000.0000   2000.0000     14.0327    140.9987
   856.0000   2000.0000   2000.0000     13.9077    139.9227
   856.2500   2000.0000   2000.0000     13.8068    137.0839
   856.5000   2000.0000   2000.0000     13.7281    129.6981
   856.7500   2000.0000   2000.0000     13.6736    123.6442
   857.0000   2000.0000   2000.0000     13.6484    115.4010
   857.2500   2000.0000   2000.0000     13.6585    111.7343
   857.5000   2000.0000   2000.0000     13.7086    109.7156
   857.7500   2000.0000   2000.0000     13.8001    110.2869
   858.0000   2000.0000   2000.0000     13.9315    112.9594
   858.2500   2000.0000   2000.0000     14.0978    115.6909
   858.5000   2000.0000   2000.0000     14.2879    121.3718
   858.7500   2000.0000   2000.0000     14.4840    126.0982
   859.0000   2000.0000   2000.0000     14.6684    133.2382
   859.2500   2000.0000   2000.0000     14.8369    136.8868
   859.5000   2000.0000   2000.0000     15.0076    139.6067
   859.7500   2000.0000   2000.0000     15.2118    139.8494
   860.0000   2000.0000   2000.0000     15.4716    139.1838
   860.2500   2000.0000   2000.0000     15.7829    138.7683
   860.5000   2000.0000   2000.0000     16.1176    138.7757
   860.7500   2000.0000   2000.0000     16.4474    139.1772
   861.0000   2000.0000   2000.0000     16.7702    140.0607
   861.2500   2000.0000   2000.0000     17.1174    140.7500
   861.5000   2000.0000   2000.0000     17.5354    142.1534
   861.7500   2000.0000   2000.0000     18.0590    143.4815
   862.0000   2000.0000   2000.0000     18.6938    145.6993
   862.2500   2000.0000   2000.0000     19.4148    146.6045
   862.5000   2000.0000   2000.0000     20.1768    145.4611
   862.7500   2000.0000   2000.0000     20.9276    142.3657
   863.0000   2000.0000   2000.0000     21.6197    134.3671
   863.2500   2000.0000   2000.0000     22.2185    127.6369
   863.5000   2000.0000   2000.0000     22.7058    117.3568
   863.7500   2000.0000   2000.0000     23.0822    111.3232
   864.0000   2000.0000   2000.0000     23.3719    104.6910
   864.2500   2000.0000   2000.0000     23.6297    102.3867
   864.5000   2000.0000   2000.0000     23.9375    102.3893
   864.7500   2000.0000   2000.0000     24.3781    104.3571
   865.0000   2000.0000   2000.0000     24.9946    109.0312
   865.2500   2000.0000   2000.0000     25.7564    112.5286
   865.5000   2000.0000   2000.0000     26.5492    117.4142
   865.7500   2000.0000   2000.0000     27.2003    120.0836
   866.0000   2000.0000   2000.0000     27.5387    122.4916
   866.2500   2000.0000   2000.0000     27.4632    122.4831
   866.5000   2000.0000   2000.0000     26.9804    119.7588
   866.7500   2000.0000   2000.0000     26.1876    116.9167
   867.0000   2000.0000   2000.0000     25.2216    113.7926
   867.2500   2000.0000   2000.0000     24.2147    113.8956
   867.5000   2000.0000   2000.0000     23.2730    118.0266
   867.7500   2000.0000   2000.0000     22.4679    122.6737
   868.0000   2000.0000   2000.0000     21.8283    130.0334
   868.2500   2000.0000   2000.0000     21.3344    133.8886
   868.5000   2000.0000   2000.0000     20.9255    137.3865
   868.7500   2000.0000   2000.0000     20.5293    138.7226
   869.0000   2000.0000   2000.0000     20.0971    140.3548
   869.2500   2000.0000   2000.0000     19.6214    141.3261
   869.5000   2000.0000   2000.0000     19.1246    142.2166
   869.7500   2000.0000   2000.0000     18.6341    142.3595
   870.0000   2000.0000   2000.0000     18.1691    142.1525
   870.2500   2000.0000   2000.0000     17.7443    141.8187
   870.5000   2000.0000   2000.0000     17.3787    140.9537
   870.7500   2000.0000   2000.0000     17.0992    140.2144
   871.0000   2000.0000   2000.0000     16.9335    139.4097
   871.2500   2000.0000   2000.0000     16.8996    139.4068
   871.5000   2000.0000   2000.0000     16.9983    140.3600
   871.7500   2000.0000   2000.0000     17.2120    141.4736
   872.0000   2000.0000   2000.0000     17.5087    143.1886
   872.2500   2000.0000   2000.0000     17.8449    143.8050
   872.5000   2000.0000   2000.0000     18.1699    143.2669
   872.7500   2000.0000   2000.0000     18.4400    141.9805
   873.0000   2000.0000   2000.0000     18.6431    139.1341
   873.2500   2000.0000   2000.0000     18.8138    136.7462
   873.5000   2000.0000   2000.0000     19.0194    132.4156
   873.7500   2000.0000   2000.0000     19.3199    129.1724
   874.0000   2000.0000   2000.0000     19.7313    124.3702
   874.2500   2000.0000   2000.0000     20.2156    121.5364
   874.5000   2000.0000   2000.0000     20.6994    118.1269
   874.7500   2000.0000   2000.0000     21.1095    116.5557
   875.0000   2000.0000   2000.0000     21.3991    115.7989
   875.2500   2000.0000   2000.0000     21.5499    116.8569
   875.5000   2000.0000   2000.0000     21.5584    121.3408
   875.7500   2000.0000   2000.0000     21.4278    125.9582
   876.0000   2000.0000   2000.0000     21.1702    133.5812
   876.2500   2000.0000   2000.0000     20.8066    138.0262
   876.5000   2000.0000   2000.0000     20.3625    143.2147
   876.7500   2000.0000   2000.0000     19.8692    146.1124
   877.0000   2000.0000   2000.0000     19.3680    149.7746
   877.2500   2000.0000   2000.0000     18.9073    150.9971
   877.5000   2000.0000   2000.0000     18.5278    149.6578
   877.7500   2000.0000   2000.0000     18.2500    146.8552
   878.0000   2000.0000   2000.0000     18.0751    141.7005
   878.2500   2000.0000   2000.0000     17.9977    138.7839
   878.5000   2000.0000   2000.0000     18.0217    136.2121
   878.7500   2000.0000   2000.0000     18.1675    135.7688
   879.0000   2000.0000   2000.0000     18.4667    136.3528
   879.2500   2000.0000   2000.0000     18.9448    136.6464
   879.5000   2000.0000   2000.0000     19.6039    134.7192
   879.7500   2000.0000   2000.0000     20.4137    130.8188
   880.0000   2000.0000   2000.0000     21.3139    120.7779
   880.2500   2000.0000   2000.0000     22.2269    111.9697
   880.5000   2000.0000   2000.0000     23.0690     97.3094
   880.7500   2000.0000   2000.0000     23.7646     87.5645
   881.0000   2000.0000   2000.0000     24.2663     74.5686
   881.2500   2000.0000   2000.0000     24.5733     67.7893
   881.5000   2000.0000   2000.0000     24.7254     61.3901
   881.7500   2000.0000   2000.0000     24.7642     59.8985
   882.0000   2000.0000   2000.0000     24.6946     61.9470
   882.2500   2000.0000   2000.0000     24.4761     66.0697
   882.5000   2000.0000   2000.0000     24.0584     75.5560
   882.7500   2000.0000   2000.0000     23.4293     83.0922
   883.0000   2000.0000   2000.0000     22.6417     94.2637
   883.2500   2000.0000   2000.0000     21.7926    100.9782
   883.5000   2000.0000   2000.0000     20.9760    110.2337
   883.7500   2000.0000   2000.0000     20.2489    116.3534
   884.0000   2000.0000   2000.0000     19.6301    125.3689
   884.2500   2000.0000   2000.0000     19.1170    130.3998
