~Version Information
VERS.                      2.0: CWLS Log ASCII Standard - VERSION 2.0
WRAP.                       NO: One line per depth step
~Well Information Block
STRT.FT               811.0000: 
STOP.FT              2507.0000: 
STEP.FT                 0.1000: 
NULL.                -999.2500: 
COMP.          Petrogulf Corporation: COMPANY
WELL.               YWAM 7-32V: WELL
FLD.           Purgatoire River: FIELD
LOC.           2423' FNL & 2412' FEL: LOCATION
PROV.                 Colorado: PROVINCE
CNTY.               Las Animas: COUNTRY
SRVC.                Patterson: SERVICE COMPANY
DATE.          Mon Dec 15 07:18:47 2003: LOG DATE
UWI.                          : UNIQUE WELL ID
~Curve Information Block
DEPT.FT            0 000 00 00: Depth
DCAL.in                       : CDL Caliper
RHOB.g/cc                     : CDL Bulk Density
RHOC.g/cc                     : CDL Density Correction
DPOR.pu                       : CDL Density Porosity
NPOR.pu                       : Neutron Porosity
GR.GAPI                       : Gamma Ray
~Parameter Information Block
~A  Depth       DCAL        RHOB        RHOC        DPOR        NPOR         GR     
# ...
  2155.0000      7.9361      2.4934      0.0303      9.4904     18.9536    133.6492
  2155.1000      7.9361      2.5048      0.0498      8.8025     19.3358    129.9683
  2155.2000      7.9361      2.5181      0.0450      7.9913     19.6763    118.5625
  2155.3000      7.9349      2.5217      0.0808      7.7765     19.4717    110.5673
  2155.4000      7.9349      2.5071      0.0417      8.6609     19.0474    107.4122
  2155.5000      7.9336      2.4868      0.0443      9.8900     19.3586    109.6456
  2155.6000      7.9336      2.4771      0.0398     10.4797     20.0578    116.2762
  2155.7000      7.9336      2.4772      0.0647     10.4715     20.1048    124.8754
  2155.8000      7.9296      2.4733      0.0721     10.7073     19.4604    135.6657
  2155.9000      7.9296      2.4611      0.0328     11.4499     18.9658    147.8373
  2156.0000      7.9215      2.4507      0.0327     12.0791     19.1280    154.1915
  2156.1000      7.9215      2.4475      0.0713     12.2738     19.4943    149.1129
  2156.2000      7.9215      2.4451      0.0648     12.4196     19.5301    138.6777
  2156.3000      7.9255      2.4416      0.0486     12.6321     19.5925    130.5448
  2156.4000      7.9255      2.4469      0.0099     12.3064     20.0801    126.2312
  2156.5000      7.9234      2.4703      0.0638     10.8937     20.4379    126.6619
  2156.6000      7.9234      2.5008      0.0859      9.0422     19.9548    132.2513
  2156.7000      7.9234      2.5120      0.0802      8.3627     19.1659    139.1590
  2156.8000      7.9278      2.4944      0.0245      9.4276     19.1562    141.5209
  2156.9000      7.9278      2.4695      0.0117     10.9391     19.9509    135.3947
  2157.0000      7.9246      2.4563      0.0672     11.7413     20.8912    126.2751
  2157.1000      7.9246      2.4545      0.0475     11.8508     21.4281    124.5585
  2157.2000      7.9246      2.4605      0.0569     11.4848     21.3454    131.5715
  2157.3000      7.9008      2.4723      0.0525     10.7670     21.0179    139.4186
  2157.4000      7.9008      2.4872      0.0572      9.8657     20.5332    142.3287
  2157.5000      7.8949      2.5009      0.0590      9.0365     19.5477    141.7769
  2157.6000      7.8949      2.5075      0.0596      8.6391     18.2551    139.5944
  2157.7000      7.8949      2.5052      0.0400      8.7766     17.3654    136.8595
  2157.8000      7.8958      2.4998      0.0492      9.1033     17.4711    137.7678
  2157.9000      7.8958      2.4989      0.0410      9.1585     18.0751    139.4115
  2158.0000      7.8974      2.5123      0.0375      8.3469     18.1930    134.0863
  2158.1000      7.8974      2.5349      0.1030      6.9756     17.8853    127.8617
  2158.2000      7.8974      2.5426      0.0954      6.5085     17.6087    132.6391
  2158.3000      7.8814      2.5313      0.0763      7.1915     17.2420    143.6508
  2158.4000      7.8814      2.5266      0.0596      7.4780     16.6776    147.3139
  2158.5000      7.9012      2.5416      0.0910      6.5712     16.2716    142.3431
  2158.6000      7.9012      2.5518      0.1119      5.9504     16.1970    135.9030
  2158.7000      7.9012      2.5351      0.0752      6.9618     16.4150    129.2315
  2158.8000      7.8579      2.5079      0.0115      8.6095     16.7192    120.4998
  2158.9000      7.8579      2.4948      0.0486      9.4069     16.7648    109.1571
  2159.0000      7.8551      2.4982      0.0187      9.1984     16.3988     99.8483
  2159.1000      7.8551      2.5118      0.0208      8.3779     15.6274     99.0039
  2159.2000      7.8551      2.5225      0.0747      7.7244     14.6319    102.2570
  2159.3000      7.8726      2.5172      0.0822      8.0510     13.7569    100.4839
  2159.4000      7.8726      2.5092      0.0086      8.5323     13.1436     97.0785
  2159.5000      7.8444      2.5253      0.0057      7.5599     12.7482     97.5074
  2159.6000      7.8444      2.5574      0.0877      5.6114     12.6596     97.5758
  2159.7000      7.8444      2.5752      0.0557      4.5305     12.7662     98.4716
  2159.8000      7.8149      2.5748      0.0567      4.5550     12.5856    108.0748
  2159.9000      7.8149      2.5691      0.0796      4.9034     12.2205    121.0332
  2160.0000      7.8133      2.5598      0.0734      5.4643     12.0645    122.4136
  2160.1000      7.8133      2.5426      0.0682      6.5065     11.8429    109.2863
  2160.2000      7.8133      2.5200      0.0526      7.8813     11.5072     93.3102
  2160.3000      7.8120      2.5024      0.0438      8.9459     11.3401     85.1990
  2160.4000      7.8120      2.4973      0.0214      9.2558     11.3884     86.7603
  2160.5000      7.8048      2.5039      0.0507      8.8544     11.7268     93.6231
  2160.6000      7.8048      2.5180      0.0467      8.0006     12.4657     98.7201
  2160.7000      7.8048      2.5360      0.0848      6.9112     13.3352    100.5123
  2160.8000      7.7936      2.5513      0.1004      5.9796     13.6958    104.2504
  2160.9000      7.7936      2.5582      0.1069      5.5617     13.3434    110.2476
  2161.0000      7.7189      2.5642      0.0820      5.1988     12.6713    112.6585
  2161.1000      7.7189      2.5807      0.1512      4.1993     12.1225    107.3894
  2161.2000      7.7189      2.5997      0.1361      3.0483     11.7365     96.5490
  2161.3000      7.7130      2.6037      0.1152      2.8060     11.2481     88.3715
  2161.4000      7.7130      2.5890      0.0617      3.6941     10.6246     86.4048
  2161.5000      7.6699      2.5666      0.0320      5.0563     10.0973     85.6655
  2161.6000      7.6699      2.5462      0.0420      6.2914      9.7000     83.1703
  2161.7000      7.6699      2.5336      0.0189      7.0550      9.2736     82.6891
  2161.8000      7.4457      2.5301      0.0592      7.2667      8.8802     85.7328
  2161.9000      7.4457      2.5320      0.0327      7.1509      8.6997     86.9755
  2162.0000      7.3648      2.5417      0.0287      6.5665      8.7435     85.2646
  2162.1000      7.3648      2.5507      0.0656      6.0177      8.9612     85.4102
  2162.2000      7.3648      2.5343      0.0717      7.0113      9.1532     89.8998
  2162.3000      7.3497      2.4875      0.0465      9.8474      9.1538     96.8697
  2162.4000      7.3497      2.4408      0.0025     12.6817      9.0843     98.8667
  2162.5000      7.2532      2.4275      0.0008     13.4875      9.0766     92.2396
  2162.6000      7.2532      2.4427      0.0492     12.5621      8.8791     86.7030
  2162.7000      7.2532      2.4696     -0.0045     10.9306      8.5057     89.4392
  2162.8000      6.8602      2.5146      0.0472      8.2060      8.6523     94.3756
  2162.9000      6.8602      2.5693      0.1589      4.8913      9.3392     94.1113
  2163.0000      6.6296      2.6020      0.1386      2.9088      9.7603     89.6322
  2163.1000      6.6296      2.6033      0.0895      2.8295      9.6130     83.2974
  2163.2000      6.6296      2.5921      0.0844      3.5090      8.9596     77.1074
  2163.3000      7.0043      2.5828      0.0598      4.0754      8.0852     76.6105
  2163.4000      7.0043      2.5712      0.0581      4.7743      7.5891     82.1430
  2163.5000      7.8222      2.5556      0.0489      5.7202      7.6465     88.1058
  2163.6000      7.8222      2.5518      0.0026      5.9535      7.7858     90.4006
  2163.7000      7.8222      2.5630      0.0564      5.2702      7.6152     85.7968
  2163.8000      8.1561      2.5671      0.0695      5.0252      7.4096     76.1102
  2163.9000      8.1561      2.5591      0.0095      5.5115      7.4741     69.9642
  2164.0000      8.1877      2.5557      0.0206      5.7174      7.6911     71.1450
  2164.1000      8.1877      2.5576      0.0154      5.6028      7.9069     76.1347
  2164.2000      8.1877      2.5497      0.0574      6.0786      8.0265     81.0341
  2164.3000      8.1818      2.5278      0.0461      7.4034      8.0141     81.4861
  2164.4000      8.1818      2.5088      0.0216      8.5593      8.0237     75.2894
  2164.5000      8.1831      2.5096     -0.0088      8.5078      8.0538     68.4711
