~Version Information
VERS.                      2.0: CWLS Log ASCII Standard - VERSION 2.0
WRAP.                       NO: One line per depth step
~Well Information Block
STRT.FT                -4.2500: 
STOP.FT              2218.5000: 
STEP.FT                 0.2500: 
NULL.                -999.2500: 
COMP.          Pioneer Natural Resources: COMPANY
WELL.             Warrior 32-1: WELL
FLD.           Purgatorie River: FIELD
LOC.           2624' FNL & 2392' FEL--: LOCATION
PROV.                       CO: PROVINCE
CNTY.               Las Animas: COUNTRY
SRVC.                         : SERVICE COMPANY
DATE.          Tue Oct 12 10:54:12 2004: LOG DATE
UWI.           005 071 08176 : UNIQUE WELL ID
~Curve Information Block
DEPT.FT            0 000 00 00: Depth
GR.GAPI                       : Gamma Ray
CCL.                          : Casing Collar Locator
TT3.usec                      : CBL 3' Travel Time
AMP3.mV                       : CBL 3' Amplitude
~Parameter Information Block
~A  Depth        GR         CCL         TT3         AMP3    
    -4.2500   -999.2500   -999.2500   -999.2500   -999.2500
    -4.0000   -999.2500   -999.2500   -999.2500   -999.2500
    -3.7500   -999.2500   -999.2500   -999.2500   -999.2500
    -3.5000   -999.2500   -999.2500   -999.2500   -999.2500
    -3.2500   -999.2500   -999.2500   -999.2500   -999.2500
    -3.0000   -999.2500   -999.2500    921.0000     -0.4006
    -2.7500   -999.2500   -999.2500    921.0000     -0.4148
    -2.5000   -999.2500   -999.2500    921.0000     -0.4143
    -2.2500   -999.2500   -999.2500    921.0000     -0.3927
    -2.0000   -999.2500   -999.2500    921.0000     -0.3600
    -1.7500   -999.2500   -999.2500    921.0000     -0.3373
    -1.5000   -999.2500   -999.2500    921.0000     -0.3407
    -1.2500   -999.2500   -999.2500    921.0000     -0.3661
    -1.0000   -999.2500   -999.2500    921.0000     -0.3921
    -0.7500   -999.2500   -999.2500    921.0000     -0.3970
    -0.5000   -999.2500   -999.2500    921.0000     -0.3756
    -0.2500   -999.2500   -999.2500    921.0000     -0.3425
     0.0000   -999.2500   -999.2500    921.0000     -0.3187
     0.2500   -999.2500   -999.2500    921.0000     -0.3119
     0.5000   -999.2500   -999.2500    921.0000     -0.3119
     0.7500   -999.2500   -999.2500    921.0000     -0.3059
     1.0000   -999.2500   -999.2500    921.0000     -0.2889
     1.2500   -999.2500   -999.2500    921.0000     -0.2935
     1.5000   -999.2500   -999.2500    921.0000     -0.3004
     1.7500   -999.2500   -999.2500    921.0000     -0.3005
     2.0000   -999.2500   -999.2500    921.0000     -0.2980
     2.2500   -999.2500      0.0000    921.0000     -0.3059
     2.5000   -999.2500      0.0000    921.0000     -0.3274
     2.7500   -999.2500      0.0000    921.0000     -0.3504
     3.0000   -999.2500      0.0000    921.0000     -0.3624
     3.2500   -999.2500      0.0000    921.0000     -0.3633
     3.5000   -999.2500      0.0000    921.0000     -0.3616
     3.7500   -999.2500      0.0000    920.9857     -0.3600
     4.0000   -999.2500      0.0000    920.8624     -0.3462
     4.2500   -999.2500      0.0000    920.1930     -0.2866
     4.5000   -999.2500      0.0000    917.3256     -0.0802
     4.7500   -999.2500      0.0000    907.6238      0.5827
     5.0000   -999.2500      0.0000    881.6713      2.4322
     5.2500   -999.2500      0.0000    826.7584      6.6332
     5.5000   -999.2500      0.0000    734.8502     14.2042
     5.7500   -999.2500      0.0000    613.2251     24.9470
     6.0000   -999.2500      0.0000    486.0766     36.9284
     6.2500   -999.2500      0.0000    381.1909     47.4377
     6.5000   -999.2500      0.0000    313.0104     54.7183
     6.7500   -999.2500      0.0000    278.1337     58.7794
     7.0000   -999.2500      0.0000    264.1166     60.7632
     7.2500     95.3822      0.0000    259.7029     61.8562
     7.5000     93.7367      0.0000    258.6238     62.7098
     7.7500     90.8982      0.0000    258.4272     63.4725
     8.0000     87.4673      0.0000    258.4112     64.0789
     8.2500     84.0690      0.0000    258.4263     64.4863
     8.5000     81.3100      0.0000    258.4407     64.7451
     8.7500     79.7803      0.0000    258.4509     64.9553
     9.0000     79.3307      0.0000    258.4592     65.2095
     9.2500     78.6234      0.0000    258.4738     65.5550
     9.5000     76.3111      0.0000    258.4983     65.9924
     9.7500     72.6878      0.0000    258.5272     66.4988
    10.0000     69.5276      0.0000    258.5535     67.0395
    10.2500     68.1864      0.0000    258.5760     67.5618
    10.5000     68.2569      0.0000    258.5962     68.0104
    10.7500     68.2380      0.0000    258.6111     68.3667
    11.0000     67.2954      0.0000    258.6144     68.6651
    11.2500     66.0909      0.0000    258.6046     68.9603
    11.5000     65.9274      0.0000    258.5902     69.2768
    11.7500     67.4721      0.0000    258.5832     69.5909
    12.0000     70.3309      0.0000    258.5873     69.8611
    12.2500     73.3386      0.0000    258.5965     70.0702
    12.5000     75.1103      0.0000    258.6046     70.2298
    12.7500     74.8041      0.0000    258.6123     70.3499
    13.0000     72.5726      0.0000    258.6233     70.4204
    13.2500     69.2080      0.0000    258.6395     70.4312
    13.5000     65.6317      0.0000    258.6600     70.3974
    13.7500     62.8068      0.0000    258.6812     70.3500
    14.0000     61.6143      0.0000    258.6959     70.3101
    14.2500     62.3879      0.0000    258.6976     70.2840
    14.5000     64.6295      0.0000    258.6873     70.2754
    14.7500     67.1339      0.0000    258.6729     70.2893
    15.0000     68.5170      0.0000    258.6628     70.3305
    15.2500     68.2088      0.0000    258.6598     70.3995
    15.5000     67.0639      0.0000    258.6615     70.4899
    15.7500     66.4655      0.0000    258.6625     70.5868
    16.0000     66.7358      0.0000    258.6585     70.6736
    16.2500     66.8416      0.0000    258.6508     70.7388
    16.5000     65.6297      0.0000    258.6461     70.7759
    16.7500     62.8799      0.0000    258.6494     70.7836
    17.0000     59.2085      0.0000    258.6588     70.7753
    17.2500     55.4170      0.0000    258.6673     70.7762
    17.5000     52.1771      0.0000    258.6684     70.7973
    17.7500     50.1555      0.0000    258.6628     70.8121
    18.0000     50.0343      0.0000    258.6580     70.7635
    18.2500     52.0488      0.0000    258.6597     70.5688
    18.5000     55.5459      0.0000    258.6657     70.0738
    18.7500     59.1435      0.0000    258.6817     68.9961
    19.0000     61.3775      0.0000    258.7813     66.9813
    19.2500     61.4305      0.0000    259.2077     63.7934
    19.5000     59.6044      0.0000    260.5184     59.4732
    19.7500     57.1482      0.0000    263.6471     54.3022
    20.0000     55.2917      0.0000    269.8995     48.6406
    20.2500     54.2145      0.0000    281.2125     42.8223
    20.5000     53.0430      0.0000    301.3044     37.1551
    20.7500     50.9703      0.0000    336.7182     31.9194
    21.0000     48.3556      0.0000    394.2413     27.3050
    21.2500     46.5583      0.0000    473.5779     23.3567
    21.5000     46.6864      0.0000    562.1910     20.0135
    21.7500     48.7344      0.0000    640.6705     17.2115
    22.0000     52.0248      0.0000    695.1094     14.9494
    22.2500     56.0325      0.0000    724.0003     13.2661
    22.5000     60.3361      0.0000    734.7789     12.1647
    22.7500     64.0298      0.0000    736.4672     11.5585
    23.0000     65.8538      0.0000    735.2175     11.2871
    23.2500     65.2071      0.0000    733.7610     11.1863
    23.5000     62.8379      0.0000    732.7349     11.1475
    23.7500     60.3696      0.0000    732.0443     11.1250
    24.0000     59.2078      0.0000    731.5642     11.1095
    24.2500     60.0219      0.0000    731.2596     11.1044
    24.5000     62.9860      0.0000    731.1315     11.1185
    24.7500     67.7798      0.0000    731.1362     11.1576
    25.0000     73.0843      0.0000    731.1661     11.2116
    25.2500     76.8124      0.0000    731.1204     11.2549
    25.5000     77.5139      0.0000    730.9885     11.2643
    25.7500     75.4333      0.0000    730.8571     11.2290
    26.0000     71.9628      0.0000    730.8586     11.1443
    26.2500     68.2899      0.0000    731.1865     11.0115
    26.5000     64.7471      0.0000    732.2113     10.8454
    26.7500     61.2106      0.0000    734.4813     10.6684
    27.0000     57.8930      0.0000    738.2576     10.4958
    27.2500     55.6382      0.0000    742.7290     10.3354
    27.5000     55.2279      0.0000    745.9126     10.1977
    27.7500     56.5159      0.0000    745.9842     10.0966
    28.0000     58.6541      0.0000    742.9649     10.0396
    28.2500     61.0632      0.0000    738.8038     10.0187
    28.5000     63.6763      0.0000    735.8281     10.0109
    28.7500     66.4518      0.0000    735.3800      9.9887
    29.0000     69.2287      0.0000    737.6355      9.9354
