~Version Information
VERS.                      2.0: CWLS Log ASCII Standard - VERSION 2.0
WRAP.                       NO: One line per depth step
~Well Information Block
STRT.FT                -8.2500: 
STOP.FT              2725.7500: 
STEP.FT                 0.2500: 
NULL.                -999.2500: 
COMP.          Pioneer Natural Resources: COMPANY
WELL.          Rabbit Bush Federal 44-19: WELL
FLD.           Purgatoire River: FIELD
LOC.           826' FSL & 1127' FEL: LOCATION
CNTY.               Las Animas: COUNTY
SRVC.                Patterson: SERVICE COMPANY
DATE.          Thu Sep 14 10:51:19 2006: LOG DATE
UWI.           05 071 08149 00: UNIQUE WELL ID
STAT.                       CO: STATE
~Curve Information Block
DEPT.FT            0 000 00 00: Depth
GR.GAPI                       : Gamma Ray
CCL.                          : Casing Collar Locator
TT3.usec                      : CBL 3' Travel Time
AMP3.mV                       : CBL 3' Amplitude
~Parameter Information Block
~A  Depth        GR         CCL         TT3         AMP3    
# ...
   527.7500     99.3121      0.0000    307.8190     27.0222
   528.0000     98.1780      0.0000    307.6898     27.7808
   528.2500     97.6348      0.0000    307.5707     28.5125
   528.5000     97.2765      0.0000    307.4426     29.2267
   528.7500     97.8030      0.0000    307.2969     29.9431
   529.0000    100.1217      0.0000    307.1313     30.6645
   529.2500    104.0173      0.0000    306.9407     31.4117
   529.5000    108.1443      0.0000    306.7256     32.2287
   529.7500    110.7377      0.0000    306.5049     33.1164
   530.0000    110.2774      0.0000    306.3033     33.9972
   530.2500    106.6490      0.0000    306.1303     34.7816
   530.5000    101.9440      0.0000    305.9788     35.4559
   530.7500     99.1609      0.0000    305.8391     36.0864
   531.0000     99.8430      0.0000    305.7068     36.7511
   531.2500    103.3187      0.0000    305.5818     37.4769
   531.5000    107.8288      0.0000    305.4659     38.2325
   531.7500    111.6375      0.0000    305.3611     38.9620
   532.0000    113.2938      0.0000    305.2686     39.6154
   532.2500    111.8111      0.0000    305.1867     40.1628
   532.5000    107.1829      0.0000    305.1120     40.6020
   532.7500    100.6348      0.0000    305.0410     40.9506
   533.0000     94.2389      0.0000    304.9762     41.2160
   533.2500     90.1939      0.0000    304.9250     41.3895
   533.5000     89.9077      0.0000    304.8908     41.4908
   533.7500     92.9953      0.0000    304.8648     41.5997
   534.0000     97.1427      0.0000    304.8309     41.8125
   534.2500     99.5457      0.0000    304.7817     42.1562
   534.5000     98.6612      0.0000    304.7299     42.5467
   534.7500     94.5328      0.0000    304.7015     42.8385
   535.0000     87.9672      0.0000    304.7180     42.9292
   535.2500     79.9981      0.0000    304.7799     42.8314
   535.5000     71.8482      0.0000    304.8665     42.6597
   535.7500     64.6812      0.0000    304.9490     42.5527
   536.0000     59.1965      0.0000    305.0071     42.5896
   536.2500     55.6151      0.0000    305.0367     42.7516
   536.5000     54.0343      0.0000    305.0482     42.9576
   536.7500     54.4998      0.0000    305.0566     43.1409
   537.0000     56.6466      0.0000    305.0741     43.2914
   537.2500     59.5518      0.0000    305.1079     43.4339
   537.5000     62.0817      0.0000    305.1563     43.5990
   537.7500     63.2447      0.0000    305.2030     43.8228
   538.0000     62.5053      0.0000    305.2205     44.1476
   538.2500     60.2348      0.0000    305.1850     44.5918
   538.5000     57.5504      0.0000    305.0940     45.1145
   538.7500     55.2591      0.0000    304.9708     45.6219
   539.0000     53.3540      0.0000    304.8514     46.0283
   539.2500     51.7354      0.0000    304.7617     46.3172
   539.5000     50.5973      0.0000    304.6995     46.5477
   539.7500     49.7421      0.0000    304.6395     46.8015
   540.0000     48.3886      0.0000    304.5552     47.1289
   540.2500     46.2029      0.0000    304.4361     47.5397
   540.5000     43.9858      0.0000    304.2826     48.0282
   540.7500     42.8541      0.0000    304.0963     48.5796
   541.0000     43.1388      0.0000    303.8858     49.1476
   541.2500     44.4925      0.0000    303.6743     49.6530
   541.5000     46.6610      0.0000    303.4901     50.0243
   541.7500     49.4719      0.0000    303.3513     50.2320
   542.0000     52.1349      0.0000    303.2585     50.2885
   542.2500     53.2420      0.0000    303.1987     50.2392
   542.5000     51.9445      0.0000    303.1539     50.1540
   542.7500     48.9262      0.0000    303.1111     50.1015
   543.0000     45.8102      0.0000    303.0710     50.1141
   543.2500     43.7261      0.0000    303.0473     50.1691
   543.5000     42.8362      0.0000    303.0564     50.2033
   543.7500     43.1247      0.0000    303.1050     50.1525
   544.0000     45.0202      0.0000    303.1842     49.9970
   544.2500     48.7962      0.0000    303.2739     49.7721
   544.5000     53.5129      0.0000    303.3507     49.5327
   544.7500     57.1601      0.0000    303.3990     49.3073
   545.0000     58.2555      0.0000    303.4202     49.0847
   545.2500     57.0305      0.0000    303.4341     48.8334
   545.5000     54.7787      0.0000    303.5130     48.5067
   545.7500     52.5190      0.0000    303.8413     48.0069
   546.0000     50.7383      0.0000    305.1619     47.1310
   546.2500     49.8128      0.0000    309.6449     45.5671
   546.5000     49.8540      0.0000    321.7002     42.9771
   546.7500     50.3326      0.0000    346.3159     39.1315
   547.0000     50.5707      0.0000    382.8439     34.0577
   547.2500     50.5612      0.0000    418.8801     28.1853
   547.5000     50.6043      0.0000    435.0987     22.3952
   547.7500     50.1834      0.0000    421.5836     17.7803
   548.0000     48.1616      0.0000    387.6526     15.1189
   548.2500     44.4610      0.0000    352.3916     14.4425
   548.5000     40.7447     -2.0000    328.3866     15.0813
   548.7500     38.8135     -1.2247    316.7149     16.1280
   549.0000     38.7021      0.0000    312.9023     16.9451
   549.2500     38.8131      0.0000    313.0992     17.4609
   549.5000     37.7421      0.0000    315.5621     18.1906
   549.7500     35.6707      0.0000    319.2455     19.9362
   550.0000     34.0309      0.0000    322.4023     23.2507
   550.2500     34.0390      0.0000    322.8131     28.0487
   550.5000     35.7505      0.0000    319.5857     33.6706
   550.7500     38.4171      0.0000    314.1183     39.2277
   551.0000     41.2110      0.0000    308.8510     43.9298
   551.2500     43.2495      0.0000    305.2975     47.3258
   551.5000     43.5029      0.0000    303.4879     49.4153
   551.7500     41.5764      0.0000    302.7477     50.5448
   552.0000     38.5462      0.0000    302.4799     51.1578
   552.2500     36.3105      0.0000    302.3770     51.5766
   552.5000     35.8082      0.0000    302.3225     51.9259
   552.7500     36.1604      0.0000    302.2845     52.1905
   553.0000     35.7758      0.0000    302.2566     52.3221
   553.2500     34.1258      0.0000    302.2412     52.3083
   553.5000     32.2463      0.0000    302.2374     52.1829
   553.7500     31.7835      0.0000    302.2382     52.0069
   554.0000     33.8341      0.0000    302.2342     51.8385
   554.2500     38.3901      0.0000    302.2196     51.7080
   554.5000     44.5953      0.0000    302.1923     51.6223
   554.7500     51.7293      0.0000    302.1501     51.5909
   555.0000     59.9308      0.0000    302.0912     51.6345
   555.2500     69.6862      0.0000    302.0210     51.7627
   555.5000     80.7929      0.0000    301.9557     51.9567
   555.7500     92.0242      0.0000    301.9141     52.1842
   556.0000    101.5658      0.0000    301.9014     52.4255
   556.2500    107.8583      0.0000    301.9061     52.6741
   556.5000    110.5296      0.0000    301.9102     52.9180
   556.7500    110.4822      0.0000    301.8984     53.1368
   557.0000    108.8417      0.0000    301.8627     53.3211
   557.2500    106.2262      0.0000    301.8051     53.4890
   557.5000    103.3771      0.0000    301.7372     53.6823
   557.7500    101.8427      0.0000    301.6688     53.9514
   558.0000    103.1642      0.0000    301.5974     54.3317
   558.2500    107.3664      0.0000    301.5109     54.8198
   558.5000    112.7982      0.0000    301.4003     55.3713
   558.7500    117.6290      0.0000    301.2666     55.9276
   559.0000    121.1778      0.0000    301.1172     56.4422
   559.2500    123.6006      0.0000    300.9543     56.8796
   559.5000    124.8269      0.0000    300.7349     57.2055
   559.7500    124.5256      0.0000    300.2844     57.4009
   560.0000    122.8393      0.0000    299.1761     57.4942
   560.2500    120.3089      0.0000    296.7124     57.5654
   560.5000    117.0447      0.0000    292.2811     57.7010
   560.7500    112.6007      0.0000    286.1030     57.9303
   561.0000    107.0153      0.0000    279.7490     58.1976
