~Version Information
VERS.                      2.0: CWLS Log ASCII Standard - VERSION 2.0
WRAP.                       NO: One line per depth step
~Well Information Block
STRT.FT               546.0000: 
STOP.FT              1771.5000: 
STEP.FT                 0.1000: 
NULL.                -999.2500: 
COMP.          Petrogulf Corporation: COMPANY
WELL.             McLeod 9-42R: WELL
FLD.           Purgatorie River: FIELD
LOC.           1748' FNL & 372' FEL: LOCATION
PROV.                 Colorado: PROVINCE
CNTY.               Las Animas: COUNTRY
SRVC.                Patterson: SERVICE COMPANY
DATE.          Tue Aug 16 11:11:38 2005: LOG DATE
UWI.                071 08092 : UNIQUE WELL ID
~Curve Information Block
DEPT.FT            0 000 00 00: Depth
DCAL.in                       : CDL Caliper
RHOB.g/cc                     : CDL Bulk Density
RHOC.g/cc                     : CDL Density Correction
DPOR.pu                       : CDL Density Porosity
GR.GAPI                       : Gamma Ray
NPOR.pu                       : Neutron Porosity
~Parameter Information Block
~A  Depth       DCAL        RHOB        RHOC        DPOR         GR         NPOR    
# ...
   699.6000      7.6987      2.6915      0.1729     -2.5154    134.1324     26.1669
   699.7000      7.6987      2.6777      0.1411     -1.6796    132.4355     25.3159
   699.8000      7.6937      2.6629      0.1140     -0.7833    126.6760     25.2005
   699.9000      7.6937      2.6602      0.1208     -0.6169    116.3901     25.5369
   700.0000      7.6881      2.6775      0.1213     -1.6649    105.1603     25.6580
   700.1000      7.6881      2.7091      0.1799     -3.5812     96.4441     25.4126
   700.2000      7.6881      2.7438      0.1826     -5.6865     88.8083     25.0059
   700.3000      7.6814      2.7775      0.1574     -7.7297     80.0233     24.4937
   700.4000      7.6814      2.8081      0.1768     -9.5798     72.7760     23.6795
   700.5000      7.6901      2.8301      0.1965    -10.9169     70.3206     22.7232
   700.6000      7.6901      2.8368      0.1724    -11.3196     70.9496     22.0406
   700.7000      7.6901      2.8261      0.1802    -10.6733     71.1018     21.6403
   700.8000      7.7446      2.8048      0.1333     -9.3844     68.4063     21.2985
   700.9000      7.7446      2.7755      0.1365     -7.6049     63.0627     20.8925
   701.0000      7.7802      2.7346      0.0701     -5.1300     58.7919     20.4191
   701.1000      7.7802      2.6916      0.0539     -2.5220     58.4479     20.1213
   701.2000      7.7802      2.6630     -0.0231     -0.7886     60.4709     20.1246
   701.3000      7.8342      2.6494      0.0234      0.0381     62.5425     20.2218
   701.4000      7.8342      2.6394     -0.0278      0.6452     63.2488     20.0021
   701.5000      7.8690      2.6327     -0.0024      1.0474     61.2146     19.5812
   701.6000      7.8690      2.6310      0.0004      1.1543     58.3023     19.6215
   701.7000      7.8690      2.6262     -0.0034      1.4446     57.8068     20.0863
   701.8000      7.8781      2.6115     -0.0059      2.3363     60.0972     20.3851
   701.9000      7.8781      2.5830      0.0217      4.0602     63.4956     20.5038
   702.0000      7.8733      2.5429     -0.0311      6.4883     64.5882     20.9487
   702.1000      7.8733      2.5056      0.0065      8.7511     60.6120     21.8812
   702.2000      7.8733      2.4774     -0.0020     10.4605     54.5299     23.0867
   702.3000      7.8962      2.4435      0.0398     12.5142     50.6541     24.4212
   702.4000      7.8962      2.3850      0.0418     16.0608     49.2728     25.5796
   702.5000      7.8828      2.3065     -0.0275     20.8154     49.5641     26.2226
   702.6000      7.8828      2.2295      0.0153     25.4828     50.8103     26.2368
   702.7000      7.8828      2.1588      0.0189     29.7668     53.1495     25.7828
   702.8000      7.8738      2.0891      0.0044     33.9917     57.2552     25.3793
   702.9000      7.8738      2.0211      0.0622     38.1167     61.3435     25.4499
   703.0000      7.8903      1.9610      0.0430     41.7558     62.0644     25.6722
   703.1000      7.8903      1.9188      0.0266     44.3166     59.4437     25.5205
   703.2000      7.8903      1.8924      0.0846     45.9128     57.1867     25.2954
   703.3000      7.8998      1.8677      0.1008     47.4099     56.2065     25.3057
   703.4000      7.8998      1.8426      0.0487     48.9345     54.8825     25.3659
   703.5000      7.9133      1.8250      0.0755     50.0024     52.8662     25.6226
   703.6000      7.9133      1.8115      0.0486     50.8153     51.6562     26.0714
   703.7000      7.9133      1.7971      0.0429     51.6932     52.1611     26.4398
   703.8000      7.9047      1.7841      0.0552     52.4770     52.6714     26.9937
   703.9000      7.9047      1.7734      0.0531     53.1248     52.8620     27.8451
   704.0000      7.9134      1.7628      0.0359     53.7692     54.4565     28.3526
   704.1000      7.9134      1.7521      0.0302     54.4182     57.3438     28.1826
   704.2000      7.9134      1.7450      0.0266     54.8457     58.2905     27.6487
   704.3000      7.9207      1.7481      0.0216     54.6632     55.5959     27.0820
   704.4000      7.9207      1.7604      0.0704     53.9177     52.9243     26.8532
   704.5000      7.9074      1.7751      0.0743     53.0265     54.0676     27.1710
   704.6000      7.9074      1.7922      0.0997     51.9874     58.3854     27.9521
   704.7000      7.9074      1.8134      0.1150     50.7009     63.6676     28.7318
   704.8000      7.9018      1.8379      0.0993     49.2192     70.2176     28.9507
   704.9000      7.9018      1.8709      0.0979     47.2211     77.7797     28.8503
   705.0000      7.9474      1.9180      0.0962     44.3625     83.0667     29.2263
   705.1000      7.9474      1.9711      0.1225     41.1475     85.1476     30.2731
   705.2000      7.9474      2.0125      0.1009     38.6342     87.0274     31.1923
   705.3000      8.0028      2.0332      0.0987     37.3795     90.3397     31.2624
   705.4000      8.0028      2.0391      0.0786     37.0249     93.0189     30.7122
   705.5000      7.9709      2.0426      0.0420     36.8099     93.3985     30.3782
   705.6000      7.9709      2.0443      0.0422     36.7089     92.8214     30.6013
   705.7000      7.9709      2.0323      0.0253     37.4373     93.1812     30.5700
   705.8000      7.9438      2.0035     -0.0010     39.1835     94.2286     29.6270
   705.9000      7.9438      1.9664      0.0003     41.4281     93.8546     28.3793
   706.0000      7.9226      1.9274      0.0120     43.7927     91.0102     27.7061
   706.1000      7.9226      1.8830      0.0560     46.4846     85.9119     27.8520
   706.2000      7.9226      1.8298     -0.0012     49.7112     80.7941     28.5848
   706.3000      7.9218      1.7787     -0.0207     52.8041     77.3079     29.4077
   706.4000      7.9218      1.7470     -0.0393     54.7292     73.8739     29.8540
   706.5000      7.9417      1.7411      0.0038     55.0844     69.4101     30.1082
   706.6000      7.9417      1.7556      0.0382     54.2063     63.4818     30.4377
   706.7000      7.9417      1.7877      0.0561     52.2612     57.5957     30.5877
   706.8000      7.9310      1.8401      0.0864     49.0833     54.5158     30.5426
   706.9000      7.9310      1.9082      0.1270     44.9574     52.4924     30.5499
   707.0000      7.9426      1.9875      0.1273     40.1545     48.1039     30.6445
   707.1000      7.9426      2.0740      0.1700     34.9116     42.5506     30.4943
   707.2000      7.9426      2.1468      0.1718     30.4963     39.9044     29.7332
   707.3000      7.9332      2.1798      0.2034     28.4977     41.4477     28.6395
   707.4000      7.9332      2.1700      0.0990     29.0926     43.6018     27.8471
   707.5000      7.8883      2.1333      0.0687     31.3153     44.5038     27.5516
   707.6000      7.8883      2.0795     -0.0061     34.5764     46.1788     27.4388
   707.7000      7.8883      2.0212     -0.0874     38.1117     48.5994     27.2649
   707.8000      7.8852      1.9730     -0.1083     41.0308     50.6157     27.1711
   707.9000      7.8852      1.9317     -0.0559     43.5353     51.1572     27.3796
   708.0000      7.8907      1.8893     -0.0832     46.1044     49.0998     27.6474
   708.1000      7.8907      1.8549     -0.0562     48.1849     45.9903     27.6459
   708.2000      7.8907      1.8392      0.0105     49.1365     44.3170     27.2915
   708.3000      7.9147      1.8289      0.1142     49.7623     44.2044     26.6525
   708.4000      7.9147      1.8052      0.0843     51.1985     43.5843     26.2854
   708.5000      7.9551      1.7766      0.0399     52.9343     41.5445     26.4716
   708.6000      7.9551      1.7592      0.0845     53.9895     39.6270     26.8520
   708.7000      7.9551      1.7519      0.0576     54.4305     39.2292     27.5313
   708.8000      7.9494      1.7515      0.0615     54.4532     39.8559     28.5606
   708.9000      7.9494      1.7602      0.0547     53.9297     39.8394     29.1127
   709.0000      7.9445      1.7784      0.0636     52.8271     38.7923     28.6273
   709.1000      7.9445      1.8018      0.0601     51.4065     37.5711     27.8208
