~Version Information
VERS.                      2.0: CWLS Log ASCII Standard - VERSION 2.0
WRAP.                       NO: One line per depth step
~Well Information Block
STRT.FT              1736.0000: 
STOP.FT              1964.5000: 
STEP.FT                 0.2500: 
NULL.                -999.2500: 
COMP.          Petrogulf Corporation: COMPANY
WELL.              Royal 8-33R: WELL
FLD.           Purgatorie River: FIELD
LOC.           2401' FSL & 2270' FEL: LOCATION
CNTY.               Las Animas: COUNTY
SRVC.                         : SERVICE COMPANY
DATE.          Mon Apr 26 06:49:48 2004: LOG DATE
UWI.           05 071 08041 00: UNIQUE WELL ID
STAT.                 Colorado: STATE
~Curve Information Block
DEPT.FT            0 000 00 00: Depth
SP.mV                         : DIL Spontaneous Potential
RILD.Ohm-m                    : DIL Deep Resistivity
RILM.Ohm-m                    : DIL Medium Resistivity
RLL3.Ohm-m                    : DIL Shallow Resistivity
GR.GAPI                       : Gamma Ray
~Parameter Information Block
~A  Depth        SP         RILD        RILM        RLL3         GR     
# ...
  1848.0000     38.4009     22.2011     31.6335     37.4956     60.4018
  1848.2500     38.2774     23.0184     33.1457     38.2249     56.1315
  1848.5000     38.1584     23.7704     34.7714     38.4800     52.2482
  1848.7500     38.0601     24.3757     36.5573     38.8944     50.8273
  1849.0000     38.0031     24.7512     38.5264     40.3463     49.4304
  1849.2500     38.0172     24.8393     40.6294     43.4774     48.6468
  1849.5000     38.1350     24.6207     42.6621     48.3621     47.2861
  1849.7500     38.3799     24.1124     44.1811     54.5344     45.9368
  1850.0000     38.7583     23.3651     44.5289     61.2365     43.0659
  1850.2500     39.2589     22.4633     43.1060     67.4991     41.1334
  1850.5000     39.8487     21.5117     39.8201     71.9734     40.1556
  1850.7500     40.4729     20.6079     35.2808     72.9795     42.0714
  1851.0000     41.0680     19.8177     30.4449     69.1853     50.7908
  1851.2500     41.5863     19.1665     26.0872     60.5796     61.2994
  1851.5000     42.0097     18.6477     22.5799     48.8825     83.5422
  1851.7500     42.3425     18.2371     19.9794     36.8907    100.6863
  1852.0000     42.5940     17.9062     18.1891     27.1470    124.9563
  1852.2500     42.7690     17.6302     17.0684     20.8961    137.8832
  1852.5000     42.8676     17.3912     16.4813     17.9809    150.4496
  1852.7500     42.8944     17.1784     16.3087     17.4857    153.9860
  1853.0000     42.8686     16.9889     16.4497     18.4375    153.1567
  1853.2500     42.8311     16.8300     16.8220     20.1241    150.3395
  1853.5000     42.8388     16.7223     17.3634     22.0752    146.0493
  1853.7500     42.9445     16.6977     18.0347     23.9638    143.7460
  1854.0000     43.1760     16.7908     18.8196     25.5965    139.8153
  1854.2500     43.5285     17.0268     19.7217     26.9732    136.1163
  1854.5000     43.9729     17.4118     20.7564     28.2906    128.9062
  1854.7500     44.4719     17.9304     21.9349     29.8233    123.1312
  1855.0000     44.9909     18.5516     23.2439     31.7400    113.2471
  1855.2500     45.5049     19.2389     24.6292     33.9615    106.8720
  1855.5000     45.9982     19.9573     25.9972     36.1205    101.3503
  1855.7500     46.4525     20.6724     27.2414     37.6510    102.0293
  1856.0000     46.8313     21.3450     28.2831     38.0277    108.2716
  1856.2500     47.0797     21.9292     29.1023     37.0779    113.1761
  1856.5000     47.1428     22.3786     29.7361     35.1469    117.6680
  1856.7500     46.9856     22.6594     30.2493     32.9313    118.0978
  1857.0000     46.5985     22.7627     30.7004     31.0891    115.1019
  1857.2500     45.9955     22.7105     31.1202     29.9499    110.5225
  1857.5000     45.2178     22.5518     31.5056     29.4971     99.6854
  1857.7500     44.3366     22.3515     31.8222     29.5143     90.7154
  1858.0000     43.4394     22.1740     32.0143     29.7256     77.8069
  1858.2500     42.6009     22.0675     32.0281     29.8829     71.5061
  1858.5000     41.8622     22.0530     31.8489     29.8362     67.1514
  1858.7500     41.2304     22.1231     31.5339     29.5938     66.9917
  1859.0000     40.6897     22.2502     31.2103     29.3177     67.4745
  1859.2500     40.2062     22.4019     31.0325     29.2254     66.1982
  1859.5000     39.7259     22.5561     31.1245     29.4617     60.5902
  1859.7500     39.1886     22.7097     31.5422     30.0310     55.2950
  1860.0000     38.5562     22.8777     32.2638     30.8244     47.8645
  1860.2500     37.8321     23.0852     33.2021     31.7045     44.5119
  1860.5000     37.0480     23.3560     34.2303     32.5919     42.5408
  1860.7500     36.2330     23.7029     35.2234     33.4955     43.0504
  1861.0000     35.3982     24.1216     36.1145     34.4630     45.7162
  1861.2500     34.5472     24.5913     36.9431     35.4984     48.0274
  1861.5000     33.6922     25.0810     37.8538     36.5318     50.7405
  1861.7500     32.8586     25.5612     39.0363     37.4729     51.2852
  1862.0000     32.0807     26.0140     40.6423     38.3068     49.7369
  1862.2500     31.4038     26.4347     42.7216     39.1674     47.3724
  1862.5000     30.8911     26.8251     45.1939     40.3134     42.7972
  1862.7500     30.6180     27.1836     47.8520     41.9718     39.7930
  1863.0000     30.6444     27.5051     50.3950     44.1525     36.7159
  1863.2500     30.9820     27.7902     52.4944     46.6233     36.3146
  1863.5000     31.5833     28.0501     53.8898     49.0690     38.5396
  1863.7500     32.3607     28.2997     54.4844     51.2306     41.2744
  1864.0000     33.2165     28.5402     54.3705     52.8670     44.9666
  1864.2500     34.0627     28.7458     53.7543     53.6664     45.9445
  1864.5000     34.8317     28.8651     52.8383     53.3421     44.8528
  1864.7500     35.4793     28.8344     51.7434     51.9108     43.1979
  1865.0000     35.9862     28.5971     50.4931     49.8561     40.9323
  1865.2500     36.3544     28.1216     49.0289     47.9350     40.0942
  1865.5000     36.6033     27.4133     47.2415     46.7612     39.9217
  1865.7500     36.7678     26.5173     45.0160     46.5182     40.2116
  1866.0000     36.8935     25.5116     42.2927     46.9576     40.5880
  1866.2500     37.0236     24.4916     39.1184     47.5357     40.8363
  1866.5000     37.1865     23.5488     35.6639     47.5355     42.5005
  1866.7500     37.3976     22.7518     32.1893     46.2171     45.6365
  1867.0000     37.6756     22.1342     28.9724     43.0896     55.0635
  1867.2500     38.0490     21.6939     26.2361     38.2288     65.0080
  1867.5000     38.5359     21.3998     24.1124     32.4203     84.8900
  1867.7500     39.1171     21.2055     22.6488     26.9550     99.6807
  1868.0000     39.7348     21.0650     21.8346     23.1371    118.2372
  1868.2500     40.3212     20.9442     21.6221     21.7808    124.3567
  1868.5000     40.8303     20.8257     21.9363     22.9536    121.0677
  1868.7500     41.2465     20.7068     22.6738     26.0087    111.8485
  1869.0000     41.5759     20.5939     23.7074     29.8373     92.9963
  1869.2500     41.8364     20.5006     24.9047     33.2954     80.2829
  1869.5000     42.0526     20.4444     26.1594     35.6609     64.1999
  1869.7500     42.2508     20.4374     27.4121     36.8598     55.9817
  1870.0000     42.4527     20.4723     28.6378     37.3192     47.1442
  1870.2500     42.6739     20.5096     29.7989     37.6149     43.3848
  1870.5000     42.9273     20.4832     30.7844     38.2065     40.8499
  1870.7500     43.2270     20.3250     31.3717     39.3772     41.0067
  1871.0000     43.5860     20.0015     31.2632     41.2324     43.0011
  1871.2500     44.0118     19.5325     30.2328     43.5562     44.9174
  1871.5000     44.4990     18.9799     28.3093     45.5741     49.0352
  1871.7500     45.0250     18.4136     25.8173     45.9867     53.9790
  1872.0000     45.5514     17.8819     23.2073     43.5997     67.7360
  1872.2500     46.0260     17.4015     20.8450     38.2753     81.8222
  1872.5000     46.3831     16.9659     18.9222     31.3230    107.4679
  1872.7500     46.5516     16.5611     17.4851     24.7748    123.9308
  1873.0000     46.4794     16.1780     16.4967     20.1367    141.7282
  1873.2500     46.1609     15.8169     15.8846     17.7392    147.8160
  1873.5000     45.6413     15.4845     15.5672     17.0412    150.6572
  1873.7500     44.9935     15.1896     15.4677     17.3062    150.5543
  1874.0000     44.2861     14.9422     15.5227     18.0313    149.5542
  1874.2500     43.5654     14.7571     15.6859     19.0094    148.4993
  1874.5000     42.8605     14.6560     15.9263     20.2100    145.7222
  1874.7500     42.1964     14.6646     16.2233     21.6340    142.4361
  1875.0000     41.5982     14.8052     16.5629     23.1917    134.6364
  1875.2500     41.0824     15.0882     16.9416     24.6402    128.2550
  1875.5000     40.6517     15.5102     17.3734     25.6561    120.3989
  1875.7500     40.3018     16.0575     17.8947     26.0639    118.2690
