~Version Information
 VERS.                                  2.0 : CWLS LAS VERSION
 WRAP.                                   NO : WRAPING MODE
 SWARE .                 MController 2.5.0N : SOFTWARE VERSION
~Well Information
 WELL.                   Sand Pebbles 13-33 : WELL
 COMP.    Pioneer Natural Resources USA Inc : COMPANY
 FLD.                      Purgatoire River : FIELD
 LOC.                 NW/SW Sec 33 T32S R67W : LOCATION
 DATE.                           3/08-10/05 : DATE(S) LOGGED
 SRVC.         Blanco Geological Services LLC : SERVICE COMPANY
 STAT.                                   CO : STATE
 CNTY.                           Las Animas : COUNTY
 CTRY.                                  USA : COUNTRY
 API.                       05-071-08224-00 : API NUMBER
 STRT.FT                             655.00 : START DEPTH
 STOP.FT                            2730.00 : STOP DEPTH
 STEP.FT                               1.00 : DEPTH INCREMENT
 NULL.                                -9999 : NULL VALUE
~Curve information
 DEPTH.FT                                   :
 ROP.MIN/FT                                 :
 GAS.UNITS                                  :
~ASCII Log data
# ...
       855.0         0.17          1.8 
       856.0         0.18          1.7 
       857.0         0.20          1.7 
       858.0         0.13          1.7 
       859.0         0.13          2.1 
       860.0         0.20          1.7 
       861.0         0.20          1.7 
       862.0         0.33          1.8 
       863.0         0.40          1.8 
       864.0         0.33          1.8 
       865.0         0.33          1.8 
       866.0         0.30          1.8 
       867.0         0.27          2.2 
       868.0         0.27          2.0 
       869.0         0.32          1.8 
       870.0         0.23          1.7 
       871.0         5.65          5.9 
       872.0         0.53          8.7 
       873.0         0.62          9.2 
       874.0         0.40          4.7 
       875.0         0.43          2.5 
       876.0         0.37          1.6 
       877.0         0.33          1.5 
       878.0         0.73          1.4 
       879.0         0.37          1.6 
       880.0         0.35          1.7 
       881.0         0.30          1.7 
       882.0         0.27          1.5 
       883.0         0.30          1.9 
       884.0         0.27          1.8 
       885.0         0.23          1.9 
       886.0         0.23          2.2 
       887.0         0.20          1.8 
       888.0         0.13          1.8 
       889.0         0.37          2.2 
       890.0         0.20          1.8 
       891.0         0.27          2.3 
       892.0         0.20          2.0 
       893.0         0.13          2.2 
       894.0         0.18          1.8 
       895.0         0.17          2.0 
       896.0         0.13          2.3 
       897.0         0.13          2.3 
       898.0         0.13          2.1 
       899.0         0.13          2.1 
       900.0         0.10          2.0 
       901.0         5.68         13.4 
       902.0         0.32         19.8 
       903.0         0.33         26.0 
       904.0         0.30         27.6 
       905.0         0.37         19.1 
       906.0         1.27          2.8 
       907.0         0.40          2.7 
       908.0         0.33          2.7 
       909.0         0.35          2.6 
       910.0         0.17          2.4 
       911.0         0.17          2.5 
       912.0         0.13          2.6 
       913.0         0.17          2.5 
       914.0         0.17          2.7 
       915.0         0.17          3.0 
       916.0         0.17          2.7 
       917.0         0.33          2.7 
       918.0         0.23          2.9 
       919.0         0.20          2.9 
       920.0         0.23          3.1 
       921.0         0.30          5.0 
       922.0         0.33          8.7 
       923.0         0.30         10.4 
       924.0         0.32          9.0 
       925.0         0.33          6.6 
       926.0         0.30          4.5 
       927.0         0.30          3.3 
       928.0         0.30          2.6 
       929.0         0.30          2.4 
       930.0         0.33          2.4 
       931.0         5.70          4.5 
       932.0         0.30          5.8 
       933.0         0.50          8.9 
       934.0         0.70          8.3 
       935.0         0.30          5.1 
       936.0         0.17          3.9 
       937.0         0.35          3.1 
       938.0         0.33          2.8 
       939.0         0.17          3.0 
       940.0         0.17          3.0 
       941.0         0.20          2.9 
       942.0         0.20          3.0 
       943.0         0.23          3.1 
       944.0         0.23          3.4 
       945.0         0.20          3.6 
       946.0         0.23          3.8 
       947.0         0.23          4.2 
       948.0         0.17          4.0 
       949.0         0.20          3.9 
       950.0         0.33          5.4 
       951.0         0.20          6.5 
       952.0         0.22          7.5 
       953.0         0.23          7.1 
       954.0         0.30          5.4 
       955.0         0.33          3.8 
       956.0         0.23          3.0 
       957.0         0.23          2.5 
       958.0         0.20          2.7 
       959.0         0.27          2.8 
       960.0         0.47          2.7 
       961.0         6.57         11.2 
       962.0         0.53         12.3 
       963.0         0.50          5.7 
       964.0         0.45          3.1 
       965.0         0.40          2.9 
       966.0         0.53          2.4 
       967.0         0.33          2.6 
       968.0         0.37          2.6 
       969.0         0.30          2.6 
       970.0         0.23          2.4 
       971.0         0.23          2.5 
       972.0         0.20          2.6 
       973.0         0.17          2.7 
       974.0         0.10          2.6 
       975.0         0.18          2.6 
       976.0         0.23          2.4 
       977.0         0.23          2.4 
       978.0         0.23          2.7 
       979.0         0.23          2.3 
       980.0         0.30          2.9 
       981.0         0.23          2.7 
       982.0         0.27          2.8 
       983.0         0.23          4.8 
       984.0         0.23          7.9 
       985.0         0.23         10.0 
       986.0         0.20          9.9 
       987.0         0.23          8.0 
       988.0         0.23          6.4 
       989.0         0.25          4.7 
       990.0         0.40          3.2 
       991.0         6.05          6.0 
       992.0         0.72         11.5 
       993.0         0.37         14.7 
       994.0         0.53          8.3 
       995.0         0.50          3.5 
       996.0         0.40          2.9 
       997.0         0.40          2.9 
       998.0         0.43          3.1 
       999.0         0.38          3.0 
      1000.0         0.23          3.2 
      1001.0         0.17          3.0 
      1002.0         0.27          2.8 
      1003.0         0.47          2.6 
      1004.0         0.27          2.7 
      1005.0         0.23          2.6 
      1006.0         0.30          2.5 
      1007.0         0.27          2.8 
      1008.0         0.27          2.7 
      1009.0         0.27          3.2 
      1010.0         0.27          3.6 
      1011.0         0.25          3.6 
      1012.0         0.27          3.4 
      1013.0         0.27          2.8 
      1014.0         0.23          2.6 
      1015.0         0.27          2.8 
      1016.0         0.23          2.6 
      1017.0         0.20          2.4 
      1018.0         0.13          2.4 
      1019.0         0.13          2.1 
      1020.0         0.17          2.1 
      1021.0         7.37          4.3 
      1022.0         0.60          7.1 
      1023.0         0.78         12.1 
      1024.0         0.43          6.3 
      1025.0         0.37          3.5 
      1026.0         0.37          2.6 
      1027.0         0.30          2.3 
      1028.0         0.33          2.8 
      1029.0         0.33          2.8 
      1030.0         0.33          2.6 
      1031.0         0.28          2.6 
      1032.0         0.37          1.8 
      1033.0         0.33          1.8 
      1034.0         0.40          2.0 
      1035.0         0.23          1.8 
      1036.0         0.27          1.5 
      1037.0         0.23          2.1 
      1038.0         0.23          1.4 
      1039.0         0.20          1.8 
      1040.0         0.27          1.7 
      1041.0         0.33          1.9 
      1042.0         0.17          1.8 
      1043.0         0.35          2.0 
      1044.0         0.23          2.1 
      1045.0         0.30          2.5 
      1046.0         0.33          2.6 
      1047.0         0.30          3.4 
      1048.0         0.30          4.4 
      1049.0         0.23          4.4 
      1050.0         0.33          4.5 
      1051.0         6.50          5.2 
      1052.0         0.53          7.4 
      1053.0         0.63         12.1 
      1054.0         0.62          7.1 
