~Version Information
VERS.                      2.0: CWLS Log ASCII Standard - VERSION 2.0
WRAP.                       NO: One line per depth step
~Well Information Block
STRT.FT               -17.7500: 
STOP.FT              1590.5000: 
STEP.FT                 0.2500: 
NULL.                -999.2500: 
COMP.          Petrogulf Corporation: COMPANY
WELL.          Great Plains 22-21V: WELL
FLD.           Purgatorie River: FIELD
LOC.           63' FNL & 1895' FWL--: LOCATION
CNTY.               Las Animas: COUNTY
SRVC.          Superior Well Services: SERVICE COMPANY
DATE.          Fri Dec 08 14:45:19 2006: LOG DATE
UWI.           05 071 08346 00: UNIQUE WELL ID
STAT.                       CO: STATE
~Curve Information Block
DEPT.FT            0 000 00 00: Depth
CCL.                          : Casing Collar Locator
TT3.usec                      : CBL 3' Travel Time
AMP3.mV                       : CBL 3' Amplitude
GR.GAPI                       : Gamma Ray
~Parameter Information Block
~A  Depth       CCL         TT3         AMP3         GR     
# ...
  1020.7500      0.0000    708.7098      8.5776    129.0507
  1021.0000      0.0000    708.0488      8.0988    129.3607
  1021.2500      0.0000    708.7938      7.7030    130.5862
  1021.5000      0.0000    710.7000      7.3830    133.7759
  1021.7500      0.0000    712.7429      7.1174    139.1340
  1022.0000      0.0000    714.2958      6.8915    144.9812
  1022.2500      0.0000    715.4979      6.7042    148.7766
  1022.5000      0.0000    716.8975      6.5627    149.1798
  1022.7500      0.0000    718.8163      6.4746    147.1190
  1023.0000      0.0000    720.8951      6.4414    144.8689
  1023.2500      0.0000    722.3531      6.4560    143.9473
  1023.5000      0.0000    722.8466      6.5049    143.8369
  1023.7500      0.0000    722.7987      6.5704    143.0490
  1024.0000      0.0000    722.6266      6.6337    141.5433
  1024.2500      0.0000    722.0574      6.6782    141.3553
  1024.5000      0.0000    720.5585      6.6943    144.0789
  1024.7500      0.0000    718.0059      6.6809    148.1344
  1025.0000      0.0000    714.5566      6.6461    149.5043
  1025.2500      0.0000    710.4512      6.6065    145.3896
  1025.5000      0.0000    706.6578      6.5845    136.6445
  1025.7500      0.0000    705.3224      6.6024    126.4930
  1026.0000      0.0000    708.4638      6.6784    117.6911
  1026.2500      0.0000    715.6930      6.8226    111.5287
  1026.5000      0.0000    723.6021      7.0295    108.8329
  1026.7500      0.0000    727.7921      7.2625    110.5875
  1027.0000      0.0000    725.5707      7.4516    117.0245
  1027.2500      0.0000    717.1503      7.5218    126.4912
  1027.5000      0.0000    705.2862      7.4383    135.7508
  1027.7500      0.0000    694.6730      7.2348    141.7434
  1028.0000      0.0000    691.4752      6.9942    143.2113
  1028.2500      0.0000    701.9890      6.7852    140.7753
  1028.5000      0.0000    729.2411      6.6099    135.7312
  1028.7500      0.0000    768.9481      6.4290    128.9871
  1029.0000      0.0000    809.2480      6.2308    120.9563
  1029.2500      0.0000    837.4273      6.0506    111.8892
  1029.5000      0.0000    849.1487      5.9269    102.1236
  1029.7500      2.0000    850.3860      5.8691     92.5027
  1030.0000     -2.0000    848.9921      5.8752     84.8391
  1030.2500      0.0000    845.5162      5.9640     81.4689
  1030.5000      0.0000    834.1993      6.1691     83.8332
  1030.7500      0.0000    812.2883      6.4878     91.4530
  1031.0000      0.0000    785.5541      6.8448    102.2562
  1031.2500      0.0000    763.4914      7.1436    113.6818
  1031.5000      0.0000    750.9886      7.3766    123.5296
  1031.7500      0.0000    746.1712      7.6480    130.2086
  1032.0000      0.0000    744.6522      8.0520    132.7100
  1032.2500      0.0000    743.7538      8.5490    130.9240
  1032.5000      0.0000    742.9684      8.9857    126.1817
  1032.7500      0.0000    742.2729      9.2178    120.9356
  1033.0000      0.0000    741.0786      9.2011    117.2634
  1033.2500      0.0000    738.7855      8.9865    115.7411
  1033.5000      0.0000    735.5975      8.6623    115.8933
  1033.7500      0.0000    732.5264      8.3140    117.2311
  1034.0000      0.0000    730.8499      8.0196    119.6539
  1034.2500      0.0000    731.5598      7.8399    123.3953
  1034.5000      0.0000    734.6279      7.7917    128.7046
  1034.7500      0.0000    738.5748      7.8414    135.1131
  1035.0000      0.0000    741.2244      7.9345    141.1775
  1035.2500      0.0000    741.1941      8.0378    145.5450
  1035.5000      0.0000    738.6351      8.1563    148.0701
  1035.7500      0.0000    734.8619      8.3152    149.3535
  1036.0000      0.0000    731.6747      8.5175    149.5002
  1036.2500      0.0000    730.6429      8.7162    147.9190
  1036.5000      0.0000    732.0613      8.8372    144.2555
  1036.7500      0.0000    734.3257      8.8400    139.1867
  1037.0000      0.0000    734.9235      8.7532    134.2509
  1037.2500      0.0000    732.5720      8.6553    130.8791
  1037.5000      0.0000    728.4502      8.6193    129.4176
  1037.7500      0.0000    725.3288      8.6643    129.0923
  1038.0000      0.0000    725.4811      8.7485    128.9426
  1038.2500      0.0000    729.1614      8.8097    128.5140
  1038.5000      0.0000    734.6249      8.8163    127.7669
  1038.7500      0.0000    739.4963      8.7787    127.1408
  1039.0000      0.0000    742.4388      8.7155    127.8300
  1039.2500      0.0000    743.8873      8.6234    131.1030
  1039.5000      0.0000    745.2932      8.4879    136.9751
  1039.7500      0.0000    747.6671      8.3155    143.9122
  1040.0000      0.0000    750.8477      8.1499    149.7440
  1040.2500      0.0000    754.0800      8.0568    152.6614
  1040.5000      0.0000    756.8645      8.0935    151.8877
  1040.7500      0.0000    758.9963      8.2805    148.1724
  1041.0000      0.0000    760.0811      8.5897    143.7426
  1041.2500      0.0000    759.5639      8.9533    141.2416
  1041.5000      0.0000    757.5244      9.2901    142.1291
  1041.7500      0.0000    755.3594      9.5334    145.8055
  1042.0000      0.0000    755.2671      9.6428    150.3438
  1042.2500      0.0000    758.3715      9.6028    154.1992
  1042.5000      0.0000    763.1437      9.4248    157.1057
  1042.7500      0.0000    766.4235      9.1472    159.2782
  1043.0000      0.0000    766.3741      8.8200    160.2609
  1043.2500      0.0000    763.8859      8.4812    159.1660
  1043.5000      0.0000    761.1687      8.1453    155.8832
  1043.7500      0.0000    759.9201      7.8065    151.5316
  1044.0000      0.0000    760.9114      7.4489    147.6995
  1044.2500      0.0000    764.1873      7.0620    145.3922
  1044.5000      0.0000    768.9114      6.6606    144.3457
  1044.7500      0.0000    773.5639      6.2942    142.8867
  1045.0000      0.0000    777.0294      6.0245    138.6970
  1045.2500      0.0000    779.3212      5.8811    130.5500
  1045.5000      0.0000    780.8427      5.8404    119.7143
  1045.7500      0.0000    781.4367      5.8508    109.2556
  1046.0000      0.0000    780.6924      5.8764    101.6518
  1046.2500      0.0000    778.5820      5.9197     97.3701
  1046.5000      0.0000    775.1967      6.0104     95.7227
  1046.7500      0.0000    770.5027      6.1770     96.1885
  1047.0000      0.0000    764.9370      6.4210     98.4787
  1047.2500      0.0000    759.6512      6.7170    102.0728
  1047.5000      0.0000    755.6451      7.0331    106.2423
  1047.7500      0.0000    752.9907      7.3452    110.3052
  1048.0000      0.0000    751.0654      7.6325    113.7623
  1048.2500      0.0000    749.1136      7.8727    116.3698
  1048.5000      0.0000    746.4790      8.0494    118.0016
  1048.7500      0.0000    742.8181      8.1620    118.2498
  1049.0000      0.0000    738.5647      8.2259    116.5050
  1049.2500      0.0000    734.9492      8.2660    112.9609
  1049.5000      0.0000    733.0003      8.3072    109.1894
  1049.7500      0.0000    732.5588      8.3670    107.1065
  1050.0000      0.0000    732.8314      8.4499    107.6477
  1050.2500      0.0000    733.8316      8.5522    110.8495
  1050.5000      0.0000    736.5514      8.6775    116.4097
  1050.7500      0.0000    741.5797      8.8486    123.4441
  1051.0000      0.0000    748.0355      9.0954    130.4496
  1051.2500      0.0000    753.9382      9.4268    136.2779
  1051.5000      0.0000    757.4516      9.8138    140.8025
  1051.7500      0.0000    757.7224     10.2138    144.2803
  1052.0000      0.0000    754.0661     10.6184    146.5141
  1052.2500      0.0000    743.2756     11.0718    147.0748
  1052.5000      0.0000    718.1658     11.6257    146.1473
  1052.7500      0.0000    672.2368     12.2630    144.7846
  1053.0000      0.0000    609.8129     12.8712    144.2261
  1053.2500      0.0000    550.5604     13.3062    144.9573
  1053.5000      0.0000    517.1778     13.5026    146.1278
  1053.7500      0.0000    513.9103     13.5286    145.8180
  1054.0000      0.0000    519.9279     13.5336    142.4190
