~Version Information
VERS.                      2.0: CWLS Log ASCII Standard - VERSION 2.0
WRAP.                       NO: One line per depth step
~Well Information Block
STRT.FT               650.0000: 
STOP.FT              2000.5000: 
STEP.FT                 0.1000: 
NULL.                -999.2500: 
COMP.          Pioneer Natural Resources: COMPANY
WELL.           Firehawk 34-26: WELL
FLD.           Purgatoire River: FIELD
LOC.           1196' FSL & 1595' FEL--: LOCATION
STAT.                 Colorado: State
CNTY.               Las Animas: COUNTY
CTRY. USA : Country
SECT. 26 : Section
TOWN. 32S : Township
RANG. 66W : Range
SRVC.                Patterson: SERVICE COMPANY
DATE.          Mon Oct 17 07:23:34 2005: LOG DATE
API.           05 071 08389 00: UNIQUE WELL ID
~Curve Information Block
DEPT.FT            0 000 00 00: Depth
DCAL.in                       : CDL Caliper
RHOB.g/cc                     : CDL Bulk Density
RHOC.g/cc                     : CDL Density Correction
DPOR.pu                       : CDL Density Porosity
NPOR.pu                       : Neutron Porosity
GR.GAPI                       : Gamma Ray
~Parameter Information Block
~A  Depth       DCAL        RHOB        RHOC        DPOR        NPOR         GR     
# ...
  1610.0000      7.9846      2.3547      0.0724     17.8988     17.5106     30.0742
  1610.1000      7.9846      2.3692      0.0800     17.0191     17.4321     34.3958
  1610.2000      7.9846      2.3772      0.0662     16.5343     17.2152     40.3536
  1610.3000      7.9842      2.3757      0.0719     16.6236     17.2072     45.4134
  1610.4000      7.9842      2.3749      0.0588     16.6727     17.6778     47.4653
  1610.5000      7.9864      2.3872      0.0502     15.9250     18.5164     48.6432
  1610.6000      7.9864      2.4093      0.0992     14.5852     19.3375     54.0388
  1610.7000      7.9864      2.4253      0.0673     13.6173     19.7094     61.1131
  1610.8000      7.9882      2.4256      0.0713     13.6022     19.6423     64.5388
  1610.9000      7.9882      2.4151      0.0566     14.2388     19.5120     64.5106
  1611.0000      7.9876      2.4064      0.0193     14.7615     19.3145     61.4186
  1611.1000      7.9876      2.4086      0.0288     14.6321     18.9659     55.0574
  1611.2000      7.9876      2.4180      0.0562     14.0620     18.7420     50.0669
  1611.3000      7.9867      2.4231      0.0409     13.7496     18.8462     51.5152
  1611.4000      7.9867      2.4214     -0.0066     13.8547     18.9900     56.7848
  1611.5000      7.9869      2.4203      0.0197     13.9225     18.7608     59.8758
  1611.6000      7.9869      2.4218      0.0474     13.8317     18.2562     59.9515
  1611.7000      7.9869      2.4203      0.0507     13.9200     17.7139     59.9769
  1611.8000      7.9852      2.4162      0.0439     14.1674     17.2507     60.1436
  1611.9000      7.9852      2.4165      0.0559     14.1489     16.9861     57.1233
  1612.0000      7.9823      2.4184      0.0646     14.0348     16.9428     49.8587
  1612.1000      7.9823      2.4161      0.0470     14.1742     16.9922     42.4953
  1612.2000      7.9823      2.4137      0.0393     14.3227     17.0373     38.4285
  1612.3000      7.9828      2.4088      0.0703     14.6174     17.1347     37.4990
  1612.4000      7.9828      2.3945      0.0497     15.4826     17.2341     39.7309
  1612.5000      7.9853      2.3782      0.0281     16.4718     17.1090     44.2556
  1612.6000      7.9853      2.3719      0.0199     16.8576     16.9453     46.5214
  1612.7000      7.9853      2.3709      0.0472     16.9128     17.1407     45.3754
  1612.8000      7.9860      2.3671      0.0258     17.1445     17.4041     44.3754
  1612.9000      7.9860      2.3693      0.0416     17.0125     17.3148     42.2818
  1613.0000      7.9847      2.3834      0.0572     16.1547     17.1754     36.6157
  1613.1000      7.9847      2.3987      0.0760     15.2288     17.1778     31.2867
  1613.2000      7.9847      2.4043      0.0592     14.8894     17.1881     30.3602
  1613.3000      7.9835      2.3995      0.0629     15.1805     17.2258     31.9679
  1613.4000      7.9835      2.3908      0.0575     15.7098     17.2643     32.6352
  1613.5000      7.9842      2.3888      0.0399     15.8295     17.3253     31.9555
  1613.6000      7.9842      2.3939      0.0919     15.5222     17.4732     31.9005
  1613.7000      7.9842      2.3939      0.0758     15.5220     17.5253     33.5547
  1613.8000      7.9855      2.3889      0.0423     15.8233     17.4009     34.9303
  1613.9000      7.9855      2.3885      0.0583     15.8493     17.3486     35.1904
  1614.0000      7.9854      2.3940      0.0291     15.5181     17.4668     35.8777
  1614.1000      7.9854      2.4046      0.0672     14.8715     17.6095     37.5597
  1614.2000      7.9854      2.4179      0.0613     14.0685     17.6813     38.0668
  1614.3000      7.9856      2.4319      0.0520     13.2152     17.7305     36.0272
  1614.4000      7.9856      2.4497      0.0819     12.1367     17.8320     34.4210
  1614.5000      7.9870      2.4714      0.0737     10.8229     18.1058     37.1640
  1614.6000      7.9870      2.4892      0.0822      9.7457     18.6185     44.7170
  1614.7000      7.9870      2.4913      0.0897      9.6156     19.0679     52.6824
  1614.8000      7.9893      2.4814      0.0406     10.2201     19.2040     57.4446
  1614.9000      7.9893      2.4729      0.0645     10.7351     19.3446     60.0795
  1615.0000      7.9902      2.4649      0.0589     11.2164     19.7343     62.0937
  1615.1000      7.9902      2.4529      0.0389     11.9464     20.0404     65.3045
  1615.2000      7.9902      2.4424      0.0484     12.5792     20.0227     70.1883
  1615.3000      7.9876      2.4389      0.0467     12.7967     19.9796     74.0770
  1615.4000      7.9876      2.4424      0.0365     12.5848     20.1427     76.6373
  1615.5000      7.9851      2.4479      0.0631     12.2479     20.3414     77.9527
  1615.6000      7.9851      2.4484      0.0574     12.2177     20.2166     75.0023
  1615.7000      7.9851      2.4468      0.0274     12.3138     19.5947     68.7707
  1615.8000      7.9835      2.4496      0.0379     12.1439     18.7380     63.4908
  1615.9000      7.9835      2.4527      0.0178     11.9582     18.0906     58.2492
  1616.0000      7.9817      2.4433      0.0753     12.5256     17.8431     51.6052
  1616.1000      7.9817      2.4132      0.0549     14.3541     17.7709     47.1780
  1616.2000      7.9817      2.3759      0.0221     16.6110     17.5807     46.5553
  1616.3000      7.9816      2.3568     -0.0080     17.7718     17.3415     46.8874
  1616.4000      7.9816      2.3601      0.0169     17.5691     17.2515     47.1674
  1616.5000      7.9837      2.3644      0.0440     17.3082     17.2926     46.6675
  1616.6000      7.9837      2.3564      0.0069     17.7936     17.3152     43.2450
  1616.7000      7.9837      2.3499     -0.0198     18.1894     17.2521     36.9709
  1616.8000      7.9848      2.3548      0.0550     17.8900     17.2155     30.7536
  1616.9000      7.9848      2.3601      0.0379     17.5668     17.4404     28.7355
  1617.0000      7.9844      2.3606      0.0380     17.5372     17.9146     31.0887
  1617.1000      7.9844      2.3597      0.0591     17.5948     18.3379     34.4557
  1617.2000      7.9844      2.3587      0.0151     17.6568     18.4780     36.0635
  1617.3000      7.9835      2.3633      0.0162     17.3746     18.3551     34.3413
  1617.4000      7.9835      2.3764      0.0540     16.5802     18.1442     31.1999
  1617.5000      7.9818      2.3900      0.0849     15.7578     18.0461     29.0272
  1617.6000      7.9818      2.3939      0.0485     15.5231     18.1576     27.5898
  1617.7000      7.9818      2.3870      0.0668     15.9407     18.5181     26.6015
  1617.8000      7.9801      2.3826      0.0231     16.2084     19.2808     25.9373
  1617.9000      7.9801      2.3937      0.0817     15.5361     20.3055     25.7963
  1618.0000      7.9810      2.4078      0.0973     14.6803     20.9477     28.1182
  1618.1000      7.9810      2.4089      0.0604     14.6125     20.8980     33.4991
  1618.2000      7.9810      2.4024      0.0611     15.0032     20.5136     38.2845
  1618.3000      7.9839      2.3985      0.0506     15.2422     20.4460     38.5828
  1618.4000      7.9839      2.4045      0.0368     14.8765     21.0989     35.9164
  1618.5000      7.9855      2.4253      0.0474     13.6153     22.1658     34.9857
  1618.6000      7.9855      2.4542      0.0969     11.8644     22.9702     39.0690
  1618.7000      7.9855      2.4788      0.0918     10.3763     23.3937     48.7858
  1618.8000      7.9845      2.4975      0.0947      9.2434     23.8888     61.2220
  1618.9000      7.9845      2.5160      0.0834      8.1188     24.5736     73.1598
  1619.0000      7.9826      2.5340      0.0968      7.0298     25.1678     84.6569
  1619.1000      7.9826      2.5473      0.0832      6.2233     25.4284     94.7114
  1619.2000      7.9826      2.5595      0.0768      5.4829     25.2844     99.5771
  1619.3000      7.9815      2.5739      0.0676      4.6124     24.9286    101.2151
  1619.4000      7.9815      2.5837      0.1011      4.0198     24.6268    110.0990
  1619.5000      7.9837      2.5831      0.0822      4.0558     24.7572    132.3883
