~Version Information
VERS.                      2.0: CWLS Log ASCII Standard - VERSION 2.0
WRAP.                       NO: One line per depth step
~Well Information Block
STRT.FT               472.0000: 
STOP.FT              2430.5000: 
STEP.FT                 0.2500: 
NULL.                -999.2500: 
COMP.          Pioneer Natural Resources: COMPANY
WELL.          Flying Horse 12-11: WELL
FLD.           Purgatoire River: FIELD
LOC.           2428' FNL & 308' FWL: LOCATION
PROV.                 Colorado: PROVINCE
CNTY.               Las Animas: COUNTRY
SRVC.                Patterson: SERVICE COMPANY
DATE.          Sun May 29 11:58:35 2005: LOG DATE
UWI.           05 071 08378 00: UNIQUE WELL ID
~Curve Information Block
DEPT.FT            0 000 00 00: Depth
SN.Ohm-m                      : IEL Short Normal
SP.mV                         : IEL Spontaneous Potential
DIR.Ohm-m                     : IEL Induction Resistivity
GR.GAPI                       : Gamma Ray
~Parameter Information Block
~A  Depth        SN          SP         DIR          GR     
# ...
  1242.5000   2000.0000   2000.0000 100000.0000    107.4828
  1242.7500   2000.0000   2000.0000 100000.0000    112.1716
  1243.0000   2000.0000   2000.0000 100000.0000    119.1454
  1243.2500   2000.0000   2000.0000 100000.0000    122.9635
  1243.5000   2000.0000   2000.0000 100000.0000    126.8910
  1243.7500   2000.0000   2000.0000     53.7452    128.4654
  1244.0000   2000.0000   2000.0000     24.4269    129.8522
  1244.2500   2000.0000   2000.0000     17.6740    130.3374
  1244.5000   2000.0000   2000.0000     15.0817    130.3684
  1244.7500   2000.0000   2000.0000     13.9422    129.9680
  1245.0000   2000.0000   2000.0000     13.4513    129.5888
  1245.2500   2000.0000   2000.0000     13.3030    130.3107
  1245.5000   2000.0000   2000.0000     13.3660    133.6772
  1245.7500   2000.0000   2000.0000     13.5616    137.2822
  1246.0000   2000.0000   2000.0000     13.8118    144.2091
  1246.2500   2000.0000   2000.0000     14.0323    149.7918
  1246.5000   2000.0000   2000.0000     14.1531    159.2286
  1246.7500   2000.0000   2000.0000     14.1432    165.3155
  1247.0000   2000.0000   2000.0000     14.0151    172.2173
  1247.2500   2000.0000   2000.0000     13.8075    174.9759
  1247.5000   2000.0000   2000.0000     13.5633    177.3770
  1247.7500   2000.0000   2000.0000     13.3167    178.5823
  1248.0000   2000.0000   2000.0000     13.0896    180.3375
  1248.2500   2000.0000   2000.0000     12.8949    181.4797
  1248.5000   2000.0000   2000.0000     12.7416    183.0622
  1248.7500   2000.0000   2000.0000     12.6386    183.8489
  1249.0000   2000.0000   2000.0000     12.5986    184.0878
  1249.2500   2000.0000   2000.0000     12.6384    183.3485
  1249.5000   2000.0000   2000.0000     12.7778    180.7465
  1249.7500   2000.0000   2000.0000     13.0364    178.1961
  1250.0000   2000.0000   2000.0000     13.4284    174.2539
  1250.2500   2000.0000   2000.0000     13.9592    172.6125
  1250.5000     12.7714    -92.8877     14.6237    173.0483
  1250.7500     14.3864    -92.5035     15.4087    175.0645
  1251.0000     17.1966    -91.7971     16.2989    178.4424
  1251.2500     20.0566    -90.8937     17.2801    179.4060
  1251.5000     22.3837    -89.9440     18.3371    177.5929
  1251.7500     24.0683    -89.0777     19.4426    174.2402
  1252.0000     25.1330    -88.3957     20.5468    166.4678
  1252.2500     25.7924    -87.9604     21.5791    159.7912
  1252.5000     26.3569    -87.7796     22.4699    148.6973
  1252.7500     27.0373    -87.8111     23.1854    141.6543
  1253.0000     27.8990    -87.9891     23.7475    133.2751
  1253.2500     28.7975    -88.2466     24.2191    129.5211
  1253.5000     29.4325    -88.5163     24.6646    126.3691
  1253.7500     29.6290    -88.7315     25.1155    125.6796
  1254.0000     29.4304    -88.8397     25.5538    126.6764
  1254.2500     28.9394    -88.8206     25.9183    128.5934
  1254.5000     28.2370    -88.6886     26.1254    132.4817
  1254.7500     27.4228    -88.4773     26.1030    135.0211
  1255.0000     26.6594    -88.2202     25.8265    138.0296
  1255.2500     26.1185    -87.9428     25.3319    139.5412
  1255.5000     25.8432    -87.6711     24.6988    141.2651
  1255.7500     25.7039    -87.4439     24.0152    141.9388
  1256.0000     25.5163    -87.3055     23.3487    141.7853
  1256.2500     25.1425    -87.2798     22.7306    140.8085
  1256.5000     24.4843    -87.3513     22.1570    138.6774
  1256.7500     23.5385    -87.4733     21.6028    137.6631
  1257.0000     22.4806    -87.5986     21.0395    138.0585
  1257.2500     21.5473    -87.7042     20.4473    139.5658
  1257.5000     20.8493    -87.7950     19.8197    142.0285
  1257.7500     20.3439    -87.8891     19.1682    142.6202
  1258.0000     19.8901    -87.9982     18.5257    141.1979
  1258.2500     19.3245    -88.1089     17.9396    139.4519
  1258.5000     18.5902    -88.1770     17.4521    138.3433
  1258.7500     17.8130    -88.1449     17.0831    140.1613
  1259.0000     17.2369    -87.9764     16.8279    147.6129
  1259.2500     17.0653    -87.6797     16.6685    154.8622
  1259.5000     17.2804    -87.3021     16.5848    166.1086
  1259.7500     17.6273    -86.9059     16.5541    171.9828
  1260.0000     17.8403    -86.5486     16.5445    176.2603
  1260.2500     17.8505    -86.2710     16.5131    175.8207
  1260.5000     17.7658    -86.0953     16.4185    171.2735
  1260.7500     17.7020    -86.0311     16.2417    166.7709
  1261.0000     17.6855    -86.0804     15.9985    159.5886
  1261.2500     17.6930    -86.2321     15.7311    154.9202
  1261.5000     17.6867    -86.4527     15.4866    147.6051
  1261.7500     17.6191    -86.6899     15.2990    142.2263
  1262.0000     17.4925    -86.8902     15.1834    134.3324
  1262.2500     17.3783    -87.0182     15.1418    130.4068
  1262.5000     17.3104    -87.0676     15.1714    127.8774
  1262.7500     17.2202    -87.0568     15.2676    128.0711
  1263.0000     17.0260    -87.0121     15.4201    129.2960
  1263.2500     16.7352    -86.9473     15.6081    129.8157
  1263.5000     16.4490    -86.8579     15.8030    129.6787
  1263.7500     16.3194    -86.7311     15.9799    129.1239
  1264.0000     16.4476    -86.5564     16.1280    127.8497
  1264.2500     16.7809    -86.3250     16.2519    126.6463
  1264.5000     17.1596    -86.0253     16.3619    123.9544
  1264.7500     17.4062    -85.6477     16.4639    121.5105
  1265.0000     17.3803    -85.1923     16.5582    117.6136
  1265.2500     17.1277    -84.6687     16.6473    115.6989
  1265.5000     16.9575    -84.0978     16.7446    114.8795
  1265.7500     17.1506    -83.5195     16.8772    115.5390
  1266.0000     17.6528    -82.9926     17.0767    116.9955
  1266.2500     18.2504    -82.5719     17.3610    117.5699
  1266.5000     18.8708    -82.2824     17.7170    117.7520
  1266.7500     19.5216    -82.1170     18.0983    117.9184
  1267.0000     20.0763    -82.0542     18.4511    118.8491
  1267.2500     20.3456    -82.0734     18.7560    119.7042
  1267.5000     20.3539    -82.1563     19.0450    120.4424
  1267.7500     20.3354    -82.2841     19.3693    120.2593
  1268.0000     20.4470    -82.4366     19.7463    118.9905
  1268.2500     20.6683    -82.5967     20.1396    117.6620
  1268.5000     20.9452    -82.7538     20.4935    115.5626
  1268.7500     21.2603    -82.9033     20.7929    114.5790
  1269.0000     21.6684    -83.0447     21.0890    113.9487
  1269.2500     22.2892    -83.1827     21.4634    113.4855
  1269.5000     23.1084    -83.3312     21.9705    111.3142
  1269.7500     23.9056    -83.5155     22.6132    108.8309
  1270.0000     24.5276    -83.7634     23.3619    105.0686
  1270.2500     25.0409    -84.0847     24.1856    103.3064
  1270.5000     25.5770    -84.4502     25.0573    101.2934
  1270.7500     26.1929    -84.7957     25.9332     99.4697
  1271.0000     26.8413    -85.0591     26.7476     95.4057
  1271.2500     27.4187    -85.2167     27.4477     92.4384
  1271.5000     27.9957    -85.2847     28.0388     89.4245
  1271.7500     28.9193    -85.2951     28.5855     89.0809
  1272.0000     30.3490    -85.2763     29.1663     90.8547
  1272.2500     31.8980    -85.2490     29.8244     92.7142
  1272.5000     33.0887    -85.2275     30.5502     94.7507
  1272.7500     33.8312    -85.2211     31.2978     94.9031
  1273.0000     34.3029    -85.2341     32.0216     92.8945
  1273.2500     34.6928    -85.2678     32.7040     90.1257
  1273.5000     35.2280    -85.3262     33.3570     84.4152
  1273.7500     36.1048    -85.4221     33.9962     80.2431
  1274.0000     37.1391    -85.5739     34.6161     74.6976
  1274.2500     37.9498    -85.7921     35.1852     71.7981
  1274.5000     38.4947    -86.0701     35.6754     68.2609
  1274.7500     39.0126    -86.3931     36.1012     66.1134
  1275.0000     39.6666    -86.7581     36.5350     63.2494
  1275.2500     40.4111    -87.1857     37.0809     61.8090
  1275.5000     41.0728    -87.7155     37.8249     60.2667
  1275.7500     41.6033    -88.3872     38.7920     59.2873
