~Version Information
VERS.                      2.0: CWLS Log ASCII Standard - VERSION 2.0
WRAP.                       NO: One line per depth step
~Well Information Block
STRT.FT                -8.2500: 
STOP.FT               836.2500: 
STEP.FT                 0.2500: 
NULL.                -999.2500: 
COMP.          Pioneer Natural Res.: COMPANY
WELL.            Hustler 12-17: WELL
FLD.           Purgatorie River: FIELD
LOC.           2150' FNL & 450' FWL----------: LOCATION
PROV.                       CO: PROVINCE
CNTY.               Las Animas: COUNTRY
SRVC.                Patterson: SERVICE COMPANY
DATE.          Wed Dec 29 13:37:10 2004: LOG DATE
UWI.           05 071 08236 00: UNIQUE WELL ID
~Curve Information Block
DEPT.FT            0 000 00 00: Depth
AMP3.mV                       : CBL 3' Amplitude
CCL.                          : Casing Collar Locator
GR.GAPI                       : Gamma Ray
TT3.usec                      : CBL 3' Travel Time
~Parameter Information Block
~A  Depth       AMP3        CCL          GR         TT3     
# ...
    92.2500      9.6693      0.0000    115.3690    880.9335
    92.5000      9.8127      0.0000    115.0291    884.2631
    92.7500      9.8570      0.0000    114.0941    886.5482
    93.0000      9.8467      0.0000    113.3531    887.7847
    93.2500      9.8307      0.0000    113.5058    888.4110
    93.5000      9.8512      0.0000    114.3398    888.8423
    93.7500      9.9330      0.0000    114.8341    889.3051
    94.0000     10.0686      0.0000    114.6003    889.8641
    94.2500     10.2161      0.0000    114.7624    890.5291
    94.5000     10.3149      0.0000    116.6945    891.4041
    94.7500     10.3098      0.0000    120.0314    892.8199
    95.0000     10.1773      0.0000    122.6606    895.2998
    95.2500      9.9401      0.0000    122.8109    899.0804
    95.5000      9.6512      0.0000    120.5130    903.3332
    95.7500      9.3587      0.0000    116.7357    906.0925
    96.0000      9.0859      0.0000    111.8893    905.6518
    96.2500      8.8364      0.0000    106.0205    902.4969
    96.5000      8.6054      0.0000    100.1505    899.8388
    96.7500      8.3952      0.0000     96.3363    902.4734
    97.0000      8.2342      0.0000     95.8921    914.7206
    97.2500      8.1724      0.0000     98.0142    937.1842
    97.5000      8.2359      0.0000    100.6361    963.7189
    97.7500      8.3840      0.0000    102.4067    983.3383
    98.0000      8.5170      0.0000    103.3780    987.9443
    98.2500      8.5345      0.0000    104.1258    977.8625
    98.5000      8.3947      0.0000    105.0151    959.5576
    98.7500      8.1307      0.0000    106.3078    941.0536
    99.0000      7.8227      0.0000    108.2231    931.0960
    99.2500      7.5570      0.0000    110.5131    939.2025
    99.5000      7.3945      0.0000    112.4629    972.0695
    99.7500      7.3453      0.0000    113.8038   1027.7021
   100.0000      7.3621      0.0000    115.2465   1093.3890
   100.2500      7.3723      0.0000    117.4172   1151.9952
   100.5000      7.3296      0.0000    119.4625   1192.1821
   100.7500      7.2365      0.0000    119.5221   1212.9033
   101.0000      7.1255      0.0000    116.7842   1219.2524
   101.2500      7.0200      0.0000    112.5108   1216.1802
   101.5000      6.9110      0.0000    108.8530   1206.2415
   101.7500      6.7720      0.0000    107.1323   1190.4172
   102.0000      6.6088      0.0000    107.3044   1168.3546
   102.2500      6.4925      0.0000    108.4436   1138.0295
   102.5000      6.5148      0.0000    109.4889   1098.0620
   102.7500      6.6882      0.0000    109.9195   1052.0646
   103.0000      6.9176      0.0000    109.8779   1009.5281
   103.2500      7.0999      0.0000    109.5920    980.6772
   103.5000      7.2174      0.0000    109.0165    970.0164
   103.7500      7.3029      0.0000    108.3483    975.3952
   104.0000      7.3544      0.0000    108.4962    992.6915
   104.2500      7.3332     -2.0000    110.4780   1018.0192
   104.5000      7.2322      0.0000    114.2474   1043.7424
   104.7500      7.1258      0.0000    118.3116   1057.1338
   105.0000      7.1434      0.0000    120.6166   1048.3765
   105.2500      7.3697      0.0000    119.9490   1019.4927
   105.5000      7.7409      0.0000    116.7740    983.0028
   105.7500      8.0623      0.0000    112.8074    951.8527
   106.0000      8.1757      0.0000    109.4834    931.0315
   106.2500      8.0983      0.0000    106.7268    917.1688
   106.5000      7.9761      0.0000    103.3938    904.3102
   106.7500      7.9354      0.0000     98.7321    890.0592
   107.0000      8.0058      0.0000     93.2172    877.7280
   107.2500      8.1489      0.0000     88.3133    873.5490
   107.5000      8.3172      0.0000     85.6542    881.6129
   107.7500      8.4872      0.0000     86.0043    900.9212
   108.0000      8.6580      0.0000     88.5402    926.4931
   108.2500      8.8308      0.0000     91.3324    952.1551
   108.5000      8.9991      0.0000     92.9111    972.5325
   108.7500      9.1553      0.0000     93.3595    984.2281
   109.0000      9.2989      0.0000     93.7673    986.3606
   109.2500      9.4386      0.0000     94.7496    980.1155
   109.5000      9.5959      0.0000     95.5192    967.8600
   109.7500      9.7978      0.0000     94.4023    952.5605
   110.0000     10.0476      0.0000     90.4871    937.3733
   110.2500     10.3013      0.0000     84.9064    925.0305
   110.5000     10.4795      0.0000     80.3509    917.1096
   110.7500     10.5130      0.0000     79.2105    913.2794
   111.0000     10.3862      0.0000     82.1518    911.1794
   111.2500     10.1583      0.0000     88.1055    907.7868
   111.5000      9.9497      0.0000     95.1260    901.3906
   111.7500      9.8878      0.0000    101.1363    891.6741
   112.0000     10.0405      0.0000    104.3165    877.9625
   112.2500     10.3869      0.0000    103.6038    858.6932
   112.5000     10.8368      0.0000     99.4104    833.7309
   112.7500     11.2620      0.0000     93.7746    806.6006
   113.0000     11.5316      0.0000     89.4316    783.0515
   113.2500     11.5725      0.0000     88.3210    767.0344
   113.5000     11.4240      0.0000     90.4311    758.5396
   113.7500     11.2139      0.0000     93.7182    755.0554
   114.0000     11.0580      0.0000     95.4311    754.3099
   114.2500     10.9809      0.0000     94.0535    755.7936
   114.5000     10.9276      0.0000     90.3080    760.6906
   114.7500     10.8369      0.0000     86.3934    770.4507
   115.0000     10.6978      0.0000     84.1622    784.2051
   115.2500     10.5551      0.0000     83.7505    796.9727
   115.5000     10.4714      0.0000     83.7752    801.8958
   115.7500     10.4735      0.0000     82.7636    795.8690
   116.0000     10.5238      0.0000     80.3571    782.6220
   116.2500     10.5548      0.0000     77.2907    769.5128
   116.5000     10.5365      0.0000     74.6703    762.1577
   116.7500     10.4990      0.0000     73.5220    762.2884
   117.0000     10.4829      0.0000     74.5590    768.6383
   117.2500     10.4894      0.0000     77.6857    778.5993
   117.5000     10.4929      0.0000     81.8255    791.3967
   117.7500     10.4857      0.0000     85.7033    812.0230
   118.0000     10.4964      0.0000     88.7809    849.8063
   118.2500     10.5754      0.0000     91.2344    908.1785
   118.5000     10.7624      0.0000     93.1982    975.5666
   118.7500     11.0447      0.0000     94.2824   1031.2883
   119.0000     11.3346      0.0000     93.8294   1062.5369
   119.2500     11.5070      0.0000     91.6347   1071.4749
   119.5000     11.4794      0.0000     88.5412   1064.8456
   119.7500     11.2669      0.0000     86.1534   1044.2754
   120.0000     10.9594      0.0000     85.5877   1011.2828
   120.2500     10.6501      0.0000     86.5291    974.9282
   120.5000     10.3904      0.0000     87.8170    947.2495
   120.7500     10.1966      0.0000     88.7408    932.4224
   121.0000     10.0718      0.0000     89.4889    924.6448
   121.2500     10.0019      0.0000     90.7562    917.1906
   121.5000      9.9412      0.0000     93.2248    910.3583
   121.7500      9.8177      0.0000     96.9337    908.1248
   122.0000      9.5638      0.0000    100.8699    910.0981
   122.2500      9.1545      0.0000    103.6267    911.0193
   122.5000      8.6328      0.0000    104.8429    907.4584
   122.7500      8.0990      0.0000    105.7510    901.5369
   123.0000      7.6636      0.0000    107.8912    897.4565
   123.2500      7.3971      0.0000    111.2545    896.5094
   123.5000      7.3165      0.0000    113.9920    896.7950
   123.7500      7.4006      0.0000    114.0704    896.8126
   124.0000      7.6038      0.0000    110.9699    898.1985
   124.2500      7.8660      0.0000    105.8192    904.7543
   124.5000      8.1376      0.0000    100.4626    919.0621
   124.7500      8.4056      0.0000     96.6057    939.8016
   125.0000      8.6951      0.0000     95.3860    961.2966
   125.2500      9.0403      0.0000     97.2843    974.7426
   125.5000      9.4519      0.0000    102.2925    971.7441
