~Version Information
 VERS.                                  2.0 : CWLS LAS VERSION
 WRAP.                                   NO : WRAPING MODE
 SWARE .                 MController 2.5.0I : SOFTWARE VERSION
~Well Information
 WELL.                        Tomahawk 44-9 : WELL
 COMP.             Evergreen Operating Corp : COMPANY
 FLD.                      Purgatorie River : FIELD
 LOC.                 SE/SE Sec 9 T33S R65W : LOCATION
 DATE.                              9/11/04 : DATE(S) LOGGED
 SRVC.       Blanco Geological Services LLC : SERVICE COMPANY
 STAT.                                   CO : STATE
 CNTY.                           Las Animas : COUNTY
 CTRY.                                  USA : COUNTRY
 API.                       05-071-08133-00 : API NUMBER
 STRT.FT                             696.00 : START DEPTH
 STOP.FT                            1585.00 : STOP DEPTH
 STEP.FT                               1.00 : DEPTH INCREMENT
 NULL.                                -9999 : NULL VALUE
~Curve information
 DEPTH.FT                                   :
 ROP.MIN/FT                                 :
 GAS.UNITS                                  :
~ASCII Log data
# ...
      1296.0          0.1         18.1 
      1297.0          0.1         22.8 
      1298.0          0.2         25.9 
      1299.0          0.2         26.9 
      1300.0          0.2         27.4 
      1301.0          0.2         28.1 
      1302.0          0.2         28.4 
      1303.0          0.2         32.0 
      1304.0          0.1         35.0 
      1305.0          0.1         36.9 
      1306.0          0.1         42.0 
      1307.0          0.2         49.1 
      1308.0          0.2         55.2 
      1309.0          0.2         57.6 
      1310.0          0.2         58.5 
      1311.0          0.1         58.4 
      1312.0          0.1         55.2 
      1313.0          0.1         50.5 
      1314.0          0.2         51.6 
      1315.0          0.3         56.6 
      1316.0          1.9        280.0 
      1317.0          0.2        279.9 
      1318.0          0.2        270.2 
      1319.0          0.1        245.4 
      1320.0          0.1        215.0 
      1321.0          0.1        183.0 
      1322.0          0.2        169.0 
      1323.0          0.2        157.1 
      1324.0          0.2        139.4 
      1325.0          0.2        128.5 
      1326.0          0.2        112.5 
      1327.0          0.2        100.9 
      1328.0          0.2         90.4 
      1329.0          0.2         84.1 
      1330.0          0.2         74.4 
      1331.0          0.2         66.8 
      1332.0          0.2         61.7 
      1333.0          0.1         56.8 
      1334.0          0.1         53.8 
      1335.0          0.2         51.5 
      1336.0          0.2         46.4 
      1337.0          0.2         40.5 
      1338.0          0.2         38.0 
      1339.0          0.2         37.0 
      1340.0          0.1         32.3 
      1341.0          0.2         27.5 
      1342.0          0.1         28.4 
      1343.0          0.1         32.1 
      1344.0          0.1         34.5 
      1345.0          0.1         37.2 
      1346.0          1.8        117.2 
      1347.0          0.3        143.1 
      1348.0          0.3        162.7 
      1349.0          0.3        166.1 
      1350.0          0.2        161.8 
      1351.0          0.2        151.8 
      1352.0          0.2        141.9 
      1353.0          0.2        131.4 
      1354.0          0.2        111.5 
      1355.0          0.2         91.7 
      1356.0          0.2         72.1 
      1357.0          0.2         62.3 
      1358.0          0.2         53.4 
      1359.0          0.2         46.0 
      1360.0          0.2         38.7 
      1361.0          0.2         34.8 
      1362.0          0.2         30.2 
      1363.0          0.2         26.5 
      1364.0          0.2         22.8 
      1365.0          0.2         18.9 
      1366.0          0.2         16.3 
      1367.0          0.2         14.9 
      1368.0          0.3         14.2 
      1369.0          0.2         12.8 
      1370.0          0.2         12.0 
      1371.0          0.2         12.4 
      1372.0          0.2         14.3 
      1373.0          0.2         16.4 
      1374.0          0.2         17.3 
      1375.0          0.2         17.1 
      1376.0          1.9         24.6 
      1377.0          0.4         34.4 
      1378.0          0.2         40.3 
      1379.0          0.2         47.1 
      1380.0          0.2         50.6 
      1381.0          0.3         55.2 
      1382.0          0.2         56.6 
      1383.0          0.2         56.8 
      1384.0          0.2         56.8 
      1385.0          0.2         56.0 
      1386.0          0.3         54.5 
      1387.0          0.2         51.8 
      1388.0          0.3         49.1 
      1389.0          0.2         45.0 
      1390.0          0.3         41.7 
      1391.0          0.2         37.6 
      1392.0          0.2         34.1 
      1393.0          0.2         30.0 
      1394.0          0.1         27.1 
      1395.0          0.2         25.6 
      1396.0          0.2         23.6 
      1397.0          0.2         20.5 
      1398.0          0.2         18.8 
      1399.0          0.2         16.9 
      1400.0          0.2         15.2 
      1401.0          0.2         13.7 
      1402.0          0.2         12.1 
      1403.0          0.2         10.6 
      1404.0          0.2          9.1 
      1405.0          0.2          8.0 
      1406.0          2.0         11.5 
      1407.0          0.2          1.5 
      1408.0          0.2          1.1 
      1409.0          0.2          1.2 
      1410.0          0.2          2.5 
      1411.0          0.2          2.7 
      1412.0          0.1          4.1 
      1413.0          0.1          7.8 
      1414.0          0.1         12.2 
      1415.0          0.1         14.6 
      1416.0          0.2         18.8 
      1417.0          0.2         24.3 
      1418.0          0.2         26.1 
      1419.0          0.1         23.3 
      1420.0          0.3         20.3 
      1421.0          0.2         11.7 
      1422.0          0.3          6.8 
      1423.0          0.2          3.5 
      1424.0          0.2         11.1 
      1425.0          0.2         15.6 
      1426.0          0.2         15.2 
      1427.0          0.1         19.1 
      1428.0          0.1         24.3 
      1429.0          0.2         30.8 
      1430.0          0.2         40.1 
      1431.0          0.2         77.6 
      1432.0          0.2        108.3 
      1433.0          0.2        136.2 
      1434.0          0.2        160.1 
      1435.0          0.2        160.3 
      1436.0          2.0       1319.2 
      1437.0          0.2       1019.0 
      1438.0          0.3        887.9 
      1439.0          0.3        761.6 
      1440.0          0.3        688.8 
      1441.0          0.6        709.4 
      1442.0          0.5        563.1 
      1443.0          0.5        126.1 
      1444.0          0.4         53.9 
      1445.0          0.4         59.4 
      1446.0          0.4         59.3 
      1447.0          0.5         53.4 
      1448.0          0.4         43.9 
      1449.0          0.5         39.0 
      1450.0          0.5         35.2 
      1451.0          0.4         32.2 
      1452.0          0.4         27.5 
      1453.0          0.5         17.9 
      1454.0          0.5         18.4 
      1455.0          0.5         18.5 
      1456.0          0.5         19.5 
      1457.0          0.4         20.5 
      1458.0          0.5         17.6 
      1459.0          0.4         15.3 
      1460.0          0.4         12.8 
      1461.0          0.5         13.3 
      1462.0          0.4         15.6 
      1463.0          0.5         16.3 
      1464.0          0.4         14.7 
      1465.0          0.4         16.8 
      1466.0          7.4       1439.1 
      1467.0          0.3         20.1 
      1468.0          0.3          8.0 
      1469.0          0.3          6.1 
      1470.0          0.3         10.0 
      1471.0          0.3         14.5 
      1472.0          0.3         19.6 
      1473.0          0.3         24.4 
      1474.0          0.3         26.6 
      1475.0          0.4         26.2 
      1476.0          0.4         20.5 
      1477.0          0.3         11.7 
      1478.0          0.4          8.0 
      1479.0          0.3         12.4 
      1480.0          0.4         21.5 
      1481.0          0.3         28.1 
      1482.0          0.3         37.4 
      1483.0          0.3         42.0 
      1484.0          0.3         42.1 
      1485.0          0.3         39.6 
      1486.0          0.3         35.5 
      1487.0          0.3         32.5 
      1488.0          0.3         27.3 
      1489.0          0.4         22.4 
      1490.0          0.4         16.6 
      1491.0          0.4         11.7 
      1492.0          0.4         10.1 
      1493.0          0.4          8.1 
      1494.0          0.4          6.8 
      1495.0          0.4          5.9 
