~Version Information
VERS.                      2.0: CWLS Log ASCII Standard - VERSION 2.0
WRAP.                       NO: One line per depth step
~Well Information Block
STRT.FT               780.0000: 
STOP.FT              2866.2000: 
STEP.FT                 0.1000: 
NULL.                -999.2500: 
COMP.          Pioneer Natural Resources: COMPANY
WELL.            Sebring 42-29: WELL
FLD.           Purgatoire River: FIELD
LOC.           1751' FNL & 584' FEL--: LOCATION
PROV.                 Colorado: PROVINCE
CNTY.               Las Animas: COUNTRY
SRVC.                Patterson: SERVICE COMPANY
DATE.          Mon Aug 15 07:11:37 2005: LOG DATE
UWI.           05 071 08293 00: UNIQUE WELL ID
~Curve Information Block
DEPT.FT            0 000 00 00: Depth
DCAL.in                       : CDL Caliper
RHOB.g/cc                     : CDL Bulk Density
RHOC.g/cc                     : CDL Density Correction
DPOR.pu                       : CDL Density Porosity
NPOR.pu                       : Neutron Porosity
GR.GAPI                       : Gamma Ray
~Parameter Information Block
~A  Depth       DCAL        RHOB        RHOC        DPOR        NPOR         GR     
# ...
  2834.4000      7.8229      2.5147      0.0571      8.2009     15.4672      0.1208
  2834.5000      7.8247      2.5081      0.0320      8.5992     15.6608      0.0063
  2834.6000      7.8247      2.5039      0.0055      8.8553     15.6827      0.0000
  2834.7000      7.8247      2.5089      0.0383      8.5505     15.4253   -999.2500
  2834.8000      7.8249      2.5191      0.0373      7.9316     15.2499   -999.2500
  2834.9000      7.8249      2.5281      0.0619      7.3853     15.2751   -999.2500
  2835.0000      7.8250      2.5288      0.0574      7.3439     15.0701   -999.2500
  2835.1000      7.8250      2.5236      0.0290      7.6635     14.7849   -999.2500
  2835.2000      7.8250      2.5225      0.0375      7.7285     14.9823   -999.2500
  2835.3000      7.8257      2.5236      0.0625      7.6591     15.6478   -999.2500
  2835.4000      7.8257      2.5209      0.0366      7.8269     16.0956   -999.2500
  2835.5000      7.8265      2.5161      0.0479      8.1165     15.8866   -999.2500
  2835.6000      7.8265      2.5079      0.0436      8.6102     15.4189   -999.2500
  2835.7000      7.8265      2.4943      0.0019      9.4379     15.2630   -999.2500
  2835.8000      7.8267      2.4776      0.0212     10.4492     15.5680   -999.2500
  2835.9000      7.8267      2.4652      0.0129     11.2022     16.2311   -999.2500
  2836.0000      7.8247      2.4701     -0.0064     10.9016     16.8591   -999.2500
  2836.1000      7.8247      2.4918      0.0445      9.5901     17.0064   -999.2500
  2836.2000      7.8247      2.5074      0.0843      8.6454     16.7961   -999.2500
  2836.3000      7.8190      2.5077      0.0297      8.6241     16.7467   -999.2500
  2836.4000      7.8190      2.5043      0.0646      8.8279     17.0154   -999.2500
  2836.5000      7.8093      2.5010      0.0567      9.0288     16.9324   -999.2500
  2836.6000      7.8093      2.4977      0.0553      9.2321     16.0487   -999.2500
  2836.7000      7.8093      2.4964      0.1099      9.3103     15.0670   -999.2500
  2836.8000      7.7922      2.4953      0.1253      9.3762     14.5336   -999.2500
  2836.9000      7.7922      2.4946      0.1054      9.4185     14.2192   -999.2500
  2837.0000      7.7447      2.5057      0.1054      8.7442     14.0602   -999.2500
  2837.1000      7.7447      2.5349      0.1341      6.9738     14.2517   -999.2500
  2837.2000      7.7447      2.5628      0.1577      5.2864     14.6303   -999.2500
  2837.3000      7.6638      2.5657      0.1304      5.1063     14.9949   -999.2500
  2837.4000      7.6638      2.5468      0.0813      6.2538     15.3571   -999.2500
  2837.5000      7.6029      2.5284      0.0583      7.3706     15.3762   -999.2500
  2837.6000      7.6029      2.5194      0.0956      7.9162     15.0504   -999.2500
  2837.7000      7.6029      2.5087      0.0805      8.5647     15.1861   -999.2500
  2837.8000      7.5777      2.4927      0.0517      9.5305     16.1139   -999.2500
  2837.9000      7.5777      2.4790      0.0522     10.3648     17.0641   -999.2500
  2838.0000      7.5664      2.4719      0.0332     10.7935     17.3368   -999.2500
  2838.1000      7.5664      2.4731      0.0799     10.7215     17.2302   -999.2500
  2838.2000      7.5664      2.4851      0.0475      9.9910     16.8817   -999.2500
  2838.3000      7.5608      2.5087      0.0756      8.5614     16.2924   -999.2500
  2838.4000      7.5608      2.5292      0.0975      7.3212     16.0725   -999.2500
  2838.5000      7.5584      2.5292      0.1103      7.3197     16.5155   -999.2500
  2838.6000      7.5584      2.5133      0.0550      8.2825     17.1253   -999.2500
  2838.7000      7.5584      2.4990      0.0341      9.1509     17.2295   -999.2500
  2838.8000      7.5559      2.4949      0.0555      9.3984     16.8081   -999.2500
  2838.9000      7.5559      2.4961      0.0954      9.3280     16.4462   -999.2500
  2839.0000      7.5538      2.4962      0.0705      9.3187     16.1544   -999.2500
  2839.1000      7.5538      2.5000      0.0256      9.0923     15.5416   -999.2500
  2839.2000      7.5538      2.5146      0.0640      8.2053     14.8484   -999.2500
  2839.3000      7.5532      2.5346      0.1139      6.9938     14.5574   -999.2500
  2839.4000      7.5532      2.5441      0.1152      6.4200     16.1619   -999.2500
  2839.5000      7.5515      2.5328      0.0971      7.1001     23.2785   -999.2500
  2839.6000      7.5515      2.5078      0.0622      8.6161     36.0874   -999.2500
  2839.7000      7.5515      2.4881      0.0480      9.8141     46.0363   -999.2500
  2839.8000      7.5494      2.4813      0.0737     10.2246     49.7163   -999.2500
  2839.9000      7.5494      2.4802      0.0564     10.2884     50.4433   -999.2500
  2840.0000      7.5463      2.4788      0.0541     10.3760     50.5206   -999.2500
  2840.1000      7.5463      2.4721      0.0693     10.7794     50.5250   -999.2500
  2840.2000      7.5463      2.4594      0.0728     11.5504   -999.2500   -999.2500
  2840.3000      7.5381      2.4517      0.0375     12.0203   -999.2500   -999.2500
  2840.4000      7.5381      2.4594      0.0427     11.5499   -999.2500   -999.2500
  2840.5000      7.5273      2.4767      0.0610     10.5060   -999.2500   -999.2500
  2840.6000      7.5273      2.4853      0.0788      9.9801   -999.2500   -999.2500
  2840.7000      7.5273      2.4733      0.0373     10.7070   -999.2500   -999.2500
  2840.8000      7.5177      2.4462      0.0092     12.3504   -999.2500   -999.2500
  2840.9000      7.5177      2.4219      0.0398     13.8268   -999.2500   -999.2500
  2841.0000      7.5085      2.4189      0.0168     14.0072   -999.2500   -999.2500
  2841.1000      7.5085      2.4400      0.0442     12.7296   -999.2500   -999.2500
  2841.2000      7.5085      2.4665      0.0592     11.1230   -999.2500   -999.2500
  2841.3000      7.5016      2.4814      0.0523     10.2190   -999.2500   -999.2500
  2841.4000      7.5016      2.4762      0.0757     10.5330   -999.2500   -999.2500
  2841.5000      7.4977      2.4515      0.0576     12.0282   -999.2500   -999.2500
  2841.6000      7.4977      2.4267      0.0380     13.5331   -999.2500   -999.2500
  2841.7000      7.4977      2.4180      0.0768     14.0590   -999.2500   -999.2500
  2841.8000      7.4962      2.4237      0.0098     13.7152   -999.2500   -999.2500
  2841.9000      7.4962      2.4337      0.0532     13.1064   -999.2500   -999.2500
  2842.0000      7.4912      2.4358      0.0429     12.9838   -999.2500   -999.2500
  2842.1000      7.4912      2.4307      0.0235     13.2890   -999.2500   -999.2500
  2842.2000      7.4912      2.4333      0.0233     13.1338   -999.2500   -999.2500
  2842.3000      7.4806      2.4483      0.0527     12.2231   -999.2500   -999.2500
  2842.4000      7.4806      2.4642      0.0524     11.2628   -999.2500   -999.2500
  2842.5000      7.4699      2.4676      0.0796     11.0543   -999.2500   -999.2500
  2842.6000      7.4699      2.4602      0.0655     11.5028   -999.2500   -999.2500
  2842.7000      7.4699      2.4522      0.0783     11.9895   -999.2500   -999.2500
  2842.8000      7.4588      2.4451      0.0576     12.4184   -999.2500   -999.2500
  2842.9000      7.4588      2.4379      0.0574     12.8535   -999.2500   -999.2500
  2843.0000      7.4491      2.4325      0.0579     13.1835   -999.2500   -999.2500
  2843.1000      7.4491      2.4354      0.0347     13.0050   -999.2500   -999.2500
  2843.2000      7.4491      2.4489      0.0601     12.1877   -999.2500   -999.2500
  2843.3000      7.4402      2.4601      0.0624     11.5102   -999.2500   -999.2500
  2843.4000      7.4402      2.4641      0.0486     11.2687   -999.2500   -999.2500
  2843.5000      7.4287      2.4696      0.0779     10.9348   -999.2500   -999.2500
  2843.6000      7.4287      2.4733      0.0778     10.7090   -999.2500   -999.2500
  2843.7000      7.4287      2.4634      0.0951     11.3072   -999.2500   -999.2500
  2843.8000      7.4183      2.4443      0.0403     12.4662   -999.2500   -999.2500
  2843.9000      7.4183      2.4307      0.0829     13.2924   -999.2500   -999.2500
