~Version Information
 VERS.                                  2.0 : CWLS LAS VERSION
 WRAP.                                   NO : WRAPING MODE
 SWARE .                 MController 2.5.0N : SOFTWARE VERSION
~Well Information
 WELL.                         State 16-41V : WELL
 COMP.                Petrogulf Corporation : COMPANY
 FLD.                      Purgatoire River : FIELD
 LOC.                NE/NE Sec 16 T33S R67W : LOCATION
 DATE.                             08/01/05 : DATE(S) LOGGED
 SRVC.       BLANCO Geological Services LLC : SERVICE COMPANY
 STAT.                                   CO : STATE
 CNTY.                           Las Animas : COUNTY
 CTRY.                                  USA : COUNTRY
 API.                       05-071-08344-00 : API NUMBER
 STRT.FT                             582.00 : START DEPTH
 STOP.FT                            2275.00 : STOP DEPTH
 STEP.FT                               1.00 : DEPTH INCREMENT
 NULL.                                -9999 : NULL VALUE
~Curve information
 DEPTH.FT                                   :
 ROP.MIN/FT                                 :
 GAS.UNITS                                  :
~ASCII Log data
# ...
       982.0         0.17        186.8 
       983.0         0.20        158.9 
       984.0         0.20        117.2 
       985.0         0.17         87.1 
       986.0         1.15         71.6 
       987.0         0.30         45.9 
       988.0         0.17         43.7 
       989.0         0.27         49.1 
       990.0         0.23         51.4 
       991.0         0.23         49.7 
       992.0         0.17         44.4 
       993.0         0.23         42.0 
       994.0         0.20         40.4 
       995.0         0.23         40.0 
       996.0         0.17         39.9 
       997.0         0.18         40.2 
       998.0         0.20         40.8 
       999.0         0.20         41.6 
      1000.0         0.30         47.6 
      1001.0         0.30         48.9 
      1002.0         0.20         49.9 
      1003.0         0.23         47.8 
      1004.0         0.27         39.0 
      1005.0         0.17         27.2 
      1006.0         0.20         22.8 
      1007.0         0.17         20.9 
      1008.0         0.13         21.4 
      1009.0         0.13         24.0 
      1010.0         0.20         29.7 
      1011.0         0.23         43.3 
      1012.0         0.25         75.7 
      1013.0         0.17        100.9 
      1014.0         0.13        111.9 
      1015.0         0.13        113.8 
      1016.0         1.33        112.5 
      1017.0         0.20         45.9 
      1018.0         0.20         43.5 
      1019.0         0.20         41.4 
      1020.0         0.27         39.7 
      1021.0         0.17         38.3 
      1022.0         0.22         37.2 
      1023.0         0.17         36.9 
      1024.0         0.17         36.9 
      1025.0         0.17         36.4 
      1026.0         0.17         35.7 
      1027.0         0.13         34.2 
      1028.0         0.27         33.7 
      1029.0         0.13         30.3 
      1030.0         0.17         26.2 
      1031.0         0.13         21.3 
      1032.0         0.27         17.2 
      1033.0         0.13         13.8 
      1034.0         0.13         14.3 
      1035.0         0.23         17.9 
      1036.0         0.10         20.5 
      1037.0         0.17         28.7 
      1038.0         0.13         40.9 
      1039.0         0.13         55.8 
      1040.0         0.20         75.8 
      1041.0         0.22         81.5 
      1042.0         0.23         81.1 
      1043.0         0.10         73.1 
      1044.0         0.23         68.3 
      1045.0         0.20         56.4 
      1046.0         1.07         49.4 
      1047.0         0.47         38.1 
      1048.0         0.33         38.0 
      1049.0         0.28         35.0 
      1050.0         0.23         32.5 
      1051.0         0.20         32.1 
      1052.0         0.17         32.1 
      1053.0         0.17         32.2 
      1054.0         0.13         31.3 
      1055.0         0.17         29.3 
      1056.0         0.17         27.6 
      1057.0         0.13         27.0 
      1058.0         0.20         27.7 
      1059.0         0.13         27.4 
      1060.0         0.17         27.3 
      1061.0         0.20         27.8 
      1062.0         0.23         29.6 
      1063.0         0.20         30.4 
      1064.0         0.17         28.2 
      1065.0         0.20         25.8 
      1066.0         0.25         20.4 
      1067.0         0.13         14.7 
      1068.0         0.33         13.1 
      1069.0         0.30         12.2 
      1070.0         0.33         18.1 
      1071.0         0.20         26.1 
      1072.0         0.17         36.3 
      1073.0         0.10         42.8 
      1074.0         0.17         51.2 
      1075.0         0.20         60.4 
      1076.0         0.90         63.1 
      1077.0         0.20         43.1 
      1078.0         0.18         39.4 
      1079.0         0.37         35.5 
      1080.0         0.37         31.7 
      1081.0         0.20         30.5 
      1082.0         0.20         30.7 
      1083.0         0.37         31.3 
      1084.0         0.33         32.4 
      1085.0         0.23         35.4 
      1086.0         0.27         35.8 
      1087.0         0.27         33.3 
      1088.0         0.23         31.4 
      1089.0         0.20         31.1 
      1090.0         0.18         31.8 
      1091.0         0.13         32.9 
      1092.0         0.13         33.5 
      1093.0         0.17         33.4 
      1094.0         0.13         32.0 
      1095.0         0.33         28.1 
      1096.0         0.10         17.7 
      1097.0         0.17         16.0 
      1098.0         0.17         14.0 
      1099.0         0.27         16.9 
      1100.0         0.23         24.0 
      1101.0         0.20         38.1 
      1102.0         0.30         52.9 
      1103.0         0.13         52.6 
      1104.0         0.33         51.8 
      1105.0         0.23         49.7 
      1106.0         2.65       1040.4 
      1107.0         0.20        703.0 
      1108.0         0.13        633.1 
      1109.0         0.20        627.6 
      1110.0         0.48        585.1 
      1111.0         0.37        440.0 
      1112.0         0.23         62.4 
      1113.0         0.20         45.4 
      1114.0         2.38        151.3 
      1115.0         0.23         76.6 
      1116.0         0.17         87.8 
      1117.0         0.17        103.7 
      1118.0         0.23        115.9 
      1119.0         0.20        118.0 
      1120.0         0.20        117.9 
      1121.0         0.27        114.4 
      1122.0         0.60        106.0 
      1123.0         0.33         93.4 
      1124.0         0.30         79.7 
      1125.0         0.32         83.5 
      1126.0         0.30         91.9 
      1127.0         0.20         83.0 
      1128.0         0.23         59.4 
      1129.0         0.23         38.7 
      1130.0         0.20         30.4 
      1131.0         0.17         33.6 
      1132.0         0.17         41.3 
      1133.0         0.13         50.7 
      1134.0         0.20         70.4 
      1135.0         0.23        104.1 
      1136.0         4.10        316.3 
      1137.0         0.73         50.0 
      1138.0         0.43         40.6 
      1139.0         0.43         36.8 
      1140.0         0.40         29.3 
      1141.0         0.37         25.2 
      1142.0         0.43         22.3 
      1143.0         0.43         20.5 
      1144.0         0.25         20.4 
      1145.0         0.17         20.2 
      1146.0         0.37         20.5 
      1147.0         0.23         21.4 
      1148.0         0.20         21.0 
      1149.0         0.27         20.8 
      1150.0         0.27         20.7 
      1151.0         0.20         23.8 
      1152.0         0.20         26.7 
      1153.0         0.27         27.8 
      1154.0         0.23         30.4 
      1155.0         0.23         29.6 
      1156.0         0.13         23.1 
      1157.0         0.18         18.7 
      1158.0         0.17         15.0 
      1159.0         0.17         14.3 
      1160.0         0.23         18.2 
      1161.0         0.20         23.1 
      1162.0         0.17         27.5 
      1163.0         0.40         33.6 
      1164.0         0.20         34.5 
      1165.0         0.27         33.8 
      1166.0         4.12        151.7 
      1167.0         0.30         27.5 
      1168.0         0.32         25.2 
      1169.0         0.60         25.2 
      1170.0         0.30         16.1 
      1171.0         0.23         10.5 
      1172.0         0.20          8.7 
      1173.0         0.23         12.0 
      1174.0         0.27         18.3 
      1175.0         0.20         22.0 
      1176.0         0.27         24.5 
      1177.0         1.32         24.1 
      1178.0         0.40         18.7 
      1179.0         0.33         18.6 
      1180.0         0.40         17.9 
      1181.0         0.20         16.8 
