~Version Information
VERS.                      2.0: CWLS Log ASCII Standard - VERSION 2.0
WRAP.                       NO: One line per depth step
~Well Information Block
STRT.FT                -8.5000: 
STOP.FT              1597.7500: 
STEP.FT                 0.2500: 
NULL.                -999.2500: 
COMP.          Pioneer Natural Resources: COMPANY
WELL.          Dude Canyon 22-32 Tr: WELL
FLD.           Purgatorie River: FIELD
LOC.           1741' FnL & 2331' FWL--: LOCATION
PROV.                       CO: PROVINCE
CNTY.               Las Animas: COUNTRY
SRVC.          Patterson Wireline: SERVICE COMPANY
DATE.          Fri Jul 15 14:44:37 2005: LOG DATE
UWI.           05 071 08421 00: UNIQUE WELL ID
~Curve Information Block
DEPT.FT            0 000 00 00: Depth
CCL.                          : Casing Collar Locator
TT3.usec                      : CBL 3' Travel Time
AMP3.mV                       : CBL 3' Amplitude
GR.GAPI                       : Gamma Ray
~Parameter Information Block
~A  Depth       CCL         TT3         AMP3         GR     
# ...
   628.0000      0.0000    709.7336      9.0964    143.4230
   628.2500      0.0000    711.9082      9.2187    144.8532
   628.5000      0.0000    711.1765      9.3402    150.1467
   628.7500      0.0000    706.5871      9.4197    156.8458
   629.0000      0.0000    700.1345      9.4374    161.9305
   629.2500      0.0000    695.4106      9.3987    163.0243
   629.5000      0.0000    694.2630      9.3246    159.5501
   629.7500      0.0000    695.2799      9.2411    153.1601
   630.0000      0.0000    695.1545      9.1761    146.5970
   630.2500      0.0000    690.6860      9.1541    141.8938
   630.5000      0.0000    680.0327      9.1856    139.7897
   630.7500      0.0000    663.6239      9.2600    140.2423
   631.0000      0.0000    644.3575      9.3530    142.6388
   631.2500      0.0000    626.1538      9.4395    145.7215
   631.5000      0.0000    611.7811      9.5021    148.2278
   631.7500      0.0000    601.7390      9.5362    149.8296
   632.0000      0.0000    594.3452      9.5486    151.0641
   632.2500      0.0000    586.0085      9.5523    152.3457
   632.5000      0.0000    571.7521      9.5576    153.5523
   632.7500      0.0000    547.4255      9.5664    154.5994
   633.0000      0.0000    513.9777      9.5736    155.9380
   633.2500      0.0000    480.8210      9.5735    158.3055
   633.5000      0.0000    463.3109      9.5653    162.1284
   633.7500      0.0000    473.3474      9.5532    166.9171
   634.0000      0.0000    509.0920      9.5440    171.0254
   634.2500      0.0000    553.6897      9.5450    172.4097
   634.5000      0.0000    587.3124      9.5602    169.9408
   634.7500      0.0000    603.2572      9.5878    164.0398
   635.0000      0.0000    611.6724      9.6201    156.4740
   635.2500      0.0000    626.9786      9.6458    149.6622
   635.5000      0.0000    653.6774      9.6525    145.3901
   635.7500      0.0000    684.9066      9.6311    143.6233
   636.0000      0.0000    711.2683      9.5840    142.7837
   636.2500      0.0000    728.2634      9.5250    141.1520
   636.5000      0.0000    736.9159      9.4656    137.7861
   636.7500      0.0000    740.5232      9.4028    132.4738
   637.0000      0.0000    741.8730      9.3226    125.4917
   637.2500      0.0000    742.4664      9.2146    117.8017
   637.5000      0.0000    742.9308      9.0826    111.2872
   637.7500      0.0000    743.6340      8.9490    107.9753
   638.0000      0.0000    744.8724      8.8467    108.3468
   638.2500      0.0000    746.5975      8.7956    110.5553
   638.5000      0.0000    748.0217      8.7875    111.8987
   638.7500      0.0000    747.8160      8.7997    111.4278
   639.0000      0.0000    745.0628      8.8192    111.0902
   639.2500      0.0000    740.1086      8.8449    114.1772
   639.5000      0.0000    734.5027      8.8716    122.5467
   639.7500      0.0000    730.1700      8.8840    135.1108
   640.0000      0.0000    728.4677      8.8670    148.4143
   640.2500      0.0000    729.5902      8.8195    158.4061
   640.5000      0.0000    732.5671      8.7607    162.4863
   640.7500      0.0000    735.8904      8.7201    160.8051
   641.0000      0.0000    738.4016      8.7094    155.6617
   641.2500      0.0000    739.7745      8.7051    149.5489
   641.5000      0.0000    740.2966      8.6656    143.9269
   641.7500      0.0000    740.3777      8.5693    139.4109
   642.0000      0.0000    740.2779      8.4351    136.2983
   642.2500      0.0000    740.1113      8.3104    134.7377
   642.5000      0.0000    739.9345      8.2404    134.7113
   642.7500      0.0000    739.7933      8.2419    135.8267
   643.0000      0.0000    739.7339      8.2981    137.3446
   643.2500      0.0000    739.7712      8.3751    138.7712
   643.5000      0.0000    739.8519      8.4453    140.1492
   643.7500      0.0000    739.8730      8.4982    141.5576
   644.0000      0.0000    739.7650      8.5331    142.7250
   644.2500      0.0000    739.5558      8.5469    143.3637
   644.5000      0.0000    739.3584      8.5317    143.6814
   644.7500      0.0000    739.3113      8.4860    144.4684
   645.0000      0.0000    739.5163      8.4248    146.5972
   645.2500      0.0000    739.9802      8.3726    150.2439
   645.5000      0.0000    740.5912      8.3450    154.7963
   645.7500      0.0000    741.1729      8.3368    159.8211
   646.0000      0.0000    741.6529      8.3324    165.5896
   646.2500      0.0000    742.3256      8.3288    171.9182
   646.5000      0.0000    744.1076      8.3442    177.0633
   646.7500      0.0000    748.4413      8.4000    178.7093
   647.0000      0.0000    756.4388      8.4932    176.0753
   647.2500      0.0000    767.7051      8.5909    170.6268
   647.5000      0.0000    780.2957      8.6542    164.8207
   647.7500      0.0000    792.2719      8.6645    160.3920
   648.0000      0.0000    802.9496      8.6282    157.6789
   648.2500      0.0000    812.3016      8.5641    156.2991
   648.5000      0.0000    819.8995      8.4932    156.1625
   648.7500      0.0000    825.1356      8.4364    157.5721
   649.0000      0.0000    827.9617      8.4040    160.4243
   649.2500      0.0000    828.7897      8.3824    163.8373
   649.5000      0.0000    827.7930      8.3404    166.9483
   649.7500      0.0000    824.7644      8.2573    169.9363
   650.0000      0.0000    820.0089      8.1436    173.7105
   650.2500      0.0000    815.3315      8.0311    178.3468
   650.5000      0.0000    813.4393      7.9440    182.3054
   650.7500      0.0000    815.6852      7.8840    183.7229
   651.0000      0.0000    820.7227      7.8416    182.3156
   651.2500      0.0000    825.8654      7.8170    179.5946
   651.5000      0.0000    829.3762      7.8251    177.2569
   651.7500      0.0000    831.1568      7.8806    175.7827
   652.0000      0.0000    831.8971      7.9786    174.5535
   652.2500      0.0000    832.2054      8.0903    172.8261
   652.5000      0.0000    832.3838      8.1773    170.3853
   652.7500      0.0000    832.5472      8.2148    167.5457
   653.0000      0.0000    832.7335      8.2048    164.6720
   653.2500      0.0000    832.9526      8.1694    161.5692
   653.5000      0.0000    833.2042      8.1301    157.5057
   653.7500      0.0000    833.4976      8.0975    152.1265
   654.0000      0.0000    833.7819      8.0779    146.1940
   654.2500      0.0000    833.7859      8.0798    141.2308
   654.5000      0.0000    832.8594      8.1069    138.5520
   654.7500      0.0000    830.0670      8.1510    138.6076
   655.0000      0.0000    824.7439      8.1989    140.8142
   655.2500      0.0000    817.1743      8.2413    143.6845
   655.5000      0.0000    808.6619      8.2729    145.3050
   655.7500      0.0000    800.6977      8.2869    144.2715
   656.0000      0.0000    793.7829      8.2784    140.5718
   656.2500      0.0000    786.5987      8.2508    135.6315
   656.5000      0.0000    776.4594      8.2156    131.3657
   656.7500      0.0000    761.8456      8.1859    128.9933
   657.0000      0.0000    745.3646      8.1596    128.5346
   657.2500      0.0000    732.9905      8.1013    129.1524
   657.5000      0.0000    728.5728      7.9444    129.8300
   657.7500      0.0000    729.4078      7.6402    129.9324
   658.0000      0.0000    729.0759      7.2278    129.3469
   658.2500      0.0000    724.7712      6.8347    128.0235
   658.5000      0.0000    720.0660      6.5679    125.4294
   658.7500      0.0000    720.5027      6.4178    120.6957
   659.0000      0.0000    728.1091      6.3024    113.4497
   659.2500      0.0000    739.7049      6.1774    104.4684
   659.5000      0.0000    748.6256      6.0576     95.5383
   659.7500      0.0000    748.6175      5.9650     88.5825
   660.0000     -2.0000    738.0214      5.9023     84.5950
   660.2500      0.0000    720.2327      5.8677     83.1901
   660.5000      0.0000    699.2126      5.8773     83.2828
   660.7500      0.0000    675.9295      5.9794     84.2605
   661.0000      0.0000    650.7618      6.2328     86.3461
   661.2500      0.0000    628.1536      6.6352     89.7654
