~Version Information
VERS.                      2.0: CWLS Log ASCII Standard - VERSION 2.0
WRAP.                       NO: One line per depth step
~Well Information Block
STRT.FT               250.0000: 
STOP.FT              1017.5000: 
STEP.FT                 0.1000: 
NULL.                -999.2500: 
COMP.          Pioneer Natural Resources: COMPANY
WELL.              Oscar 41-31: WELL
FLD.           Purgatoire River: FIELD
LOC.           412' FNL & 1216' FEL: LOCATION
PROV.                 Colorado: PROVINCE
CNTY.               Las Animas: COUNTRY
SRVC.                Patterson: SERVICE COMPANY
DATE.          Thu Feb 24 15:11:09 2005: LOG DATE
UWI.           05 071 08290 00: UNIQUE WELL ID
~Curve Information Block
DEPT.FT            0 000 00 00: Depth
DCAL.in                       : CDL Caliper
RHOB.g/cc                     : CDL Bulk Density
RHOC.g/cc                     : CDL Density Correction
DPOR.pu                       : CDL Density Porosity
GR.GAPI                       : Gamma Ray
NPOR.pu                       : Neutron Porosity
~Parameter Information Block
~A  Depth       DCAL        RHOB        RHOC        DPOR         GR         NPOR    
# ...
   499.6000      7.8576      2.5868     -0.0061      3.8324    162.1559     29.0622
   499.7000      7.8576      2.5721     -0.0483      4.7219    162.5273     29.7055
   499.8000      7.8575      2.5566     -0.0215      5.6634    157.2838     30.1681
   499.9000      7.8575      2.5445     -0.0118      6.3968    149.1429     30.0469
   500.0000      7.8573      2.5389      0.0247      6.7358    144.6637     30.1840
   500.1000      7.8573      2.5458      0.0261      6.3129    144.3065     31.0723
   500.2000      7.8573      2.5721      0.0164      4.7211    141.7591     32.0597
   500.3000      7.8569      2.6160      0.0807      2.0593    132.8043     32.3516
   500.4000      7.8569      2.6637      0.1341     -0.8330    120.1925     32.1394
   500.5000      7.8560      2.7057      0.1151     -3.3762    109.0303     31.8609
   500.6000      7.8560      2.7365      0.1411     -5.2397    100.1415     31.5518
   500.7000      7.8560      2.7504      0.1433     -6.0868     91.3896     31.1085
   500.8000      7.8550      2.7487      0.1171     -5.9827     82.2405     30.4604
   500.9000      7.8550      2.7371      0.1104     -5.2759     73.9540     30.0995
   501.0000      7.8540      2.7257      0.0349     -4.5862     67.0826     30.1622
   501.1000      7.8540      2.7245      0.0617     -4.5129     61.8346     29.5971
   501.2000      7.8540      2.7321      0.0110     -4.9742     59.9258     28.0001
   501.3000      7.8531      2.7401     -0.0088     -5.4588     61.3921     26.0916
   501.4000      7.8531      2.7384      0.0113     -5.3546     64.3480     24.4995
   501.5000      7.8526      2.7172     -0.0223     -4.0749     67.3504     23.6791
   501.6000      7.8526      2.6782     -0.0123     -1.7106     69.8231     23.0572
   501.7000      7.8526      2.6515     -0.1304     -0.0886     72.1920     21.8214
   501.8000      7.8533      2.6616      0.0248     -0.7037     77.8366     20.3798
   501.9000      7.8533      2.6841      0.0782     -2.0676     86.6220     19.7694
   502.0000      7.8568      2.6874      0.0484     -2.2687     92.6624     19.9659
   502.1000      7.8568      2.6694      0.0412     -1.1748     95.3837     19.9232
   502.2000      7.8568      2.6411      0.0292      0.5382     98.8588     19.5605
   502.3000      7.8601      2.6078      0.0521      2.5586    104.1194     19.7228
   502.4000      7.8601      2.5705      0.0124      4.8180    108.3783     20.4287
   502.5000      7.8611      2.5399      0.0214      6.6728    108.2276     20.8358
   502.6000      7.8611      2.5259      0.0057      7.5210    105.0123     20.5054
   502.7000      7.8611      2.5287      0.0382      7.3525    103.4208     19.9366
   502.8000      7.8611      2.5416      0.0251      6.5726    104.1328     19.9331
   502.9000      7.8611      2.5580      0.0168      5.5759    106.3496     20.5858
   503.0000      7.8611      2.5745      0.0567      4.5752    110.5467     21.1123
   503.1000      7.8611      2.5817      0.0766      4.1376    114.5417     21.2141
   503.2000      7.8611      2.5719      0.0784      4.7337    118.1841     21.3843
   503.3000      7.8616      2.5587      0.0265      5.5346    124.4406     21.8993
   503.4000      7.8616      2.5548      0.0946      5.7692    131.1497     22.4539
   503.5000      7.8616      2.5452      0.1103      6.3513    133.5652     23.0730
   503.6000      7.8616      2.5268      0.0454      7.4657    132.9944     23.7994
   503.7000      7.8616      2.5250      0.0529      7.5786    133.4931     23.8125
   503.8000      7.8596      2.5506      0.0710      6.0245    135.2834     23.0131
   503.9000      7.8596      2.5889      0.0982      3.7051    137.9566     22.4775
   504.0000      7.8580      2.6212      0.0977      1.7468    141.1674     22.7200
   504.1000      7.8580      2.6391      0.1505      0.6621    144.5414     23.1108
   504.2000      7.8580      2.6434      0.1426      0.4011    147.5076     23.0854
   504.3000      7.8605      2.6410      0.1013      0.5457    149.2388     22.6281
   504.4000      7.8605      2.6312      0.1469      1.1416    153.6370     22.1021
   504.5000      7.8633      2.6055      0.1139      2.6961    161.3073     22.1267
   504.6000      7.8633      2.5681      0.1128      4.9655    167.6812     22.9822
   504.7000      7.8633      2.5319      0.0558      7.1592    170.8686     24.3190
   504.8000      7.8638      2.5090      0.0055      8.5442    170.8149     25.7713
   504.9000      7.8638      2.5036      0.0343      8.8717    171.4451     27.2843
   505.0000      7.8638      2.5067      0.0435      8.6865    173.0679     28.3516
   505.1000      7.8638      2.5090      0.0271      8.5440    168.6940     28.3548
   505.2000      7.8638      2.5053      0.0731      8.7719    159.7867     27.7279
   505.3000      7.8643      2.4932      0.0267      9.5010    156.1494     27.6391
   505.4000      7.8643      2.4827      0.0070     10.1406    158.5907     28.4876
   505.5000      7.8644      2.4844      0.0187     10.0381    161.9226     29.3047
   505.6000      7.8644      2.5026      0.0036      8.9325    165.7171     29.5149
   505.7000      7.8644      2.5349      0.0468      6.9747    169.5653     29.2752
   505.8000      7.8636      2.5684      0.0591      4.9481    171.2798     29.0622
   505.9000      7.8636      2.5923      0.0604      3.4971    173.1037     29.4291
   506.0000      7.8628      2.6060      0.0790      2.6697    175.4656     29.5699
   506.1000      7.8628      2.6099      0.0926      2.4280    173.2414     28.3609
   506.2000      7.8628      2.6054      0.1373      2.7057    166.2782     26.8849
   506.3000      7.8631      2.6002      0.1121      3.0179    159.6338     26.2713
   506.4000      7.8631      2.6081      0.0763      2.5385    156.3675     26.0689
   506.5000      7.8639      2.6271      0.1381      1.3869    154.0340     26.0183
   506.6000      7.8639      2.6353      0.1349      0.8900    150.3141     26.3128
   506.7000      7.8639      2.6204      0.1285      1.7960    148.7167     26.8187
   506.8000      7.8647      2.5912      0.1234      3.5610    149.1897     27.2206
   506.9000      7.8647      2.5644      0.1086      5.1901    146.8913     27.5417
   507.0000      7.8674      2.5488      0.0893      6.1311    142.0026     28.1206
   507.1000      7.8674      2.5432      0.0620      6.4728    138.0062     28.5262
   507.2000      7.8674      2.5405      0.0523      6.6363    137.8494     27.8567
   507.3000      7.8700      2.5356      0.0484      6.9314    140.3934     26.3581
   507.4000      7.8700      2.5331      0.0450      7.0834    141.1801     25.1959
   507.5000      7.8676      2.5435      0.0235      6.4566    142.7406     24.7804
   507.6000      7.8676      2.5689      0.0397      4.9132    148.6349     24.9636
   507.7000      7.8676      2.5945      0.0977      3.3637    151.0103     25.5357
   507.8000      7.8642      2.6022      0.0791      2.8959    144.6933     25.9126
   507.9000      7.8642      2.5912      0.0408      3.5654    137.7067     25.7486
   508.0000      7.8630      2.5731      0.0318      4.6580    135.3124     25.1728
   508.1000      7.8630      2.5649     -0.0143      5.1562    137.4452     24.3821
   508.2000      7.8630      2.5766      0.0576      4.4457    143.6906     23.6593
   508.3000      7.8629      2.5914      0.0467      3.5542    149.1403     23.3996
   508.4000      7.8629      2.5874      0.0838      3.7950    150.9039     23.4494
   508.5000      7.8632      2.5682      0.0701      4.9593    152.8186     23.3686
   508.6000      7.8632      2.5519      0.0425      5.9449    157.6472     23.2521
   508.7000      7.8632      2.5466      0.0664      6.2689    163.4470     23.5474
   508.8000      7.8633      2.5430      0.0450      6.4864    166.5034     24.0725
   508.9000      7.8633      2.5327      0.0663      7.1081    164.0722     24.2493
   509.0000      7.8633      2.5193      0.0309      7.9218    158.9258     24.1708
   509.1000      7.8633      2.5185      0.0373      7.9679    157.4993     24.1683
