~Version Information
VERS.                      2.0: CWLS Log ASCII Standard - VERSION 2.0
WRAP.                       NO: One line per depth step
~Well Information Block
STRT.FT               850.0000: 
STOP.FT              1609.7000: 
STEP.FT                 0.1000: 
NULL.                -999.2500: 
COMP.          Petrogulf Corporation: COMPANY
WELL.          Great Plains 22-21R: WELL
FLD.           Purgatorie River: FIELD
LOC.           73' FNL & 1992' FWL: LOCATION
PROV.                 Colorado: PROVINCE
CNTY.               Las Animas: COUNTRY
SRVC.                Patterson: SERVICE COMPANY
DATE.          Wed Sep 14 12:10:29 2005: LOG DATE
UWI.                          : UNIQUE WELL ID
~Curve Information Block
DEPT.FT            0 000 00 00: Depth
NPOR.pu                       : Neutron Porosity
GR.GAPI                       : Gamma Ray
CCL.                          : Casing Collar Locator
~Parameter Information Block
~A  Depth       NPOR         GR         CCL     
# ...
  1234.1000     23.3912    129.5392      0.0000
  1234.2000     23.3912    129.5392      0.0000
  1234.3000     23.5195    132.2094      0.0000
  1234.4000     23.5195    132.2094      0.0000
  1234.5000     23.4005    134.2148      0.0000
  1234.6000     23.4005    134.2148      0.0000
  1234.7000     23.4005    134.2148      0.0000
  1234.8000     22.9977    134.6296      0.0000
  1234.9000     22.9977    134.6296      0.0000
  1235.0000     22.4332    132.3860      0.0000
  1235.1000     22.4332    132.3860      0.0000
  1235.2000     22.4332    132.3860      0.0000
  1235.3000     21.9232    127.4033      0.0000
  1235.4000     21.9232    127.4033      0.0000
  1235.5000     21.6459    121.1398      0.0000
  1235.6000     21.6459    121.1398      0.0000
  1235.7000     21.6459    121.1398      0.0000
  1235.8000     21.6596    115.9223      0.0000
  1235.9000     21.6596    115.9223      0.0000
  1236.0000     21.9088    113.6802      0.0000
  1236.1000     21.9088    113.6802      0.0000
  1236.2000     21.9088    113.6802      0.0000
  1236.3000     22.2650    114.9063      0.0000
  1236.4000     22.2650    114.9063      0.0000
  1236.5000     22.5659    118.4997      0.0000
  1236.6000     22.5659    118.4997      0.0000
  1236.7000     22.5659    118.4997      0.0000
  1236.8000     22.6700    122.5076      0.0000
  1236.9000     22.6700    122.5076      0.0000
  1237.0000     22.5296    125.0489      0.0000
  1237.1000     22.5296    125.0489      0.0000
  1237.2000     22.5296    125.0489      0.0000
  1237.3000     22.2254    124.9862      0.0000
  1237.4000     22.2254    124.9862      0.0000
  1237.5000     21.9140    122.3739      0.0000
  1237.6000     21.9140    122.3739      0.0000
  1237.7000     21.9140    122.3739      0.0000
  1237.8000     21.7177    118.4277      0.0000
  1237.9000     21.7177    118.4277      0.0000
  1238.0000     21.6487    114.7926      0.0000
  1238.1000     21.6487    114.7926      0.0000
  1238.2000     21.6487    114.7926      0.0000
  1238.3000     21.6300    112.5947      0.0000
  1238.4000     21.6300    112.5947      0.0000
  1238.5000     21.5800    111.8916      0.0000
  1238.6000     21.5800    111.8916      0.0000
  1238.7000     21.5800    111.8916      0.0000
  1238.8000     21.4822    111.8260      0.0000
  1238.9000     21.4822    111.8260      0.0000
  1239.0000     21.3916    111.5075      0.0000
  1239.1000     21.3916    111.5075      0.0000
  1239.2000     21.3916    111.5075      0.0000
  1239.3000     21.3814    110.9941      0.0000
  1239.4000     21.3814    110.9941      0.0000
  1239.5000     21.4806    111.3187      0.0000
  1239.6000     21.4806    111.3187      0.0000
  1239.7000     21.4806    111.3187      0.0000
  1239.8000     21.6498    113.4141      0.0000
  1239.9000     21.6498    113.4141      0.0000
  1240.0000     21.8097    117.1413      0.0000
  1240.1000     21.8097    117.1413      0.0000
  1240.2000     21.8097    117.1413      0.0000
  1240.3000     21.8967    121.4139      0.0000
  1240.4000     21.8967    121.4139      0.0000
  1240.5000     21.9076    125.0586      0.0000
  1240.6000     21.9076    125.0586      0.0000
  1240.7000     21.9076    125.0586      0.0000
  1240.8000     21.8957    127.4889      0.0000
  1240.9000     21.8957    127.4889      0.0000
  1241.0000     21.9243    128.8340      0.0000
  1241.1000     21.9243    128.8340      0.0000
  1241.2000     21.9243    128.8340      0.0000
  1241.3000     22.0145    129.6779      0.0000
  1241.4000     22.0145    129.6779      0.0000
  1241.5000     22.1267    130.4947      0.0000
  1241.6000     22.1267    130.4947      0.0000
  1241.7000     22.1267    130.4947      0.0000
  1241.8000     22.1848    130.9062      0.0000
  1241.9000     22.1848    130.9062      0.0000
  1242.0000     22.1376    129.4798      0.0000
  1242.1000     22.1376    129.4798      0.0000
  1242.2000     22.1376    129.4798      0.0000
  1242.3000     22.0155    124.7926      0.0000
  1242.4000     22.0155    124.7926      0.0000
  1242.5000     21.9139    117.0217      0.0000
  1242.6000     21.9139    117.0217      0.0000
  1242.7000     21.9139    117.0217      0.0000
  1242.8000     21.9019    108.2375      0.0000
  1242.9000     21.9019    108.2375      0.0000
  1243.0000     21.9610    100.8685      0.0000
  1243.1000     21.9610    100.8685      0.0000
  1243.2000     21.9610    100.8685      0.0000
  1243.3000     22.0313     95.9365      0.0000
  1243.4000     22.0313     95.9365      0.0000
  1243.5000     22.0898     92.8937      0.0000
  1243.6000     22.0898     92.8937      0.0000
  1243.7000     22.0898     92.8937      0.0000
  1243.8000     22.1497     90.9938      0.0000
  1243.9000     22.1497     90.9938      0.0000
  1244.0000     22.2078     90.4248      0.0000
  1244.1000     22.2078     90.4248      0.0000
  1244.2000     22.2078     90.4248      0.0000
  1244.3000     22.2347     91.9050      0.0000
  1244.4000     22.2347     91.9050      0.0000
  1244.5000     22.2093     95.4532      0.0000
  1244.6000     22.2093     95.4532      0.0000
  1244.7000     22.2093     95.4532      0.0000
  1244.8000     22.1343    100.0462      0.0000
  1244.9000     22.1343    100.0462      0.0000
  1245.0000     22.0315    104.5295      0.0000
  1245.1000     22.0315    104.5295      0.0000
  1245.2000     22.0315    104.5295      0.0000
  1245.3000     21.9447    108.4887      0.0000
  1245.4000     21.9447    108.4887      0.0000
  1245.5000     21.9330    112.1363      0.0000
  1245.6000     21.9330    112.1363      0.0000
  1245.7000     21.9330    112.1363      0.0000
  1245.8000     22.0310    115.5943      0.0000
  1245.9000     22.0310    115.5943      0.0000
  1246.0000     22.2133    118.3801      0.0000
  1246.1000     22.2133    118.3801      0.0000
  1246.2000     22.2133    118.3801      0.0000
  1246.3000     22.4095    119.6617      0.0000
  1246.4000     22.4095    119.6617      0.0000
  1246.5000     22.5599    119.1873      0.0000
  1246.6000     22.5599    119.1873      0.0000
  1246.7000     22.5599    119.1873      0.0000
  1246.8000     22.6570    117.8114      0.0000
  1246.9000     22.6570    117.8114      0.0000
  1247.0000     22.7299    116.8100      0.0000
  1247.1000     22.7299    116.8100      0.0000
  1247.2000     22.7299    116.8100      0.0000
  1247.3000     22.7947    116.7028      0.0000
  1247.4000     22.7947    116.7028      0.0000
  1247.5000     22.8368    116.8660      0.0000
  1247.6000     22.8368    116.8660      0.0000
  1247.7000     22.8368    116.8660      0.0000
  1247.8000     22.8394    116.1370      0.0000
  1247.9000     22.8394    116.1370      0.0000
  1248.0000     22.8055    113.7104      0.0000
  1248.1000     22.8055    113.7104      0.0000
  1248.2000     22.8055    113.7104      0.0000
  1248.3000     22.7357    109.7198      0.0000
  1248.4000     22.7357    109.7198      0.0000
  1248.5000     22.6109    105.2429      0.0000
  1248.6000     22.6109    105.2429      0.0000
  1248.7000     22.6109    105.2429      0.0000
  1248.8000     22.4226    101.7315      0.0000
  1248.9000     22.4226    101.7315      0.0000
  1249.0000     22.2050    100.0611      0.0000
  1249.1000     22.2050    100.0611      0.0000
  1249.2000     22.2050    100.0611      0.0000
  1249.3000     22.0067     99.7304      0.0000
  1249.4000     22.0067     99.7304      0.0000
  1249.5000     21.8346     98.9076      0.0000
  1249.6000     21.8346     98.9076      0.0000
  1249.7000     21.8346     98.9076      0.0000
  1249.8000     21.6490     95.5643      0.0000
  1249.9000     21.6490     95.5643      0.0000
  1250.0000     21.4120     88.9608      0.0000
  1250.1000     21.4120     88.9608      0.0000
  1250.2000     21.4120     88.9608      0.0000
  1250.3000     21.1299     80.2875      0.0000
  1250.4000     21.1299     80.2875      0.0000
  1250.5000     20.8468     71.9430      0.0000
  1250.6000     20.8468     71.9430      0.0000
  1250.7000     20.8468     71.9430      0.0000
