~Version Information
VERS.                      2.0: CWLS Log ASCII Standard - VERSION 2.0
WRAP.                       NO: One line per depth step
~Well Information Block
STRT.FT               554.1000: 
STOP.FT              2173.5000: 
STEP.FT                 0.1000: 
NULL.                -999.2500: 
COMP.          Petrogulf Corporation: COMPANY
WELL.            Montoya 6-14R: WELL
FLD.           Purgatorie River: FIELD
LOC.           867' FSL & 751' FWL: LOCATION
CNTY.               Las Animas: COUNTY
SRVC.                         : SERVICE COMPANY
DATE.          Mon Nov 15 06:14:10 2004: LOG DATE
UWI.           05 071 08242 00: UNIQUE WELL ID
STAT.                 Colorado: STATE
~Curve Information Block
DEPT.FT            0 000 00 00: Depth
DCAL.in                       : CDL Caliper
RHOB.g/cc                     : CDL Bulk Density
RHOC.g/cc                     : CDL Density Correction
DPOR.pu                       : CDL Density Porosity
GR.GAPI                       : Gamma Ray
NPOR.pu                       : Neutron Porosity
~Parameter Information Block
~A  Depth       DCAL        RHOB        RHOC        DPOR         GR         NPOR    
# ...
  2157.3000      7.9054      2.5447      0.0304      6.3827   -999.2500     19.0543
  2157.4000      7.9054      2.5390      0.0480      6.7291   -999.2500     19.2941
  2157.5000      7.8827      2.5372      0.0425      6.8339   -999.2500     19.1546
  2157.6000      7.8827      2.5389      0.0459      6.7342   -999.2500     18.6126
  2157.7000      7.8827      2.5411      0.0593      6.5981   -999.2500     17.9745
  2157.8000      7.8505      2.5383      0.0652      6.7697   -999.2500     17.4423
  2157.9000      7.8505      2.5335      0.0607      7.0612   -999.2500     17.1957
  2158.0000      7.8177      2.5355      0.0426      6.9402   -999.2500     17.7911
  2158.1000      7.8177      2.5465      0.1005      6.2713   -999.2500     19.3452
  2158.2000      7.8177      2.5634      0.1129      5.2461   -999.2500     20.9357
  2158.3000      7.8010      2.5864      0.1481      3.8565   -999.2500     21.8686
  2158.4000      7.8010      2.6076      0.1715      2.5720   -999.2500     22.1728
  2158.5000      7.8172      2.6102      0.1653      2.4120   -999.2500     22.0077
  2158.6000      7.8172      2.5907      0.1149      3.5942   -999.2500     21.8957
  2158.7000      7.8172      2.5656      0.0906      5.1131   -999.2500     22.2177
  2158.8000      7.8521      2.5534      0.0793      5.8556   -999.2500     22.7028
  2158.9000      7.8521      2.5488      0.1049      6.1315   -999.2500     22.8938
  2159.0000      7.8641      2.5346      0.0882      6.9917   -999.2500     22.2641
  2159.1000      7.8641      2.5160      0.0523      8.1217   -999.2500     21.3202
  2159.2000      7.8641      2.5094      0.0377      8.5209   -999.2500     21.1487
  2159.3000      7.8404      2.5177      0.0289      8.0191   -999.2500     21.5582
  2159.4000      7.8404      2.5313      0.0387      7.1951   -999.2500     22.1827
  2159.5000      7.8229      2.5351      0.0764      6.9622   -999.2500     22.9725
  2159.6000      7.8229      2.5206      0.0647      7.8454   -999.2500     23.8835
  2159.7000      7.8229      2.4945      0.0144      9.4222   -999.2500     26.5902
  2159.8000      7.8353      2.4712      0.0065     10.8367   -999.2500     33.7798
  2159.9000      7.8353      2.4626     -0.0058     11.3549   -999.2500     43.6347
  2160.0000      7.8430      2.4758      0.0251     10.5597   -999.2500     50.1908
  2160.1000      7.8430      2.5032      0.0755      8.8940   -999.2500     52.4658
  2160.2000      7.8430      2.5265      0.0771      7.4877   -999.2500     52.9050
  2160.3000      7.8354      2.5347      0.0807      6.9849   -999.2500     52.9513
  2160.4000      7.8354      2.5275      0.0876      7.4260   -999.2500     52.9539
  2160.5000      7.8383      2.5132      0.0749      8.2934   -999.2500   -999.2500
  2160.6000      7.8383      2.5075      0.0536      8.6376   -999.2500   -999.2500
  2160.7000      7.8383      2.5149      0.0576      8.1908   -999.2500   -999.2500
  2160.8000      7.8618      2.5269      0.0606      7.4622   -999.2500   -999.2500
  2160.9000      7.8618      2.5357      0.0963      6.9256   -999.2500   -999.2500
  2161.0000      7.8944      2.5393      0.0887      6.7101   -999.2500   -999.2500
  2161.1000      7.8944      2.5384      0.0896      6.7622   -999.2500   -999.2500
  2161.2000      7.8944      2.5279      0.1057      7.3990   -999.2500   -999.2500
  2161.3000      7.9211      2.5049      0.0779      8.7968   -999.2500   -999.2500
  2161.4000      7.9211      2.4876      0.0440      9.8443   -999.2500   -999.2500
  2161.5000      7.9294      2.4923      0.1082      9.5599   -999.2500   -999.2500
  2161.6000      7.9294      2.5058      0.0928      8.7386   -999.2500   -999.2500
  2161.7000      7.9294      2.5096      0.0983      8.5068   -999.2500   -999.2500
  2161.8000      7.9215      2.5009      0.0758      9.0336   -999.2500   -999.2500
  2161.9000      7.9215      2.4894      0.0594      9.7317   -999.2500   -999.2500
  2162.0000      7.9054      2.4866      0.0312      9.9011   -999.2500   -999.2500
  2162.1000      7.9054      2.4926      0.0312      9.5416   -999.2500   -999.2500
  2162.2000      7.9054      2.4923      0.0596      9.5604   -999.2500   -999.2500
  2162.3000      7.8865      2.4836      0.0275     10.0877   -999.2500   -999.2500
  2162.4000      7.8865      2.4849      0.0701     10.0081   -999.2500   -999.2500
  2162.5000      7.8635      2.4996      0.0721      9.1176   -999.2500   -999.2500
  2162.6000      7.8635      2.5116      0.0996      8.3854   -999.2500   -999.2500
  2162.7000      7.8635      2.5136      0.0849      8.2662   -999.2500   -999.2500
  2162.8000      7.8437      2.5105      0.0814      8.4541   -999.2500   -999.2500
  2162.9000      7.8437      2.5047      0.0748      8.8090   -999.2500   -999.2500
  2163.0000      7.8349      2.5024      0.0388      8.9442   -999.2500   -999.2500
  2163.1000      7.8349      2.5128      0.0710      8.3161   -999.2500   -999.2500
  2163.2000      7.8349      2.5305      0.0904      7.2407   -999.2500   -999.2500
  2163.3000      7.8328      2.5460      0.0707      6.3048   -999.2500   -999.2500
  2163.4000      7.8328      2.5527      0.0957      5.8993   -999.2500   -999.2500
  2163.5000      7.8326      2.5472      0.0738      6.2320   -999.2500   -999.2500
  2163.6000      7.8326      2.5374      0.0718      6.8233   -999.2500   -999.2500
  2163.7000      7.8326      2.5318      0.0604      7.1644   -999.2500   -999.2500
  2163.8000      7.8335      2.5238      0.0849      7.6498   -999.2500   -999.2500
  2163.9000      7.8335      2.5031      0.0448      8.9057   -999.2500   -999.2500
  2164.0000      7.8341      2.4767      0.0371     10.5030   -999.2500   -999.2500
  2164.1000      7.8341      2.4577      0.0314     11.6563   -999.2500   -999.2500
  2164.2000      7.8341      2.4514      0.0326     12.0336   -999.2500   -999.2500
  2164.3000      7.8325      2.4638      0.0544     11.2857   -999.2500   -999.2500
  2164.4000      7.8325      2.4887      0.0924      9.7739   -999.2500   -999.2500
  2164.5000      7.8308      2.5037      0.0945      8.8639   -999.2500   -999.2500
  2164.6000      7.8308      2.4982      0.0881      9.2027   -999.2500   -999.2500
  2164.7000      7.8308      2.4855      0.0573      9.9705   -999.2500   -999.2500
  2164.8000      7.8299      2.4835      0.0463     10.0938   -999.2500   -999.2500
  2164.9000      7.8299      2.4936      0.0587      9.4768   -999.2500   -999.2500
  2165.0000      7.8283      2.5083      0.0514      8.5876   -999.2500   -999.2500
  2165.1000      7.8283      2.5234      0.0806      7.6732   -999.2500   -999.2500
  2165.2000      7.8283      2.5370      0.0856      6.8514   -999.2500   -999.2500
  2165.3000      7.8254      2.5512      0.0411      5.9884   -999.2500   -999.2500
  2165.4000      7.8254      2.5651      0.0913      5.1444   -999.2500   -999.2500
  2165.5000      7.8216      2.5680      0.0889      4.9698   -999.2500   -999.2500
  2165.6000      7.8216      2.5598      0.0245      5.4670   -999.2500   -999.2500
  2165.7000      7.8216      2.5532      0.0581      5.8687   -999.2500   -999.2500
  2165.8000      7.8182      2.5532      0.0662      5.8674   -999.2500   -999.2500
  2165.9000      7.8182      2.5569      0.0603      5.6429   -999.2500   -999.2500
  2166.0000      7.8173      2.5570      0.0471      5.6363   -999.2500   -999.2500
  2166.1000      7.8173      2.5475      0.0631      6.2105   -999.2500   -999.2500
  2166.2000      7.8173      2.5359      0.0197      6.9174   -999.2500   -999.2500
  2166.3000      7.8171      2.5358      0.0553      6.9219   -999.2500   -999.2500
  2166.4000      7.8171      2.5446      0.0592      6.3863   -999.2500   -999.2500
  2166.5000      7.8106      2.5522      0.0805      5.9271   -999.2500   -999.2500
  2166.6000      7.8106      2.5592      0.0495      5.5042   -999.2500   -999.2500
  2166.7000      7.8106      2.5639      0.0987      5.2155   -999.2500   -999.2500
  2166.8000      7.7990      2.5513      0.1014      5.9821   -999.2500   -999.2500
