~Version Information
VERS.                      2.0: CWLS Log ASCII Standard - VERSION 2.0
WRAP.                       NO: One line per depth step
~Well Information Block
STRT.FT               650.0000: 
STOP.FT              2085.0000: 
STEP.FT                 0.1000: 
NULL.                -999.2500: 
COMP.          Pioneer Natural Resources: COMPANY
WELL.           Galloway 32-13: WELL
FLD.           Purgatoire River: FIELD
LOC.           1809' FNL & 2004' FEL: LOCATION
PROV.                 Colorado: PROVINCE
CNTY.               Las Animas: COUNTRY
SRVC.                Patterson: SERVICE COMPANY
DATE.          Sat Jul 09 02:17:51 2005: LOG DATE
UWI.           05 071 08423 00: UNIQUE WELL ID
~Curve Information Block
DEPT.FT            0 000 00 00: Depth
DCAL.in                       : CDL Caliper
RHOB.g/cc                     : CDL Bulk Density
RHOC.g/cc                     : CDL Density Correction
DPOR.pu                       : CDL Density Porosity
GR.GAPI                       : Gamma Ray
NPOR.pu                       : Neutron Porosity
~Parameter Information Block
~A  Depth       DCAL        RHOB        RHOC        DPOR         GR         NPOR    
# ...
  1312.4000      7.9492      2.6618      0.0803     -0.7171     74.3285     21.0695
  1312.5000      7.9415      2.6292     -0.0200      1.2608     77.5285     20.5145
  1312.6000      7.9415      2.5964     -0.0062      3.2513     83.1984     20.1917
  1312.7000      7.9415      2.5691     -0.0268      4.9052     88.0285     21.2663
  1312.8000      7.9479      2.5497     -0.0226      6.0806     94.5537     22.8652
  1312.9000      7.9479      2.5400      0.0093      6.6645    104.8421     24.0906
  1313.0000      7.9542      2.5414      0.0165      6.5819    115.3194     25.4704
  1313.1000      7.9542      2.5459      0.0830      6.3111    120.5419     26.4653
  1313.2000      7.9542      2.5357      0.0697      6.9245    118.2086     25.9203
  1313.3000      7.9485      2.5106      0.0795      8.4478    114.8016     24.5912
  1313.4000      7.9485      2.4915      0.0554      9.6062    117.3872     24.4909
  1313.5000      7.9342      2.4795      0.1321     10.3331    123.5606     26.0637
  1313.6000      7.9342      2.4575      0.0744     11.6640    130.1154     27.9016
  1313.7000      7.9342      2.4273      0.0757     13.4989    135.9514     28.8943
  1313.8000      7.9316      2.3942      0.1114     15.5023    141.1312     28.9897
  1313.9000      7.9316      2.3618      0.0050     17.4679    145.4995     28.6912
  1314.0000      7.9592      2.3343      0.0249     19.1338    147.4837     28.6672
  1314.1000      7.9592      2.3027      0.0356     21.0503    145.8016     28.9869
  1314.2000      7.9592      2.2706      0.0055     22.9951    140.8446     29.3924
  1314.3000      8.0009      2.2601      0.0596     23.6282    136.5973     29.7073
  1314.4000      8.0009      2.2732      0.0497     22.8360    135.8617     29.6874
  1314.5000      8.0460      2.2896      0.0577     21.8448    139.6950     29.4908
  1314.6000      8.0460      2.2955      0.0239     21.4824    146.4999     29.5074
  1314.7000      8.0460      2.2947      0.0343     21.5356    151.2787     29.7934
  1314.8000      8.0893      2.2929      0.0795     21.6444    151.4525     30.2130
  1314.9000      8.0893      2.2915      0.0581     21.7279    147.1747     30.4740
  1315.0000      8.1131      2.2971      0.0552     21.3893    143.2549     30.6273
  1315.1000      8.1131      2.3158      0.0525     20.2560    141.8093     30.6222
  1315.2000      8.1131      2.3331      0.0773     19.2055    136.2882     30.2175
  1315.3000      8.1089      2.3156      0.0770     20.2666    125.6480     30.1166
  1315.4000      8.1089      2.2472      0.0076     24.4114    116.4318     30.4961
  1315.5000      8.0741      2.1474     -0.0266     30.4634    113.2841     30.6492
  1315.6000      8.0741      2.0391     -0.0358     37.0246    113.0964     30.5478
  1315.7000      8.0741      1.9289     -0.0454     43.7055    111.4945     30.7069
  1315.8000      8.0232      1.8327     -0.1188     49.5359    112.4022     31.1251
  1315.9000      8.0232      1.7807     -0.0926     52.6860    117.8554     31.8056
  1316.0000      7.9905      1.7836     -0.0376     52.5087    120.3052     32.6703
  1316.1000      7.9905      1.8311     -0.0007     49.6290    118.1421     33.1918
  1316.2000      7.9905      1.9120      0.1117     44.7284    120.6068     33.5862
  1316.3000      7.9943      2.0132      0.1885     38.5914    127.9824     34.0175
  1316.4000      7.9943      2.1194      0.2371     32.1570    130.0700     33.8718
  1316.5000      8.0284      2.2235      0.2564     25.8473    125.6697     32.8965
  1316.6000      8.0284      2.3255      0.2554     19.6640    124.1728     31.5797
  1316.7000      8.0284      2.4149      0.2385     14.2488    127.9004     30.7832
  1316.8000      8.0603      2.4765      0.1423     10.5164    128.5592     30.6184
  1316.9000      8.0603      2.5107      0.0774      8.4441    124.0475     30.3547
  1317.0000      8.0541      2.5205      0.1224      7.8506    121.6714     29.9922
  1317.1000      8.0541      2.5092      0.0693      8.5349    123.1903     30.0768
  1317.2000      8.0541      2.5006      0.0175      9.0552    123.9965     30.0258
  1317.3000      8.0219      2.5144      0.0647      8.2197    122.7664     28.7527
  1317.4000      8.0219      2.5422      0.0298      6.5358    121.4785     26.3587
  1317.5000      7.9937      2.5642      0.0600      5.2014    121.3719     23.9324
  1317.6000      7.9937      2.5569      0.1003      5.6430    119.4079     22.8391
  1317.7000      7.9937      2.5168      0.0469      8.0731    113.1752     22.9775
  1317.8000      7.9820      2.4782      0.0067     10.4128    108.5291     22.8386
  1317.9000      7.9820      2.4624      0.0657     11.3681    109.6056     21.9477
  1318.0000      7.9754      2.4559      0.0301     11.7607    109.9560     21.5332
  1318.1000      7.9754      2.4515      0.0099     12.0324    107.4130     22.7241
  1318.2000      7.9754      2.4554      0.0175     11.7911    108.0599     24.4086
  1318.3000      7.9651      2.4690      0.0540     10.9694    110.7806     24.4904
  1318.4000      7.9651      2.4894      0.0590      9.7333    112.0733     23.5834
  1318.5000      7.9564      2.5144      0.0690      8.2192    115.9230     23.6671
  1318.6000      7.9564      2.5338      0.1117      7.0436    121.0958     24.4814
  1318.7000      7.9564      2.5388      0.0635      6.7409    119.5213     24.6268
  1318.8000      7.9522      2.5325      0.0950      7.1242    112.9722     24.5042
  1318.9000      7.9522      2.5213      0.0832      7.8015    109.8218     24.6959
  1319.0000      7.9538      2.5150      0.0810      8.1834    111.3351     24.4520
  1319.1000      7.9538      2.5216      0.0677      7.7788    115.5454     23.5299
  1319.2000      7.9538      2.5391      0.0495      6.7183    122.1879     22.8389
  1319.3000      7.9580      2.5541      0.0834      5.8121    127.0663     22.8029
  1319.4000      7.9580      2.5497      0.0825      6.0800    126.6738     22.8404
  1319.5000      7.9575      2.5239      0.0657      7.6427    124.2194     22.5351
  1319.6000      7.9575      2.4907      0.0142      9.6551    122.2975     22.2912
  1319.7000      7.9575      2.4640      0.0131     11.2726    119.3511     22.3865
  1319.8000      7.9546      2.4442      0.0572     12.4724    119.6543     22.8817
  1319.9000      7.9546      2.4316     -0.0114     13.2365    127.0832     23.5320
  1320.0000      7.9522      2.4405      0.0135     12.6986    132.3197     23.7246
  1320.1000      7.9522      2.4724      0.0385     10.7655    131.0661     23.8979
  1320.2000      7.9522      2.5093      0.0920      8.5250    130.4563     24.4191
  1320.3000      7.9399      2.5427      0.1285      6.5031    131.8764     24.3681
  1320.4000      7.9399      2.5734      0.1565      4.6437    131.6115     23.4544
  1320.5000      7.9202      2.5989      0.1607      3.0986    126.8565     22.6381
  1320.6000      7.9202      2.6125      0.1929      2.2727    120.4595     22.7952
  1320.7000      7.9202      2.6048      0.1655      2.7372    116.4209     23.9280
  1320.8000      7.9149      2.5800      0.0843      4.2436    112.6820     25.2032
  1320.9000      7.9149      2.5600      0.0965      5.4570    107.5522     25.6087
  1321.0000      7.9287      2.5575      0.0811      5.6039    104.8032     24.9079
  1321.1000      7.9287      2.5687      0.0714      4.9274    108.8140     23.7679
  1321.2000      7.9287      2.5827      0.0427      4.0781    115.0157     23.1452
  1321.3000      7.9468      2.5825      0.0832      4.0885    117.5532     23.5812
  1321.4000      7.9468      2.5591      0.0205      5.5090    120.1115     24.5668
  1321.5000      7.9567      2.5239      0.0373      7.6433    127.4674     25.3240
  1321.6000      7.9567      2.4875     -0.0213      9.8503    136.1235     25.8543
  1321.7000      7.9567      2.4578     -0.0262     11.6463    142.8907     26.0474
  1321.8000      7.9613      2.4495     -0.0224     12.1539    149.6436     25.5759
  1321.9000      7.9613      2.4626      0.0174     11.3567    153.0505     24.7923
