~Version Information
VERS.                      2.0: CWLS Log ASCII Standard - VERSION 2.0
WRAP.                       NO: One line per depth step
~Well Information Block
STRT.FT               650.0000: 
STOP.FT              2087.0000: 
STEP.FT                 0.2500: 
NULL.                -999.2500: 
COMP.          Pioneer Natural Resources: COMPANY
WELL.           Galloway 32-13: WELL
FLD.           Purgatoire River: FIELD
LOC.           1809' FNL & 2004' FEL: LOCATION
PROV.                 Colorado: PROVINCE
CNTY.               Las Animas: COUNTRY
SRVC.                Patterson: SERVICE COMPANY
DATE.          Fri Jul 08 15:50:04 2005: LOG DATE
UWI.           05 071 08423 00: UNIQUE WELL ID
~Curve Information Block
DEPT.FT            0 000 00 00: Depth
SN.Ohm-m                      : IEL Short Normal
SP.mV                         : IEL Spontaneous Potential
DIR.Ohm-m                     : IEL Induction Resistivity
GR.GAPI                       : Gamma Ray
~Parameter Information Block
~A  Depth        SN          SP         DIR          GR     
# ...
  1487.5000      9.2428   -104.1064      7.9663    162.7303
  1487.7500      9.1350   -104.7956      8.0480    162.7974
  1488.0000      9.0528   -105.4835      8.1154    160.8546
  1488.2500      9.1111   -106.1065      8.1726    158.5572
  1488.5000      9.2159   -106.5639      8.2226    153.7755
  1488.7500      9.2518   -106.7271      8.2643    149.6128
  1489.0000      9.2806   -106.5051      8.2940    141.7353
  1489.2500      9.3932   -105.9447      8.3099    135.3419
  1489.5000      9.5779   -105.2647      8.3143    124.3706
  1489.7500      9.7634   -104.7479      8.3118    116.8500
  1490.0000      9.8831   -104.5713      8.3080    107.3795
  1490.2500      9.9483   -104.7351      8.3072    103.6317
  1490.5000     10.0429   -105.1280      8.3095    103.3716
  1490.7500     10.1924   -105.6289      8.3091    106.7414
  1491.0000     10.3096   -106.1573      8.2966    115.2690
  1491.2500     10.3120   -106.6725      8.2655    121.6204
  1491.5000     10.2178   -107.1618      8.2154    130.0710
  1491.7500     10.0945   -107.6339      8.1498    134.7086
  1492.0000     10.0218   -108.1124      8.0712    140.3094
  1492.2500     10.0133   -108.6239      7.9792    142.8604
  1492.5000      9.8835   -109.1793      7.8734    144.2912
  1492.7500      9.4639   -109.7609      7.7557    143.9785
  1493.0000      8.8628   -110.3307      7.6311    143.3664
  1493.2500      8.2767   -110.8576      7.5068    143.7977
  1493.5000      7.8146   -111.3377      7.3899    146.1634
  1493.7500      7.5604   -111.7905      7.2860    148.7113
  1494.0000      7.5750   -112.2401      7.1984    153.9037
  1494.2500      7.8229   -112.7029      7.1299    158.5385
  1494.5000      8.1620   -113.1845      7.0841    167.4194
  1494.7500      8.4235   -113.6813      7.0652    173.9954
  1495.0000      8.5362   -114.1834      7.0767    182.5716
  1495.2500      8.5515   -114.6791      7.1185    186.1283
  1495.5000      8.5345   -115.1626      7.1863    187.3524
  1495.7500      8.4900   -115.6389      7.2738    185.9012
  1496.0000      8.4080   -116.1225      7.3755    182.0863
  1496.2500      8.3448   -116.6262      7.4899    179.3626
  1496.5000      8.3880   -117.1483      7.6189    175.3789
  1496.7500      8.5705   -117.6706      7.7656    172.3868
  1497.0000      8.8894   -118.1708      7.9322    166.8602
  1497.2500      9.3138   -118.6376      8.1194    162.8885
  1497.5000      9.7450   -119.0755      8.3276    158.0971
  1497.7500     10.0771   -119.4985      8.5552    156.2387
  1498.0000     10.2938   -119.9242      8.7956    154.6312
  1498.2500     10.4723   -120.3713      9.0351    153.2314
  1498.5000     10.6885   -120.8593      9.2540    149.5220
  1498.7500     10.9401   -121.4077      9.4315    146.2195
  1499.0000     11.1626   -122.0355      9.5510    140.9868
  1499.2500     11.2604   -122.7566      9.6031    137.5198
  1499.5000     11.1538   -123.5701      9.5878    132.1806
  1499.7500     10.8698   -124.4560      9.5154    128.6342
  1500.0000     10.5390   -125.3842      9.4052    124.1366
  1500.2500     10.2597   -126.3332      9.2777    122.1208
  1500.5000     10.0156   -127.2983      9.1455    120.4969
  1500.7500      9.7606   -128.2861      9.0089    119.8796
  1501.0000      9.5230   -129.3043      8.8594    118.8647
  1501.2500      9.3567   -130.3554      8.6898    117.9264
  1501.5000      9.2374   -131.4349      8.5011    116.1147
  1501.7500      9.0761   -132.5287      8.3039    114.7602
  1502.0000      8.8324   -133.6183      8.1134    112.9651
  1502.2500      8.5561   -134.6935      7.9423    112.2376
  1502.5000      8.3207   -135.7662      7.7974    112.1137
  1502.7500      8.1998   -136.8734      7.6784    112.6842
  1503.0000      8.2514   -138.0632      7.5806    114.5951
  1503.2500      8.4172   -139.3715      7.4989    116.7345
  1503.5000      8.5520   -140.8042      7.4300    121.4674
  1503.7500      8.5856   -142.3374      7.3726    125.4695
  1504.0000      8.5387   -143.9316      7.3265    131.7227
  1504.2500      8.4612   -145.5411      7.2893    135.2676
  1504.5000      8.4146   -147.0973      7.2567    138.8754
  1504.7500      8.4154   -148.4676      7.2232    140.3380
  1505.0000      8.3870   -149.4091      7.1850    142.2428
  1505.2500      8.2363   -149.5575      7.1419    143.9449
  1505.5000      7.9984   -148.4944      7.0980    147.6080
  1505.7500      7.8305   -145.9172      7.0591    150.7421
  1506.0000      7.8229   -141.8677      7.0296    155.9168
  1506.2500      7.9103   -136.8736      7.0102    158.9467
  1506.5000      7.9821   -131.8327      6.9974    161.3570
  1506.7500      7.9698   -127.6289      6.9856    161.3145
  1507.0000      7.8269   -124.7274      6.9688    160.3262
  1507.2500      7.5567   -123.0550      6.9424    160.3197
  1507.5000      7.2744   -122.2257      6.9046    161.8259
  1507.7500      7.1231   -121.8809      6.8571    162.9234
  1508.0000      7.0914   -121.8702      6.8040    162.8356
  1508.2500      7.0337   -122.1970      6.7517    161.4257
  1508.5000      6.9039   -122.8696      6.7058    158.4995
  1508.7500      6.8041   -123.8284      6.6698    156.7741
  1509.0000      6.8096   -124.9786      6.6436    154.9991
  1509.2500      6.9079   -126.2483      6.6248    154.3976
  1509.5000      7.0956   -127.6033      6.6112    154.6743
  1509.7500      7.4130   -129.0283      6.6015    155.8409
  1510.0000      7.8449   -130.5082      6.5951    158.6935
  1510.2500      8.2504   -132.0284      6.5917    160.5701
  1510.5000      8.4456   -133.5780      6.5910    161.8775
  1510.7500      8.4173   -135.1430      6.5941    161.4303
  1511.0000      8.3445   -136.6918      6.6038    159.5254
  1511.2500      8.3021   -138.1794      6.6242    158.1948
  1511.5000      8.1711   -139.5734      6.6589    157.0458
  1511.7500      7.8999   -140.8858      6.7085    157.0475
  1512.0000      7.6105   -142.1873      6.7706    158.1389
  1512.2500      7.4571   -143.5963      6.8412    159.3316
  1512.5000      7.5072   -145.2307      6.9179    160.9714
  1512.7500      7.6873   -147.1396      7.0009    161.4732
  1513.0000      7.8230   -149.2719      7.0932    161.2192
  1513.2500      7.8375   -151.5285      7.1983    160.8922
  1513.5000      7.8686   -153.8513      7.3198    161.5541
  1513.7500      8.0532   -156.2538      7.4600    163.3291
  1514.0000      8.3415   -158.7705      7.6200    167.6580
  1514.2500      8.6338   -161.3966      7.7979    170.6811
  1514.5000      8.8976   -164.0779      7.9893    173.4512
  1514.7500      9.1423   -166.7181      8.1881    173.5338
  1515.0000      9.4122   -169.1407      8.3889    171.4325
  1515.2500      9.7353   -171.0079      8.5891    169.2389
  1515.5000     10.0548   -171.7838      8.7897    165.6304
  1515.7500     10.3045   -170.8331      8.9956    163.0684
  1516.0000     10.5155   -167.6181      9.2138    158.7497
  1516.2500     10.7714   -161.8517      9.4536    155.6997
  1516.5000     11.1354   -153.5435      9.7261    151.9465
  1516.7500     11.6467   -143.0461     10.0461    150.7160
  1517.0000     12.2871   -131.1636     10.4311    151.1787
  1517.2500     12.9798   -119.1606     10.8975    152.6182
  1517.5000     13.6292   -108.4700     11.4534    154.8928
  1517.7500     14.1479   -100.1759     12.0899    155.1818
  1518.0000     14.5534    -94.6159     12.7805    151.5299
  1518.2500     15.0027    -91.3846     13.4902    145.6844
  1518.5000     15.6333    -89.7023     14.1937    132.4687
  1518.7500     16.4934    -88.8541     14.8922    121.9690
  1519.0000     17.6816    -88.4191     15.6169    106.3192
  1519.2500     19.3438    -88.2301     16.4180     97.2095
  1519.5000     21.4641    -88.2203     17.3470     86.7677
  1519.7500     23.8547    -88.3265     18.4446     82.1877
  1520.0000     26.3313    -88.4927     19.7357     78.5581
  1520.2500     28.7317    -88.6960     21.2281     77.6766
  1520.5000     30.8357    -88.9348     22.9021     77.1461
  1520.7500     32.4370    -89.1926     24.6947     76.5327
