~Version Information
VERS.                      2.0: CWLS Log ASCII Standard - VERSION 2.0
WRAP.                       NO: One line per depth step
~Well Information Block
STRT.FT               577.0000: 
STOP.FT              2643.2000: 
STEP.FT                 0.1000: 
NULL.                -999.2500: 
COMP.          Petrogulf Corporation: COMPANY
WELL.           Montoya 12-41V: WELL
FLD.           Purgatorie River: FIELD
LOC.           1081' FNL & 605' FEL: LOCATION
CNTY.               Las Animas: COUNTY
SRVC.                         : SERVICE COMPANY
DATE.          Tue Aug 10 14:17:12 2004: LOG DATE
UWI.           05 071 08094 00: UNIQUE WELL ID
STAT.                 Colorado: STATE
~Curve Information Block
DEPT.FT            0 000 00 00: Depth
DCAL.in                       : CDL Caliper
RHOB.g/cc                     : CDL Bulk Density
RHOC.g/cc                     : CDL Density Correction
DPOR.pu                       : CDL Density Porosity
GR.GAPI                       : Gamma Ray
NPOR.pu                       : Neutron Porosity
~Parameter Information Block
~A  Depth       DCAL        RHOB        RHOC        DPOR         GR         NPOR    
# ...
  2497.0000     10.1997      1.9647      0.1377     41.5342     67.5877     31.2383
  2497.1000     10.1997      2.0913      0.1688     33.8591     71.7667     30.6363
  2497.2000     10.1997      2.2317      0.1821     25.3545     84.1122     29.9037
  2497.3000      9.8887      2.3338      0.1465     19.1660     98.4969     29.4334
  2497.4000      9.8887      2.3764      0.0796     16.5817    107.4094     28.7544
  2497.5000      8.9533      2.3889      0.0489     15.8262    109.4276     27.6002
  2497.6000      8.9533      2.3953      0.1140     15.4384    107.3049     26.6750
  2497.7000      8.9533      2.3901      0.0875     15.7535    103.6889     26.2638
  2497.8000      8.0563      2.3728      0.0382     16.7993    100.6489     26.2003
  2497.9000      8.0563      2.3588      0.0420     17.6468     97.4444     26.3027
  2498.0000      7.9890      2.3599      0.0618     17.5840     95.1325     26.4341
  2498.1000      7.9890      2.3811      0.0328     16.2981     96.2282     26.7612
  2498.2000      7.9890      2.4230      0.0813     13.7565     98.5916     27.0036
  2498.3000      7.9019      2.4681      0.1433     11.0223    100.7319     26.6408
  2498.4000      7.9019      2.4964      0.1219      9.3077    103.3557     25.7737
  2498.5000      7.7388      2.5111      0.0932      8.4172    103.1866     25.0106
  2498.6000      7.7388      2.5174      0.1829      8.0390     99.3283     24.3251
  2498.7000      7.7388      2.5017      0.1876      8.9857     94.4167     23.2814
  2498.8000      7.6875      2.4641      0.1265     11.2683     88.2507     22.1093
  2498.9000      7.6875      2.4279      0.1009     13.4609     81.6103     21.6055
  2499.0000      7.6445      2.4092      0.0656     14.5963     78.6031     22.1214
  2499.1000      7.6445      2.4114      0.0360     14.4580     80.9330     23.1388
  2499.2000      7.6445      2.4281      0.0466     13.4487     83.5835     23.9837
  2499.3000      7.6349      2.4431      0.0731     12.5369     83.1853     24.3130
  2499.4000      7.6349      2.4522      0.0592     11.9860     83.3899     23.9166
  2499.5000      7.6003      2.4688      0.0787     10.9833     86.5052     22.9268
  2499.6000      7.6003      2.4980      0.1242      9.2094     90.8544     22.2072
  2499.7000      7.6003      2.5235      0.1979      7.6657     94.6740     22.3759
  2499.8000      7.6274      2.5246      0.1936      7.5990     96.2419     23.0250
  2499.9000      7.6274      2.5009      0.1594      9.0360     94.5177     23.5344
  2500.0000      7.6867      2.4705      0.1109     10.8775     93.1224     23.9239
  2500.1000      7.6867      2.4516      0.0996     12.0254     95.8740     24.4817
  2500.2000      7.6867      2.4508      0.0816     12.0742     99.0945     24.9690
  2500.3000      7.7198      2.4643      0.0821     11.2520     97.0986     25.3259
  2500.4000      7.7198      2.4808      0.0965     10.2559     91.3519     25.7058
  2500.5000      7.7855      2.4924      0.0881      9.5503     85.0778     25.6923
  2500.6000      7.7855      2.5014      0.0866      9.0083     80.4436     25.1713
  2500.7000      7.7855      2.5078      0.0812      8.6193     79.7514     24.5827
  2500.8000      7.8858      2.5097      0.1375      8.5053     81.7658     24.5184
  2500.9000      7.8858      2.5120      0.0963      8.3654     85.6423     25.3309
  2501.0000      7.9050      2.5134      0.1127      8.2792     91.9703     26.3925
  2501.1000      7.9050      2.4942      0.1078      9.4442     96.8638     26.8893
  2501.2000      7.9050      2.4423      0.0592     12.5890     95.1497     27.1540
  2501.3000      7.9011      2.3555      0.0930     17.8492     87.5988     27.5850
  2501.4000      7.9011      2.2327     -0.0366     25.2904     79.7209     27.7563
  2501.5000      7.9184      2.0985     -0.1101     33.4252     75.0247     27.1691
  2501.6000      7.9184      1.9836     -0.1221     40.3857     72.2353     26.1766
  2501.7000      7.9184      1.8872     -0.1011     46.2295     69.2906     25.9815
  2501.8000      7.9018      1.7946     -0.1487     51.8395     65.0932     27.2418
  2501.9000      7.9018      1.7091     -0.1565     57.0235     59.3937     29.2833
  2502.0000      7.8989      1.6438     -0.0979     60.9798     54.9115     30.8985
  2502.1000      7.8989      1.6099     -0.0450     63.0367     54.8682     31.3695
  2502.2000      7.8989      1.6170     -0.0056     62.6072     58.2256     30.8689
  2502.3000      7.9061      1.6544      0.0971     60.3372     64.1596     30.1528
  2502.4000      7.9061      1.6920      0.1365     58.0634     71.1736     30.0969
  2502.5000      8.0093      1.7179      0.1325     56.4887     77.0311     31.1086
  2502.6000      8.0093      1.7519      0.1216     54.4275     81.7518     32.2487
  2502.7000      8.0093      1.8220      0.0929     50.1816     86.4427     32.5989
  2502.8000      8.3734      1.9310      0.0945     43.5782     93.7352     32.4448
  2502.9000      8.3734      2.0486      0.0560     36.4477    103.4783     32.1436
  2503.0000      8.3867      2.1441      0.0727     30.6613    110.4463     31.3365
  2503.1000      8.3867      2.2108      0.1056     26.6175    109.8122     29.5742
  2503.2000      8.3867      2.2703      0.1191     23.0106    105.3395     27.5687
  2503.3000      7.9050      2.3504      0.1943     18.1548    104.4026     26.1462
  2503.4000      7.9050      2.4401      0.3288     12.7220    107.2863     25.0413
  2503.5000      7.9143      2.4981      0.2991      9.2053    110.1066     24.1280
  2503.6000      7.9143      2.5223      0.1536      7.7400    109.8078     23.7005
  2503.7000      7.9143      2.5477      0.1284      6.1992    106.9956     23.6150
  2503.8000      8.0853      2.5782      0.1745      4.3523    101.3295     23.2922
  2503.9000      8.0853      2.5855      0.1285      3.9064     89.1619     22.3770
  2504.0000      8.1152      2.5614      0.0340      5.3689     76.0647     21.0842
  2504.1000      8.1152      2.5269     -0.0046      7.4593     69.6066     19.7470
  2504.2000      8.1152      2.5035     -0.0080      8.8769     68.3096     18.5955
  2504.3000      7.8747      2.5006     -0.0230      9.0535     68.8925     17.8831
  2504.4000      7.8747      2.5229     -0.0157      7.7014     69.9064     17.5968
  2504.5000      7.8444      2.5626      0.0333      5.2986     71.9671     17.4151
  2504.6000      7.8444      2.5942      0.0685      3.3844     76.3254     17.0474
  2504.7000      7.8444      2.6016      0.0489      2.9319     79.5346     16.6314
  2504.8000      7.8441      2.5922      0.0297      3.5025     78.5242     16.7737
  2504.9000      7.8441      2.5722      0.0292      4.7141     77.1487     17.6767
  2505.0000      7.8308      2.5388      0.0100      6.7368     78.4769     18.8469
  2505.1000      7.8308      2.4976     -0.0485      9.2335     81.0085     19.8615
  2505.2000      7.8308      2.4638     -0.0285     11.2854     84.7472     20.5121
  2505.3000      7.8299      2.4439     -0.0370     12.4892     91.3737     20.6862
  2505.4000      7.8299      2.4344     -0.0351     13.0663     97.9252     20.7153
  2505.5000      7.8399      2.4304     -0.0507     13.3100     97.6581     21.1645
  2505.6000      7.8399      2.4360     -0.0118     12.9700     91.7976     21.9477
  2505.7000      7.8399      2.4547      0.0237     11.8393     89.5040     22.6085
  2505.8000      7.8473      2.4737      0.0630     10.6858     97.0982     22.9947
  2505.9000      7.8473      2.4818      0.0695     10.1960    111.4568     23.4117
  2506.0000      7.8222      2.4799      0.1039     10.3102    124.9799     24.2514
  2506.1000      7.8222      2.4716      0.1022     10.8150    134.4729     25.0687
  2506.2000      7.8222      2.4618      0.0869     11.4058    139.0153     25.2421
  2506.3000      7.8268      2.4564      0.0889     11.7358    137.6021     25.1150
  2506.4000      7.8268      2.4580      0.1098     11.6393    133.1435     25.2096
  2506.5000      7.8417      2.4621      0.1121     11.3906    132.8582     25.4688
