~Version Information
VERS.                      2.0: CWLS Log ASCII Standard - VERSION 2.0
WRAP.                       NO: One line per depth step
~Well Information Block
STRT.FT               946.8000: 
STOP.FT              2134.5000: 
STEP.FT                 0.1000: 
NULL.                -999.2500: 
COMP.          Petrogulf Corporation: COMPANY
WELL.             Valejo 8-12R: WELL
FLD.           Purgatorie River: FIELD
LOC.           1351'' FNL & 1562' FWL: LOCATION
CNTY.               Las Animas: COUNTY
SRVC.                         : SERVICE COMPANY
DATE.          Wed Apr 28 13:22:45 2004: LOG DATE
UWI.           05 071 08038 00: UNIQUE WELL ID
STAT.                 Colorado: STATE
~Curve Information Block
DEPT.FT            0 000 00 00: Depth
DCAL.in                       : CDL Caliper
RHOB.g/cc                     : CDL Bulk Density
RHOC.g/cc                     : CDL Density Correction
DPOR.pu                       : CDL Density Porosity
NPOR.pu                       : Neutron Porosity
GR.GAPI                       : Gamma Ray
~Parameter Information Block
~A  Depth       DCAL        RHOB        RHOC        DPOR        NPOR         GR     
# ...
  1791.6000      7.9086      2.5887      0.0601      3.7178     16.0946     48.8756
  1791.7000      7.9086      2.5790      0.0896      4.3034     16.2706     49.3846
  1791.8000      7.9142      2.5628      0.0336      5.2873     16.7337     50.3186
  1791.9000      7.9142      2.5611      0.0864      5.3880     17.3755     54.0374
  1792.0000      7.9191      2.5735      0.0780      4.6385     17.9151     56.2992
  1792.1000      7.9191      2.5914      0.0784      3.5530     18.4177     53.5546
  1792.2000      7.9191      2.6106      0.0843      2.3891     19.0781     50.5132
  1792.3000      7.9249      2.6197      0.0946      1.8360     19.7623     53.3326
  1792.4000      7.9249      2.6086      0.1167      2.5084     20.1627     60.6466
  1792.5000      7.9450      2.5908      0.0325      3.5903     20.3007     66.9864
  1792.6000      7.9450      2.5871      0.0418      3.8139     20.2866     69.8765
  1792.7000      7.9450      2.5909      0.0546      3.5810     20.2966     70.3528
  1792.8000      7.9477      2.5880      0.0421      3.7596     20.7920     72.9558
  1792.9000      7.9477      2.5821      0.0565      4.1134     21.6720     79.4265
  1793.0000      7.9523      2.5896      0.0267      3.6617     22.2988     85.4463
  1793.1000      7.9523      2.6154      0.0687      2.0978     22.4535     89.7628
  1793.2000      7.9523      2.6284      0.1313      1.3075     22.4862     95.7722
  1793.3000      7.9489      2.6039      0.0708      2.7951     22.6061    103.8576
  1793.4000      7.9489      2.5698      0.0438      4.8577     22.8653    109.2577
  1793.5000      7.9472      2.5600      0.0741      5.4524     23.1553    108.6722
  1793.6000      7.9472      2.5677      0.0716      4.9901     23.0682    105.1176
  1793.7000      7.9472      2.5761      0.0767      4.4758     22.6535    102.1766
  1793.8000      7.9479      2.5864      0.0418      3.8516     22.4450    100.0685
  1793.9000      7.9479      2.5960      0.1378      3.2744     22.5616    100.4591
  1794.0000      7.9492      2.5977      0.0917      3.1722     22.7427    102.3717
  1794.1000      7.9492      2.6008      0.0643      2.9847     22.8719    101.7826
  1794.2000      7.9492      2.6070      0.0982      2.6057     23.3786     97.9521
  1794.3000      7.9486      2.6086      0.0602      2.5094     24.2786     96.0689
  1794.4000      7.9486      2.6092      0.0930      2.4726     24.8909    102.9397
  1794.5000      7.9490      2.6074      0.0836      2.5831     25.2782    116.0807
  1794.6000      7.9490      2.6015      0.0614      2.9400     25.8787    127.1873
  1794.7000      7.9490      2.5969      0.1070      3.2199     26.5941    132.2550
  1794.8000      7.9572      2.5915      0.1103      3.5437     27.0547    132.3880
  1794.9000      7.9572      2.5813      0.1148      4.1610     26.7738    130.8536
  1795.0000      7.9576      2.5725      0.1065      4.6956     25.8656    128.9544
  1795.1000      7.9576      2.5749      0.0954      4.5488     25.5745    128.5444
  1795.2000      7.9576      2.5851      0.1060      3.9354     26.7050    136.2077
  1795.3000      7.9588      2.5880      0.0842      3.7600     28.2462    151.0682
  1795.4000      7.9588      2.5749      0.0893      4.5493     28.9192    162.5260
  1795.5000      7.9671      2.5521      0.0624      5.9358     28.8693    164.4732
  1795.6000      7.9671      2.5327      0.0861      7.1097     28.7474    157.5358
  1795.7000      7.9671      2.5272      0.0194      7.4436     28.4823    148.4193
  1795.8000      7.9642      2.5380      0.0461      6.7872     27.9946    144.2146
  1795.9000      7.9642      2.5507      0.0736      6.0155     27.6521    143.1667
  1796.0000      7.9660      2.5452      0.0618      6.3493     27.7249    140.6560
  1796.1000      7.9660      2.5180      0.0425      7.9996     28.0536    139.6999
  1796.2000      7.9660      2.4818      0.0560     10.1937     28.1310    143.2038
  1796.3000      7.9650      2.4562      0.0306     11.7433     27.7549    146.8400
  1796.4000      7.9650      2.4536      0.0530     11.9034     27.1891    146.3345
  1796.5000      7.9646      2.4709      0.0414     10.8545     26.8545    142.2710
  1796.6000      7.9646      2.5009      0.0536      9.0389     27.0142    137.9082
  1796.7000      7.9646      2.5358      0.1290      6.9225     27.3803    136.7852
  1796.8000      7.9672      2.5634      0.1400      5.2483     27.4462    141.6344
  1796.9000      7.9672      2.5683      0.1874      4.9491     27.1225    150.2174
  1797.0000      7.9672      2.5486      0.1168      6.1472     26.7108    154.3670
  1797.1000      7.9672      2.5167      0.2084      8.0787     26.4882    149.7898
  1797.2000      7.9672      2.4795      0.1711     10.3309     26.4988    141.0496
  1797.3000      7.9924      2.4522      0.1039     11.9896     26.8550    135.6127
  1797.4000      7.9924      2.4539      0.0869     11.8840     27.3571    135.5653
  1797.5000      8.0009      2.4862      0.0526      9.9282     27.4974    137.8450
  1797.6000      8.0009      2.5339      0.1021      7.0377     27.3257    137.7590
  1797.7000      8.0009      2.5683      0.1474      4.9543     27.1959    134.7118
  1797.8000      8.0006      2.5691      0.1648      4.9008     27.2633    133.3878
  1797.9000      8.0006      2.5495      0.0932      6.0915     27.3881    137.2274
  1798.0000      8.0300      2.5363      0.1228      6.8923     27.3853    142.0543
  1798.1000      8.0300      2.5351      0.1872      6.9615     27.4797    141.7444
  1798.2000      8.0300      2.5344      0.1715      7.0037     27.6006    139.2547
  1798.3000      8.0334      2.5274      0.1447      7.4309     27.2989    138.6420
  1798.4000      8.0334      2.5156      0.0937      8.1425     26.9810    142.3608
  1798.5000      8.0338      2.5069      0.0285      8.6722     27.2630    150.0969
  1798.6000      8.0338      2.5016      0.0496      8.9958     27.7365    153.5843
  1798.7000      8.0338      2.4903      0.0542      9.6762     27.7535    152.1768
  1798.8000      8.0397      2.4751      0.0048     10.6007     27.6593    155.8024
  1798.9000      8.0397      2.4656      0.0395     11.1772     27.9596    164.8371
  1799.0000      8.0621      2.4671      0.0129     11.0850     28.0939    172.3004
  1799.1000      8.0621      2.4820      0.0354     10.1824     27.8405    174.5590
  1799.2000      8.0621      2.5006      0.0724      9.0540     28.0416    170.9914
  1799.3000      8.0811      2.5105      0.0530      8.4527     28.9129    166.8638
  1799.4000      8.0811      2.5156      0.0657      8.1465     29.6171    166.8493
  1799.5000      8.0904      2.5251      0.1004      7.5723     29.7538    166.7507
  1799.6000      8.0904      2.5404      0.1084      6.6414     29.8259    161.5687
  1799.7000      8.0904      2.5536      0.1316      5.8402     30.2582    151.9140
  1799.8000      8.0926      2.5561      0.1254      5.6886     30.9193    144.1525
  1799.9000      8.0926      2.5394      0.1838      6.7010     31.3506    144.3011
  1800.0000      8.0966      2.4933      0.1537      9.4974     31.3100    147.5594
  1800.1000      8.0966      2.4299      0.0507     13.3364     30.9574    148.2854
  1800.2000      8.0966      2.3831      0.0126     16.1742     30.4829    149.1444
  1800.3000      8.1135      2.3729      0.0379     16.7952     30.1735    150.6924
  1800.4000      8.1135      2.3985      0.0566     15.2449     30.2935    151.2895
  1800.5000      8.0316      2.4525      0.0560     11.9697     30.4859    151.3280
  1800.6000      8.0316      2.5160      0.1462      8.1240     30.1298    151.7348
  1800.7000      8.0316      2.5601      0.1185      5.4465     29.1051    150.6530
  1800.8000      7.9964      2.5763      0.1412      4.4670     27.8693    144.5288
  1800.9000      7.9964      2.5821      0.1078      4.1149     27.0590    136.3097
  1801.0000      7.9499      2.5939      0.1487      3.3992     26.7308    133.6845
  1801.1000      7.9499      2.6069      0.1346      2.6128     26.3169    137.2396
