~Version Information
VERS.                      2.0: CWLS Log ASCII Standard - VERSION 2.0
WRAP.                       NO: One line per depth step
~Well Information Block
STRT.FT              1727.9000: 
STOP.FT              1961.0000: 
STEP.FT                 0.1000: 
NULL.                -999.2500: 
COMP.          Petrogulf Corporation: COMPANY
WELL.              Royal 8-33R: WELL
FLD.           Purgatorie River: FIELD
LOC.           2401' FSL & 2270' FEL: LOCATION
CNTY.               Las Animas: COUNTY
SRVC.                         : SERVICE COMPANY
DATE.          Mon Apr 26 06:57:24 2004: LOG DATE
UWI.           05 071 08041 00: UNIQUE WELL ID
STAT.                 Colorado: STATE
~Curve Information Block
DEPT.FT            0 000 00 00: Depth
DCAL.in                       : CDL Caliper
RHOB.g/cc                     : CDL Bulk Density
RHOC.g/cc                     : CDL Density Correction
DPOR.pu                       : CDL Density Porosity
GR.GAPI                       : Gamma Ray
~Parameter Information Block
~A  Depth       DCAL        RHOB        RHOC        DPOR         GR     
# ...
  1772.7000      7.9107      2.4068      0.0952     14.7375    179.2080
  1772.8000      7.9108      2.3869      0.1025     15.9447    164.3060
  1772.9000      7.9108      2.3939      0.1682     15.5190    149.0112
  1773.0000      7.8934      2.4013      0.1549     15.0734    139.4214
  1773.1000      7.8934      2.3953      0.1633     15.4360    131.1990
  1773.2000      7.8934      2.3770      0.1482     16.5431    122.6107
  1773.3000      7.8903      2.3379      0.1985     18.9167    117.6226
  1773.4000      7.8903      2.2686      0.1241     23.1136    117.3202
  1773.5000      7.8868      2.1918      0.0699     27.7724    123.1232
  1773.6000      7.8868      2.1465      0.0785     30.5142    133.6304
  1773.7000      7.8868      2.1360      0.0950     31.1543    142.3195
  1773.8000      7.9001      2.1419      0.0560     30.7967    144.4639
  1773.9000      7.9001      2.1690      0.0639     29.1534    137.9770
  1774.0000      7.9238      2.2150      0.1459     26.3646    126.9350
  1774.1000      7.9238      2.2495      0.0974     24.2728    119.9495
  1774.2000      7.9238      2.2611      0.1171     23.5725    118.5223
  1774.3000      7.9210      2.2851     -0.0253     22.1174    121.3057
  1774.4000      7.9210      2.3524      0.1476     18.0336    132.0896
  1774.5000      7.8980      2.4245      0.1697     13.6637    151.3574
  1774.6000      7.8980      2.4516      0.0706     12.0243    165.4323
  1774.7000      7.8980      2.4392      0.0928     12.7778    161.3416
  1774.8000      7.8881      2.4176     -0.0366     14.0823    146.9155
  1774.9000      7.8881      2.4095     -0.0063     14.5785    135.0148
  1775.0000      7.8871      2.4179      0.0633     14.0637    129.9554
  1775.1000      7.8871      2.4342      0.0404     13.0807    131.8403
  1775.2000      7.8871      2.4490      0.0450     12.1792    138.5834
  1775.3000      7.8886      2.4607      0.0397     11.4717    148.7207
  1775.4000      7.8886      2.4767      0.0341     10.5034    158.5069
  1775.5000      7.9087      2.5106      0.0656      8.4485    163.2900
  1775.6000      7.9087      2.5576      0.0797      5.5984    165.5862
  1775.7000      7.9087      2.5825      0.1431      4.0886    169.6889
  1775.8000      7.9190      2.5673      0.1075      5.0107    175.1798
  1775.9000      7.9190      2.5412      0.0550      6.5957    180.8407
  1776.0000      7.8980      2.5199      0.1216      7.8843    181.2531
  1776.1000      7.8980      2.4981      0.0845      9.2060    171.1345
  1776.2000      7.8980      2.4966      0.0509      9.2984    158.4555
  1776.3000      7.8929      2.5228      0.1384      7.7084    152.8873
  1776.4000      7.8929      2.5488      0.1568      6.1304    157.6020
  1776.5000      7.8632      2.5719      0.1466      4.7328    168.1629
  1776.6000      7.8632      2.6055      0.2460      2.6986    173.7529
  1776.7000      7.8632      2.6327      0.2212      1.0503    175.3414
  1776.8000      7.8600      2.6224      0.2394      1.6699    179.1445
  1776.9000      7.8600      2.5807      0.0955      4.2015    181.1495
  1777.0000      7.8864      2.5479      0.1011      6.1905    178.8389
  1777.1000      7.8864      2.5284      0.1442      7.3712    173.4196
  1777.2000      7.8864      2.5172     -0.0228      8.0469    166.4601
  1777.3000      7.8838      2.5324      0.0956      7.1256    159.2956
  1777.4000      7.8838      2.5632      0.0553      5.2585    150.9445
  1777.5000      7.8801      2.5870      0.1342      3.8191    147.3377
  1777.6000      7.8801      2.5977      0.1113      3.1716    153.0937
  1777.7000      7.8801      2.5990      0.0770      3.0892    160.6957
  1777.8000      7.8783      2.5980      0.0872      3.1530    161.1742
  1777.9000      7.8783      2.5984      0.1172      3.1282    152.6896
  1778.0000      7.8701      2.6037      0.0770      2.8056    147.4796
  1778.1000      7.8701      2.6189      0.1384      1.8844    158.6160
  1778.2000      7.8701      2.6331      0.1935      1.0269    179.3420
  1778.3000      7.8767      2.6309      0.1195      1.1558    192.7219
  1778.4000      7.8767      2.6152      0.1559      2.1075    188.5303
  1778.5000      7.8488      2.5929      0.1027      3.4587    198.6041
  1778.6000      7.8488      2.5713      0.0544      4.7688    177.5400
  1778.7000      7.8488      2.5587     -0.0278      5.5334    167.1089
  1778.8000      7.8412      2.5478      0.0044      6.1916    165.9630
  1778.9000      7.8412      2.5308     -0.0487      7.2224    173.2869
  1779.0000      7.8661      2.5160      0.0326      8.1193    187.3853
  1779.1000      7.8661      2.5127     -0.0264      8.3225    198.7907
  1779.2000      7.8661      2.5218      0.0122      7.7682    198.0776
  1779.3000      7.8861      2.5245      0.0586      7.6073    191.9528
  1779.4000      7.8861      2.5264     -0.0578      7.4884    190.1057
  1779.5000      7.8919      2.5626      0.0071      5.2981    217.6772
  1779.6000      7.8919      2.6044      0.0784      2.7644    210.6237
  1779.7000      7.8919      2.6017      0.0660      2.9263    190.9476
  1779.8000      7.8643      2.5798      0.0283      4.2563    170.6936
  1779.9000      7.8643      2.5782      0.1557      4.3536    160.4574
  1780.0000      7.8824      2.5939      0.0257      3.3972    152.1887
  1780.1000      7.8824      2.6028      0.0651      2.8582    141.4101
  1780.2000      7.8824      2.5766      0.0823      4.4500    138.8216
  1780.3000      7.8895      2.5376     -0.0684      6.8130    149.5531
  1780.4000      7.8895      2.5331      0.0044      7.0853    168.2392
  1780.5000      7.8816      2.5406      0.0971      6.6274    201.6629
  1780.6000      7.8816      2.5221     -0.0442      7.7535    200.1547
  1780.7000      7.8816      2.4989     -0.0191      9.1550    181.8921
  1780.8000      7.8614      2.4949      0.0341      9.3997    169.6740
  1780.9000      7.8614      2.5060     -0.0105      8.7269    178.6563
  1781.0000      7.8604      2.5248      0.0574      7.5888    194.7141
  1781.1000      7.8604      2.5530      0.0394      5.8768    197.5142
  1781.2000      7.8604      2.5968      0.0917      3.2238    185.7542
  1781.3000      7.8514      2.6438      0.0914      0.3757    167.0084
  1781.4000      7.8514      2.6736      0.1306     -1.4330    149.3427
  1781.5000      7.8524      2.6652      0.1805     -0.9234    141.8922
  1781.6000      7.8524      2.6073      0.0327      2.5887    144.7341
  1781.7000      7.8524      2.5350     -0.0002      6.9713    152.1374
  1781.8000      7.8413      2.4971      0.0103      9.2667    161.2623
  1781.9000      7.8413      2.4947      0.0151      9.4102    173.6240
  1782.0000      7.8428      2.4963      0.0331      9.3147    181.4892
  1782.1000      7.8428      2.4861      0.0271      9.9324    171.3996
  1782.2000      7.8428      2.4873     -0.0594      9.8583    156.2585
  1782.3000      7.8595      2.5374      0.0231      6.8252    154.0325
  1782.4000      7.8595      2.6185      0.1659      1.9090    152.4824
  1782.5000      7.8662      2.6644      0.1107     -0.8712    144.3388
  1782.6000      7.8662      2.6485      0.0992      0.0912    141.7732
  1782.7000      7.8662      2.6012      0.0893      2.9548    142.6825
  1782.8000      7.8577      2.5627     -0.0341      5.2925    139.5736
  1782.9000      7.8577      2.5442      0.0292      6.4142    131.1115
  1783.0000      7.8601      2.5209      0.0593      7.8252    119.2183
  1783.1000      7.8601      2.4984     -0.0802      9.1872    114.1963
  1783.2000      7.8601      2.5050      0.0325      8.7897    117.1995
  1783.3000      7.8575      2.5001      0.1218      9.0837    120.1288
  1783.4000      7.8575      2.4445     -0.0367     12.4536    121.6888
  1783.5000      7.8505      2.3860     -0.0407     15.9987    126.9059
  1783.6000      7.8505      2.3700     -0.0490     16.9724    136.3203
  1783.7000      7.8505      2.3892     -0.0272     15.8044    140.7695
  1783.8000      7.8571      2.4276      0.0285     13.4797    130.5720
