~Version Information
VERS.                      2.0: CWLS Log ASCII Standard - VERSION 2.0
WRAP.                       NO: One line per depth step
~Well Information Block
STRT.FT               430.0000: 
STOP.FT              2826.2500: 
STEP.FT                 0.2500: 
NULL.                -999.2500: 
COMP.          Pioneer Natural Resources: COMPANY
WELL.           Ei-ei-oh 31-24: WELL
FLD.           Purgatoire River: FIELD
LOC.           235' FNL & 2001' FEL--: LOCATION
PROV.                 Colorado: PROVINCE
CNTY.               Las Animas: COUNTRY
SRVC.                Patterson: SERVICE COMPANY
DATE.          Thu Jun 16 06:46:37 2005: LOG DATE
UWI.           05 071 08403 00: UNIQUE WELL ID
~Curve Information Block
DEPT.FT            0 000 00 00: Depth
DIR.Ohm-m                     : IEL Induction Resistivity
SN.Ohm-m                      : IEL Short Normal
SP.mV                         : IEL Spontaneous Potential
GR.GAPI                       : Gamma Ray
~Parameter Information Block
~A  Depth       DIR          SN          SP          GR     
# ...
  1636.0000     22.2986     20.9710    -60.3248    100.9630
  1636.2500     22.3705     21.2047    -60.8728    100.8889
  1636.5000     22.5744     21.5648    -61.4218    101.9332
  1636.7500     22.8817     21.9964    -61.9487    102.8599
  1637.0000     23.2372     22.4240    -62.4223    102.8018
  1637.2500     23.5734     22.7757    -62.8051    101.1782
  1637.5000     23.8255     22.9996    -63.0562     97.0146
  1637.7500     23.9411     23.0684    -63.1368     94.1719
  1638.0000     23.8816     22.9750    -63.0162     91.5412
  1638.2500     23.6252     22.7279    -62.6784     91.3177
  1638.5000     23.1769     22.3470    -62.1274     93.2300
  1638.7500     22.5757     21.8573    -61.3893     95.9165
  1639.0000     21.8882     21.2767    -60.5103    101.9101
  1639.2500     21.1850     20.6130    -59.5520    106.7505
  1639.5000     20.5167     19.8778    -58.5835    113.5039
  1639.7500     19.9037     19.1106    -57.6722    116.4501
  1640.0000     19.3439     18.3913    -56.8752    117.2824
  1640.2500     18.8297     17.8200    -56.2325    115.5636
  1640.5000     18.3653     17.4742    -55.7621    111.0909
  1640.7500     17.9709     17.3727    -55.4590    108.0026
  1641.0000     17.6763     17.4667    -55.2968    104.5036
  1641.2500     17.5060     17.6622    -55.2334    103.0454
  1641.5000     17.4658     17.8523    -55.2172    101.7157
  1641.7500     17.5335     17.9414    -55.1960    101.0176
  1642.0000     17.6549     17.8601    -55.1237     99.6474
  1642.2500     17.7514     17.5773    -54.9668     98.4334
  1642.5000     17.7403     17.1074    -54.7067     96.9344
  1642.7500     17.5667     16.4981    -54.3410     96.9302
  1643.0000     17.2247     15.8083    -53.8812     99.2031
  1643.2500     16.7537     15.0971    -53.3501    101.9390
  1643.5000     16.2116     14.4306    -52.7769    106.3740
  1643.7500     15.6475     13.8849    -52.1938    108.6627
  1644.0000     15.0902     13.5274    -51.6317    110.4659
  1644.2500     14.5522     13.3831    -51.1172    110.9246
  1644.5000     14.0418     13.4125    -50.6712    111.9564
  1644.7500     13.5720     13.5237    -50.3082    113.6832
  1645.0000     13.1634     13.6163    -50.0375    118.2357
  1645.2500     12.8384     13.6278    -49.8638    122.2309
  1645.5000     12.6140     13.5508    -49.7888    128.5561
  1645.7500     12.4975     13.4163    -49.8117    132.0788
  1646.0000     12.4859     13.2669    -49.9288    134.2524
  1646.2500     12.5688     13.1426    -50.1336    132.6395
  1646.5000     12.7321     13.0831    -50.4170    125.8012
  1646.7500     12.9607     13.1321    -50.7681    119.6869
  1647.0000     13.2395     13.3333    -51.1753    111.3185
  1647.2500     13.5553     13.7144    -51.6276    107.5104
  1647.5000     13.8986     14.2679    -52.1155    104.8300
  1647.7500     14.2665     14.9418    -52.6308    104.5644
  1648.0000     14.6607     15.6528    -53.1660    105.1317
  1648.2500     15.0826     16.3127    -53.7126    105.4105
  1648.5000     15.5259     16.8491    -54.2609    104.9031
  1648.7500     15.9723     17.2145    -54.7984    103.9815
  1649.0000     16.3934     17.3940    -55.3104    102.3658
  1649.2500     16.7608     17.4170    -55.7800    101.4683
  1649.5000     17.0593     17.3576    -56.1901    100.6219
  1649.7500     17.2953     17.3098    -56.5249    100.5659
  1650.0000     17.4903     17.3434    -56.7729    101.9481
  1650.2500     17.6651     17.4679    -56.9289    104.2154
  1650.5000     17.8257     17.6309    -56.9969    109.3110
  1650.7500     17.9571     17.7515    -56.9903    112.9400
  1651.0000     18.0285     17.7645    -56.9322    116.8868
  1651.2500     18.0054     17.6523    -56.8530    118.0850
  1651.5000     17.8647     17.4479    -56.7878    118.7630
  1651.7500     17.6054     17.2118    -56.7732    119.6065
  1652.0000     17.2505     16.9927    -56.8447    122.6905
  1652.2500     16.8380     16.8032    -57.0348    125.7883
  1652.5000     16.4086     16.6329    -57.3707    130.6110
  1652.7500     15.9985     16.4900    -57.8736    133.0941
  1653.0000     15.6396     16.4330    -58.5554    135.0609
  1653.2500     15.3666     16.5566    -59.4153    135.2540
  1653.5000     15.2194     16.9365    -60.4346    133.9991
  1653.7500     15.2402     17.5729    -61.5708    131.9908
  1654.0000     15.4620     18.3735    -62.7521    126.6732
  1654.2500     15.8976     19.1868    -63.8755    121.1720
  1654.5000     16.5314     19.8737    -64.8092    109.3953
  1654.7500     17.3177     20.3873    -65.4022     99.4286
  1655.0000     18.1863     20.8350    -65.5012     83.5107
  1655.2500     19.0566     21.4763    -64.9720     74.2498
  1655.5000     19.8582     22.6055    -63.7217     65.1587
  1655.7500     20.5469     24.3239    -61.7183     62.8109
  1656.0000     21.1009     26.3485    -59.0007     64.3015
  1656.2500     21.4977     28.0624    -55.6781     68.2290
  1656.5000     21.6927     28.8451    -51.9166     78.2187
  1656.7500     21.6242     28.4382    -47.9165     87.2652
  1657.0000     21.2481     27.0463    -43.8845    102.8399
  1657.2500     20.5759     25.1359    -40.0069    113.2570
  1657.5000     19.6858     23.1505    -36.4290    126.8998
  1657.7500     18.6960     21.3550    -33.2446    133.8247
  1658.0000     17.7228     19.8438    -30.4961    140.1833
  1658.2500     16.8490     18.6199    -28.1839    141.8598
  1658.5000     16.1144     17.6576    -26.2800    141.8819
  1658.7500     15.5235     16.9214    -24.7423    141.2734
  1659.0000     15.0599     16.3633    -23.5265    140.3661
  1659.2500     14.6984     15.9278    -22.5917    139.5649
  1659.5000     14.4140     15.5672    -21.9026    137.3688
  1659.7500     14.1865     15.2564    -21.4275    135.3408
  1660.0000     14.0027     14.9940    -21.1364    132.6355
  1660.2500     13.8563     14.7896    -20.9978    131.7288
  1660.5000     13.7459     14.6482    -20.9785    131.8217
  1660.7500     13.6727     14.5606    -21.0447    132.3492
  1661.0000     13.6353     14.5043    -21.1642    132.7177
  1661.2500     13.6258     14.4527    -21.3094    132.1763
  1661.5000     13.6287     14.3839    -21.4590    129.8334
  1661.7500     13.6265     14.2885    -21.5990    127.3812
  1662.0000     13.6086     14.1736    -21.7221    123.0897
  1662.2500     13.5772     14.0614    -21.8266    120.4042
  1662.5000     13.5457     13.9824    -21.9144    117.3985
  1662.7500     13.5311     13.9631    -21.9900    116.1643
  1663.0000     13.5439     14.0114    -22.0604    115.3735
  1663.2500     13.5817     14.1074    -22.1356    115.7288
  1663.5000     13.6287     14.2053    -22.2300    117.9481
  1663.7500     13.6640     14.2540    -22.3628    120.1547
  1664.0000     13.6723     14.2233    -22.5585    122.5826
  1664.2500     13.6516     14.1206    -22.8456    122.5363
  1664.5000     13.6130     13.9841    -23.2532    120.0747
  1664.7500     13.5766     13.8641    -23.8080    118.0784
  1665.0000     13.5655     13.8048    -24.5307    116.8484
  1665.2500     13.6002     13.8314    -25.4338    117.7071
  1665.5000     13.6934     13.9428    -26.5224    121.0044
  1665.7500     13.8474     14.1121    -27.7950    124.0631
  1666.0000     14.0544     14.2998    -29.2467    129.3310
  1666.2500     14.3006     14.4724    -30.8699    132.8734
  1666.5000     14.5723     14.6184    -32.6518    137.2089
  1666.7500     14.8620     14.7538    -34.5675    138.8170
  1667.0000     15.1713     14.9138    -36.5715    138.6147
  1667.2500     15.5082     15.1347    -38.5894    136.7907
  1667.5000     15.8790     15.4354    -40.5155    132.5978
  1667.7500     16.2809     15.8073    -42.2206    129.8123
  1668.0000     16.6969     16.2158    -43.5708    126.9440
  1668.2500     17.0980     16.6086    -44.4555    126.0570
  1668.5000     17.4476     16.9268    -44.8178    125.7249
  1668.7500     17.7105     17.1223    -44.6766    125.7693
  1669.0000     17.8633     17.1754    -44.1335    125.7198
  1669.2500     17.9053     17.1047    -43.3582    125.3521
