~Version Information
VERS.                      2.0: CWLS Log ASCII Standard - VERSION 2.0
WRAP.                       NO: One line per depth step
~Well Information Block
STRT.FT               745.2500: 
STOP.FT              2003.5000: 
STEP.FT                 0.2500: 
NULL.                -999.2500: 
COMP.          Petrogulf Corporation: COMPANY
WELL.            Montoya 6-14V: WELL
FLD.           Purgatorie River: FIELD
LOC.           318' FSL & 882' FWL: LOCATION
CNTY.               Las Animas: COUNTY
SRVC.                         : SERVICE COMPANY
DATE.          Fri Aug 13 04:55:06 2004: LOG DATE
UWI.           05 071 08020 00: UNIQUE WELL ID
STAT.                 Colorado: STATE
~Curve Information Block
DEPT.FT            0 000 00 00: Depth
SP.mV                         : DIL Spontaneous Potential
RILD.Ohm-m                    : DIL Deep Resistivity
RILM.Ohm-m                    : DIL Medium Resistivity
RLL3.Ohm-m                    : DIL Shallow Resistivity
GR.GAPI                       : Gamma Ray
~Parameter Information Block
~A  Depth        SP         RILD        RILM        RLL3         GR     
# ...
  1025.2500    -11.8085     30.0549     35.4736     81.1498     64.2612
  1025.5000    -11.4937     28.7264     33.9290     79.5446     66.2901
  1025.7500    -11.1684     27.3813     32.2814     72.8978     69.9508
  1026.0000    -10.8229     26.0881     30.6338     62.8080     78.2822
  1026.2500    -10.4512     24.8791     29.0539     51.9524     84.8909
  1026.5000    -10.0523     23.7574     27.5750     42.6523     94.7087
  1026.7500     -9.6298     22.7088     26.2050     36.0037    100.3308
  1027.0000     -9.1911     21.7136     24.9375     31.8554    106.5728
  1027.2500     -8.7453     20.7563     23.7616     29.3733    109.4573
  1027.5000     -8.3020     19.8308     22.6677     27.6794    113.1183
  1027.7500     -7.8703     18.9412     21.6493     26.2189    115.8407
  1028.0000     -7.4585     18.1012     20.7024     24.8232    120.7165
  1028.2500     -7.0751     17.3291     19.8246     23.5892    124.1710
  1028.5000     -6.7280     16.6423     19.0137     22.6904    128.5981
  1028.7500     -6.4245     16.0519     18.2677     22.1944    130.3862
  1029.0000     -6.1699     15.5593     17.5860     21.9624    130.6787
  1029.2500     -5.9661     15.1576     16.9698     21.6939    129.4706
  1029.5000     -5.8112     14.8338     16.4224     21.0952    126.8324
  1029.7500     -5.7003     14.5738     15.9486     20.0579    125.4732
  1030.0000     -5.6267     14.3647     15.5526     18.7215    125.2264
  1030.2500     -5.5845     14.1978     15.2370     17.3820    126.4696
  1030.5000     -5.5701     14.0688     15.0009     16.3286    129.9668
  1030.7500     -5.5826     13.9784     14.8397     15.7199    132.7384
  1031.0000     -5.6232     13.9317     14.7450     15.5564    136.3931
  1031.2500     -5.6924     13.9356     14.7056     15.7323    138.1753
  1031.5000     -5.7894     13.9966     14.7089     16.1135    139.9577
  1031.7500     -5.9106     14.1159     14.7424     16.5965    140.5596
  1032.0000     -6.0508     14.2866     14.7953     17.1222    140.1534
  1032.2500     -6.2054     14.4904     14.8597     17.6540    138.8892
  1032.5000     -6.3729     14.7008     14.9310     18.1480    136.1656
  1032.7500     -6.5571     14.8902     15.0075     18.5474    134.4410
  1033.0000     -6.7667     15.0409     15.0899     18.8060    132.6751
  1033.2500     -7.0131     15.1536     15.1800     18.9153    132.1817
  1033.5000     -7.3072     15.2459     15.2797     18.9106    132.7017
  1033.7500     -7.6557     15.3427     15.3898     18.8502    133.9078
  1034.0000     -8.0584     15.4641     15.5103     18.7852    136.2146
  1034.2500     -8.5084     15.6178     15.6402     18.7426    137.2310
  1034.5000     -8.9936     15.7984     15.7784     18.7281    136.7689
  1034.7500     -9.4997     15.9903     15.9248     18.7410    134.8970
  1035.0000    -10.0127     16.1743     16.0812     18.7895    130.3503
  1035.2500    -10.5204     16.3335     16.2513     18.8974    127.2027
  1035.5000    -11.0133     16.4598     16.4410     19.1013    124.6048
  1035.7500    -11.4852     16.5572     16.6566     19.4417    124.9533
  1036.0000    -11.9336     16.6421     16.9040     19.9503    127.5080
  1036.2500    -12.3611     16.7360     17.1873     20.6386    129.1636
  1036.5000    -12.7757     16.8565     17.5083     21.4898    129.6181
  1036.7500    -13.1904     17.0107     17.8666     22.4568    128.1738
  1037.0000    -13.6206     17.1954     18.2604     23.4660    124.0945
  1037.2500    -14.0810     17.4040     18.6879     24.4295    121.1503
  1037.5000    -14.5821     17.6356     19.1488     25.2670    118.4031
  1037.7500    -15.1281     17.9007     19.6464     25.9368    118.3535
  1038.0000    -15.7176     18.2204     20.1886     26.4553    120.6890
  1038.2500    -16.3445     18.6184     20.7884     26.8862    123.1081
  1038.5000    -17.0009     19.1119     21.4641     27.2965    126.7475
  1038.7500    -17.6783     19.7055     22.2394     27.7194    128.8242
  1039.0000    -18.3682     20.3902     23.1426     28.1686    131.4464
  1039.2500    -19.0610     21.1468     24.2057     28.7130    133.0289
  1039.5000    -19.7455     21.9540     25.4641     29.5632    135.3661
  1039.7500    -20.4083     22.7937     26.9546     31.1097    136.8739
  1040.0000    -21.0351     23.6548     28.7145     33.8893    138.4298
  1040.2500    -21.6133     24.5334     30.7789     38.4975    138.2623
  1040.5000    -22.1336     25.4322     33.1770     45.4698    135.0352
  1040.7500    -22.5922     26.3611     35.9253     55.1430    130.7804
  1041.0000    -22.9910     27.3382     39.0180     67.4987    122.1103
  1041.2500    -23.3359     28.3879     42.4128     82.0082    115.4901
  1041.5000    -23.6348     29.5345     46.0155     97.5359    105.2035
  1041.7500    -23.8950     30.7896     49.6678    112.4041     98.6714
  1042.0000    -24.1219     32.1367     53.1517    124.7117     90.8086
  1042.2500    -24.3176     33.5173     56.2177    132.8501     87.7169
  1042.5000    -24.4815     34.8332     58.6393    135.9769     86.7378
  1042.7500    -24.6106     35.9669     60.2750    134.1761     87.9560
  1043.0000    -24.7001     36.8189     61.1091    128.2426     90.9358
  1043.2500    -24.7446     37.3435     61.2481    119.2897     92.9543
  1043.5000    -24.7381     37.5645     60.8798    108.4429     95.7132
  1043.7500    -24.6757     37.5624     60.2164     96.7448     97.5779
  1044.0000    -24.5534     37.4403     59.4485     85.2091    100.7476
  1044.2500    -24.3700     37.2879     58.7211     74.8641    103.0811
  1044.5000    -24.1278     37.1610     58.1276     66.6674    106.4621
  1044.7500    -23.8336     37.0817     57.7193     61.3007    108.2069
  1045.0000    -23.4998     37.0575     57.5205     58.9623    109.3714
  1045.2500    -23.1435     37.1056     57.5462     59.2882    109.1410
  1045.5000    -22.7853     37.2721     57.8172     61.4621    108.1101
  1045.7500    -22.4466     37.6308     58.3710     64.4979    107.6720
  1046.0000    -22.1456     38.2697     59.2635     67.6227    108.1465
  1046.2500    -21.8938     39.2661     60.5659     70.6401    109.1556
  1046.5000    -21.6932     40.6602     62.3536     74.1297    110.7444
  1046.7500    -21.5345     42.4260     64.6913     79.3663    111.0107
  1047.0000    -21.3987     44.4473     67.6130     87.9457    108.9702
  1047.2500    -21.2601     46.5064     71.0977    101.2333    105.5846
  1047.5000    -21.0917     48.3122     75.0382    119.8747     97.4615
  1047.7500    -20.8702     49.5720     79.2078    143.6243     90.5186
  1048.0000    -20.5796     50.0888     83.2386    171.9887     79.6460
  1048.2500    -20.2126     49.8269     86.6290    205.3965     73.3482
  1048.5000    -19.7696     48.9063     88.8106    246.3084     66.5264
  1048.7500    -19.2571     47.5406     89.2794    298.7839     63.5276
  1049.0000    -18.6854     45.9636     87.7578    365.2031     60.0486
  1049.2500    -18.0684     44.3817     84.3092    440.8192     57.7970
  1049.5000    -17.4226     42.9554     79.3370    510.0796     54.6057
  1049.7500    -16.7674     41.7952     73.4551    549.9258     53.2064
  1050.0000    -16.1239     40.9597     67.3090    540.9985     53.4121
  1050.2500    -15.5135     40.4496     61.4270    479.8824     55.6178
  1050.5000    -14.9551     40.2005     56.1571    382.4860     62.3906
  1050.7500    -14.4636     40.0817     51.6686    275.3736     68.8485
  1051.0000    -14.0472     39.9137     47.9920    182.0927     79.7258
  1051.2500    -13.7065     39.5080     45.0643    114.5038     86.6554
  1051.5000    -13.4345     38.7235     42.7629     72.9140     95.6593
  1051.7500    -13.2173     37.5113     40.9304     51.4191    100.7330
  1052.0000    -13.0363     35.9244     39.3913     43.0516    106.7410
  1052.2500    -12.8709     34.0861     37.9715     42.2090    109.2907
  1052.5000    -12.7017     32.1421     36.5216     44.9047    110.8230
  1052.7500    -12.5131     30.2233     34.9429     48.3353    110.9333
  1053.0000    -12.2954     28.4271     33.2048     50.6574    111.2583
