~Version Information
VERS.                      2.0: CWLS Log ASCII Standard - VERSION 2.0
WRAP.                       NO: One line per depth step
~Well Information Block
STRT.FT               890.0000: 
STOP.FT              1589.0000: 
STEP.FT                 0.2500: 
NULL.                -999.2500: 
COMP.          Evergreen Operating Corporation: COMPANY
WELL.            Tomahawk 44-9: WELL
FLD.           Purgatorie River: FIELD
LOC.           434' FSL & 491' FEL: LOCATION
PROV.                 Colorado: PROVINCE
CNTY.               Las Animas: COUNTRY
SRVC.                         : SERVICE COMPANY
DATE.          Sat Sep 11 23:05:26 2004: LOG DATE
UWI.           05 071 08133 00: UNIQUE WELL ID
~Curve Information Block
DEPT.FT            0 000 00 00: Depth
LTEN.lb                       : Surface Line Tension
SN.Ohm-m                      : IEL Short Normal
SP.mV                         : IEL Spontaneous Potential
DIR.Ohm-m                     : IEL Induction Resistivity
GR.GAPI                       : Gamma Ray
~Parameter Information Block
~A  Depth       LTEN         SN          SP         DIR          GR     
# ...
  1338.0000    798.8579     13.5944    -69.0654     10.3659    119.4114
  1338.2500    797.5658     13.6040    -68.9000     10.6305    118.6519
  1338.5000    797.9324     13.6743    -68.4786     10.9873    118.7041
  1338.7500    800.2993     13.8130    -67.9248     11.4282    119.5751
  1339.0000    803.2995     14.0360    -67.3504     11.9408    121.5736
  1339.2500    805.3128     14.3668    -66.8179     12.5018    122.7916
  1339.5000    806.4367     14.8357    -66.3379     13.0735    123.3061
  1339.7500    808.2801     15.4823    -65.8821     13.6125    122.2464
  1340.0000    811.6248     16.3640    -65.4151     14.0938    118.4949
  1340.2500    814.7029     17.5587    -64.9214     14.5282    115.1630
  1340.5000    814.5920     19.1522    -64.4211     14.9531    110.2852
  1340.7500    810.5073     21.2020    -63.9607     15.4050    107.4068
  1341.0000    804.7318     23.6881    -63.5977     15.9018    103.0927
  1341.2500    799.9337     26.4735    -63.3673     16.4432     99.9193
  1341.5000    796.8487     29.2990    -63.2633     17.0197     95.2629
  1341.7500    795.0643     31.8252    -63.2328     17.6158     92.8915
  1342.0000    794.3804     33.7155    -63.1884     18.2106     90.7710
  1342.2500    794.4608     34.7356    -63.0403     18.7923     89.7534
  1342.5000    794.3550     34.8327    -62.7357     19.3747     87.6741
  1342.7500    793.3129     34.1545    -62.2856     19.9871     86.0540
  1343.0000    791.6550     32.9859    -61.7705     20.6284     85.1768
  1343.2500    790.6788     31.6337    -61.3201     21.2251     86.7787
  1343.5000    791.9366     30.3254    -61.0737     21.6464     92.2989
  1343.7500    796.0516     29.1765    -61.1296     21.7751     96.4875
  1344.0000    801.7205     28.2208    -61.5084     21.5782    100.2232
  1344.2500    806.3519     27.4588    -62.1404     21.1259     99.9543
  1344.5000    808.0259     26.8814    -62.8785     20.5620     95.6417
  1344.7500    806.6098     26.4655    -63.5425     20.0484     91.0442
  1345.0000    803.2100     26.1625    -63.9648     19.7011     83.7643
  1345.2500    799.3303     25.8996    -64.0434     19.5436     80.1250
  1345.5000    796.5087     25.5953    -63.7609     19.5088     78.2247
  1345.7500    795.7524     25.1782    -63.1948     19.4905     79.3152
  1346.0000    796.7147     24.5987    -62.4843     19.4068     82.9449
  1346.2500    797.7815     23.8376    -61.7887     19.2243     85.5821
  1346.5000    797.4467     22.9151    -61.2433     18.9422     88.6430
  1346.7500    795.7111     21.8947    -60.9235     18.5725     90.0313
  1347.0000    793.9788     20.8685    -60.8316     18.1368     92.0780
  1347.2500    793.5410     19.9258    -60.9071     17.6590     94.1847
  1347.5000    794.4122     19.1226    -61.0564     17.1481     99.0356
  1347.7500    795.8066     18.4738    -61.1831     16.5961    102.9504
  1348.0000    797.4318     17.9661    -61.2176     15.9994    108.1718
  1348.2500    799.8364     17.5780    -61.1319     15.3839    110.3882
  1348.5000    803.3066     17.2888    -60.9429     14.8022    111.5469
  1348.7500    806.6674     17.0791    -60.6956     14.3060    111.2837
  1349.0000    807.8397     16.9269    -60.4472     13.9221    110.2124
  1349.2500    806.0883     16.8082    -60.2406     13.6424    109.4525
  1349.5000    803.2607     16.7014    -60.0954     13.4290    108.8495
  1349.7500    802.1023     16.5958    -59.9886     13.2354    109.0619
  1350.0000    803.5516     16.4988    -59.8676     13.0369    110.2575
  1350.2500    806.1493     16.4298    -59.6575     12.8494    111.3450
  1350.5000    807.7263     16.4046    -59.2982     12.7143    112.9091
  1350.7500    807.2249     16.4202    -58.7585     12.6604    113.7230
  1351.0000    805.3232     16.4569    -58.0712     12.6781    114.2091
  1351.2500    803.9420     16.4954    -57.3255     12.7312    113.7178
  1351.5000    804.8947     16.5310    -56.6585     12.7931    111.4573
  1351.7500    808.1819     16.5717    -56.2085     12.8745    109.0999
  1352.0000    811.4785     16.6246    -56.0814     13.0127    105.0116
  1352.2500    812.0338     16.6867    -56.3153     13.2371    102.4438
  1352.5000    809.3885     16.7508    -56.8779     13.5429     99.7851
  1352.7500    805.6615     16.8155    -57.6809     13.8911     99.2181
  1353.0000    803.0344     16.8864    -58.6136     14.2283    100.0250
  1353.2500    801.6981     16.9671    -59.5806     14.5122    101.0055
  1353.5000    800.3571     17.0545    -60.5153     14.7327    101.8147
  1353.7500    797.8828     17.1498    -61.3834     14.9197    101.5979
  1354.0000    794.1866     17.2759    -62.1642     15.1341    100.5964
  1354.2500    790.1436     17.4791    -62.8371     15.4368     99.9453
  1354.5000    786.9913     17.8025    -63.3657     15.8515     99.4272
  1354.7500    785.6088     18.2460    -63.7047     16.3444     99.4708
  1355.0000    786.2352     18.7444    -63.8160     16.8384    100.2558
  1355.2500    788.6196     19.1863    -63.6860     17.2572    101.1509
  1355.5000    792.1324     19.4626    -63.3443     17.5618    102.1477
  1355.7500    795.8383     19.5132    -62.8529     17.7540    101.9945
  1356.0000    798.8282     19.3460    -62.2919     17.8591    100.5321
  1356.2500    800.6624     19.0238    -61.7293     17.9176     99.3004
  1356.5000    801.5693     18.6405    -61.2039     17.9863     97.9941
  1356.7500    802.0704     18.3014    -60.7167     18.1244     97.6379
  1357.0000    802.1596     18.1093    -60.2570     18.3508     97.6369
  1357.2500    801.0276     18.1443    -59.8212     18.6097     97.8159
  1357.5000    797.9814     18.4342    -59.4466     18.7792     98.3374
  1357.7500    793.5472     18.9337    -59.2142     18.7439     99.0212
  1358.0000    789.3929     19.5304    -59.2300     18.4822    100.8465
  1358.2500    787.1947     20.0831    -59.5842     18.0817    102.6121
  1358.5000    787.5483     20.4718    -60.3147     17.6659    105.7552
  1358.7500    789.8442     20.6315    -61.3796     17.3098    107.7896
  1359.0000    793.1437     20.5562    -62.6661     17.0144    109.9030
  1359.2500    797.1573     20.2808    -64.0140     16.7422    110.3018
  1359.5000    802.3019     19.8560    -65.2636     16.4683    109.3979
  1359.7500    808.8846     19.3319    -66.2863     16.1995    108.3141
  1360.0000    816.4169     18.7512    -67.0018     15.9545    107.4200
  1360.2500    823.5800     18.1473    -67.3740     15.7367    107.9993
  1360.5000    828.5534     17.5422    -67.3947     15.5290    110.5511
  1360.7500    829.5923     16.9489    -67.0699     15.3037    112.4617
  1361.0000    826.0748     16.3790    -66.4194     15.0364    113.6321
  1361.2500    819.3813     15.8518    -65.4839     14.7143    112.7520
  1361.5000    812.3568     15.3917    -64.3385     14.3401    109.8913
  1361.7500    807.5259     15.0157    -63.0987     13.9353    108.0762
  1362.0000    805.7908     14.7225    -61.9213     13.5394    106.7842
  1362.2500    806.5560     14.4949    -60.9779     13.1999    106.9012
  1362.5000    808.5774     14.3126    -60.4291     12.9500    107.7419
  1362.7500    810.6185     14.1620    -60.3966     12.7821    108.1804
  1363.0000    811.7182     14.0372    -60.9390     12.6397    108.0589
  1363.2500    811.3493     13.9350    -62.0459     12.4468    107.4210
  1363.5000    809.5260     13.8511    -63.6349     12.1641    105.9401
  1363.7500    806.8379     13.7816    -65.5650     11.8241    104.9117
  1364.0000    804.4283     13.7271    -67.6624     11.5112    103.9029
  1364.2500    803.4873     13.6923    -69.7440     11.3122    103.7695
  1364.5000    804.2140     13.6807    -71.6479     11.2850    104.1075
  1364.7500    805.4921     13.6901    -73.2542     11.4513    104.4130
  1365.0000    806.1398     13.7142    -74.5008     11.7968    105.0637
  1365.2500    806.4016     13.7491    -75.3682     12.2714    105.9753
  1365.5000    807.7872     13.7972    -75.8697     12.7961    108.2722
  1365.7500    811.4283     13.8659    -76.0212     13.2857    109.9960
