~Version Information
VERS.                      2.0: CWLS Log ASCII Standard - VERSION 2.0
WRAP.                       NO: One line per depth step
~Well Information Block
STRT.FT              2983.0000: 
STOP.FT              3214.7500: 
STEP.FT                 0.0500: 
NULL.                -999.2500: 
COMP.          Pioner Natural Resources: COMPANY
WELL.              Vespar 43-7: WELL
FLD.           Purgatoire River: FIELD
LOC.           2338' FSL & 1141' FEL------: LOCATION
PROV.                 Colorado: PROVINCE
CNTY.               Las Animas: COUNTRY
SRVC.                         : SERVICE COMPANY
DATE.          Fri Apr 15 15:31:19 2005: LOG DATE
UWI.                          : UNIQUE WELL ID
~Curve Information Block
DEPT.FT            0 000 00 00: Depth
GR.GAPI                       : Gamma Ray
CCL.                          : Casing Collar Locator
TT3.usec                      : CBL 3' Travel Time
AMP3.mV                       : CBL 3' Amplitude
AMP5.mV                       : CBL 5' Amplitude
~Parameter Information Block
~A  Depth        GR         CCL         TT3         AMP3        AMP5    
# ...
  3156.6000     51.8606      0.0000    260.1734     78.4058    143.2241
  3156.6500     51.8606      0.0000    260.1734     78.4058    143.2241
  3156.7000     51.8606      0.0000    260.1734     78.4058    143.2241
  3156.7500     54.6838      0.0000    260.1754     78.3734    143.2583
  3156.8000     54.6838      0.0000    260.1754     78.3734    143.2583
  3156.8500     54.6838      0.0000    260.1754     78.3734    143.2583
  3156.9000     54.6838      0.0000    260.1754     78.3734    143.2583
  3156.9500     54.6838      0.0000    260.1754     78.3734    143.2583
  3157.0000     60.0051      0.0000    260.1793     78.4061    143.2123
  3157.0500     60.0051      0.0000    260.1793     78.4061    143.2123
  3157.1000     60.0051      0.0000    260.1793     78.4061    143.2123
  3157.1500     60.0051      0.0000    260.1793     78.4061    143.2123
  3157.2000     60.0051      0.0000    260.1793     78.4061    143.2123
  3157.2500     66.9459      0.0000    260.1796     78.4827    143.1286
  3157.3000     66.9459      0.0000    260.1796     78.4827    143.1286
  3157.3500     66.9459      0.0000    260.1796     78.4827    143.1286
  3157.4000     66.9459      0.0000    260.1796     78.4827    143.1286
  3157.4500     66.9459      0.0000    260.1796     78.4827    143.1286
  3157.5000     74.2953      0.0000    260.1756     78.5447    143.0507
  3157.5500     74.2953      0.0000    260.1756     78.5447    143.0507
  3157.6000     74.2953      0.0000    260.1756     78.5447    143.0507
  3157.6500     74.2953      0.0000    260.1756     78.5447    143.0507
  3157.7000     74.2953      0.0000    260.1756     78.5447    143.0507
  3157.7500     80.9567      0.0000    260.1734     78.5320    142.9886
  3157.8000     80.9567      0.0000    260.1734     78.5320    142.9886
  3157.8500     80.9567      0.0000    260.1734     78.5320    142.9886
  3157.9000     80.9567      0.0000    260.1734     78.5320    142.9886
  3157.9500     80.9567      0.0000    260.1734     78.5320    142.9886
  3158.0000     86.3529      0.0000    260.1783     78.4261    142.9243
  3158.0500     86.3529      0.0000    260.1783     78.4261    142.9243
  3158.1000     86.3529      0.0000    260.1783     78.4261    142.9243
  3158.1500     86.3529      0.0000    260.1783     78.4261    142.9243
  3158.2000     86.3529      0.0000    260.1783     78.4261    142.9243
  3158.2500     90.2864      0.0000    260.1880     78.2642    142.8437
  3158.3000     90.2864      0.0000    260.1880     78.2642    142.8437
  3158.3500     90.2864      0.0000    260.1880     78.2642    142.8437
  3158.4000     90.2864      0.0000    260.1880     78.2642    142.8437
  3158.4500     90.2864      0.0000    260.1880     78.2642    142.8437
  3158.5000     92.6393      0.0000    260.1935     78.1183    142.7582
  3158.5500     92.6393      0.0000    260.1935     78.1183    142.7582
  3158.6000     92.6393      0.0000    260.1935     78.1183    142.7582
  3158.6500     92.6393      0.0000    260.1935     78.1183    142.7582
  3158.7000     92.6393      0.0000    260.1935     78.1183    142.7582
  3158.7500     93.4861      0.0000    260.1887     78.0509    142.6947
  3158.8000     93.4861      0.0000    260.1887     78.0509    142.6947
  3158.8500     93.4861      0.0000    260.1887     78.0509    142.6947
  3158.9000     93.4861      0.0000    260.1887     78.0509    142.6947
  3158.9500     93.4861      0.0000    260.1887     78.0509    142.6947
  3159.0000     93.4414      0.0000    260.1751     78.0739    142.6695
  3159.0500     93.4414      0.0000    260.1751     78.0739    142.6695
  3159.1000     93.4414      0.0000    260.1751     78.0739    142.6695
  3159.1500     93.4414      0.0000    260.1751     78.0739    142.6695
  3159.2000     93.4414      0.0000    260.1751     78.0739    142.6695
  3159.2500     93.6419      0.0000    260.1606     78.1484    142.6810
  3159.3000     93.6419      0.0000    260.1606     78.1484    142.6810
  3159.3500     93.6419      0.0000    260.1606     78.1484    142.6810
  3159.4000     93.6419      0.0000    260.1606     78.1484    142.6810
  3159.4500     93.6419      0.0000    260.1606     78.1484    142.6810
  3159.5000     95.0055      0.0000    260.1529     78.2249    142.7242
  3159.5500     95.0055      0.0000    260.1529     78.2249    142.7242
  3159.6000     95.0055      0.0000    260.1529     78.2249    142.7242
  3159.6500     95.0055      0.0000    260.1529     78.2249    142.7242
  3159.7000     95.0055      0.0000    260.1529     78.2249    142.7242
  3159.7500     97.2378      0.0000    260.1540     78.2789    142.8003
  3159.8000     97.2378      0.0000    260.1540     78.2789    142.8003
  3159.8500     97.2378      0.0000    260.1540     78.2789    142.8003
  3159.9000     97.2378      0.0000    260.1540     78.2789    142.8003
  3159.9500     97.2378      0.0000    260.1540     78.2789    142.8003
  3160.0000     98.6743      0.0000    260.1598     78.3138    142.9020
  3160.0500     98.6743      0.0000    260.1598     78.3138    142.9020
  3160.1000     98.6743      0.0000    260.1598     78.3138    142.9020
  3160.1500     98.6743      0.0000    260.1598     78.3138    142.9020
  3160.2000     98.6743      0.0000    260.1598     78.3138    142.9020
  3160.2500     97.5453      0.0000    260.1643     78.3451    143.0033
  3160.3000     97.5453      0.0000    260.1643     78.3451    143.0033
  3160.3500     97.5453      0.0000    260.1643     78.3451    143.0033
  3160.4000     97.5453      0.0000    260.1643     78.3451    143.0033
  3160.4500     97.5453      0.0000    260.1643     78.3451    143.0033
  3160.5000     93.5984      0.0000    260.1646     78.3885    143.0714
  3160.5500     93.5984      0.0000    260.1646     78.3885    143.0714
  3160.6000     93.5984      0.0000    260.1646     78.3885    143.0714
  3160.6500     93.5984      0.0000    260.1646     78.3885    143.0714
  3160.7000     93.5984      0.0000    260.1646     78.3885    143.0714
  3160.7500     88.3151      0.0000    260.1606     78.4497    143.0855
  3160.8000     88.3151      0.0000    260.1606     78.4497    143.0855
  3160.8500     88.3151      0.0000    260.1606     78.4497    143.0855
  3160.9000     88.3151      0.0000    260.1606     78.4497    143.0855
  3160.9500     88.3151      0.0000    260.1606     78.4497    143.0855
  3161.0000     83.5784      0.0000    260.1530     78.5187    143.0439
  3161.0500     83.5784      0.0000    260.1530     78.5187    143.0439
  3161.1000     83.5784      0.0000    260.1530     78.5187    143.0439
  3161.1500     83.5784      0.0000    260.1530     78.5187    143.0439
  3161.2000     83.5784      0.0000    260.1530     78.5187    143.0439
  3161.2500     80.3546      0.0000    260.1422     78.5819    142.9643
  3161.3000     80.3546      0.0000    260.1422     78.5819    142.9643
  3161.3500     80.3546      0.0000    260.1422     78.5819    142.9643
  3161.4000     80.3546      0.0000    260.1422     78.5819    142.9643
  3161.4500     80.3546      0.0000    260.1422     78.5819    142.9643
  3161.5000     78.5708      0.0000    260.1314     78.6438    142.8761
  3161.5500     78.5708      0.0000    260.1314     78.6438    142.8761
  3161.6000     78.5708      0.0000    260.1314     78.6438    142.8761
  3161.6500     78.5708      0.0000    260.1314     78.6438    142.8761
  3161.7000     78.5708      0.0000    260.1314     78.6438    142.8761
  3161.7500     77.9388      0.0000    260.1247     78.7243    142.8044
  3161.8000     77.9388      0.0000    260.1247     78.7243    142.8044
  3161.8500     77.9388      0.0000    260.1247     78.7243    142.8044
  3161.9000     77.9388      0.0000    260.1247     78.7243    142.8044
  3161.9500     77.9388      0.0000    260.1247     78.7243    142.8044
  3162.0000     78.5485      0.0000    260.1225     78.8338    142.7547
  3162.0500     78.5485      0.0000    260.1225     78.8338    142.7547
  3162.1000     78.5485      0.0000    260.1225     78.8338    142.7547
  3162.1500     78.5485      0.0000    260.1225     78.8338    142.7547
