~Version Information
VERS.                      2.0: CWLS Log ASCII Standard - VERSION 2.0
WRAP.                       NO: One line per depth step
~Well Information Block
STRT.FT               664.0000: 
STOP.FT              1113.5000: 
STEP.FT                 0.1000: 
NULL.                -999.2500: 
COMP.          Petrogulf Corporation: COMPANY
WELL.          Great Plains 22-21R: WELL
FLD.           Purgatorie River: FIELD
LOC.           73' FNL & 1992' FWL: LOCATION
PROV.                 Colorado: PROVINCE
CNTY.               Las Animas: COUNTRY
SRVC.                Patterson: SERVICE COMPANY
DATE.          Thu Sep 08 08:02:28 2005: LOG DATE
UWI.                          : UNIQUE WELL ID
~Curve Information Block
DEPT.FT            0 000 00 00: Depth
DCAL.in                       : CDL Caliper
RHOB.g/cc                     : CDL Bulk Density
RHOC.g/cc                     : CDL Density Correction
DPOR.pu                       : CDL Density Porosity
GR.GAPI                       : Gamma Ray
NPOR.pu                       : Neutron Porosity
~Parameter Information Block
~A  Depth       DCAL        RHOB        RHOC        DPOR         GR         NPOR    
# ...
  1038.4000      7.9959      2.5192      0.0684      7.9284    166.2264     26.7318
  1038.5000      7.9592      2.5389      0.0599      6.7319    161.4664     26.3200
  1038.6000      7.9592      2.5807      0.0589      4.2006    164.4639     25.7702
  1038.7000      7.9592      2.6321      0.1201      1.0872    171.1264     25.4126
  1038.8000      7.9399      2.6615      0.1192     -0.6951    171.6861     25.1976
  1038.9000      7.9399      2.6580      0.1105     -0.4843    165.2373     25.1972
  1039.0000      7.9283      2.6461      0.0777      0.2335    158.7269     25.4991
  1039.1000      7.9283      2.6467      0.0721      0.2000    155.5898     25.8799
  1039.2000      7.9283      2.6511      0.0972     -0.0655    153.4154     25.9782
  1039.3000      7.9145      2.6500      0.0435      0.0026    149.8850     25.7319
  1039.4000      7.9145      2.6537     -0.0123     -0.2243    146.7100     25.3219
  1039.5000      7.8996      2.6543      0.0529     -0.2615    147.0811     24.9053
  1039.6000      7.8996      2.6330     -0.0271      1.0316    148.7087     24.5877
  1039.7000      7.8996      2.6061      0.0319      2.6630    147.0347     24.3703
  1039.8000      7.9290      2.5917      0.0760      3.5332    143.3408     24.2132
  1039.9000      7.9290      2.5916      0.0290      3.5369    141.0377     24.2171
  1040.0000      7.9448      2.6054      0.0606      2.7026    141.4580     24.6726
  1040.1000      7.9448      2.6250      0.0506      1.5165    145.0129     25.6020
  1040.2000      7.9448      2.6476      0.0544      0.1429    148.7711     26.5330
  1040.3000      7.9347      2.6807      0.0320     -1.8635    149.5419     26.8875
  1040.4000      7.9347      2.7265      0.0627     -4.6335    148.0763     26.6920
  1040.5000      7.9348      2.7730      0.0706     -7.4537    147.2448     26.4234
  1040.6000      7.9348      2.7966      0.1414     -8.8862    147.3008     26.4620
  1040.7000      7.9348      2.7840      0.0996     -8.1236    145.9766     26.7567
  1040.8000      7.9264      2.7512      0.0965     -6.1307    144.6969     27.1011
  1040.9000      7.9264      2.7263      0.0472     -4.6243    145.4529     27.4685
  1041.0000      7.9257      2.7273     -0.0169     -4.6842    144.8019     27.6482
  1041.1000      7.9257      2.7319      0.0567     -4.9616    141.8323     27.4686
  1041.2000      7.9257      2.6959     -0.0524     -2.7791    137.6469     27.1498
  1041.3000      7.9093      2.6216     -0.0979      1.7228    134.0005     26.9362
  1041.4000      7.9093      2.5549     -0.0794      5.7644    133.4629     26.7177
  1041.5000      7.9120      2.5404     -0.0916      6.6449    134.6935     26.1703
  1041.6000      7.9120      2.5882      0.0551      3.7441    134.8578     25.1584
  1041.7000      7.9120      2.6635      0.1775     -0.8208    132.7493     24.0419
  1041.8000      7.8530      2.7208      0.2076     -4.2934    127.2469     23.2479
  1041.9000      7.8530      2.7423      0.2306     -5.5968    117.9003     22.7990
  1042.0000      7.8472      2.7424      0.1772     -5.5985    108.4239     22.4647
  1042.1000      7.8472      2.7414      0.1820     -5.5382    105.2156     22.0286
  1042.2000      7.8472      2.7330      0.1914     -5.0290    110.9048     21.6899
  1042.3000      7.8487      2.7061      0.1183     -3.3999    119.0454     21.8384
  1042.4000      7.8487      2.6770      0.0924     -1.6376    122.3161     22.1869
  1042.5000      7.8446      2.6585      0.0884     -0.5139    120.9294     22.2760
  1042.6000      7.8446      2.6463      0.0529      0.2232    119.2069     22.1515
  1042.7000      7.8446      2.6349      0.0517      0.9133    119.5110     22.0871
  1042.8000      7.9194      2.6204      0.0278      1.7939    119.9628     22.2802
  1042.9000      7.9194      2.6115     -0.0088      2.3317    118.2075     22.6751
  1043.0000      7.9538      2.6188      0.0188      1.8883    115.4201     23.0151
  1043.1000      7.9538      2.6283      0.0499      1.3144    115.7143     23.2327
  1043.2000      7.9538      2.6220      0.0373      1.6976    120.1044     23.4566
  1043.3000      7.9598      2.6079     -0.0049      2.5500    125.1044     23.7285
  1043.4000      7.9598      2.6028      0.0040      2.8579    128.1304     24.0229
  1043.5000      7.9945      2.5995      0.0281      3.0619    130.5159     24.3386
  1043.6000      7.9945      2.5785      0.0391      4.3326    135.4254     24.6966
  1043.7000      7.9945      2.5435      0.0008      6.4531    143.1718     24.9931
  1043.8000      7.9449      2.5162      0.0235      8.1063    151.3015     25.1621
  1043.9000      7.9449      2.5060      0.0302      8.7244    158.9090     25.2464
  1044.0000      7.9281      2.5103      0.0551      8.4666    165.1826     25.3280
  1044.1000      7.9281      2.5227      0.0376      7.7123    168.6949     25.4927
  1044.2000      7.9281      2.5346      0.1043      6.9941    171.1592     25.8303
  1044.3000      7.9428      2.5412      0.1354      6.5967    174.7895     26.3586
  1044.4000      7.9428      2.5483      0.1075      6.1656    180.7109     26.8825
  1044.5000      7.9663      2.5580      0.1415      5.5761    187.3754     27.2175
  1044.6000      7.9663      2.5639      0.1439      5.2183    188.7501     27.4560
  1044.7000      7.9663      2.5665      0.1619      5.0610    183.2721     27.7264
  1044.8000      7.9794      2.5696      0.1666      4.8710    178.7086     27.8216
  1044.9000      7.9794      2.5714      0.1232      4.7615    179.8100     27.7131
  1045.0000      8.0027      2.5650      0.1182      5.1528    182.1989     27.7246
  1045.1000      8.0027      2.5488      0.0844      6.1342    183.0635     27.9521
  1045.2000      8.0027      2.5317      0.0605      7.1712    183.7009     28.2919
  1045.3000      8.0024      2.5172      0.0629      8.0506    183.7326     28.6117
  1045.4000      8.0024      2.5038      0.0282      8.8599    182.4336     28.7850
  1045.5000      8.0006      2.4942      0.0353      9.4423    181.2746     28.7296
  1045.6000      8.0006      2.4880      0.0341      9.8160    180.3469     28.5474
  1045.7000      8.0006      2.4797      0.1074     10.3198    178.2429     28.6514
  1045.8000      8.0085      2.4655      0.1086     11.1827    174.8163     29.0796
  1045.9000      8.0085      2.4462      0.1363     12.3494    171.2170     29.5154
  1046.0000      8.0351      2.4275      0.1315     13.4831    171.4725     30.0008
  1046.1000      8.0351      2.4190      0.1409     14.0015    175.1003     30.4946
  1046.2000      8.0351      2.4286      0.1111     13.4173    176.5201     30.7225
  1046.3000      8.0657      2.4613      0.1370     11.4390    175.6365     30.4928
  1046.4000      8.0657      2.5120      0.1611      8.3643    176.2990     29.9953
  1046.5000      8.0372      2.5579      0.2450      5.5789    179.0243     29.6660
  1046.6000      8.0372      2.5736      0.2261      4.6274    179.4085     29.6083
  1046.7000      8.0372      2.5614      0.1097      5.3726    177.4520     29.5867
  1046.8000      7.9768      2.5436      0.0906      6.4495    176.7639     29.3011
  1046.9000      7.9768      2.5271      0.1109      7.4468    179.7969     28.7157
  1047.0000      7.9781      2.5074      0.0962      8.6410    185.8772     28.2090
  1047.1000      7.9781      2.4966      0.0190      9.2994    189.5655     27.8537
  1047.2000      7.9781      2.5033      0.0807      8.8899    187.3637     27.4467
  1047.3000      7.9956      2.5067      0.0899      8.6857    181.1845     27.2729
  1047.4000      7.9956      2.4933      0.0620      9.4986    177.9179     27.5122
  1047.5000      7.9635      2.4789      0.0225     10.3672    181.6559     27.9033
  1047.6000      7.9635      2.4757      0.0484     10.5626    187.0203     28.4553
  1047.7000      7.9635      2.4743      0.0771     10.6501    187.8627     29.0535
  1047.8000      7.9814      2.4577      0.0593     11.6562    185.0787     29.2079
  1047.9000      7.9814      2.4164      0.0781     14.1601    180.1842     28.8117
