~Version Information
VERS.                      2.0: CWLS Log ASCII Standard - VERSION 2.0
WRAP.                       NO: One line per depth step
~Well Information Block
STRT.FT               -11.0000: 
STOP.FT              1523.2500: 
STEP.FT                 0.2500: 
NULL.                -999.2500: 
COMP.          Petrogulf Corporation: COMPANY
WELL.             State 16-43R: WELL
FLD.           Purgatorie River: FIELD
LOC.           2538' FSL & 716' FEL--: LOCATION
PROV.                       CO: PROVINCE
CNTY.               Las Animas: COUNTRY
SRVC.          Patterson Wireline: SERVICE COMPANY
DATE.          Fri Sep 09 13:13:52 2005: LOG DATE
UWI.           05 071 08338 00: UNIQUE WELL ID
~Curve Information Block
DEPT.FT            0 000 00 00: Depth
CCL.                          : Casing Collar Locator
TT3.usec                      : CBL 3' Travel Time
AMP3.mV                       : CBL 3' Amplitude
GR.GAPI                       : Gamma Ray
~Parameter Information Block
~A  Depth       CCL         TT3         AMP3         GR     
# ...
  1094.5000      0.0000    747.2408      9.4385     89.7250
  1094.7500      0.0000    746.9836      9.5120     86.2500
  1095.0000      0.0000    746.7449      9.5851     84.5571
  1095.2500      0.0000    746.5292      9.6516     85.1019
  1095.5000      0.0000    746.2642      9.7125     87.3018
  1095.7500      0.0000    745.7911      9.7713     90.0537
  1096.0000      0.0000    744.7583      9.8288     92.2117
  1096.2500      0.0000    742.4194      9.8828     92.8645
  1096.5000      0.0000    737.5821      9.9255     91.4812
  1096.7500      0.0000    729.2195      9.9270     87.9830
  1097.0000      0.0000    717.5344      9.8204     82.9161
  1097.2500      0.0000    704.3193      9.5347     77.5250
  1097.5000      0.0000    692.1938      9.0790     73.2708
  1097.7500      0.0000    684.1302      8.5881     70.9137
  1098.0000      0.0000    683.7376      8.2372     70.0587
  1098.2500      0.0000    693.9635      8.1000     69.7081
  1098.5000      0.0000    713.7454      8.1194     69.1605
  1098.7500      0.0000    736.9572      8.2045     68.3194
  1099.0000      0.0000    756.6276      8.3039     67.3829
  1099.2500      0.0000    770.2204      8.4019     66.5959
  1099.5000      2.0000    779.7877      8.5024     66.3157
  1099.7500     -2.0000    787.3470      8.6319     66.9119
  1100.0000      0.0000    791.4298      8.8425     68.3793
  1100.2500      0.0000    788.3344      9.1969     70.3412
  1100.5000      0.0000    776.2793      9.7167     72.5557
  1100.7500      0.0000    758.1689     10.3079     74.9805
  1101.0000      0.0000    740.1505     10.7680     77.2467
  1101.2500      0.0000    727.4561     10.9348     78.6487
  1101.5000      0.0000    721.7917     10.8278     78.9026
  1101.7500      0.0000    722.2314     10.6084     78.4878
  1102.0000      0.0000    727.4020     10.4250     78.0616
  1102.2500      0.0000    736.2256     10.3272     77.7768
  1102.5000      0.0000    747.4990     10.2934     77.3814
  1102.7500      0.0000    759.7755     10.2863     76.9227
  1103.0000      0.0000    771.5472     10.2813     76.9374
  1103.2500      0.0000    781.3426     10.2689     77.6295
  1103.5000      0.0000    788.1537     10.2485     78.3366
  1103.7500      0.0000    791.9619     10.2221     78.4368
  1104.0000      0.0000    793.5727     10.1939     78.3624
  1104.2500      0.0000    793.8424     10.1699     78.9974
  1104.5000      0.0000    793.2184     10.1548     80.3252
  1104.7500      0.0000    791.9678     10.1471     81.3275
  1105.0000      0.0000    790.6492     10.1398     81.2045
  1105.2500      0.0000    790.0670     10.1284     80.1752
  1105.5000      0.0000    790.6341     10.1182     78.8731
  1105.7500      0.0000    791.8994     10.1221     77.3046
  1106.0000      0.0000    792.8371     10.1495     75.0062
  1106.2500      0.0000    792.3682     10.1938     72.2785
  1106.5000      0.0000    789.5300     10.2324     70.6439
  1106.7500      0.0000    783.6506     10.2431     71.6090
  1107.0000      0.0000    774.9738     10.2205     75.1374
  1107.2500      0.0000    765.1096     10.1768     79.5640
  1107.5000      0.0000    756.3550     10.1248     83.0860
  1107.7500      0.0000    750.2569     10.0672     85.2104
  1108.0000      0.0000    746.8666     10.0007     86.4836
  1108.2500      0.0000    745.1907      9.9257     87.0361
  1108.5000      0.0000    743.9830      9.8475     86.1088
  1108.7500      0.0000    742.0386      9.7716     83.1728
  1109.0000      0.0000    738.2410      9.6997     78.9489
  1109.2500      0.0000    732.1121      9.6302     75.0409
  1109.5000      0.0000    724.7784      9.5621     72.8642
  1109.7500      0.0000    718.9663      9.4976     72.9440
  1110.0000      0.0000    717.0922      9.4417     74.8620
  1110.2500      0.0000    719.0056      9.3968     77.7235
  1110.5000      0.0000    722.0574      9.3594     80.8182
  1110.7500      0.0000    723.7061      9.3235     83.6978
  1111.0000      0.0000    723.8676      9.2887     85.7351
  1111.2500      0.0000    724.5428      9.2628     86.2858
  1111.5000      0.0000    727.4003      9.2547     85.5075
  1111.7500      0.0000    732.0770      9.2663     84.4721
  1112.0000      0.0000    736.7153      9.2919     84.1574
  1112.2500      0.0000    739.6100      9.3222     84.5176
  1112.5000      0.0000    740.1724      9.3505     84.6629
  1112.7500      0.0000    738.8210      9.3766     83.9691
  1113.0000      0.0000    736.4574      9.4060     83.0602
  1113.2500      0.0000    733.8201      9.4467     83.6316
  1113.5000      0.0000    730.9583      9.5060     87.3336
  1113.7500      0.0000    727.5019      9.5855     94.9058
  1114.0000      0.0000    723.6609      9.6714    105.8343
  1114.2500      0.0000    720.5848      9.7336    118.1865
  1114.5000      0.0000    719.3780      9.7424    129.1351
  1114.7500      0.0000    720.0722      9.6939    136.5199
  1115.0000      0.0000    721.9266      9.6166    140.1566
  1115.2500      0.0000    724.4552      9.5524    141.5076
  1115.5000      0.0000    727.5273      9.5300    142.1233
  1115.7500      0.0000    730.4941      9.5539    142.3666
  1116.0000      0.0000    732.1350      9.6135    141.3656
  1116.2500      0.0000    732.0328      9.6971    138.0567
  1116.5000      0.0000    731.4669      9.7980    132.2594
  1116.7500      0.0000    732.2537      9.9072    124.8604
  1117.0000      0.0000    734.8553     10.0049    117.2131
  1117.2500      0.0000    738.0312     10.0651    110.4778
  1117.5000      0.0000    740.0394     10.0717    105.2440
  1117.7500      0.0000    739.5300     10.0286    101.4437
  1118.0000      0.0000    735.4319      9.9510     98.5934
  1118.2500      0.0000    727.0306      9.8537     96.4243
  1118.5000      0.0000    715.0773      9.7462     95.4561
  1118.7500      0.0000    702.7885      9.6362     96.7064
  1119.0000      0.0000    694.9248      9.5345    100.4531
  1119.2500      0.0000    695.0531      9.4570    105.4370
  1119.5000      0.0000    703.1628      9.4218    109.7218
  1119.7500      0.0000    715.6519      9.4390    112.2073
  1120.0000      0.0000    727.7095      9.5028    112.8075
  1120.2500      0.0000    736.1106      9.5957    111.5824
  1120.5000      0.0000    740.2092      9.7001    108.5684
  1120.7500      0.0000    740.9838      9.8045    104.1639
  1121.0000      0.0000    739.8350      9.9006     98.7895
  1121.2500      0.0000    738.1942      9.9795     92.4580
  1121.5000      0.0000    737.3675     10.0337     85.4521
  1121.7500      0.0000    737.9909     10.0593     79.1494
  1122.0000      0.0000    739.6749     10.0564     75.4277
  1122.2500      0.0000    741.4888     10.0274     75.2453
  1122.5000      0.0000    742.7427      9.9762     77.9268
  1122.7500      0.0000    743.1940      9.9042     81.5159
  1123.0000      0.0000    742.6738      9.8101     83.8070
  1123.2500      0.0000    740.7947      9.6938     83.6413
  1123.5000      0.0000    737.1958      9.5614     81.6568
  1123.7500      0.0000    732.1933      9.4266     79.7865
  1124.0000      0.0000    727.0657      9.3073     79.8855
  1124.2500      0.0000    723.2895      9.2185     82.4977
  1124.5000      0.0000    721.2700      9.1649     86.5198
  1124.7500      0.0000    720.0776      9.1392     90.0292
  1125.0000      0.0000    718.5899      9.1285     91.5614
  1125.2500      0.0000    716.6062      9.1244     90.6154
  1125.5000      0.0000    714.7015      9.1271     87.3981
  1125.7500      0.0000    713.3747      9.1387     82.8173
  1126.0000      0.0000    712.6462      9.1544     78.4371
  1126.2500      0.0000    712.2870      9.1618     75.5737
  1126.5000      0.0000    712.1356      9.1501     74.5933
  1126.7500      0.0000    712.1222      9.1126     75.6983
  1127.0000      0.0000    712.0156      9.0400     79.8724
  1127.2500      0.0000    711.1223      8.9178     88.1222
  1127.5000      0.0000    708.2949      8.7373     99.9684
  1127.7500      0.0000    702.6129      8.5097    113.3838
