~Version Information
VERS.                      2.0: CWLS Log ASCII Standard - VERSION 2.0
WRAP.                       NO: One line per depth step
~Well Information Block
STRT.FT               545.0000: 
STOP.FT              1922.0000: 
STEP.FT                 0.2500: 
NULL.                -999.2500: 
COMP.          Pioneer Natural Resources: COMPANY
WELL.            Summers 21-19: WELL
FLD.           Purgatoire River: FIELD
LOC.           900' FNL & 1950' FWL: LOCATION
PROV.                 Colorado: PROVINCE
CNTY.               Las Animas: COUNTRY
SRVC.                Patterson: SERVICE COMPANY
DATE.          Sat Oct 15 03:34:13 2005: LOG DATE
UWI.           05 071 08315 00: UNIQUE WELL ID
~Curve Information Block
DEPT.FT            0 000 00 00: Depth
SN.Ohm-m                      : IEL Short Normal
SP.mV                         : IEL Spontaneous Potential
DIR.Ohm-m                     : IEL Induction Resistivity
GR.GAPI                       : Gamma Ray
~Parameter Information Block
~A  Depth        SN          SP         DIR          GR     
# ...
   913.5000     20.9743   -154.8750     20.5932    106.2112
   913.7500     21.2724   -154.7852     20.3556    101.5784
   914.0000     21.5549   -155.1487     20.0893     95.9214
   914.2500     21.8049   -155.4465     19.8207     93.4794
   914.5000     21.9999   -155.1827     19.5798     92.6002
   914.7500     22.1659   -154.3644     19.3879     94.4108
   915.0000     22.3343   -153.3596     19.2517    101.3823
   915.2500     22.4315   -152.5594     19.1650    108.4580
   915.5000     22.3236   -152.2178     19.1138    120.1220
   915.7500     21.9713   -152.4214     19.0791    126.7201
   916.0000     21.4534   -153.0801     19.0376    133.0632
   916.2500     20.8310   -153.9665     18.9616    135.0655
   916.5000     20.0976   -154.8223     18.8244    136.0283
   916.7500     19.2915   -155.4764     18.6089    136.0919
   917.0000     18.5528   -155.9070     18.3152    136.2023
   917.2500     18.0302   -156.2228     17.9619    136.3734
   917.5000     17.7790   -156.5873     17.5796    136.0495
   917.7500     17.7524   -157.1428     17.2002    134.7565
   918.0000     17.8491   -157.9458     16.8472    130.5685
   918.2500     17.9740   -158.9260     16.5340    126.6362
   918.5000     18.0757   -159.8894     16.2697    120.7183
   918.7500     18.1316   -160.5674     16.0666    117.9604
   919.0000     18.1153   -160.7054     15.9410    117.2566
   919.2500     18.0174   -160.2671     15.9064    119.4493
   919.5000     17.8891   -159.7222     15.9685    125.9613
   919.7500     17.8056   -159.9871     16.1233    131.3830
   920.0000     17.7777   -161.7086     16.3599    139.1666
   920.2500     17.7693   -164.4918     16.6625    143.1694
   920.5000     17.8005   -167.0300     17.0122    146.0304
   920.7500     17.9450   -168.0851     17.3889    145.3356
   921.0000     18.2417   -167.2556     17.7758    140.6822
   921.2500     18.6808   -164.9008     18.1621    136.0339
   921.5000     19.2754   -161.7134     18.5452    128.4335
   921.7500     20.0837   -158.4789     18.9331    123.5720
   922.0000     21.1468   -155.8210     19.3488    117.0582
   922.2500     22.4376   -153.8792     19.8302    113.3980
   922.5000     23.8675   -152.3329     20.4241    109.0654
   922.7500     25.3535   -150.7797     21.1716    106.8240
   923.0000     26.8567   -148.9871     22.0890    103.9931
   923.2500     28.3329   -146.8539     23.1477    102.2875
   923.5000     29.6618   -144.3248     24.2623     99.9995
   923.7500     30.6797   -141.4084     25.3011     98.7245
   924.0000     31.3319   -138.2402     26.1263     97.1528
   924.2500     31.7361   -135.1015     26.6448     96.1466
   924.5000     32.0444   -132.3533     26.8359     94.3992
   924.7500     32.2958   -130.2902     26.7443     93.2502
   925.0000     32.4267   -129.0072     26.4546     92.4826
   925.2500     32.3688   -128.3864     26.0620     93.0161
   925.5000     32.0786   -128.2098     25.6431     95.2174
   925.7500     31.5144   -128.2879     25.2311     97.3334
   926.0000     30.6996   -128.5118     24.8101    101.5206
   926.2500     29.7735   -128.8342     24.3381    105.1651
   926.5000     28.8917   -129.2372     23.7880    111.6595
   926.7500     28.0996   -129.7117     23.1767    116.1658
   927.0000     27.3519   -130.2475     22.5555    122.3580
   927.2500     26.6095   -130.8261     21.9690    125.7815
   927.5000     25.8674   -131.4177     21.4266    129.3314
   927.7500     25.1324   -131.9849     20.9112    130.4614
   928.0000     24.3868   -132.4924     20.4127    130.9108
   928.2500     23.6265   -132.9164     19.9509    131.1981
   928.5000     22.9469   -133.2479     19.5649    132.5307
   928.7500     22.4626   -133.4892     19.2841    133.7997
   929.0000     22.1722   -133.6561     19.1107    135.1857
   929.2500     21.9855   -133.7836     19.0225    135.2327
   929.5000     21.8313   -133.9162     18.9905    133.4065
   929.7500     21.7578   -134.0745     18.9953    130.6783
   930.0000     21.9321   -134.2305     19.0343    124.1466
   930.2500     22.4802   -134.3259     19.1116    118.2601
   930.5000     23.4106   -134.3206     19.2191    107.6431
   930.7500     24.6355   -134.2254     19.3230    100.0874
   931.0000     25.8941   -134.0887     19.3712     90.2895
   931.2500     26.8353   -133.9567     19.3141     86.2687
   931.5000     27.3360   -133.8492     19.1207     85.1866
   931.7500     27.5255   -133.7699     18.7806     87.1605
   932.0000     27.4352   -133.7239     18.2987     91.8252
   932.2500     26.8668   -133.7115     17.6912     94.9978
   932.5000     25.6670   -133.7066     16.9806     99.5950
   932.7500     23.9609   -133.6558     16.1913    102.9915
   933.0000     22.0907   -133.5130     15.3510    108.9785
   933.2500     20.3601   -133.2838     14.4936    113.2107
   933.5000     18.7851   -133.0384     13.6586    118.7251
   933.7500     17.1724   -132.8771     12.8826    121.3198
   934.0000     15.5110   -132.8742     12.1905    123.8234
   934.2500     14.0833   -133.0424     11.5911    125.3560
   934.5000     13.1111   -133.3319     11.0799    128.7417
   934.7500     12.5435   -133.6534     10.6453    131.6979
   935.0000     12.2428   -133.9108     10.2767    135.7474
   935.2500     12.1312   -134.0300      9.9692    137.2046
   935.5000     12.1000   -133.9770      9.7226    136.7724
   935.7500     11.9856   -133.7618      9.5360    135.0733
   936.0000     11.7420   -133.4302      9.4012    131.9455
   936.2500     11.5098   -133.0389      9.3017    130.3876
   936.5000     11.4329   -132.6252      9.2167    129.2821
   936.7500     11.5117   -132.1942      9.1278    128.7552
   937.0000     11.6620   -131.7357      9.0236    126.5062
   937.2500     11.7650   -131.2497      8.9007    123.3463
   937.5000     11.6953   -130.7564      8.7582    116.5783
   937.7500     11.4456   -130.2866      8.5932    111.8405
   938.0000     11.1490   -129.8669      8.4014    106.4521
   938.2500     10.9203   -129.5095      8.1822    104.6457
   938.5000     10.7556   -129.2166      7.9430    104.7693
   938.7500     10.5837   -129.0000      7.6958    106.6428
   939.0000     10.3418   -128.9052      7.4506    112.0537
   939.2500     10.0212   -129.0179      7.2124    117.2759
   939.5000      9.6905   -129.4468      6.9840    126.4730
   939.7500      9.4476   -130.2970      6.7696    132.1339
   940.0000      9.3377   -131.6602      6.5774    137.2905
   940.2500      9.3162   -133.6164      6.4182    137.9065
   940.5000      9.2811   -136.2360      6.3045    135.8565
   940.7500      9.1940   -139.5740      6.2483    133.8482
   941.0000      9.1475   -143.7052      6.2607    131.6206
   941.2500      9.2068   -148.8286      6.3492    131.0377
   941.5000      9.2415   -155.2901      6.5109    131.2140
   941.7500      9.0878   -163.2748      6.7172    131.5303
   942.0000      8.8001   -172.2769      6.8935    131.3840
   942.2500      8.5420   -180.9323      6.9191    130.4624
   942.5000      8.3143   -187.5791      6.6856    127.4007
   942.7500      7.9535   -191.1806      6.1928    124.0724
   943.0000      7.3560   -191.8611      5.5669    116.7902
   943.2500      6.6216   -190.6153      4.9659    110.1487
   943.5000      5.9535   -188.4572      4.4925     97.6928
   943.7500      5.4381   -185.8985      4.1857     88.7578
   944.0000      5.0801   -183.2082      4.0529     77.7375
   944.2500      4.9908   -180.7903      4.0996     73.8839
   944.5000      5.2808   -179.0354      4.3482     74.2754
   944.7500      5.9455   -178.0653      4.8475     77.4195
   945.0000      7.0067   -177.8430      5.6731     82.7040
   945.2500      8.5047   -178.1206      6.8971     84.7340
   945.5000     10.2258   -178.0060      8.4835     84.4781
   945.7500     11.6122   -176.1343     10.1085     82.7011
   946.0000     12.1556   -171.8241     11.1832     79.3798
   946.2500     11.9348   -165.8631     11.3799     77.4717
   946.5000     11.5560   -159.8488     10.9764     75.4979
   946.7500     11.5063   -154.9332     10.4496     74.7110
