~Version Information
VERS.                      2.0: CWLS Log ASCII Standard - VERSION 2.0
WRAP.                       NO: One line per depth step
~Well Information Block
STRT.FT               784.0000: 
STOP.FT              1035.0000: 
STEP.FT                 0.2500: 
NULL.                -999.2500: 
COMP.          Pioneer Natural Resources: COMPANY
WELL.          Run-Away-Train 43-26: WELL
FLD.           Purgatoire River: FIELD
LOC.           1693' FSL & 1195' FEL: LOCATION
PROV.                 Colorado: PROVINCE
CNTY.               Las Animas: COUNTRY
SRVC.                Patterson: SERVICE COMPANY
DATE.          Tue Apr 05 19:22:37 2005: LOG DATE
UWI.           05 071 08188 00: UNIQUE WELL ID
~Curve Information Block
DEPT.FT            0 000 00 00: Depth
SN.Ohm-m                      : IEL Short Normal
SP.mV                         : IEL Spontaneous Potential
DIR.Ohm-m                     : IEL Induction Resistivity
GR.GAPI                       : Gamma Ray
~Parameter Information Block
~A  Depth        SN          SP         DIR          GR     
# ...
   985.0000     18.6315      8.9452     14.7099     97.0748
   985.2500     19.1519      9.2485     14.2362     97.4477
   985.5000     19.8114      9.1420     13.7012     98.9840
   985.7500     20.3219      8.2962     13.1646    100.4097
   986.0000     20.4027      6.5130     12.6766    102.7978
   986.2500     19.8375      3.8522     12.2650    104.5775
   986.5000     18.6120      0.5818     11.9348    107.7519
   986.7500     16.9884     -2.9912     11.6755    110.1787
   987.0000     15.3330     -6.6504     11.4687    113.7687
   987.2500     13.9238    -10.2464     11.2936    115.7136
   987.5000     12.9039    -13.5929     11.1297    117.5285
   987.7500     12.2693    -16.4556     10.9592    118.0169
   988.0000     11.8979    -18.6716     10.7717    117.8932
   988.2500     11.6814    -20.2678     10.5700    117.3377
   988.5000     11.5925    -21.4561     10.3716    115.8479
   988.7500     11.5999    -22.5163     10.2021    114.3917
   989.0000     11.6672    -23.6711     10.0826    111.5390
   989.2500     11.9124    -25.0202     10.0194    109.4250
   989.5000     12.8715    -26.5145     10.0021    106.6537
   989.7500     16.5825    -27.9550     10.0101    105.3592
   990.0000     28.5529    -29.0748     10.0231    104.2478
   990.2500     55.0680    -29.7256     10.0296    103.9720
   990.5000     89.6751    -30.0310     10.0265    104.1750
   990.7500    107.9710    -30.3272     10.0149    104.5715
   991.0000     95.6040    -30.8881      9.9965    105.1299
   991.2500     70.5202    -31.6499      9.9720    105.4458
   991.5000     60.1144    -32.1877      9.9409    106.3945
   991.7500     81.0244    -32.0043      9.8991    107.6418
   992.0000    143.7281    -30.9204      9.8368    110.1532
   992.2500    237.8178    -29.2632      9.7412    111.7307
   992.5000    317.3796    -27.7497      9.6045    113.2606
   992.7500    336.8516    -27.1964      9.4313    113.7303
   993.0000    286.4620    -28.1853      9.2409    114.1689
   993.2500    191.8343    -30.7218      9.0613    114.6027
   993.5000    104.0587    -34.0131      8.9206    115.4542
   993.7500     67.9815    -36.6982      8.8388    115.8078
   994.0000    102.5620    -37.7159      8.8218    115.3000
   994.2500    206.5181    -37.2883      8.8586    114.0545
   994.5000    339.2295    -37.0018      8.9216    111.0408
   994.7500    416.5861    -38.6361      8.9717    108.7034
   995.0000    384.5427    -42.7023      8.9683    105.6621
   995.2500    292.2313    -48.0523      8.8822    104.2920
   995.5000    243.6474    -52.9190      8.7086    102.9447
   995.7500    284.3326    -56.3554      8.4756    101.9610
   996.0000    375.7933    -58.5447      8.2393     99.5829
   996.2500    451.1811    -59.6239      8.0681     97.3911
   996.5000    478.2644    -58.5523      8.0247     93.8621
   996.7500    491.8554    -53.7034      8.1519     91.8698
   997.0000    535.7835    -44.6981      8.4607     90.0520
   997.2500    590.4479    -33.3350      8.9169     89.6167
   997.5000    604.7275    -22.5428      9.4311     89.5538
   997.7500    548.7799    -14.5232      9.8764     89.5559
   998.0000    422.7598     -9.8175     10.1436     89.4121
   998.2500    265.2140     -7.6831     10.2042     89.1721
   998.5000    136.5541     -6.9810     10.1221     88.2675
   998.7500     67.1647     -6.8104     10.0123     87.0193
   999.0000     43.0499     -6.6945      9.9901     83.9316
   999.2500     38.2955     -6.4551     10.1379     81.2052
   999.5000     38.0782     -6.0224     10.4856     76.7416
   999.7500     37.9677     -5.3886     10.9963     73.8857
  1000.0000     37.9278     -4.6881     11.5624     70.1882
  1000.2500     38.4374     -4.1910     12.0352     68.3433
  1000.5000     38.8737     -4.1197     12.2953     67.0998
  1000.7500     38.9563     -4.4474     12.3154     67.6254
  1001.0000     40.4090     -4.8691     12.1566     70.6220
  1001.2500     46.5107     -4.9653     11.9132     73.8660
  1001.5000     60.0993     -4.4465     11.6626     79.7310
  1001.7500     80.2820     -3.3145     11.4506     83.6863
  1002.0000    100.0725     -1.8336     11.2963     88.8970
  1002.2500    106.9897     -0.3333     11.2005     91.7372
  1002.5000     91.4691      1.0032     11.1490     94.9818
  1002.7500     60.3228      2.1757     11.1167     96.2053
  1003.0000     32.4990      3.2019     11.0772     95.8763
  1003.2500     18.6659      3.9719     11.0182     94.1330
  1003.5000     15.5698      4.3091     10.9504     90.3381
  1003.7500     16.4426      4.1371     10.9030     88.0249
  1004.0000     17.6678      3.5459     10.9094     86.0314
  1004.2500     18.4503      2.7253     10.9946     85.7818
  1004.5000     19.0357      1.8626     11.1714     86.4995
  1004.7500     19.6674      1.0816     11.4434     87.1926
  1005.0000     20.3114      0.4304     11.8085     87.6070
  1005.2500     20.7629     -0.1006     12.2568     87.1851
  1005.5000     20.8876     -0.5538     12.7654     86.0796
  1005.7500     20.7646     -0.9792     13.3002     85.8359
  1006.0000     20.5906     -1.4054     13.8275     87.1068
  1006.2500     20.5339     -1.8222     14.3280     88.6654
  1006.5000     20.6732     -2.1967     14.7978     90.1451
  1006.7500     20.9871     -2.5072     15.2360     89.5018
  1007.0000     21.3985     -2.7585     15.6318     85.7389
  1007.2500     21.8554     -2.9697     15.9645     82.0930
  1007.5000     22.3506     -3.1640     16.2155     76.8810
  1007.7500     22.8640     -3.3756     16.3831     74.5594
  1008.0000     23.3445     -3.6573     16.4881     73.5318
  1008.2500     23.7555     -4.0677     16.5644     74.2356
  1008.5000     24.0822     -4.6430     16.6410     76.1418
  1008.7500     24.2900     -5.3753     16.7268     77.2185
  1009.0000     24.3326     -6.2210     16.8088     77.8861
  1009.2500     24.1971     -7.1350     16.8628     77.7852
  1009.5000     23.9014     -8.0954     16.8670     77.5273
  1009.7500     23.4758     -9.0910     16.8078     77.8399
  1010.0000     22.9680    -10.0874     16.6770     79.8220
  1010.2500     22.4415    -11.0189     16.4699     82.2567
  1010.5000     21.9630    -11.8285     16.1887     86.8643
  1010.7500     21.5761    -12.5204     15.8483     89.7925
  1011.0000     21.2700    -13.1701     15.4761     92.8961
  1011.2500     20.9817    -13.8805     15.1016     94.0633
  1011.5000     20.6583    -14.7227     14.7465     95.2784
  1011.7500     20.3040    -15.7052     14.4227     96.2407
  1012.0000     19.9482    -16.7858     14.1374     98.1119
  1012.2500     19.6104    -17.9159     13.8995     99.3802
  1012.5000     19.3146    -19.0905     13.7197    100.7417
  1012.7500     19.0880    -20.3730     13.6045    101.1386
  1013.0000     18.9380    -21.8698     13.5526    101.0755
  1013.2500     18.8641    -23.6571     13.5561    100.7472
  1013.5000     18.8763    -25.7075     13.6070    100.0259
  1013.7500     18.9712    -27.8755     13.7013     99.3923
  1014.0000     19.1263    -29.9610     13.8367     97.9666
  1014.2500     19.3397    -31.8071     14.0070     96.5624
  1014.5000     19.6309    -33.3689     14.2023     93.7664
  1014.7500     19.9804    -34.7091     14.4180     91.2196
  1015.0000     20.3223    -35.9312     14.6602     84.5187
  1015.2500     20.6273    -37.1111     14.9383     76.4438
  1015.5000     20.9289    -38.2799     15.2477     57.8485
  1015.7500     21.2590    -39.4474     15.5592     42.8817
  1016.0000     21.6198    -40.6282     15.8286     22.2548
  1016.2500     22.0020    -41.8468     16.0228     12.3349
  1016.5000     22.3736    -43.1249     16.1420      3.9744
  1016.7500     22.6760    -44.4577     16.2219      1.5722
  1017.0000     22.8758    -45.7958     16.3138      0.2981
  1017.2500     22.9742    -47.0531     16.4587      0.0810
  1017.5000     22.9355    -48.1436     16.6675      0.0069
  1017.7500     22.6915    -49.0240     16.9144      0.0000
  1018.0000     22.2477    -49.7127     17.1424   -999.2500
  1018.2500     21.7210    -50.2775     17.2760   -999.2500
