~Version Information
VERS.                      2.0: CWLS Log ASCII Standard - VERSION 2.0
WRAP.                       NO: One line per depth step
~Well Information Block
STRT.FT                 0.0000: 
STOP.FT              2430.7500: 
STEP.FT                 0.2500: 
NULL.                -999.2500: 
COMP.          Petrogulf Corporation: COMPANY
WELL.             Leier 17-42V: WELL
FLD.           Purgatorie River: FIELD
LOC.           2309' FNL & 1062' FEL: LOCATION
PROV.                 Colorado: PROVINCE
CNTY.               Las Animas: COUNTRY
SRVC.                Patterson: SERVICE COMPANY
DATE.          Thu Oct 06 10:18:00 2005: LOG DATE
UWI.                          : UNIQUE WELL ID
~Curve Information Block
DEPT.FT            0 000 00 00: Depth
CCL.                          : Casing Collar Locator
TT3.usec                      : CBL 3' Travel Time
AMP3.mV                       : CBL 3' Amplitude
GR.GAPI                       : Gamma Ray
~Parameter Information Block
~A  Depth       CCL         TT3         AMP3         GR     
# ...
   804.0000      0.0000    533.5555      8.2156     65.4565
   804.2500      0.0000    607.8542      8.1632     67.1097
   804.5000      0.0000    668.8378      8.1337     70.0538
   804.7500      0.0000    700.3500      8.1359     73.1989
   805.0000      0.0000    710.8097      8.1462     75.8917
   805.2500      0.0000    713.1370      8.1532     78.2446
   805.5000      0.0000    713.7228      8.1596     80.8083
   805.7500      0.0000    714.1616      8.1739     83.9785
   806.0000      0.0000    714.2349      8.2093     87.6464
   806.2500      0.0000    712.1300      8.2514     91.2339
   806.5000      0.0000    701.5685      8.2565     94.0805
   806.7500      0.0000    669.6115      8.2182     95.9615
   807.0000      0.0000    606.7733      8.1803     97.1242
   807.2500      0.0000    525.6232      8.1769     97.5737
   807.5000      0.0000    455.0565      8.2034     96.4957
   807.7500      0.0000    410.9840      8.2160     92.8280
   808.0000      0.0000    387.5996      8.1667     86.4749
   808.2500      0.0000    373.0274      8.0612     78.6339
   808.5000      0.0000    361.4211      7.9599     70.8906
   808.7500      0.0000    352.9667      7.9147     64.3414
   809.0000      0.0000    348.4448      7.9263     59.5352
   809.2500      0.0000    346.7555      7.9597     56.6382
   809.5000      0.0000    346.3643      7.9783     55.2829
   809.7500      0.0000    346.4341      7.9714     54.6807
   810.0000      0.0000    346.6335      7.9562     54.4804
   810.2500      0.0000    346.8383      7.9525     55.3959
   810.5000      0.0000    347.2026      7.9599     58.4662
   810.7500      0.0000    348.4226      7.9570     63.7233
   811.0000      0.0000    351.6517      7.9281     69.9406
   811.2500      0.0000    357.2615      7.8835     75.5531
   811.5000      0.0000    364.3011      7.8585     79.4175
   811.7500      0.0000    373.7909      7.9087     80.8001
   812.0000      0.0000    391.5994      8.0702     79.2904
   812.2500      0.0000    423.6662      8.3020     75.1776
   812.5000      0.0000    462.7216      8.5061     69.7273
   812.7500      0.0000    484.0659      8.6189     64.8120
   813.0000      0.0000    474.4849      8.6540     62.2694
   813.2500      0.0000    457.2186      8.6651     63.3526
   813.5000      0.0000    463.7837      8.6865     68.0675
   813.7500      0.0000    492.9987      8.7122     74.7182
   814.0000      0.0000    511.3841      8.7044     80.6328
   814.2500      0.0000    493.1194      8.6181     83.9167
   814.5000      0.0000    448.9223      8.4750     84.5652
   814.7500      0.0000    405.0811      8.3828     83.9341
   815.0000      0.0000    374.9256      8.3969     83.3843
   815.2500      0.0000    358.6539      8.4444     83.3603
   815.5000      0.0000    351.7695      8.4422     83.3852
   815.7500      0.0000    349.4476      8.3832     82.8897
   816.0000      0.0000    348.6912      8.2898     82.0935
   816.2500      0.0000    348.3492      8.1753     81.9407
   816.5000      0.0000    348.1392      8.0659     83.2685
   816.7500      0.0000    348.0207      7.9951     86.2605
   817.0000      0.0000    347.9803      7.9648     90.3568
   817.2500      0.0000    347.9744      7.9606     94.2351
   817.5000      0.0000    347.9554      7.9855     96.2615
   817.7500      0.0000    347.9173      8.0329     95.6574
   818.0000      0.0000    347.8894      8.0718     93.3039
   818.2500      0.0000    347.8888      8.0874     91.2313
   818.5000      0.0000    347.9009      8.0933     91.3425
   818.7500      0.0000    347.9009      8.1050     94.2964
   819.0000      0.0000    347.8763      8.1248     98.8295
   819.2500      0.0000    347.8345      8.1535    102.1283
   819.5000      0.0000    347.7933      8.1932    101.7848
   819.7500      0.0000    347.7671      8.2314     97.8768
   820.0000      0.0000    347.7624      8.2563     92.7192
   820.2500      0.0000    347.7776      8.2663     88.4429
   820.5000      0.0000    347.8051      8.2525     85.3096
   820.7500      0.0000    347.8322      8.2178     82.5450
   821.0000      0.0000    347.8401      8.1845     80.0299
   821.2500      0.0000    347.8166      8.1536     78.4235
   821.5000      0.0000    347.7644      8.1046     77.9016
   821.7500      0.0000    347.6902      8.0363     77.6238
   822.0000      0.0000    347.5905      7.9739     76.7475
   822.2500      0.0000    347.4770      7.9360     75.5424
   822.5000      0.0000    347.5080      7.9265     75.0628
   822.7500      0.0000    348.5326      7.9557     75.8698
   823.0000      0.0000    353.1209      8.0071     77.5359
   823.2500      0.0000    364.6500      7.9836     79.4109
   823.5000      0.0000    380.6751      7.7819     81.1882
   823.7500      0.0000    389.1543      7.4646     82.4398
   824.0000      0.0000    382.0145      7.2802     82.1985
   824.2500      0.0000    367.4514      7.3912     79.6395
   824.5000      2.0000    358.0297      7.6699     75.3212
   824.7500      0.0000    358.1044      7.8991     71.4857
   825.0000     -2.0000    368.1236      8.0216     70.6018
   825.2500      0.0000    392.8317      8.0919     73.3048
   825.5000      0.0000    445.2708      8.1188     77.9246
   825.7500      0.0000    534.4763      8.0526     82.0720
   826.0000      0.0000    637.8469      7.8924     84.4044
   826.2500      0.0000    705.7592      7.7364     84.8935
   826.5000      0.0000    708.2164      7.7379     83.8952
   826.7500      0.0000    664.3900      7.9785     81.4211
   827.0000      0.0000    625.2394      8.3338     77.4561
   827.2500      0.0000    623.5940      8.5765     72.8659
   827.5000      0.0000    647.4484      8.6106     69.5054
   827.7500      0.0000    673.4786      8.4965     68.9887
   828.0000      0.0000    698.6364      8.3286     71.3390
   828.2500      0.0000    727.3615      8.1612     75.0064
   828.5000      0.0000    753.6653      8.0156     78.2836
   828.7500      0.0000    766.3732      7.9152     80.6632
   829.0000      0.0000    760.9697      7.8811     82.7178
   829.2500      0.0000    739.6852      7.8997     84.7690
   829.5000      0.0000    707.9144      7.9335     86.1772
   829.7500      0.0000    672.4542      7.9558     86.1638
   830.0000      0.0000    639.6209      7.9611     84.8308
   830.2500      0.0000    618.3832      7.9566     82.8778
   830.5000      0.0000    617.4231      7.9549     80.7127
   830.7500      0.0000    635.8788      7.9692     78.4760
   831.0000      0.0000    667.4040      8.0029     76.6765
   831.2500      0.0000    707.0322      8.0440     76.1115
   831.5000      0.0000    746.7398      8.0815     77.0251
   831.7500      0.0000    775.4825      8.1224     78.7124
   832.0000      0.0000    788.8756      8.1765     80.1136
   832.2500      0.0000    789.9696      8.2428     80.7112
   832.5000      0.0000    780.0776      8.3168     80.9264
   832.7500      0.0000    756.5126      8.3894     81.7992
   833.0000      0.0000    720.2628      8.4432     84.2084
   833.2500      0.0000    680.5901      8.4630     87.9942
   833.5000      0.0000    649.5384      8.4546     91.6180
   833.7500      0.0000    635.0084      8.4322     93.0705
   834.0000      0.0000    640.2448      8.3852     91.5516
   834.2500      0.0000    664.3374      8.3047     88.1625
   834.5000      0.0000    697.0212      8.2172     84.8803
   834.7500      0.0000    720.5524      8.1543     83.1215
   835.0000      0.0000    727.8343      8.1159     83.2164
   835.2500      0.0000    728.0055      8.0790     84.5687
   835.5000      0.0000    725.6836      8.0389     85.8924
   835.7500      0.0000    712.1228      8.0167     85.7139
   836.0000      0.0000    680.1436      8.0157     83.3195
   836.2500      0.0000    631.5073      8.0120     79.3808
   836.5000      0.0000    573.5928      7.9874     75.3203
   836.7500      0.0000    519.0009      7.9530     71.9293
   837.0000      0.0000    480.8390      7.9517     68.9409
   837.2500      0.0000    464.1719      8.0038     66.0418
