~Version Information
VERS.                      2.0: CWLS Log ASCII Standard - VERSION 2.0
WRAP.                       NO: One line per depth step
~Well Information Block
STRT.FT               430.0000: 
STOP.FT              2417.0000: 
STEP.FT                 0.2500: 
NULL.                -999.2500: 
COMP.          Evergreen Operating Corporation: COMPANY
WELL.          McCullough 34-32: WELL
FLD.           Purgatorie River: FIELD
LOC.           261' FSL & 2098' FEL: LOCATION
PROV.                 Colorado: PROVINCE
CNTY.               Las Animas: COUNTRY
SRVC.                Patterson: SERVICE COMPANY
DATE.          Sun May 16 02:33:07 2004: LOG DATE
UWI.           05 071 07953 00: UNIQUE WELL ID
~Curve Information Block
DEPT.FT            0 000 00 00: Depth
SN.Ohm-m                      : IEL Short Normal
SP.mV                         : IEL Spontaneous Potential
DIR.Ohm-m                     : IEL Induction Resistivity
GR.GAPI                       : Gamma Ray
~Parameter Information Block
~A  Depth        SN          SP         DIR          GR     
# ...
  1736.5000      8.1114    137.3628      6.9838    150.7903
  1736.7500      8.1217    137.3722      6.9411    150.7130
  1737.0000      8.1077    137.3474      6.8995    150.3410
  1737.2500      8.0605    137.2566      6.8581    150.4418
  1737.5000      8.0096    137.0718      6.8166    151.8499
  1737.7500      7.9847    136.7887      6.7757    153.3086
  1738.0000      7.9911    136.4360      6.7381    154.4330
  1738.2500      8.0329    136.0637      6.7075    153.4475
  1738.5000      8.1315    135.7180      6.6878    149.3948
  1738.7500      8.2816    135.4246      6.6798    146.1440
  1739.0000      8.4118    135.1909      6.6814    142.8198
  1739.2500      8.4647    135.0132      6.6882    142.2430
  1739.5000      8.4796    134.8772      6.6961    143.2049
  1739.7500      8.5158    134.7581      6.7039    144.3427
  1740.0000      8.5673    134.6272      6.7135    146.0930
  1740.2500      8.6002    134.4625      6.7287    147.2878
  1740.5000      8.6262    134.2570      6.7549    149.4741
  1740.7500      8.6795    134.0204      6.7982    151.4736
  1741.0000      8.7106    133.7741      6.8665    155.5678
  1741.2500      8.6187    133.5399      6.9681    158.8297
  1741.5000      8.3873    133.3300      7.1107    163.5587
  1741.7500      8.0615    133.1438      7.2994    165.8805
  1742.0000      7.6833    132.9721      7.5361    166.8705
  1742.2500      7.3279    132.8042      7.8204    165.2768
  1742.5000      7.1153    132.6332      8.1515    159.2002
  1742.7500      7.1644    132.4550      8.5282    153.0174
  1743.0000      7.5752    132.2677      8.9475    141.7197
  1743.2500      8.4403    132.0772      9.4039    133.7399
  1743.5000      9.7981    131.9016      9.8909    122.6042
  1743.7500     11.5521    131.7630     10.4048    116.2953
  1744.0000     13.5184    131.6678     10.9456    108.8555
  1744.2500     15.5680    131.5974     11.5119    105.3207
  1744.5000     17.6051    131.5217     12.0958    102.1168
  1744.7500     19.4242    131.4212     12.6832    101.1330
  1745.0000     20.7101    131.3016     13.2600    100.8907
  1745.2500     21.1929    131.1959     13.8184    101.5566
  1745.5000     20.8890    131.1536     14.3539    104.1648
  1745.7500     20.1890    131.2157     14.8537    106.9322
  1746.0000     19.5422    131.3881     15.2878    111.7600
  1746.2500     19.1081    131.6358     15.6153    114.8902
  1746.5000     18.7973    131.9004     15.8021    119.2275
  1746.7500     18.5022    132.1237     15.8340    121.9338
  1747.0000     18.1714    132.2669     15.7132    125.1198
  1747.2500     17.7647    132.3230     15.4488    125.9259
  1747.5000     17.2830    132.3194     15.0537    124.5841
  1747.7500     16.7868    132.3092     14.5527    122.6104
  1748.0000     16.3048    132.3452     13.9876    120.0236
  1748.2500     15.7883    132.4464     13.4101    119.2554
  1748.5000     15.1831    132.5819     12.8647    119.0091
  1748.7500     14.4756    132.6972     12.3753    118.6699
  1749.0000     13.6797    132.7664     11.9434    117.6612
  1749.2500     12.8686    132.8153     11.5580    117.5818
  1749.5000     12.1864    132.8944     11.2071    120.6522
  1749.7500     11.7163    133.0331     10.8826    125.5394
  1750.0000     11.3823    133.2175     10.5787    136.0489
  1750.2500     11.0659    133.4011     10.2876    143.3656
  1750.5000     10.7528    133.5322      9.9992    151.4353
  1750.7500     10.5106    133.5771      9.7057    153.8559
  1751.0000     10.3548    133.5300      9.4063    153.5879
  1751.2500     10.1883    133.4110      9.1085    151.8329
  1751.5000      9.9316    133.2568      8.8257    148.1625
  1751.7500      9.6289    133.1049      8.5717    145.2569
  1752.0000      9.3492    132.9764      8.3564    140.4857
  1752.2500      9.1034    132.8707      8.1823    137.6662
  1752.5000      8.8834    132.7771      8.0457    135.7995
  1752.7500      8.6923    132.6902      7.9389    136.9324
  1753.0000      8.5369    132.6151      7.8541    141.8604
  1753.2500      8.4261    132.5637      7.7847    146.0908
  1753.5000      8.3773    132.5506      7.7252    151.3676
  1753.7500      8.3843    132.5894      7.6693    153.3799
  1754.0000      8.3776    132.6814      7.6086    154.4742
  1754.2500      8.2869    132.8008      7.5340    154.5628
  1754.5000      8.1336    132.8944      7.4401    154.2820
  1754.7500      7.9879    132.9099      7.3289    153.7346
  1755.0000      7.8801    132.8353      7.2101    152.3161
  1755.2500      7.8049    132.7115      7.0963    151.2477
  1755.5000      7.7528    132.6019      6.9969    150.1802
  1755.7500      7.7113    132.5515      6.9162    150.0748
  1756.0000      7.6636    132.5731      6.8537    150.6069
  1756.2500      7.6055    132.6618      6.8067    151.0128
  1756.5000      7.5562    132.8053      6.7712    151.0160
  1756.7500      7.5418    132.9771      6.7428    150.3340
  1757.0000      7.5539    133.1321      6.7173    148.1302
  1757.2500      7.5306    133.2232      6.6914    146.1739
  1757.5000      7.4287    133.2298      6.6634    143.6945
  1757.7500      7.2942    133.1722      6.6336    142.9474
  1758.0000      7.1867    133.0993      6.6042    143.1663
  1758.2500      7.0975    133.0612      6.5789    143.7018
  1758.5000      7.0028    133.0889      6.5615    144.3725
  1758.7500      6.9291    133.1906      6.5554    144.6442
  1759.0000      6.9266    133.3527      6.5624    144.7657
  1759.2500      7.0008    133.5406      6.5829    144.5322
  1759.5000      7.0879    133.7077      6.6164    143.6957
  1759.7500      7.1283    133.8158      6.6610    143.1083
  1760.0000      7.1377    133.8464      6.7137    142.8222
  1760.2500      7.1531    133.7990      6.7702    143.1807
  1760.5000      7.1729    133.6850      6.8264    144.2854
  1760.7500      7.1911    133.5260      6.8799    144.9957
  1761.0000      7.2195    133.3481      6.9310    145.0202
  1761.2500      7.2613    133.1723      6.9818    143.8544
  1761.5000      7.3144    133.0129      7.0348    140.3611
  1761.7500      7.3927    132.8845      7.0901    137.4270
  1762.0000      7.5071    132.8064      7.1454    133.3446
  1762.2500      7.6452    132.7938      7.1961    131.4065
  1762.5000      7.7891    132.8455      7.2377    130.2180
  1762.7500      7.9379    132.9415      7.2681    130.4437
  1763.0000      8.0879    133.0536      7.2878    131.2423
  1763.2500      8.2013    133.1565      7.2987    131.5224
  1763.5000      8.2449    133.2309      7.3022    131.8069
  1763.7500      8.2430    133.2635      7.2992    132.3870
  1764.0000      8.2361    133.2505      7.2915    133.4680
  1764.2500      8.2226    133.2021      7.2825    133.2286
  1764.5000      8.1873    133.1432      7.2765    129.7444
  1764.7500      8.1528    133.1028      7.2778    125.3506
  1765.0000      8.1717    133.0980      7.2887    117.1516
  1765.2500      8.2724    133.1237      7.3099    111.5904
  1765.5000      8.4363    133.1567      7.3405    104.2403
  1765.7500      8.6329    133.1719      7.3789    100.5554
  1766.0000      8.8367    133.1594      7.4238     97.9937
  1766.2500      9.0035    133.1328      7.4737     98.7737
  1766.5000      9.0559    133.1254      7.5295    103.4144
  1766.7500      8.9069    133.1714      7.5944    107.8998
  1767.0000      8.5237    133.2790      7.6743    114.8826
  1767.2500      7.9807    133.4168      7.7755    119.3807
  1767.5000      7.4421    133.5370      7.9026    126.8923
  1767.7500      7.1014    133.6156      8.0570    132.8872
  1768.0000      7.1022    133.6677      8.2364    142.1019
  1768.2500      7.4239    133.7233      8.4352    146.7796
  1768.5000      7.8705    133.7956      8.6443    149.6992
  1768.7500      8.2494    133.8743      8.8524    149.0866
  1769.0000      8.5266    133.9392      9.0476    146.2521
  1769.2500      8.8032    133.9731      9.2183    144.2834
  1769.5000      9.1873    133.9693      9.3556    141.9788
  1769.7500      9.6877    133.9358      9.4566    140.5493
