~Version Information
VERS.                      2.0: CWLS Log ASCII Standard - VERSION 2.0
WRAP.                       NO: One line per depth step
~Well Information Block
STRT.FT               -10.8000: 
STOP.FT              2238.7000: 
STEP.FT                 0.1000: 
NULL.                -999.2500: 
COMP.          Petrogulf Corporation: COMPANY
WELL.             McLeod 9-42V: WELL
FLD.           Purgatorie River: FIELD
LOC.           1658' FNL & 415' FEL----: LOCATION
CNTY.               Las Animas: COUNTY
SRVC.                         : SERVICE COMPANY
DATE.          Wed Nov 17 12:01:16 2004: LOG DATE
UWI.                          : UNIQUE WELL ID
STAT.                       CO: STATE
~Curve Information Block
DEPT.FT            0 000 00 00: Depth
GR.GAPI                       : Gamma Ray
CCL.                          : Casing Collar Locator
TT3.usec                      : CBL 3' Travel Time
AMP3.mV                       : CBL 3' Amplitude
~Parameter Information Block
~A  Depth        GR         CCL         TT3         AMP3    
# ...
   578.8000     90.1916      0.0000    818.6655     20.0275
   578.9000     90.1916      0.0000    818.6655     20.0275
   579.0000     91.1053      0.0000    819.3077     20.5732
   579.1000     91.1053      0.0000    819.3077     20.5732
   579.2000     91.1053      0.0000    819.3077     20.5732
   579.3000     94.2386      0.0000    819.9196     21.2050
   579.4000     94.2386      0.0000    819.9196     21.2050
   579.5000    100.5925      0.0000    820.4560     21.8337
   579.6000    100.5925      0.0000    820.4560     21.8337
   579.7000    100.5925      0.0000    820.4560     21.8337
   579.8000    109.2958      0.0000    820.8814     22.3937
   579.9000    109.2958      0.0000    820.8814     22.3937
   580.0000    118.2168      0.0000    821.2294     22.8602
   580.1000    118.2168      0.0000    821.2294     22.8602
   580.2000    118.2168      0.0000    821.2294     22.8602
   580.3000    125.1893      0.0000    821.7411     23.2405
   580.4000    125.1893      0.0000    821.7411     23.2405
   580.5000    129.1603      0.0000    823.0058     23.5691
   580.6000    129.1603      0.0000    823.0058     23.5691
   580.7000    129.1603      0.0000    823.0058     23.5691
   580.8000    130.8038      0.0000    825.7859     23.9128
   580.9000    130.8038      0.0000    825.7859     23.9128
   581.0000    131.9215      0.0000    830.2374     24.3537
   581.1000    131.9215      0.0000    830.2374     24.3537
   581.2000    131.9215      0.0000    830.2374     24.3537
   581.3000    133.8145      0.0000    834.7309     24.9404
   581.4000    133.8145      0.0000    834.7309     24.9404
   581.5000    136.2426      0.0000    835.0291     25.6513
   581.6000    136.2426      0.0000    835.0291     25.6513
   581.7000    136.2426      0.0000    835.0291     25.6513
   581.8000    138.1210      0.0000    823.7325     26.4188
   581.9000    138.1210      0.0000    823.7325     26.4188
   582.0000    138.8955      0.0000    790.3213     27.1953
   582.1000    138.8955      0.0000    790.3213     27.1953
   582.2000    138.8955      0.0000    790.3213     27.1953
   582.3000    138.7926      0.0000    725.1992     27.9847
   582.4000    138.7926      0.0000    725.1992     27.9847
   582.5000    138.0326      0.0000    629.2822     28.8050
   582.6000    138.0326      0.0000    629.2822     28.8050
   582.7000    138.0326      0.0000    629.2822     28.8050
   582.8000    136.5252      0.0000    520.1871     29.6386
   582.9000    136.5252      0.0000    520.1871     29.6386
   583.0000    134.3742      0.0000    423.9671     30.4360
   583.1000    134.3742      0.0000    423.9671     30.4360
   583.2000    134.3742      0.0000    423.9671     30.4360
   583.3000    132.0120      0.0000    358.0288     31.1689
   583.4000    132.0120      0.0000    358.0288     31.1689
   583.5000    129.8611      0.0000    322.8319     31.8583
   583.6000    129.8611      0.0000    322.8319     31.8583
   583.7000    129.8611      0.0000    322.8319     31.8583
   583.8000    128.5118      0.0000    308.1080     32.5410
   583.9000    128.5118      0.0000    308.1080     32.5410
   584.0000    128.9804      0.0000    303.1164     33.2321
   584.1000    128.9804      0.0000    303.1164     33.2321
   584.2000    128.9804      0.0000    303.1164     33.2321
   584.3000    131.8314      0.0000    301.3232     33.9521
   584.4000    131.8314      0.0000    301.3232     33.9521
   584.5000    136.0878      0.0000    299.6799     34.7780
   584.6000    136.0878      0.0000    299.6799     34.7780
   584.7000    136.0878      0.0000    299.6799     34.7780
   584.8000    139.6258      0.0000    296.6753     35.8144
   584.9000    139.6258      0.0000    296.6753     35.8144
   585.0000    140.6205      0.0000    291.4893     37.0875
   585.1000    140.6205      0.0000    291.4893     37.0875
   585.2000    140.6205      0.0000    291.4893     37.0875
   585.3000    138.3917      0.0000    284.2183     38.4824
   585.4000    138.3917      0.0000    284.2183     38.4824
   585.5000    133.4326      0.0000    276.1379     39.8098
   585.6000    133.4326      0.0000    276.1379     39.8098
   585.7000    133.4326      0.0000    276.1379     39.8098
   585.8000    127.2363      0.0000    269.0576     40.9383
   585.9000    127.2363      0.0000    269.0576     40.9383
   586.0000    121.6746      0.0000    264.1659     41.8495
   586.1000    121.6746      0.0000    264.1659     41.8495
   586.2000    121.6746      0.0000    264.1659     41.8495
   586.3000    117.7645      0.0000    261.4844     42.5773
   586.4000    117.7645      0.0000    261.4844     42.5773
   586.5000    115.0795      0.0000    260.2990     43.1299
   586.6000    115.0795      0.0000    260.2990     43.1299
   586.7000    115.0795      0.0000    260.2990     43.1299
   586.8000    112.6843      0.0000    259.8639     43.4906
   586.9000    112.6843      0.0000    259.8639     43.4906
   587.0000    110.4795      0.0000    259.7255     43.6717
   587.1000    110.4795      0.0000    259.7255     43.6717
   587.2000    110.4795      0.0000    259.7255     43.6717
   587.3000    109.4487      0.0000    259.6840     43.7349
   587.4000    109.4487      0.0000    259.6840     43.7349
   587.5000    110.6879      0.0000    259.6715     43.7527
   587.6000    110.6879      0.0000    259.6715     43.7527
   587.7000    110.6879      0.0000    259.6715     43.7527
   587.8000    114.1571      0.0000    259.7166     43.7526
   587.9000    114.1571      0.0000    259.7166     43.7526
   588.0000    118.3238      0.0000    260.0291     43.6907
   588.1000    118.3238      0.0000    260.0291     43.6907
   588.2000    118.3238      0.0000    260.0291     43.6907
   588.3000    121.2824      0.0000    261.4911     43.4632
   588.4000    121.2824      0.0000    261.4911     43.4632
   588.5000    122.2780      0.0000    266.8484     42.9451
   588.6000    122.2780      0.0000    266.8484     42.9451
   588.7000    122.2780      0.0000    266.8484     42.9451
   588.8000    121.7432      0.0000    282.4192     42.0301
   588.9000    121.7432      0.0000    282.4192     42.0301
   589.0000    120.1038      0.0000    318.1827     40.6453
   589.1000    120.1038      0.0000    318.1827     40.6453
   589.2000    120.1038      0.0000    318.1827     40.6453
   589.3000    117.3345      0.0000    382.8343     38.7511
   589.4000    117.3345      0.0000    382.8343     38.7511
   589.5000    113.7044      0.0000    474.5577     36.3642
   589.6000    113.7044      0.0000    474.5577     36.3642
   589.7000    113.7044      0.0000    474.5577     36.3642
   589.8000    110.1426      0.0000    576.4666     33.5968
   589.9000    110.1426      0.0000    576.4666     33.5968
   590.0000    107.5140      0.0000    664.9591     30.6441
   590.1000    107.5140      0.0000    664.9591     30.6441
   590.2000    107.5140      0.0000    664.9591     30.6441
   590.3000    105.8945      0.0000    724.8695     27.7029
   590.4000    105.8945      0.0000    724.8695     27.7029
   590.5000    104.6617      0.0000    756.3876     24.9009
   590.6000    104.6617      0.0000    756.3876     24.9009
   590.7000    104.6617      0.0000    756.3876     24.9009
   590.8000    103.0186      0.0000    769.2399     22.3004
   590.9000    103.0186      0.0000    769.2399     22.3004
   591.0000    100.5281      0.0000    773.3561     19.9365
   591.1000    100.5281      0.0000    773.3561     19.9365
   591.2000    100.5281      0.0000    773.3561     19.9365
   591.3000     97.3968      0.0000    774.5486     17.8293
   591.4000     97.3968      0.0000    774.5486     17.8293
   591.5000     94.2816      0.0000    775.2338     15.9754
   591.6000     94.2816      0.0000    775.2338     15.9754
   591.7000     94.2816      0.0000    775.2338     15.9754
   591.8000     92.0612      0.0000    776.4877     14.3514
   591.9000     92.0612      0.0000    776.4877     14.3514
   592.0000     91.8898      0.0000    779.2094     12.9267
   592.1000     91.8898      0.0000    779.2094     12.9267
