~Version Information
VERS.                      2.0: CWLS Log ASCII Standard - VERSION 2.0
WRAP.                       NO: One line per depth step
~Well Information Block
STRT.FT               768.0000: 
STOP.FT              2637.5000: 
STEP.FT                 0.2500: 
NULL.                -999.2500: 
COMP.          Pioneer Natural Resources: COMPANY
WELL.               Zink 44-10: WELL
FLD.           Purgatoire River: FIELD
LOC.           548' FSL & 473' FEL: LOCATION
PROV.                 Colorado: PROVINCE
CNTY.               Las Animas: COUNTRY
SRVC.                Patterson: SERVICE COMPANY
DATE.          Mon May 30 05:59:42 2005: LOG DATE
UWI.           05 071 08380 00: UNIQUE WELL ID
~Curve Information Block
DEPT.FT            0 000 00 00: Depth
SN.Ohm-m                      : IEL Short Normal
SP.mV                         : IEL Spontaneous Potential
DIR.Ohm-m                     : IEL Induction Resistivity
GR.GAPI                       : Gamma Ray
~Parameter Information Block
~A  Depth        SN          SP         DIR          GR     
# ...
  1639.0000     13.7582   -103.8680     10.6952    140.9810
  1639.2500     12.8155   -103.6881     10.5868    148.3522
  1639.5000     12.3254   -103.5252     10.5280    154.2568
  1639.7500     12.1679   -103.3949     10.4742    155.7235
  1640.0000     11.9939   -103.3116     10.3902    156.2166
  1640.2500     11.5414   -103.2756     10.2629    156.0857
  1640.5000     10.8587   -103.2686     10.1032    155.4759
  1640.7500     10.2670   -103.2657      9.9363    154.7563
  1641.0000     10.1120   -103.2502      9.7884    153.0578
  1641.2500     10.5125   -103.2191      9.6802    151.4140
  1641.5000     11.2974   -103.1770      9.6248    148.3660
  1641.7500     12.1395   -103.1268      9.6286    146.4220
  1642.0000     12.7895   -103.0691      9.6910    144.6608
  1642.2500     13.1932   -103.0055      9.8052    144.5092
  1642.5000     13.3670   -102.9408      9.9602    145.3024
  1642.7500     13.2820   -102.8806     10.1424    145.9370
  1643.0000     12.9272   -102.8277     10.3358    146.2564
  1643.2500     12.3814   -102.7794     10.5228    145.8184
  1643.5000     11.7751   -102.7310     10.6853    144.1963
  1643.7500     11.2321   -102.6822     10.8079    142.7840
  1644.0000     10.8745   -102.6409     10.8814    141.1071
  1644.2500     10.8268   -102.6199     10.9072    140.7688
  1644.5000     11.1387   -102.6286     10.8979    141.7152
  1644.7500     11.7212   -102.6660     10.8747    143.1891
  1645.0000     12.4394   -102.7203     10.8603    146.2038
  1645.2500     13.2045   -102.7740     10.8725    148.3653
  1645.5000     13.9019   -102.8117     10.9204    150.9265
  1645.7500     14.3660   -102.8251     11.0042    151.6053
  1646.0000     14.5283   -102.8147     11.1171    150.5060
  1646.2500     14.4970   -102.7873     11.2482    148.5501
  1646.5000     14.4231   -102.7518     11.3866    144.9931
  1646.7500     14.3463   -102.7139     11.5252    142.9442
  1647.0000     14.2058   -102.6741     11.6620    140.6974
  1647.2500     13.9276   -102.6294     11.7958    139.4577
  1647.5000     13.4479   -102.5778     11.9191    137.5068
  1647.7500     12.7496   -102.5243     12.0160    135.9520
  1648.0000     11.9779   -102.4826     12.0691    132.5621
  1648.2500     11.4186   -102.4701     12.0743    129.1694
  1648.5000     11.2858   -102.5002     12.0480    122.8557
  1648.7500     11.6366   -102.5769     12.0208    119.0370
  1649.0000     12.4277   -102.6971     12.0220    116.2109
  1649.2500     13.4968   -102.8579     12.0674    116.7860
  1649.5000     14.5593   -103.0635     12.1594    120.4023
  1649.7500     15.3740   -103.3241     12.2953    123.5598
  1650.0000     15.8915   -103.6508     12.4761    127.7147
  1650.2500     16.1799   -104.0495     12.7090    129.4198
  1650.5000     16.3276   -104.5170     13.0043    129.6564
  1650.7500     16.4953   -105.0423     13.3700    128.0279
  1651.0000     16.8649   -105.6128     13.8079    122.9349
  1651.2500     17.4656   -106.2203     14.3089    118.1609
  1651.5000     18.1824   -106.8579     14.8503    110.0880
  1651.7500     18.9300   -107.5118     15.3951    104.8184
  1652.0000     19.7450   -108.1652     15.8997     98.1563
  1652.2500     20.6621   -108.8193     16.3313     95.1487
  1652.5000     21.5561   -109.5050     16.6859     93.7099
  1652.7500     22.2116   -110.2625     16.9892     95.0095
  1653.0000     22.5065   -111.1091     17.2776     99.7456
  1653.2500     22.4764   -112.0245     17.5704    103.9310
  1653.5000     22.2169   -112.9612     17.8570    109.9711
  1653.7500     21.7608   -113.8610     18.1092    112.8778
  1654.0000     21.0839   -114.6675     18.3082    114.5691
  1654.2500     20.1936   -115.3369     18.4642    113.9321
  1654.5000     19.2027   -115.8441     18.6098    111.2843
  1654.7500     18.3548   -116.1811     18.7770    109.1724
  1655.0000     17.9411   -116.3511     18.9782    106.4770
  1655.2500     18.1818   -116.3675     19.2032    105.1876
  1655.5000     19.1618   -116.2581     19.4299    103.8019
  1655.7500     20.7229   -116.0661     19.6351    102.9641
  1656.0000     22.4255   -115.8389     19.8002    101.4493
  1656.2500     23.8325   -115.6106     19.9080    100.2671
  1656.5000     24.8172   -115.3906     19.9360     98.5710
  1656.7500     25.4767   -115.1673     19.8552     97.6622
  1657.0000     25.8742   -114.9228     19.6410     96.7839
  1657.2500     25.9675   -114.6509     19.2923     96.6787
  1657.5000     25.6850   -114.3652     18.8434     97.5863
  1657.7500     24.9928   -114.0926     18.3538     98.9184
  1658.0000     23.9132   -113.8580     17.8788    101.7889
  1658.2500     22.5356   -113.6694     17.4458    104.3609
  1658.5000     21.0384   -113.5111     17.0481    109.6906
  1658.7500     19.6290   -113.3517     16.6605    114.1211
  1659.0000     18.4184   -113.1618     16.2589    120.5162
  1659.2500     17.4030   -112.9297     15.8334    123.3686
  1659.5000     16.5531   -112.6645     15.3890    124.6392
  1659.7500     15.8581   -112.3855     14.9397    124.1654
  1660.0000     15.2996   -112.1089     14.5060    123.7800
  1660.2500     14.8326   -111.8405     14.1129    124.7358
  1660.5000     14.4259   -111.5785     13.7880    127.9878
  1660.7500     14.1140   -111.3236     13.5557    130.5561
  1661.0000     13.9600   -111.0878     13.4318    133.2790
  1661.2500     13.9622   -110.8957     13.4194    133.5953
  1661.5000     14.0657   -110.7774     13.5072    131.3744
  1661.7500     14.2491   -110.7567     13.6741    128.4152
  1662.0000     14.5306   -110.8395     13.8963    123.2082
  1662.2500     14.9220   -111.0120     14.1567    120.1847
  1662.5000     15.4121   -111.2483     14.4500    117.0489
  1662.7500     15.9569   -111.5198     14.7805    115.6830
  1663.0000     16.5143   -111.7990     15.1589    114.2636
  1663.2500     17.1211   -112.0581     15.5970    113.7603
  1663.5000     17.8736   -112.2706     16.1041    113.6337
  1663.7500     18.8107   -112.4191     16.6795    113.5580
  1664.0000     19.8526   -112.4987     17.3069    112.4962
  1664.2500     20.8551   -112.5130     17.9518    110.9494
  1664.5000     21.7030   -112.4653     18.5690    107.9152
  1664.7500     22.3716   -112.3536     19.1165    105.9319
  1665.0000     22.9560   -112.1699     19.5707    103.4762
  1665.2500     23.5985   -111.9039     19.9292    102.1167
  1665.5000     24.3651   -111.5470     20.2008    100.3023
  1665.7500     25.2182   -111.0954     20.3876     99.3785
  1666.0000     26.0416   -110.5563     20.4749     98.9328
  1666.2500     26.6834   -109.9574     20.4345     99.3082
  1666.5000     27.0387   -109.3485     20.2358    100.0349
  1666.7500     27.0670   -108.7847     19.8565     99.8700
  1667.0000     26.7127   -108.2978     19.2918     98.0483
  1667.2500     25.8924   -107.8817     18.5609     96.2361
  1667.5000     24.5799   -107.5049     17.7094     94.4423
  1667.7500     22.8469   -107.1389     16.8015     94.9301
  1668.0000     20.8563   -106.7783     15.9023     99.0005
  1668.2500     18.8432   -106.4445     15.0608    103.6786
  1668.5000     17.0072   -106.1748     14.3007    112.3070
  1668.7500     15.4453   -106.0048     13.6231    118.0333
  1669.0000     14.2263   -105.9524     13.0159    124.6154
  1669.2500     13.3437   -106.0091     12.4618    126.9882
  1669.5000     12.6217   -106.1444     11.9442    127.9275
  1669.7500     11.9011   -106.3179     11.4510    127.6015
  1670.0000     11.2137   -106.4906     10.9795    126.6354
  1670.2500     10.6602   -106.6306     10.5371    125.8000
  1670.5000     10.2652   -106.7150     10.1383    124.4216
  1670.7500      9.9877   -106.7306      9.7975    123.6217
  1671.0000      9.7775   -106.6785      9.5227    122.6148
  1671.2500      9.6015   -106.5816      9.3122    121.7804
  1671.5000      9.4563   -106.4844      9.1571    119.8204
  1671.7500      9.3574   -106.4336      9.0458    118.0729
  1672.0000      9.3048   -106.4535      8.9690    115.3638
  1672.2500      9.2828   -106.5435      8.9219    113.9602
