~Version Information
VERS.                      2.0: CWLS Log ASCII Standard - VERSION 2.0
WRAP.                       NO: One line per depth step
~Well Information Block
STRT.FT                 0.0000: 
STOP.FT              2430.7500: 
STEP.FT                 0.2500: 
NULL.                -999.2500: 
COMP.          Petrogulf Corporation: COMPANY
WELL.             Leier 17-42V: WELL
FLD.           Purgatorie River: FIELD
LOC.           2309' FNL & 1062' FEL: LOCATION
PROV.                 Colorado: PROVINCE
CNTY.               Las Animas: COUNTRY
SRVC.                Patterson: SERVICE COMPANY
DATE.          Thu Oct 06 10:18:00 2005: LOG DATE
UWI.                          : UNIQUE WELL ID
~Curve Information Block
DEPT.FT            0 000 00 00: Depth
CCL.                          : Casing Collar Locator
TT3.usec                      : CBL 3' Travel Time
AMP3.mV                       : CBL 3' Amplitude
GR.GAPI                       : Gamma Ray
~Parameter Information Block
~A  Depth       CCL         TT3         AMP3         GR     
# ...
  1440.5000      0.0000    741.0460     14.8593    111.2495
  1440.7500      0.0000    749.6880     14.7376    105.2655
  1441.0000      0.0000    766.9664     14.5334     95.3955
  1441.2500      0.0000    789.2786     14.2067     83.5970
  1441.5000      0.0000    813.6597     13.7427     72.3611
  1441.7500      0.0000    844.2220     13.1485     63.6649
  1442.0000      0.0000    881.5848     12.4861     58.3154
  1442.2500      0.0000    907.5442     11.8400     56.0386
  1442.5000      0.0000    899.2569     11.2337     56.2855
  1442.7500      0.0000    861.5105     10.6199     58.9927
  1443.0000      0.0000    822.5496      9.9456     64.6085
  1443.2500      0.0000    799.6643      9.1953     73.5581
  1443.5000      0.0000    788.9750      8.4027     85.6399
  1443.7500      0.0000    780.1798      7.6563     99.4565
  1444.0000      0.0000    767.6622      7.0335    112.2394
  1444.2500      0.0000    753.1350      6.5201    120.7979
  1444.5000      0.0000    742.2009      6.0559    123.3262
  1444.7500      0.0000    738.2812      5.6206    120.5206
  1445.0000      0.0000    741.4481      5.2381    114.9926
  1445.2500      0.0000    749.1432      4.9416    109.4980
  1445.5000      0.0000    753.9712      4.7426    105.3492
  1445.7500      0.0000    747.5695      4.6209    102.0928
  1446.0000      0.0000    731.3208      4.5450     98.6944
  1446.2500      0.0000    716.1351      4.4981     95.0706
  1446.5000      0.0000    710.6131      4.4826     92.1774
  1446.7500      0.0000    715.0020      4.5005     90.5047
  1447.0000      0.0000    723.0038      4.5401     89.1509
  1447.2500      0.0000    726.5763      4.5817     86.9659
  1447.5000      0.0000    723.4464      4.5986     84.1505
  1447.7500      0.0000    720.5477      4.5634     82.1754
  1448.0000      0.0000    725.6024      4.4822     82.5212
  1448.2500      0.0000    736.2601      4.4057     86.0000
  1448.5000      0.0000    745.0249      4.3647     92.8419
  1448.7500      0.0000    750.3563      4.3242    102.6983
  1449.0000      0.0000    754.0304      4.2381    114.3440
  1449.2500      0.0000    755.3219      4.1067    125.5939
  1449.5000      0.0000    752.9720      3.9630    134.0525
  1449.7500      0.0000    749.4396      3.8525    138.3936
  1450.0000      0.0000    752.5073      3.8335    138.9913
  1450.2500      0.0000    768.2061      3.9558    137.1896
  1450.5000      0.0000    791.1856      4.2351    134.1252
  1450.7500      0.0000    808.6390      4.6553    130.3074
  1451.0000      0.0000    813.0076      5.1819    125.9919
  1451.2500      0.0000    807.0848      5.7693    121.3955
  1451.5000      0.0000    804.0305      6.3845    116.3847
  1451.7500      0.0000    821.2567      7.0496    110.5182
  1452.0000      0.0000    856.1051      7.8372    103.9384
  1452.2500      0.0000    873.8500      8.8053     97.8636
  1452.5000      0.0000    848.3547      9.9392     93.7148
  1452.7500      0.0000    800.1478     11.1489     92.1036
  1453.0000      0.0000    767.6503     12.3054     92.9189
  1453.2500      0.0000    764.5028     13.2887     95.9371
  1453.5000      0.0000    776.8857     14.0194    101.0410
  1453.7500      0.0000    782.5977     14.4659    107.8965
  1454.0000      0.0000    771.4096     14.6335    115.4220
  1454.2500      0.0000    750.6780     14.5572    121.6092
  1454.5000      0.0000    730.4724     14.3405    124.3356
  1454.7500      0.0000    714.8107     14.1803    122.6969
  1455.0000      0.0000    708.8687     14.2405    117.6676
  1455.2500      0.0000    719.5203     14.4790    111.6254
  1455.5000      0.0000    748.1384     14.6959    107.1702
  1455.7500      0.0000    785.9403     14.7598    105.7613
  1456.0000      0.0000    807.6380     14.7277    106.9140
  1456.2500      0.0000    783.8287     14.7497    108.7379
  1456.5000      0.0000    719.4403     14.8601    109.4920
  1456.7500      0.0000    658.5197     14.9161    108.6418
  1457.0000      0.0000    627.5783     14.7623    106.6391
  1457.2500      0.0000    609.1351     14.3595    104.2113
  1457.5000      0.0000    589.4682     13.8123    101.9342
  1457.7500      0.0000    571.2401     13.3231     99.9521
  1458.0000      0.0000    548.4559     12.9452     97.9464
  1458.2500      0.0000    533.6203     12.3924     95.6201
  1458.5000      0.0000    563.6227     11.3520     93.1895
  1458.7500      0.0000    638.9038      9.9763     91.1750
  1459.0000      0.0000    714.8897      8.7894     89.8808
  1459.2500      0.0000    761.3920      8.0886     89.3025
  1459.5000      0.0000    781.4000      7.6998     89.4171
  1459.7500     -2.0000    785.5231      7.3384     90.3331
  1460.0000     -2.0000    780.8638      6.9324     92.1504
  1460.2500      0.0000    772.8713      6.5659     94.6146
  1460.5000      0.0000    765.2248      6.3168     96.7970
  1460.7500      0.0000    759.1340      6.1803     97.3464
  1461.0000      0.0000    754.4608      6.0651     95.4162
  1461.2500      0.0000    750.6711      5.9061     91.3330
  1461.5000      0.0000    744.2050      5.8047     86.2542
  1461.7500      0.0000    731.6081      5.8960     81.4171
  1462.0000      0.0000    718.3068      6.1029     77.8548
  1462.2500      0.0000    715.5986      6.2297     76.4044
  1462.5000      0.0000    726.5345      6.2198     77.4337
  1462.7500      0.0000    740.0290      6.1552     80.3941
  1463.0000      0.0000    743.7109      6.0809     83.8026
  1463.2500      0.0000    738.2266      5.9679     85.9881
  1463.5000      0.0000    732.9037      5.8196     86.1004
  1463.7500      0.0000    734.5466      5.6939     84.5192
  1464.0000      0.0000    744.1954      5.6321     82.4491
  1464.2500      0.0000    761.8187      5.6436     81.2944
  1464.5000      0.0000    787.1445      5.7208     82.2632
  1464.7500      0.0000    810.5121      5.8146     86.0160
  1465.0000      0.0000    818.6200      5.8555     92.3735
  1465.2500      0.0000    811.9082      5.8235    100.4509
  1465.5000      0.0000    799.1625      5.7500    109.1293
  1465.7500      0.0000    785.3068      5.6688    117.4571
  1466.0000      0.0000    773.4893      5.6054    124.8787
  1466.2500      0.0000    763.3523      5.5884    131.2330
  1466.5000      0.0000    749.5673      5.6366    136.3981
  1466.7500      0.0000    734.2367      5.7289    139.9791
  1467.0000      0.0000    728.8632      5.7943    141.5404
  1467.2500      0.0000    735.8517      5.7605    141.0856
  1467.5000      0.0000    742.9406      5.6243    139.0366
  1467.7500      0.0000    739.4432      5.4478    135.7268
  1468.0000      0.0000    727.2415      5.2926    131.1941
  1468.2500      0.0000    716.4173      5.1958    125.7232
  1468.5000      0.0000    714.5839      5.1836    120.3598
  1468.7500      0.0000    720.3831      5.2807    116.5040
  1469.0000      0.0000    726.2729      5.5321    114.9448
  1469.2500      0.0000    729.0600      5.9848    115.4301
  1469.5000      0.0000    734.0673      6.6133    117.0919
  1469.7500      0.0000    745.4187      7.3161    119.0036
  1470.0000      0.0000    760.3929      8.0086    120.3551
  1470.2500      0.0000    772.4084      8.7158    120.5352
  1470.5000      0.0000    776.5199      9.5759    119.4695
  1470.7500      0.0000    777.0685     10.7154    117.8681
  1471.0000      0.0000    783.0277     12.1365    116.8694
  1471.2500      0.0000    795.0393     13.7699    117.3328
  1471.5000      0.0000    805.1240     15.5768    119.5491
  1471.7500      0.0000    806.1244     17.5221    123.5473
  1472.0000      0.0000    796.8085     19.4568    129.4087
  1472.2500      0.0000    774.6181     21.1479    137.1269
  1472.5000      0.0000    725.0866     22.5694    146.0806
  1472.7500      0.0000    634.5098     24.1027    154.6681
  1473.0000      0.0000    519.4471     26.3052    160.7101
  1473.2500      0.0000    419.6074     29.4858    162.7361
  1473.5000      0.0000    356.5440     33.3925    161.1401
  1473.7500      0.0000    324.1321     37.1776    157.8435
