~Version Information
VERS.                      2.0: CWLS Log ASCII Standard - VERSION 2.0
WRAP.                       NO: One line per depth step
~Well Information Block
STRT.FT               420.0000: 
STOP.FT              1527.5000: 
STEP.FT                 0.1000: 
NULL.                -999.2500: 
COMP.          Evergreen Operating Corporation: COMPANY
WELL.              Chase 21-10: WELL
FLD.           Purgatoire River: FIELD
LOC.           1122' FNL & 1544' FWL: LOCATION
PROV.                       CO: PROVINCE
CNTY.               Las Animas: COUNTRY
SRVC.                         : SERVICE COMPANY
DATE.          Tue May 25 08:18:37 2004: LOG DATE
UWI.           05 071 08006 00: UNIQUE WELL ID
~Curve Information Block
DEPT.FT            0 000 00 00: Depth
DCAL.in                       : CDL Caliper
RHOB.g/cc                     : CDL Bulk Density
RHOC.g/cc                     : CDL Density Correction
DPOR.pu                       : CDL Density Porosity
GR.GAPI                       : Gamma Ray
NPOR.pu                       : Neutron Porosity
~Parameter Information Block
~A  Depth       DCAL        RHOB        RHOC        DPOR         GR         NPOR    
# ...
   784.8000      7.8993      2.5424     -0.0363      6.5210    130.5404     24.8053
   784.9000      7.8993      2.5669      0.0938      5.0357    142.7356     25.2996
   785.0000      7.9106      2.5854      0.0938      3.9178    150.0930     25.7775
   785.1000      7.9106      2.5751      0.1613      4.5404    145.7219     26.2676
   785.2000      7.9106      2.5370      0.0603      6.8510    137.6353     26.9109
   785.3000      7.9219      2.4829      0.0691     10.1270    132.8939     27.2879
   785.4000      7.9219      2.4305     -0.0180     13.3016    129.5551     27.0571
   785.5000      7.9170      2.4093     -0.0723     14.5897    124.8199     26.6596
   785.6000      7.9170      2.4326     -0.0295     13.1785    119.7075     26.6102
   785.7000      7.9170      2.4751      0.0787     10.6021    113.9107     26.8608
   785.8000      7.9480      2.5119      0.0533      8.3721    109.6743     27.2108
   785.9000      7.9480      2.5385      0.1041      6.7598    110.5893     27.6743
   786.0000      7.9075      2.5540      0.0857      5.8187    112.6556     28.1948
   786.1000      7.9075      2.5657      0.0665      5.1082    112.3587     28.3637
   786.2000      7.9075      2.5854      0.1197      3.9163    109.8955     27.9435
   786.3000      7.9153      2.6095      0.1011      2.4568    106.7137     27.2636
   786.4000      7.9153      2.6230      0.0651      1.6357    105.3591     26.7438
   786.5000      7.8840      2.6040      0.1389      2.7854    104.4838     26.3810
   786.6000      7.8840      2.5582      0.0281      5.5623    102.7133     26.0327
   786.7000      7.8840      2.5319      0.0147      7.1588    102.3137     25.8644
   786.8000      7.8846      2.5340      0.0896      7.0294    102.8699     25.8690
   786.9000      7.8846      2.5328     -0.0027      7.1021    103.8861     25.7367
   787.0000      7.8812      2.5289      0.0426      7.3386    103.2800     25.6308
   787.1000      7.8812      2.5464      0.0022      6.2787     95.5158     25.7387
   787.2000      7.8812      2.5806      0.0665      4.2077     87.5706     25.6527
   787.3000      7.8847      2.5945      0.0890      3.3630     89.0101     25.3922
   787.4000      7.8847      2.5712      0.0567      4.7740     93.9856     25.4065
   787.5000      7.9025      2.5387      0.0038      6.7433     95.3249     25.6842
   787.6000      7.9025      2.5265      0.0688      7.4839     95.1210     25.9486
   787.7000      7.9025      2.5280      0.0425      7.3948     98.6313     26.1034
   787.8000      7.9145      2.5266     -0.0165      7.4807    104.3059     26.0837
   787.9000      7.9145      2.5242      0.0248      7.6247    107.3227     25.7706
   788.0000      7.8888      2.5349      0.0292      6.9756    110.9916     25.4145
   788.1000      7.8888      2.5678      0.0381      4.9847    119.0623     25.3339
   788.2000      7.8888      2.6072      0.0217      2.5920    127.1566     25.4868
   788.3000      7.9103      2.6306      0.0659      1.1751    128.9268     25.7217
   788.4000      7.9103      2.6330      0.0617      1.0275    126.1616     25.8353
   788.5000      7.9092      2.6180      0.0581      1.9395    124.9671     25.7874
   788.6000      7.9092      2.5971      0.0029      3.2034    127.5718     25.6948
   788.7000      7.9092      2.5832      0.0378      4.0511    133.7149     25.4127
   788.8000      7.9092      2.5716      0.0642      4.7536    140.0151     24.8371
   788.9000      7.9092      2.5617      0.0111      5.3519    139.3707     24.2296
   789.0000      7.8978      2.5491      0.0729      6.1174    132.1554     23.8431
   789.1000      7.8978      2.5190     -0.0001      7.9391    126.9005     23.7104
   789.2000      7.8978      2.4830     -0.0219     10.1212    126.8446     23.8373
   789.3000      7.8842      2.4670     -0.0587     11.0896    127.6095     24.1600
   789.4000      7.8842      2.4750      0.0423     10.6059    123.6568     24.6879
   789.5000      7.8945      2.4879      0.0552      9.8245    116.7000     25.5250
   789.6000      7.8945      2.4857      0.0427      9.9588    112.5183     26.4568
   789.7000      7.8945      2.4642      0.0847     11.2627    109.3899     27.2495
   789.8000      7.9155      2.4386      0.1204     12.8126    101.7470     27.9994
   789.9000      7.9155      2.4358      0.0722     12.9831     91.8801     28.7551
   790.0000      7.9250      2.4741      0.0800     10.6588     83.9555     29.4494
   790.1000      7.9250      2.5459      0.1018      6.3067     78.4748     30.1252
   790.2000      7.9250      2.6385      0.1288      0.6966     77.6340     30.6891
   790.3000      7.8821      2.7474      0.2621     -5.9019     82.3882     30.9828
   790.4000      7.8821      2.8487      0.3305    -12.0410     88.3699     31.0344
   790.5000      7.8268      2.9043      0.3592    -15.4094     92.9149     30.7334
   790.6000      7.8268      2.8912      0.2915    -14.6185     97.8931     30.0310
   790.7000      7.8268      2.8168      0.2232    -10.1113    101.7594     29.3432
   790.8000      7.8077      2.7232      0.0894     -4.4373    101.9491     29.0674
   790.9000      7.8077      2.6559     -0.0121     -0.3567    101.0664     28.9271
   791.0000      7.8454      2.6234     -0.0928      1.6121    103.9354     28.3723
   791.1000      7.8454      2.6141     -0.0491      2.1755    110.2198     27.3071
   791.2000      7.8454      2.6257     -0.0408      1.4729    113.7548     26.0941
   791.3000      7.9045      2.6479      0.0641      0.1257    113.3228     25.2860
   791.4000      7.9045      2.6490      0.0697      0.0610    116.2052     24.9851
   791.5000      7.9437      2.6223      0.0993      1.6796    124.1548     24.8127
   791.6000      7.9437      2.6001      0.0354      3.0229    129.9459     24.6789
   791.7000      7.9437      2.5935      0.1237      3.4260    127.5203     24.8146
   791.8000      7.9227      2.5711      0.0874      4.7836    120.0264     25.0416
   791.9000      7.9227      2.5340     -0.0122      7.0273    118.9732     25.0197
   792.0000      7.9026      2.5305     -0.0067      7.2403    128.8287     24.9195
   792.1000      7.9026      2.5700      0.0844      4.8467    139.5068     25.0507
   792.2000      7.9026      2.6099      0.1527      2.4306    142.7992     25.4113
   792.3000      7.9053      2.6241      0.1179      1.5706    141.2848     25.8113
   792.4000      7.9053      2.6091      0.1305      2.4814    138.3493     26.1838
   792.5000      7.9138      2.5658      0.0579      5.1004    134.9700     26.5186
   792.6000      7.9138      2.5278      0.0439      7.4061    132.7326     26.6654
   792.7000      7.9138      2.5268      0.0741      7.4665    128.4902     26.6147
   792.8000      7.9328      2.5516      0.1256      5.9616    118.9404     26.4595
   792.9000      7.9328      2.5767      0.1061      4.4439    110.3488     26.2066
   793.0000      7.9026      2.5944      0.1116      3.3689    108.7967     25.9747
   793.1000      7.9026      2.6171      0.1061      1.9953    111.8598     26.0081
   793.2000      7.9026      2.6388      0.1432      0.6760    114.7250     26.4530
   793.3000      7.9072      2.6366      0.1015      0.8140    116.8768     27.1215
   793.4000      7.9072      2.6172      0.0566      1.9909    118.4974     27.6561
   793.5000      7.8962      2.6083      0.0936      2.5255    115.9371     27.8795
   793.6000      7.8962      2.6162      0.0790      2.0514    109.7017     27.8870
   793.7000      7.8962      2.6248      0.1510      1.5282    104.0012     27.9106
   793.8000      7.8825      2.6276      0.0556      1.3554     99.9342     28.0423
   793.9000      7.8825      2.6296      0.0928      1.2392     97.0631     27.9762
   794.0000      7.8894      2.6174      0.1267      1.9751     96.1388     27.5027
   794.1000      7.8894      2.5881      0.0409      3.7514     99.8768     26.9698
   794.2000      7.8894      2.5698      0.0468      4.8636    107.1615     26.8088
   794.3000      7.9329      2.5771      0.0781      4.4201    112.4796     27.0354
