~Version Information
VERS.                      2.0: CWLS Log ASCII Standard - VERSION 2.0
WRAP.                       NO: One line per depth step
~Well Information Block
STRT.FT               -12.2500: 
STOP.FT              2595.7500: 
STEP.FT                 0.2500: 
NULL.                -999.2500: 
COMP.          Petrogulf Corporation: COMPANY
WELL.            Montoya 1-44V: WELL
FLD.           Purgatoire River: FIELD
LOC.           753' FSL & 990' FEL--: LOCATION
PROV.                       CO: PROVINCE
CNTY.               Las Aniams: COUNTRY
SRVC.          Patterson Wireline: SERVICE COMPANY
DATE.          Mon Jun 13 11:58:10 2005: LOG DATE
UWI.           05 071 08142 00: UNIQUE WELL ID
~Curve Information Block
DEPT.FT            0 000 00 00: Depth
CCL.                          : Casing Collar Locator
TT3.usec                      : CBL 3' Travel Time
AMP3.mV                       : CBL 3' Amplitude
GR.GAPI                       : Gamma Ray
~Parameter Information Block
~A  Depth       CCL         TT3         AMP3         GR     
# ...
   858.7500      0.0000    306.2449     30.3411    104.2750
   859.0000      0.0000    306.2651     31.1742    103.6874
   859.2500      0.0000    306.2421     31.9769    105.7104
   859.5000      0.0000    306.2044     32.6908    109.9183
   859.7500      0.0000    306.1904     33.3249    115.3974
   860.0000      0.0000    306.2199     33.8974    120.9602
   860.2500      0.0000    306.2919     34.4186    125.3233
   860.5000      0.0000    306.3985     34.9012    127.3272
   860.7500      0.0000    306.5276     35.3440    126.2558
   861.0000      0.0000    306.6516     35.7182    122.1744
   861.2500      0.0000    306.7314     35.9983    116.0636
   861.5000      0.0000    306.7429     36.1809    109.5355
   861.7500      0.0000    306.6983     36.2447    104.2601
   862.0000      0.0000    306.6360     36.1341    101.4301
   862.2500      0.0000    306.5911     35.8303    101.5389
   862.5000      0.0000    306.5775     35.4111    104.2238
   862.7500      0.0000    306.5919     35.0101    108.2792
   863.0000      0.0000    306.6251     34.7263    112.3515
   863.2500      0.0000    306.6716     34.5674    115.8290
   863.5000      0.0000    306.7343     34.4508    118.7634
   863.7500      0.0000    306.8197     34.2605    121.1251
   864.0000      0.0000    306.9218     33.9358    122.5871
   864.2500      0.0000    307.0125     33.5144    122.9063
   864.5000      0.0000    307.0618     33.0680    122.2681
   864.7500      0.0000    307.0742     32.5960    121.3597
   865.0000      0.0000    307.1344     31.9962    121.2704
   865.2500      0.0000    307.4645     31.1345    123.1100
   865.5000      0.0000    308.7747     29.9454    127.3160
   865.7500      0.0000    313.2861     28.4741    133.0465
   866.0000      0.0000    326.4848     26.8302    138.2509
   866.2500      0.0000    357.8362     25.1047    140.7797
   866.5000      0.0000    416.8272     23.3436    139.9038
   866.7500      0.0000    503.6135     21.6005    136.7453
   867.0000      0.0000    602.1277     19.9938    133.0641
   867.2500      0.0000    686.2220     18.6806    129.9122
   867.5000      0.0000    736.7039     17.7599    127.5756
   867.7500      0.0000    752.7803     17.2083    126.2179
   868.0000      0.0000    746.6496     16.9211    125.9886
   868.2500      0.0000    728.3383     16.8140    126.5923
   868.5000      0.0000    696.5929     16.8890    127.1315
   868.7500      0.0000    643.6170     17.2134    126.5224
   869.0000      0.0000    567.9189     17.8471    124.2552
   869.2500      0.0000    481.8901     18.7837    120.7960
   869.5000      0.0000    405.5559     19.9413    117.1070
   869.7500      0.0000    352.7689     21.1975    113.7761
   870.0000      0.0000    324.2505     22.4518    110.8245
   870.2500      0.0000    312.1134     23.6752    108.3145
   870.5000      0.0000    307.9155     24.8858    106.7613
   870.7500      0.0000    306.5856     26.0519    106.6937
   871.0000      0.0000    306.0660     27.0326    107.9475
   871.2500      0.0000    305.7771     27.6579    109.6052
   871.5000      0.0000    305.6185     27.8769    110.7390
   871.7500      0.0000    305.5702     27.8038    111.2130
   872.0000      0.0000    305.6128     27.6163    111.7339
   872.2500      0.0000    305.7052     27.4366    113.1801
   872.5000      0.0000    305.7985     27.3022    115.9738
   872.7500      0.0000    305.8494     27.2096    119.9487
   873.0000      0.0000    305.8327     27.1589    124.3629
   873.2500      0.0000    305.7531     27.1570    127.7537
   873.5000      0.0000    305.6446     27.1929    128.3387
   873.7500      0.0000    305.5487     27.2263    125.4119
   874.0000      0.0000    305.4850     27.2178    120.3726
   874.2500      0.0000    305.4459     27.1791    115.8655
   874.5000      0.0000    305.4166     27.1809    113.7754
   874.7500      0.0000    305.3913     27.2963    114.0398
   875.0000      0.0000    305.3687     27.5289    115.0532
   875.2500      0.0000    305.3448     27.7994    115.0473
   875.5000      0.0000    305.3136     27.9962    113.2803
   875.7500      0.0000    305.2754     28.0335    110.3030
   876.0000      0.0000    305.2437     27.8708    107.5799
   876.2500      0.0000    305.2466     27.4948    106.9400
   876.5000      0.0000    305.3199     26.9009    109.9140
   876.7500      0.0000    305.4951     26.0944    116.9862
   877.0000      0.0000    305.7878     25.1063    127.0081
   877.2500      0.0000    306.2145     24.0021    137.2869
   877.5000      0.0000    306.8488     22.8692    144.8978
   877.7500      0.0000    308.1467     21.7825    148.3733
   878.0000      0.0000    311.7771     20.7764    147.9971
   878.2500      0.0000    321.9388     19.8479    144.6536
   878.5000      0.0000    345.7681     18.9860    139.1015
   878.7500      0.0000    390.2650     18.1913    132.2855
   879.0000      0.0000    455.6853     17.4668    125.4661
   879.2500      0.0000    531.4236     16.8001    119.7556
   879.5000      0.0000    600.8955     16.1628    115.8423
   879.7500      0.0000    652.1973     15.5238    114.1374
   880.0000      0.0000    683.9474     14.8653    114.7816
   880.2500      0.0000    701.8539     14.1977    117.4124
   880.5000      0.0000    711.5819     13.5622    121.1914
   880.7500      0.0000    714.9888     13.0012    125.3432
   881.0000      0.0000    711.8568     12.5119    129.6208
   881.2500      0.0000    704.1920     12.0459    134.0172
   881.5000      0.0000    697.7971     11.5620    137.9183
   881.7500      0.0000    698.5639     11.0680    139.7902
   882.0000      0.0000    707.4246     10.6050    138.2980
   882.2500      0.0000    720.1216     10.2023    133.8764
   882.5000      0.0000    731.7881      9.8542    128.6538
   882.7500      0.0000    740.7833      9.5301    124.5764
   883.0000      0.0000    748.4472      9.2003    121.9665
   883.2500      0.0000    756.6193      8.8659    119.9561
   883.5000      0.0000    765.8900      8.5798    117.7775
   883.7500      0.0000    775.4920      8.4433    115.3005
   884.0000      0.0000    784.2819      8.5530    112.7467
   884.2500      0.0000    792.4014      8.9142    110.4094
   884.5000      0.0000    803.1951      9.3989    108.4697
   884.7500      0.0000    822.5313      9.8243    106.4557
   885.0000      0.0000    852.6503     10.1047    102.9495
   885.2500      0.0000    884.7257     10.3102     96.6071
   885.5000      0.0000    899.6978     10.5674     87.7669
   885.7500      0.0000    879.4998     10.9343     78.6407
   886.0000      0.0000    820.0145     11.3830     71.7812
   886.2500      2.0000    736.8525     11.8491     68.4284
   886.5000      2.0000    658.4807     12.2579     67.8760
   886.7500      0.0000    606.4850     12.5529     67.9165
   887.0000      0.0000    578.4839     12.7597     66.2685
   887.2500      0.0000    554.1001     13.0136     62.2723
   887.5000      0.0000    517.7264     13.4755     57.3875
   887.7500      0.0000    470.4104     14.2050     54.1573
   888.0000      0.0000    422.2217     15.1195     54.9523
   888.2500      0.0000    381.6396     16.0528     61.1917
   888.5000      0.0000    353.0993     16.8411     72.6351
   888.7500      0.0000    338.6007     17.3913     87.0234
   889.0000      0.0000    339.8951     17.6836    101.0258
   889.2500      0.0000    361.0500     17.6967    111.9719
   889.5000      0.0000    407.4540     17.3680    118.7808
   889.7500      0.0000    478.6097     16.6689    121.8387
   890.0000      0.0000    562.0086     15.6922    122.6079
   890.2500      0.0000    637.8507     14.6274    122.9565
   890.5000      0.0000    691.6161     13.6575    124.2243
   890.7500      0.0000    721.4012     12.8894    126.8217
   891.0000      0.0000    734.3469     12.3480    130.3666
   891.2500      0.0000    738.8756     12.0033    133.6488
   891.5000      0.0000    740.3673     11.7950    134.9537
   891.7500      0.0000    741.0787     11.6496    133.4558
   892.0000      0.0000    741.5793     11.5088    130.3516
