~Version Information
VERS.                      2.0: CWLS Log ASCII Standard - VERSION 2.0
WRAP.                       NO: One line per depth step
~Well Information Block
STRT.FT               682.0000: 
STOP.FT              2190.5000: 
STEP.FT                 0.1000: 
NULL.                -999.2500: 
COMP.          Pioneer Natural Resources: COMPANY
WELL.               King 22-13: WELL
FLD.           Purgatoire River: FIELD
LOC.           2419' FNL & 1806' FWL----: LOCATION
PROV.                 Colorado: PROVINCE
CNTY.               Las Animas: COUNTRY
SRVC.                Patterson: SERVICE COMPANY
DATE.          Fri Apr 01 07:38:12 2005: LOG DATE
UWI.           05 071 08318 00: UNIQUE WELL ID
~Curve Information Block
DEPT.FT            0 000 00 00: Depth
DCAL.in                       : CDL Caliper
RHOB.g/cc                     : CDL Bulk Density
RHOC.g/cc                     : CDL Density Correction
DPOR.pu                       : CDL Density Porosity
NPOR.pu                       : Neutron Porosity
GR.GAPI                       : Gamma Ray
~Parameter Information Block
~A  Depth       DCAL        RHOB        RHOC        DPOR        NPOR         GR     
   682.0000      8.1403      2.5454     -0.3309      6.3365     43.5197     82.8978
   682.1000      8.1403      2.5360     -0.3508      6.9067     43.1491     79.2482
   682.2000      8.1403      2.5576     -0.2876      5.6015     42.7728     77.2927
   682.3000      8.1384      2.6043     -0.3113      2.7669     42.5641     74.9756
   682.4000      8.1384      2.6561     -0.2138     -0.3716     42.7706     75.1771
   682.5000      8.1385      2.6756     -0.1554     -1.5527     43.6043     80.1966
   682.6000      8.1385      2.6560     -0.3159     -0.3620     44.4617     85.3770
   682.7000      8.1385      2.6364     -0.3300      0.8261     44.4577     84.8102
   682.8000      8.1383      2.6420     -0.3101      0.4879     43.9675     78.4103
   682.9000      8.1383      2.6517     -0.2297     -0.1005     43.6416     70.4830
   683.0000      8.1384      2.6316     -0.2763      1.1130     43.6026     66.1704
   683.1000      8.1384      2.5763     -0.2788      4.4652     43.9602     66.8943
   683.2000      8.1384      2.5143     -0.3785      8.2265     44.4118     69.7312
   683.3000      8.1379      2.4915     -0.3876      9.6074     44.5325     72.5116
   683.4000      8.1379      2.5251     -0.3513      7.5723     44.5169     73.2142
   683.5000      8.1377      2.5773     -0.2449      4.4063     44.5142     71.5324
   683.6000      8.1377      2.6109     -0.2758      2.3721     44.3437     69.9343
   683.7000      8.1377      2.6303     -0.2308      1.1950     44.2919     69.0380
   683.8000      8.1385      2.6431     -0.1935      0.4177     44.6402     67.6702
   683.9000      8.1385      2.6420     -0.1884      0.4833     45.0567     66.6086
   684.0000      8.1397      2.6196     -0.1922      1.8449     45.2918     67.7746
   684.1000      8.1397      2.5807     -0.2704      4.2014     45.1266     70.2891
   684.2000      8.1397      2.5526     -0.2973      5.9060     44.4056     70.9054
   684.3000      8.1418      2.5570     -0.2925      5.6381     43.6077     67.6758
   684.4000      8.1418      2.5796     -0.1672      4.2696     43.4662     62.9906
   684.5000      8.1450      2.5891     -0.2671      3.6893     43.9760     64.2130
   684.6000      8.1450      2.5733     -0.2055      4.6510     44.4466     72.0050
   684.7000      8.1450      2.5412     -0.2656      6.5923     44.5545     76.4020
   684.8000      8.1479      2.5201     -0.2821      7.8705     44.2709     72.9953
   684.9000      8.1479      2.5307     -0.2497      7.2299     43.7852     65.6365
   685.0000      8.1493      2.5694     -0.2461      4.8857     43.3889     57.5373
   685.1000      8.1493      2.6198     -0.2521      1.8322     43.0213     51.8233
   685.2000      8.1493      2.6593     -0.2390     -0.5636     42.7705     51.5327
   685.3000      8.1496      2.6624     -0.1585     -0.7500     42.9341     56.2045
   685.4000      8.1496      2.6412     -0.3246      0.5339     43.2957     62.6763
   685.5000      8.1511      2.6427     -0.2420      0.4443     43.3058     66.4541
   685.6000      8.1511      2.6708     -0.1670     -1.2628     42.7822     64.6568
   685.7000      8.1511      2.6862     -0.1677     -2.1952     42.0739     59.5474
   685.8000      8.1527      2.6584     -0.1983     -0.5063     41.7769     55.9225
   685.9000      8.1527      2.5877     -0.2744      3.7750     42.1133     55.5772
   686.0000      8.1531      2.5007     -0.2842      9.0480     42.8010     57.0037
   686.1000      8.1531      2.4292     -0.3449     13.3823     43.5448     59.1200
   686.2000      8.1531      2.3835     -0.2970     16.1488     43.9163     60.6732
   686.3000      8.1533      2.3524     -0.3428     18.0363     43.6273     58.5913
   686.4000      8.1533      2.3351     -0.3722     19.0840     43.1148     52.7720
   686.5000      8.1538      2.3362     -0.2995     19.0175     43.0127     49.5542
   686.6000      8.1538      2.3405     -0.3051     18.7578     43.5135     51.9552
   686.7000      8.1538      2.3409     -0.2920     18.7346     44.2878     55.2460
   686.8000      8.1539      2.3503     -0.3324     18.1620     44.6461     56.8022
   686.9000      8.1539      2.3679     -0.2441     17.0980     44.6566     57.8227
   687.0000      8.1536      2.3814     -0.2751     16.2767     45.0213     58.6052
   687.1000      8.1536      2.3928     -0.2469     15.5907     45.5228     58.5553
   687.2000      8.1536      2.4029     -0.2689     14.9748     45.4142     58.2590
   687.3000      8.1537      2.4061     -0.2461     14.7819     44.9680     59.9193
   687.4000      8.1537      2.3969     -0.2400     15.3395     44.9940     62.9061
   687.5000      8.1539      2.3813     -0.3454     16.2840     45.4324     65.3006
   687.6000      8.1539      2.3792     -0.3308     16.4126     45.7736     67.7723
   687.7000      8.1539      2.3889     -0.2871     15.8237     45.9993     69.4542
   687.8000      8.1538      2.3758     -0.2677     16.6154     46.2199     68.1370
   687.9000      8.1538      2.3220     -0.4068     19.8800     46.3783     65.0802
   688.0000      8.1532      2.2449     -0.3508     24.5497     46.4875     64.0453
   688.1000      8.1532      2.1585     -0.4603     29.7883     46.6364     65.7874
   688.2000      8.1532      2.0719     -0.4875     35.0374     46.7748     69.3381
   688.3000      8.1526      1.9981     -0.4621     39.5078     46.7429     73.6505
   688.4000      8.1526      1.9494     -0.5296     42.4586     46.6147     74.6494
   688.5000      8.1522      1.9328     -0.4747     43.4665     46.6860     71.0384
   688.6000      8.1522      1.9398     -0.4346     43.0422     46.9176     68.3451
   688.7000      8.1522      1.9539     -0.4022     42.1899     46.8178     67.2993
   688.8000      8.1510      1.9631     -0.3746     41.6309     46.0360     62.7806
   688.9000      8.1510      1.9660     -0.3596     41.4522     44.9431     56.2409
   689.0000      8.1496      1.9707     -0.3922     41.1697     44.2644     53.4165
   689.1000      8.1496      1.9838     -0.4137     40.3747     44.1882     55.3065
   689.2000      8.1496      2.0024     -0.4031     39.2461     44.3733     58.3853
   689.3000      8.1486      2.0145     -0.3912     38.5151     44.6912     59.2066
   689.4000      8.1486      2.0137     -0.4380     38.5621     45.4511     57.6219
   689.5000      8.1492      2.0079     -0.4631     38.9135     46.3504     55.3485
   689.6000      8.1492      1.9989     -0.4385     39.4629     46.7805     53.1541
   689.7000      8.1492      1.9699     -0.4448     41.2178     46.9065     51.4511
   689.8000      8.1514      1.9041     -0.4236     45.2071     46.9705     52.1350
   689.9000      8.1514      1.8114     -0.5167     50.8228     46.8870     53.0957
   690.0000      8.1513      1.7315     -0.5776     55.6661     46.7297     49.5126
   690.1000      8.1513      1.6868     -0.5224     58.3744     46.4420     43.6933
   690.2000      8.1513      1.6573     -0.5160     60.1614     45.7900     41.9957
   690.3000      8.1492      1.6265     -0.5260     62.0291     45.1169     44.5384
   690.4000      8.1492      1.6210     -0.6291     62.3661     44.8012     47.2839
   690.5000      8.1484      1.6656     -0.5450     59.6612     44.6007     48.2928
   690.6000      8.1484      1.7440     -0.5373     54.9078     44.4381     48.4590
   690.7000      8.1484      1.8439     -0.5728     48.8517     44.3185     50.9481
   690.8000      8.1486      1.9732     -0.4599     41.0167     44.0125     56.0308
   690.9000      8.1486      2.1191     -0.3910     32.1760     43.6961     59.5933
   691.0000      8.1489      2.2537     -0.3623     24.0153     43.8611     60.5856
   691.1000      8.1489      2.3642     -0.3123     17.3190     44.2166     63.2635
   691.2000      8.1489      2.4429     -0.2822     12.5526     44.2340     69.8984
   691.3000      8.1499      2.4720     -0.2763     10.7867     44.2748     75.4289
   691.4000      8.1499      2.4557     -0.3221     11.7773     44.6380     75.8997
   691.5000      8.1516      2.4334     -0.3411     13.1271     44.8193     74.7418
