~Version Information
VERS.                      2.0: CWLS Log ASCII Standard - VERSION 2.0
WRAP.                       NO: One line per depth step
~Well Information Block
STRT.FT               419.7500: 
STOP.FT              1170.0000: 
STEP.FT                 0.2500: 
NULL.                -999.2500: 
COMP.          Evergreen Operating Corporation: COMPANY
WELL.             Bernice 21-3: WELL
FLD.           Purgatoire River: FIELD
LOC.           201' FNL & 2575' FWL: LOCATION
PROV.                 Colorado: PROVINCE
CNTY.               Las Animas: COUNTRY
SRVC.                Patterson: SERVICE COMPANY
DATE.          Mon Jan 26 13:04:04 2004: LOG DATE
UWI.           05 071 07912   : UNIQUE WELL ID
~Curve Information Block
DEPT.FT            0 000 00 00: Depth
SN.Ohm-m                      : IEL Short Normal
SP.mV                         : IEL Spontaneous Potential
DIR.Ohm-m                     : IEL Induction Resistivity
GR.GAPI                       : Gamma Ray
~Parameter Information Block
~A  Depth        SN          SP         DIR          GR     
# ...
   687.7500     15.4896   -490.1092     12.1823     84.2909
   688.0000     14.8670   -490.3324     11.5770     82.1237
   688.2500     14.2981   -490.5415     11.0004     82.6495
   688.5000     13.7891   -490.7503     10.4867     85.9767
   688.7500     13.3842   -490.9504     10.0681     88.8637
   689.0000     13.1021   -491.0997      9.7611     92.7044
   689.2500     12.8828   -491.1641      9.5547     94.6880
   689.5000     12.6164   -491.1700      9.4094     96.9632
   689.7500     12.2583   -491.1959      9.2680     98.0952
   690.0000     11.8728   -491.2940      9.0818     99.3661
   690.2500     11.5779   -491.4365      8.8383    100.0922
   690.5000     11.5094   -491.5547      8.5670    101.0563
   690.7500     11.7522   -491.5965      8.3185    101.3952
   691.0000     12.1687   -491.5060      8.1369    101.1041
   691.2500     12.4426   -491.1782      8.0470    100.4943
   691.5000     12.3948   -490.4926      8.0527     99.5886
   691.7500     12.1013   -489.4190      8.1412     99.2771
   692.0000     11.7564   -488.0745      8.2872     99.1326
   692.2500     11.5101   -486.6738      8.4622     98.8910
   692.5000     11.4219   -485.4348      8.6474     97.7530
   692.7500     11.4956   -484.5182      8.8406     96.4128
   693.0000     11.6773   -484.0030      9.0518     93.8852
   693.2500     11.9056   -483.8692      9.2935     92.2373
   693.5000     12.2184   -484.0002      9.5772     90.4757
   693.7500     12.6741   -484.2177      9.9173     89.9061
   694.0000     13.2067   -484.3411     10.3342     89.5439
   694.2500     13.7537   -484.2552     10.8511     89.2416
   694.5000     14.4006   -483.9521     11.4874     88.3762
   694.7500     15.2617   -483.5004     12.2561     87.5476
   695.0000     16.4491   -482.9622     13.1664     85.8123
   695.2500     18.2532   -482.3546     14.2317     84.0755
   695.5000     21.1519   -481.7043     15.4729     80.3991
   695.7500     25.4726   -481.1057     16.9134     77.5345
   696.0000     31.0194   -480.6917     18.5591     73.5048
   696.2500     37.1900   -480.5516     20.3779     71.2769
   696.5000     43.5450   -480.7021     22.2951     68.5263
   696.7500     49.9598   -481.1237     24.2188     67.0008
   697.0000     56.1632   -481.7883     26.0709     65.1705
   697.2500     61.5536   -482.6407     27.7616     64.0565
   697.5000     65.6672   -483.5714     29.1117     61.7032
   697.7500     68.7027   -484.4345     29.8369     59.2678
   698.0000     71.3829   -485.1009     29.7095     54.4018
   698.2500     74.2443   -485.4948     28.7735     50.8306
   698.5000     76.7192   -485.5938     27.3287     46.0975
   698.7500     77.2608   -485.4145     25.7037     43.9788
   699.0000     74.8717   -485.0031     24.0922     43.0743
   699.2500     69.2595   -484.4237     22.5576     44.0547
   699.5000     60.5130   -483.7502     21.1136     47.3777
   699.7500     50.1833   -483.0588     19.7862     50.3867
   700.0000     40.8560   -482.4060     18.6287     55.7599
   700.2500     33.9322   -481.8088     17.6973     60.0845
   700.5000     29.0521   -481.2601     17.0175     67.9960
   700.7500     25.4585   -480.7655     16.5671     73.9617
   701.0000     22.8699   -480.3404     16.2822     82.6233
   701.2500     21.2132   -479.9694     16.0769     87.3269
   701.5000     20.2956   -479.6004     15.8633     91.9653
   701.7500     19.8603   -479.1919     15.5699     93.5504
   702.0000     19.6613   -478.7377     15.1624     94.5167
   702.2500     19.5242   -478.2401     14.6633     94.7132
   702.5000     19.5122   -477.6887     14.1499     94.4049
   702.7500     19.7367   -477.0836     13.7205     93.3115
   703.0000     19.8471   -476.4660     13.4540     89.5421
   703.2500     19.1434   -475.9179     13.3896     85.8195
   703.5000     17.4586   -475.5356     13.5286     80.0573
   703.7500     15.6090   -475.3941     13.8472     77.1862
   704.0000     14.6269   -475.5254     14.3062     75.3160
   704.2500     14.8316   -475.9166     14.8552     75.6726
   704.5000     15.8856   -476.5134     15.4327     78.0734
   704.7500     17.2281   -477.2023     15.9654     80.4748
   705.0000     18.3412   -477.7907     16.3737     84.3071
   705.2500     19.0103   -478.0478     16.5854     86.4465
   705.5000     19.3116   -477.8225     16.5608     88.4483
   705.7500     19.4498   -477.1545     16.3157     88.8681
   706.0000     19.5587   -476.2636     15.9215     87.9396
   706.2500     19.5139   -475.4220     15.4773     86.1823
   706.5000     19.2063   -474.8169     15.0698     82.2490
   706.7500     18.7972   -474.4940     14.7470     79.4351
   707.0000     18.4152   -474.3785     14.5141     76.2320
   707.2500     17.9731   -474.3309     14.3494     75.3256
   707.5000     17.4404   -474.2169     14.2288     76.3663
   707.7500     16.9447   -473.9751     14.1381     78.6966
   708.0000     16.5134   -473.6422     14.0610     83.8803
   708.2500     16.0448   -473.3005     13.9557     87.6301
   708.5000     15.5383   -472.9845     13.7561     92.3513
   708.7500     15.1252   -472.6404     13.4172     94.3974
   709.0000     14.8866   -472.1850     12.9628     95.4437
   709.2500     14.6856   -471.5946     12.4794     94.9298
   709.5000     14.3321   -470.9241     12.0586     93.2167
   709.7500     13.9003   -470.2427     11.7503     91.9391
   710.0000     13.5862   -469.5702     11.5578     89.8358
   710.2500     13.4071   -468.8897     11.4605     88.0122
   710.5000     13.2933   -468.2110     11.4387     84.6126
   710.7500     13.2709   -467.5865     11.4823     82.2667
   711.0000     13.3929   -467.0641     11.5830     79.1817
   711.2500     13.6040   -466.6637     11.7239     77.4877
   711.5000     13.8053   -466.4130     11.8807     75.5007
   711.7500     14.0043   -466.3690     12.0377     74.6194
   712.0000     14.2629   -466.5703     12.2002     73.9857
   712.2500     14.5416   -466.9659     12.3896     73.8544
   712.5000     14.7389   -467.3921     12.6268     73.7223
   712.7500     14.8534   -467.6175     12.9191     73.6357
   713.0000     15.0097   -467.4373     13.2638     92.1774
   713.2500     15.3470   -466.7627     13.6594     92.6524
   713.5000     15.9276   -465.6502     14.1083     94.1225
   713.7500     16.7060   -464.2652     14.6018     95.6017
   714.0000     17.5264   -462.8185     15.1003     98.0615
   714.2500     18.1976   -461.5001     15.5379     99.2067
   714.5000     18.6610   -460.4224     15.8727     99.0855
   714.7500     19.0615   -459.5936     16.1422     97.5931
   715.0000     19.5535   -458.9481     16.4591    112.5951
   715.2500     20.0877   -458.4217     16.9427    109.1679
   715.5000     20.5870   -458.0088     17.6508    105.0391
   715.7500     21.2103   -457.7444     18.5629    103.7987
   716.0000     22.1457   -457.6335     19.6100    139.5028
   716.2500     23.3079   -457.6212     20.7247    141.8095
   716.5000     24.4308   -457.6289     21.8703    144.9738
   716.7500     25.3392   -457.5873     23.0346    145.4846
   717.0000     26.0737   -457.4147     24.2114    142.9006
   717.2500     26.9336   -456.9973     25.4018    139.2887
   717.5000     28.4854   -456.2311     26.6393    132.5940
   717.7500     31.1271   -455.1053     28.0022    128.3073
   718.0000     34.6348   -453.7465     29.5850    123.2478
   718.2500     38.4207   -452.3755     31.4397    120.7451
   718.5000     42.0288   -451.2006     33.5243    117.2740
   718.7500     45.5204   -450.3179     35.7022    114.5051
   719.0000     49.1152   -449.6870     37.7888    109.1205
   719.2500     52.3256   -449.1896     39.5980    104.6297
   719.5000     54.6264   -448.7190     40.9413     96.6237
   719.7500     56.5473   -448.2265     41.6039     90.8015
   720.0000     58.5147   -447.7041     41.3783     82.5940
   720.2500     59.3978   -447.1530     40.1898     78.1725
   720.5000     58.1662   -446.5704     38.2223     73.5266
   720.7500     55.7638   -445.9396     35.8939     71.6160
   721.0000     53.3710   -445.2219     33.6737     70.1257
