~Version Information
VERS.                      2.0: CWLS Log ASCII Standard - VERSION 2.0
WRAP.                       NO: One line per depth step
~Well Information Block
STRT.FT               710.0000: 
STOP.FT              2921.0000: 
STEP.FT                 0.1000: 
NULL.                -999.2500: 
COMP.          Petrogulf Corporation: COMPANY
WELL.            Montoya 1-41V: WELL
FLD.           Purgatorie River: FIELD
LOC.           610' FNL & 1205' FEL: LOCATION
PROV.                 Colorado: PROVINCE
CNTY.               Las Animas: COUNTRY
SRVC.                Patterson: SERVICE COMPANY
DATE.          Mon Aug 22 07:54:27 2005: LOG DATE
UWI.                          : UNIQUE WELL ID
~Curve Information Block
DEPT.FT            0 000 00 00: Depth
DCAL.in                       : CDL Caliper
RHOB.g/cc                     : CDL Bulk Density
RHOC.g/cc                     : CDL Density Correction
DPOR.pu                       : CDL Density Porosity
GR.GAPI                       : Gamma Ray
NPOR.pu                       : Neutron Porosity
~Parameter Information Block
~A  Depth       DCAL        RHOB        RHOC        DPOR         GR         NPOR    
# ...
  1881.2000      8.2149      2.5367      0.0871      6.8683    160.2828     27.5110
  1881.3000      8.1260      2.5342      0.1266      7.0199    158.5172     27.2597
  1881.4000      8.1260      2.5346      0.0745      6.9968    155.8909     26.9831
  1881.5000      8.0970      2.5429      0.1143      6.4926    153.4403     26.8064
  1881.6000      8.0970      2.5463      0.1794      6.2845    154.4465     26.6554
  1881.7000      8.0970      2.5349      0.1543      6.9784    158.2484     26.5602
  1881.8000      8.1583      2.5268      0.0808      7.4661    159.2892     26.6588
  1881.9000      8.1583      2.5354      0.1200      6.9468    154.8883     27.0038
  1882.0000      8.1809      2.5467      0.1264      6.2633    148.1413     27.4437
  1882.1000      8.1809      2.5537      0.1022      5.8375    144.5984     27.7137
  1882.2000      8.1809      2.5676      0.1422      4.9948    146.3320     27.9481
  1882.3000      8.1209      2.5843      0.2219      3.9816    149.6849     28.2382
  1882.4000      8.1209      2.5840      0.2198      3.9988    150.4902     28.2934
  1882.5000      8.0918      2.5705      0.1753      4.8157    150.7229     28.1543
  1882.6000      8.0918      2.5650      0.1896      5.1525    152.9412     28.0213
  1882.7000      8.0918      2.5662      0.2107      5.0771    153.8338     28.0686
  1882.8000      8.1551      2.5622      0.1447      5.3228    151.8744     28.4236
  1882.9000      8.1551      2.5559      0.1313      5.7027    151.4642     28.8926
  1883.0000      8.1612      2.5492      0.1744      6.1101    153.5713     29.0623
  1883.1000      8.1612      2.5340      0.1837      7.0302    155.9319     28.6915
  1883.2000      8.1612      2.5126      0.2004      8.3248    160.1060     28.2900
  1883.3000      8.1317      2.4926      0.2350      9.5386    165.3034     28.4492
  1883.4000      8.1317      2.4673      0.2427     11.0707    167.9933     28.8835
  1883.5000      8.2910      2.4253      0.2260     13.6187    168.8367     29.1473
  1883.6000      8.2910      2.3704      0.1851     16.9483    170.7677     29.3448
  1883.7000      8.2910      2.3274      0.1424     19.5535    173.2616     29.7183
  1883.8000      8.3837      2.3168      0.2479     20.1941    172.4128     30.1341
  1883.9000      8.3837      2.3280      0.2866     19.5137    168.2273     30.3854
  1884.0000      8.4213      2.3422      0.2677     18.6573    163.0540     30.4648
  1884.1000      8.4213      2.3555      0.2855     17.8474    157.5585     30.4837
  1884.2000      8.4213      2.3700      0.3038     16.9687    153.8787     30.5582
  1884.3000      8.8173      2.3794      0.3681     16.4026    154.9025     30.5307
  1884.4000      8.8173      2.3700      0.3329     16.9714    160.3262     30.2433
  1884.5000      9.0244      2.3400      0.2568     18.7893    165.4213     29.8893
  1884.6000      9.0244      2.2991      0.2283     21.2690    165.5760     29.6950
  1884.7000      9.0244      2.2539      0.1864     24.0058    163.3989     29.7732
  1884.8000      8.9322      2.2081      0.2195     26.7801    163.5485     30.1206
  1884.9000      8.9322      2.1660      0.2305     29.3337    163.9052     30.4603
  1885.0000      8.7918      2.1326      0.2537     31.3598    161.5956     30.2920
  1885.1000      8.7918      2.1109      0.2610     32.6721    158.1176     29.5795
  1885.2000      8.7918      2.1138      0.2199     32.4999    157.3476     29.1503
  1885.3000      8.9043      2.1564      0.2973     29.9179    160.7951     29.5745
  1885.4000      8.9043      2.2217      0.3826     25.9585    162.3846     30.3670
  1885.5000      9.1006      2.2752      0.4017     22.7127    159.2873     30.6931
  1885.6000      9.1006      2.3106      0.3989     20.5721    159.1825     30.2817
  1885.7000      9.1006      2.3457      0.4243     18.4437    163.7656     29.7463
  1885.8000      9.9985      2.3879      0.4205     15.8872    163.8452     29.6770
  1885.9000      9.9985      2.4235      0.4194     13.7287    156.9772     30.0023
  1886.0000     10.2517      2.4417      0.3921     12.6258    149.8725     30.4091
  1886.1000     10.2517      2.4478      0.3866     12.2539    146.3966     30.4965
  1886.2000     10.2517      2.4464      0.3672     12.3389    146.8375     30.1753
  1886.3000      9.7475      2.4282      0.3964     13.4407    152.1539     29.9053
  1886.4000      9.7475      2.3799      0.3752     16.3673    161.1340     29.9832
  1886.5000      9.6114      2.3107      0.3400     20.5665    166.7276     30.3288
  1886.6000      9.6114      2.2483      0.3378     24.3441    164.0745     30.6633
  1886.7000      9.6114      2.2080      0.3352     26.7903    158.7449     30.6773
  1886.8000      9.7002      2.1955      0.3173     27.5438    158.6955     30.3786
  1886.9000      9.7002      2.2267      0.3106     25.6516    162.4319     30.1491
  1887.0000      9.7834      2.3053      0.3557     20.8930    164.8716     30.3541
  1887.1000      9.7834      2.3958      0.4547     15.4069    166.3750     30.7615
  1887.2000      9.7834      2.4563      0.4549     11.7379    169.3914     30.9033
  1887.3000     10.2060      2.4793      0.4537     10.3479    172.6383     30.8347
  1887.4000     10.2060      2.4731      0.4544     10.7212    171.0295     30.8270
  1887.5000     10.5220      2.4337      0.4698     13.1086    164.6939     30.9390
  1887.6000     10.5220      2.3622      0.3239     17.4396    160.5834     31.0848
  1887.7000     10.5220      2.2924      0.1711     21.6750    160.9639     31.2315
  1887.8000     10.3662      2.2502      0.1871     24.2307    160.2585     31.4188
  1887.9000     10.3662      2.2170      0.1960     26.2417    157.2693     31.5190
  1888.0000      9.9631      2.1859      0.1165     28.1276    156.3921     31.2253
  1888.1000      9.9631      2.1888      0.1996     27.9488    156.6274     30.5887
  1888.2000      9.9631      2.2312      0.3402     25.3798    154.2727     30.2506
  1888.3000      9.6301      2.2752      0.3864     22.7170    151.3397     30.5601
  1888.4000      9.6301      2.2917      0.4122     21.7157    153.6495     31.0745
  1888.5000      9.7977      2.2854      0.3691     22.0968    161.2008     31.1551
  1888.6000      9.7977      2.2771      0.3503     22.6010    167.7668     30.8338
  1888.7000      9.7977      2.2741      0.3820     22.7808    167.7926     30.6207
  1888.8000     10.0343      2.2679      0.4019     23.1554    161.3167     30.7984
  1888.9000     10.0343      2.2563      0.3802     23.8596    155.3493     31.1513
  1889.0000     10.3444      2.2461      0.3540     24.4812    154.3563     31.2963
  1889.1000     10.3444      2.2387      0.3512     24.9258    156.9786     31.2645
  1889.2000     10.3444      2.2337      0.3321     25.2321    159.3537     31.2225
  1889.3000     10.4509      2.2382      0.3366     24.9557    156.7764     31.0966
  1889.4000     10.4509      2.2573      0.3576     23.8000    150.4267     30.8364
  1889.5000     10.1949      2.2832      0.3896     22.2309    144.7342     30.6147
  1889.6000     10.1949      2.3073      0.3749     20.7686    142.3769     30.6215
  1889.7000     10.1949      2.3235      0.3771     19.7852    143.3991     30.7703
  1889.8000      9.3227      2.3188      0.3648     20.0699    144.8042     30.9558
  1889.9000      9.3227      2.2835      0.3359     22.2134    143.5715     31.2435
  1890.0000      8.6186      2.2245      0.2982     25.7876    138.9747     31.5610
  1890.1000      8.6186      2.1652      0.1864     29.3793    132.8162     31.8123
  1890.2000      8.6186      2.1341      0.1689     31.2686    128.4642     31.9003
  1890.3000      8.4042      2.1451      0.1709     30.6003    126.0274     31.7923
  1890.4000      8.4042      2.1928      0.1960     27.7078    122.2140     31.6800
  1890.5000      8.2630      2.2531      0.2226     24.0574    120.3213     31.6288
  1890.6000      8.2630      2.2967      0.1284     21.4143    125.8201     31.5807
  1890.7000      8.2630      2.3139      0.1501     20.3690    133.9091     31.5873
