~Version Information
VERS.                      2.0: CWLS Log ASCII Standard - VERSION 2.0
WRAP.                       NO: One line per depth step
~Well Information Block
STRT.FT               360.0000: 
STOP.FT              1622.7500: 
STEP.FT                 0.2500: 
NULL.                -999.2500: 
COMP.          Pioneer Natural Resources: COMPANY
WELL.                Eric 42-9: WELL
FLD.           Purgatoire River: FIELD
LOC.           2050' FNL & 850' FEL: LOCATION
PROV.                 Colorado: PROVINCE
CNTY.               Las Animas: COUNTRY
SRVC.                Patterson: SERVICE COMPANY
DATE.          Sun Oct 31 17:26:46 2004: LOG DATE
UWI.           05 071 07999 00: UNIQUE WELL ID
~Curve Information Block
DEPT.FT            0 000 00 00: Depth
SN.Ohm-m                      : IEL Short Normal
SP.mV                         : IEL Spontaneous Potential
DIR.Ohm-m                     : IEL Induction Resistivity
GR.GAPI                       : Gamma Ray
~Parameter Information Block
~A  Depth        SN          SP         DIR          GR     
# ...
  1532.5000    151.7319     77.7059     84.0569    130.8905
  1532.7500    154.9068     77.0425     89.9624    135.0913
  1533.0000    157.5841     76.5900     96.4987    141.1322
  1533.2500    159.7139     76.2836    103.4128    144.8572
  1533.5000    161.2179     76.0670    110.5725    149.8992
  1533.7500    162.0290     75.8951    118.3165    152.6008
  1534.0000    162.1255     75.7316    127.7716    154.9870
  1534.2500    161.5465     75.5444    140.9117    155.4484
  1534.5000    160.3872     75.3032    160.1524    155.1413
  1534.7500    158.7810     74.9803    186.8238    154.6904
  1535.0000    156.8721     74.5528    217.2646    154.0642
  1535.2500    154.7829     74.0048    238.6505    153.8746
  1535.5000    152.5830     73.3271    236.7547    154.1473
  1535.7500    150.2760     72.5128    213.4994    154.6289
  1536.0000    147.8151     71.5510    182.9135    155.5176
  1536.2500    145.1396     70.4207    155.0112    156.1181
  1536.5000    142.2071     69.0908    133.0461    156.6119
  1536.7500    138.9973     67.5296    117.1463    156.0466
  1537.0000    135.4872     65.7282    106.4440    152.8799
  1537.2500    131.6162     63.7344     99.7062    149.5455
  1537.5000    127.2615     61.6879     95.5079    144.9731
  1537.7500    122.2324     59.8414     92.3125    143.4166
  1538.0000    116.2844     58.5470     88.5653    143.0403
  1538.2500    109.1616     58.1949     82.9200    142.7374
  1538.5000    100.6811     59.1058     74.6809    140.3711
  1538.7500     90.8782     61.4114     64.2896    137.7874
  1539.0000     80.1768     64.9710     53.2166    134.4421
  1539.2500     69.4406     69.3738     43.0962    133.4049
  1539.5000     59.7440     74.0364     34.9066    133.3748
  1539.7500     51.9211     78.3624     28.8419    133.8015
  1540.0000     46.2065     81.8990     24.6369    134.7276
  1540.2500     42.2343     84.4310     21.8870    135.5222
  1540.5000     39.3590     85.9872     20.2079    136.0880
  1540.7500     37.0249     86.7784     19.2768    134.8146
  1541.0000     34.9590     87.1035     18.8311    128.4031
  1541.2500     33.1668     87.2649     18.6701    121.0007
  1541.5000     31.8567     87.5121     18.6761    107.3915
  1541.7500     31.3677     88.0170     18.8339     98.6740
  1542.0000     32.0569     88.8708     19.2216     88.9764
  1542.2500     34.1006     90.0944     19.9692     85.3410
  1542.5000     37.3080     91.6521     21.2071     83.1397
  1542.7500     41.1230     93.4696     23.0193     82.6392
  1543.0000     44.8541     95.4522     25.3917     81.6833
  1543.2500     47.9646     97.5035     28.1509     80.7125
  1543.5000     50.2183     99.5401     30.9302     79.4950
  1543.7500     51.6364    101.5012     33.2454     79.2644
  1544.0000     52.3636    103.3493     34.7101     79.6495
  1544.2500     52.5608    105.0653     35.2471     79.9823
  1544.5000     52.3675    106.6422     35.0911     80.2174
  1544.7500     51.9023    108.0783     34.6026     80.3155
  1545.0000     51.2608    109.3757     34.0807     80.6295
  1545.2500     50.5123    110.5402     33.6888     80.8923
  1545.5000     49.7101    111.5826     33.4709     81.1342
  1545.7500     48.9029    112.5198     33.4038     81.1350
  1546.0000     48.1255    113.3723     33.4409     80.7775
  1546.2500     47.3830    114.1617     33.5336     80.2079
  1546.5000     46.6523    114.9066     33.6287     79.0693
  1546.7500     45.9023    115.6201     33.6595     78.5185
  1547.0000     45.1153    116.3090     33.5489     78.7049
  1547.2500     44.2931    116.9747     33.2341     79.7787
  1547.5000     43.4500    117.6159     32.7009     83.1008
  1547.7500     42.6003    118.2326     31.9956     86.3598
  1548.0000     41.7501    118.8304     31.1993     91.8074
  1548.2500     40.8940    119.4227     30.3871     94.9624
  1548.5000     40.0151    120.0302     29.6054     98.1781
  1548.7500     39.0874    120.6774     28.8703     99.5103
  1549.0000     38.0809    121.3876     28.1709    101.1402
  1549.2500     36.9687    122.1791     27.4704    102.2501
  1549.5000     35.7373    123.0630     26.7141    103.7885
  1549.7500     34.3949    124.0420     25.8557    104.5717
  1550.0000     32.9784    125.1076     24.8876    105.5030
  1550.2500     31.5504    126.2352     23.8496    106.2362
  1550.5000     30.1833    127.3790     22.8084    108.2163
  1550.7500     28.9302    128.4727     21.8276    110.7307
  1551.0000     27.8033    129.4378     20.9503    117.2881
  1551.2500     26.7811    130.1992     20.1979    123.3972
  1551.5000     25.8392    130.7007     19.5803    132.8793
  1551.7500     24.9801    130.9144     19.1050    137.3445
  1552.0000     24.2417    130.8423     18.7806    138.6161
  1552.2500     23.6880    130.5125     18.6123    135.5909
  1552.5000     23.3865    129.9743     18.5952    126.7104
  1552.7500     23.3882    129.2950     18.7129    119.2980
  1553.0000     23.7227    128.5569     18.9437    108.4026
  1553.2500     24.3946    127.8524     19.2645    102.3803
  1553.5000     25.3501    127.2740     19.6463     96.0962
  1553.7500     26.4379    126.9031     20.0410     93.7194
  1554.0000     27.4246    126.7992     20.3737     92.2050
  1554.2500     28.0792    126.9920     20.5553     92.0520
  1554.5000     28.2646    127.4777     20.5147     92.6584
  1554.7500     27.9698    128.2198     20.2297     93.7455
  1555.0000     27.2742    129.1529     19.7335     96.7316
  1555.2500     26.2887    130.1929     19.0974     99.5264
  1555.5000     25.1145    131.2506     18.4042    104.2831
  1555.7500     23.8335    132.2464     17.7282    107.4927
  1556.0000     22.5154    133.1221     17.1213    112.2659
  1556.2500     21.2339    133.8464     16.6089    115.4915
  1556.5000     20.0768    134.4140     16.1946    120.1323
  1556.7500     19.1371    134.8371     15.8706    122.7120
  1557.0000     18.4841    135.1326     15.6306    125.4394
  1557.2500     18.1371    135.3064     15.4769    126.5800
  1557.5000     18.0699    135.3443     15.4202    127.4039
  1557.7500     18.2454    135.2115     15.4746    127.3100
  1558.0000     18.6454    134.8671     15.6518    126.5881
  1558.2500     19.2739    134.2874     15.9585    126.5227
  1558.5000     20.1423    133.4897     16.3938    128.6753
  1558.7500     21.2434    132.5447     16.9447    131.8849
  1559.0000     22.5109    131.5727     17.5794    137.9889
  1559.2500     23.7907    130.7225     18.2416    141.5095
  1559.5000     24.8746    130.1408     18.8522    143.9991
  1559.7500     25.5959    129.9399     19.3245    143.4478
  1560.0000     25.9174    130.1713     19.5915    140.2068
  1560.2500     25.9449    130.8129     19.6326    137.5841
  1560.5000     25.8536    131.7720     19.4839    135.1178
  1560.7500     25.7795    132.9072     19.2242    135.3087
  1561.0000     25.7500    134.0625     18.9439    138.4973
  1561.2500     25.6954    135.1030     18.7158    141.8788
  1561.5000     25.5162    135.9396     18.5781    146.9139
  1561.7500     25.1477    136.5372     18.5324    149.0576
  1562.0000     24.5899    136.9062     18.5520    148.8450
  1562.2500     23.9101    137.0863     18.5950    145.9959
  1562.5000     23.2416    137.1313     18.6246    138.2886
  1562.7500     22.7704    137.0974     18.6292    131.9724
  1563.0000     22.6834    137.0345     18.6349    122.9444
  1563.2500     23.0869    136.9793     18.7015    118.0805
  1563.5000     23.9421    136.9507     18.8982    112.9918
  1563.7500     25.0691    136.9476     19.2716    111.0417
  1564.0000     26.2222    136.9531     19.8151    110.1775
  1564.2500     27.1941    136.9424     20.4517    110.9222
  1564.5000     27.8869    136.8909     21.0463    113.7057
  1564.7500     28.3130    136.7811     21.4573    116.2119
  1565.0000     28.5437    136.6058     21.6092    119.5728
  1565.2500     28.6605    136.3687     21.5292    120.5650
  1565.5000     28.7338    136.0842     21.3176    119.0650
  1565.7500     28.8181    135.7747     21.0893    116.2532
