~Version Information
VERS.                      2.0: CWLS Log ASCII Standard - VERSION 2.0
WRAP.                       NO: One line per depth step
~Well Information Block
STRT.FT                 0.0000: 
STOP.FT              2384.7500: 
STEP.FT                 0.2500: 
NULL.                -999.2500: 
COMP.          Petrogulf Corporation: COMPANY
WELL.           McDaniel 9-34V: WELL
FLD.           Purgatorie River: FIELD
LOC.           620' FSL & 1800' FEL: LOCATION
STAT.                 Colorado: State
CNTY.               Las Animas: COUNTY
CTRY. USA : Country
SECT. 9 : Section
TOWN. 33S : Township
RANG. 67W : Range
SRVC.                Patterson: SERVICE COMPANY
DATE.          Thu Nov 10 12:28:18 2005: LOG DATE
API. 05-071-08333                         : UNIQUE WELL ID
~Curve Information Block
DEPT.FT            0 000 00 00: Depth
AMP3.mV                       : CBL 3' Amplitude
CCL.                          : Casing Collar Locator
GR.GAPI                       : Gamma Ray
TT3.usec                      : CBL 3' Travel Time
~Parameter Information Block
~A  Depth       AMP3        CCL          GR         TT3     
# ...
   938.0000     10.4306      0.0000    131.0121    602.4767
   938.2500     10.6231      0.0000    124.9012    610.9006
   938.5000     10.6544      0.0000    119.5258    620.3926
   938.7500     10.5280      0.0000    115.2090    623.0752
   939.0000     10.3808      0.0000    112.7380    620.3690
   939.2500     10.3109      0.0000    113.3895    617.2968
   939.5000     10.3017      0.0000    117.8152    613.8757
   939.7500     10.3287      0.0000    125.0287    608.9816
   940.0000     10.4263      0.0000    132.7345    605.7501
   940.2500     10.6015      0.0000    138.6729    606.9469
   940.5000     10.7651      0.0000    141.7239    611.2533
   940.7500     10.8132      0.0000    142.0757    615.7437
   941.0000     10.7194      0.0000    140.7211    618.9990
   941.2500     10.5358      0.0000    138.8327    621.8501
   941.5000     10.3761      0.0000    137.2404    625.8787
   941.7500     10.3343      0.0000    136.1299    630.7687
   942.0000     10.3299      0.0000    135.1862    633.0692
   942.2500     10.1661      0.0000    134.1761    630.4025
   942.5000      9.7931      0.0000    133.4011    625.6647
   942.7500      9.3687      0.0000    133.4629    623.6551
   943.0000      9.0687      0.0000    134.5647    626.9266
   943.2500      8.9291      0.0000    136.0369    634.7743
   943.5000      8.8407      0.0000    136.4942    641.8389
   943.7500      8.6497      0.0000    134.6628    641.5466
   944.0000      8.2899      0.0000    130.5171    635.0161
   944.2500      7.8457      0.0000    125.6288    631.4309
   944.5000      7.4802      0.0000    121.8126    636.8146
   944.7500      7.2903      0.0000    119.1882    645.9962
   945.0000      7.2239      0.0000    115.9465    648.4446
   945.2500      7.1475      0.0000    110.1374    641.2451
   945.5000      6.9892      0.0000    101.5038    632.0378
   945.7500      6.7897      0.0000     91.7471    630.0886
   946.0000      6.6362      0.0000     83.3504    637.8090
   946.2500      6.5730      0.0000     78.1590    649.0662
   946.5000      6.5546      0.0000     76.7662    655.8756
   946.7500      6.4792      0.0000     78.6847    656.5828
   947.0000      6.2744      0.0000     82.6048    655.7148
   947.2500      5.9568      0.0000     86.6589    656.8323
   947.5000      5.6178      0.0000     89.1630    658.1115
   947.7500      5.3475      0.0000     89.4858    655.6361
   948.0000      5.1577      0.0000     88.0008    648.2570
   948.2500      4.9856      0.0000     85.2253    637.9645
   948.5000      4.7904      0.0000     81.4122    628.0103
   948.7500      4.6132      0.0000     76.9128    624.3272
   949.0000      4.5446      0.0000     72.3006    633.9683
   949.2500      4.6446      0.0000     67.9309    654.6151
   949.5000      4.8545      0.0000     63.8404    674.1029
   949.7500      5.0225      0.0000     60.1686    684.6618
   950.0000      5.0679      0.0000     57.2326    688.3427
   950.2500      5.0671      0.0000     55.1388    690.4706
   950.5000      5.1268      0.0000     53.6867    694.9353
   950.7500      5.2490      0.0000     52.6705    702.2366
   951.0000      5.3774      0.0000     52.0812    707.2912
   951.2500      5.4977      0.0000     52.1131    702.8953
   951.5000      5.6336      0.0000     53.0639    689.6500
   951.7500      5.7884      0.0000     55.0882    677.6505
   952.0000      5.9235      0.0000     57.9420    674.1691
   952.2500      5.9865      0.0000     61.0494    675.5339
   952.5000      5.9611      0.0000     63.8082    673.9012
   952.7500      5.8977      0.0000     65.8058    666.4780
   953.0000      5.8827      0.0000     66.9387    657.7256
   953.2500      5.9685      0.0000     67.5188    654.0009
   953.5000      6.1581      0.0000     68.1013    656.2499
   953.7500      6.4522      0.0000     69.0089    660.7768
   954.0000      6.8623      0.0000     70.1193    663.6761
   954.2500      7.3702      0.0000     71.2024    663.2090
   954.5000      7.8881      0.0000     72.3204    662.8453
   954.7500      8.2790      0.0000     73.7189    667.2365
   955.0000      8.4173      0.0000     75.3100    674.7364
   955.2500      8.2473      0.0000     76.3754    679.6767
   955.5000      7.8390      0.0000     75.9543    677.8210
   955.7500      7.3540      0.0000     73.6173    669.9281
   956.0000      6.8904      0.0000     69.8933    663.5639
   956.2500      6.4479      0.0000     66.1753    665.6329
   956.5000      6.0784      0.0000     64.3713    672.6638
   956.7500      5.8957      0.0000     66.2088    675.8836
   957.0000      5.8924      0.0000     72.2143    672.6828
   957.2500      5.9047      0.0000     81.2341    666.1807
   957.5000      5.8239      0.0000     91.1834    657.5920
   957.7500      5.7504      0.0000    100.3297    645.6839
   958.0000      5.8714      0.0000    107.8552    632.6136
   958.2500      6.2407      0.0000    113.4861    625.3627
   958.5000      6.7744      0.0000    116.9864    629.5375
   958.7500      7.3794      0.0000    118.2512    642.7107
   959.0000      7.9610      0.0000    117.7685    656.1946
   959.2500      8.4338      0.0000    116.5938    663.0639
   959.5000      8.8205      0.0000    115.6091    659.9291
   959.7500      9.2050      0.0000    114.8082    645.0441
   960.0000      9.5676      0.0000    113.3968    622.7060
   960.2500      9.7916      0.0000    110.6165    603.3253
   960.5000      9.8235      0.0000    106.4309    593.0977
   960.7500      9.7221      0.0000    101.4380    589.9580
   961.0000      9.5567      0.0000     96.4108    589.5959
   961.2500      9.3687      0.0000     92.0267    589.7927
   961.5000      9.2201      0.0000     88.6691    590.5059
   961.7500      9.1323      0.0000     86.2228    592.8820
   962.0000      9.0237      0.0000     84.4928    597.3261
   962.2500      8.8361      0.0000     84.0362    601.2391
   962.5000      8.6093      0.0000     86.0378    600.7335
   962.7500      8.3610      0.0000     90.9746    595.7841
   963.0000      8.0541      0.0000     97.5689    590.3263
   963.2500      7.7186      0.0000    103.3170    587.0228
   963.5000      7.4644      0.0000    106.2462    585.1505
   963.7500      7.3321      0.0000    106.3196    582.4169
   964.0000      7.2499      0.0000    105.1869    577.1213
   964.2500      7.1690      0.0000    104.6089    569.9033
   964.5000      7.1030      0.0000    105.1868    562.3813
   964.7500      7.0329      0.0000    106.5543    553.0751
   965.0000      6.9387      0.0000    108.5382    538.1659
   965.2500      6.8688      0.0000    111.7387    518.4629
   965.5000      6.7842      0.0000    116.6988    503.2928
   965.7500      6.4746      0.0000    122.6972    504.6430
   966.0000      5.9314      0.0000    127.9285    524.7759
   966.2500      5.5468      0.0000    130.9197    548.6805
   966.5000      5.5729      0.0000    131.3806    558.0214
   966.7500      5.7964      0.0000    129.7941    554.7155
   967.0000      5.9800      0.0000    126.8296    551.4763
   967.2500      6.1117      0.0000    123.2573    545.0228
   967.5000      6.2116      2.0000    120.0301    527.3853
   967.7500      6.2636     -2.0000    118.1409    507.2798
   968.0000      6.3098      0.0000    118.1503    496.8891
   968.2500      6.4489      0.0000    119.6239    499.9714
   968.5000      6.7602      0.0000    121.3101    518.5017
   968.7500      7.3126      0.0000    122.1843    550.2832
   969.0000      8.0471      0.0000    122.0762    584.1492
   969.2500      8.5691      0.0000    121.2334    607.2260
   969.5000      8.5713      0.0000    119.7761    612.3698
   969.7500      8.3271      0.0000    117.7477    602.0131
   970.0000      8.2122      0.0000    115.3904    587.8270
   970.2500      8.2439      0.0000    113.2627    582.2691
   970.5000      8.3172      0.0000    112.0392    592.5280
   970.7500      8.4248      0.0000    111.9673    617.0421
   971.0000      8.5955      0.0000    112.5872    641.6912
   971.2500      8.7892      0.0000    113.3018    647.5317
