~Version Information
VERS.                      2.0: CWLS Log ASCII Standard - VERSION 2.0
WRAP.                       NO: One line per depth step
~Well Information Block
STRT.FT               665.0000: 
STOP.FT              1972.5000: 
STEP.FT                 0.1000: 
NULL.                -999.2500: 
COMP.          Petrogulf Corporation: COMPANY
WELL.          Great Plains 22-21V: WELL
FLD.           Purgatorie River: FIELD
LOC.           63' FNL & 1895' FWL: LOCATION
PROV.                 Colorado: PROVINCE
CNTY.               Las Animas: COUNTRY
SRVC.                Patterson: SERVICE COMPANY
DATE.          Thu Sep 01 07:39:43 2005: LOG DATE
UWI.                          : UNIQUE WELL ID
~Curve Information Block
DEPT.FT            0 000 00 00: Depth
DCAL.in                       : CDL Caliper
RHOB.g/cc                     : CDL Bulk Density
RHOC.g/cc                     : CDL Density Correction
DPOR.pu                       : CDL Density Porosity
GR.GAPI                       : Gamma Ray
NPOR.pu                       : Neutron Porosity
~Parameter Information Block
~A  Depth       DCAL        RHOB        RHOC        DPOR         GR         NPOR    
# ...
  1097.0000      8.1110      2.5799      0.0888      4.2478    100.1109     26.9430
  1097.1000      8.1110      2.5879      0.0685      3.7629     96.5541     25.9081
  1097.2000      8.1110      2.5903      0.0889      3.6182     94.9266     24.9100
  1097.3000      8.1019      2.5742      0.0650      4.5913     95.4248     24.6835
  1097.4000      8.1019      2.5555      0.0210      5.7293     96.0787     24.9031
  1097.5000      8.0732      2.5526      0.0796      5.9025     93.9837     24.7679
  1097.6000      8.0732      2.5512      0.0891      5.9858     88.8338     24.6584
  1097.7000      8.0732      2.5422      0.0242      6.5316     83.5263     25.2475
  1097.8000      8.0744      2.5429      0.0292      6.4890     81.1245     26.3851
  1097.9000      8.0744      2.5610      0.0570      5.3924     82.9624     27.2749
  1098.0000      8.0725      2.5842      0.0865      3.9860     86.2718     27.8271
  1098.1000      8.0725      2.5986      0.1206      3.1156     87.7788     28.3746
  1098.2000      8.0725      2.5997      0.0842      3.0465     89.1224     28.5397
  1098.3000      8.0649      2.5907      0.1256      3.5969     92.2151     28.4540
  1098.4000      8.0649      2.5738      0.0668      4.6182     95.0270     28.7598
  1098.5000      8.0738      2.5558      0.0688      5.7104     96.1755     29.7120
  1098.6000      8.0738      2.5461      0.0146      6.2948     95.6310     31.1422
  1098.7000      8.0738      2.5480      0.0405      6.1803     92.8426     31.8582
  1098.8000      8.0682      2.5521      0.0641      5.9348     90.3110     31.0152
  1098.9000      8.0682      2.5463      0.0591      6.2871     92.7635     29.7427
  1099.0000      8.1761      2.5301      0.0720      7.2676    100.6116     29.6912
  1099.1000      8.1761      2.5176      0.0388      8.0242    107.0931     31.0401
  1099.2000      8.1761      2.5252      0.0357      7.5643    106.7295     32.2693
  1099.3000      8.1907      2.5498      0.1065      6.0751    102.8355     31.8202
  1099.4000      8.1907      2.5722      0.1147      4.7128    101.1094     30.5365
  1099.5000      8.1620      2.5830      0.0994      4.0629    101.6549     30.5237
  1099.6000      8.1620      2.5833      0.0648      4.0423    100.9940     31.5835
  1099.7000      8.1620      2.5734      0.0799      4.6425     99.6750     32.3727
  1099.8000      8.2263      2.5553      0.0819      5.7369    100.5941     32.7264
  1099.9000      8.2263      2.5415      0.0468      6.5756    102.9809     32.7981
  1100.0000      8.1395      2.5349      0.0784      6.9745    105.0123     32.7114
  1100.1000      8.1395      2.5214      0.0321      7.7938    107.2200     32.3411
  1100.2000      8.1395      2.5007      0.0484      9.0509    111.5547     31.8149
  1100.3000      8.1096      2.4864      0.0375      9.9143    119.5256     31.9685
  1100.4000      8.1096      2.4805      0.0423     10.2754    129.0024     32.6499
  1100.5000      8.1848      2.4708      0.0688     10.8591    137.6219     32.8221
  1100.6000      8.1848      2.4529      0.0602     11.9452    145.0413     32.3729
  1100.7000      8.1848      2.4390      0.0615     12.7865    149.6649     32.0371
  1100.8000      8.2849      2.4396      0.0812     12.7494    153.2492     32.3677
  1100.9000      8.2849      2.4448      0.1378     12.4337    159.6531     33.1720
  1101.0000      8.3210      2.4326      0.1140     13.1775    163.9962     33.7686
  1101.1000      8.3210      2.4004      0.0819     15.1280    160.9265     33.6796
  1101.2000      8.3210      2.3739      0.0630     16.7339    155.8129     33.4174
  1101.3000      8.3251      2.3763      0.1009     16.5865    154.4359     33.8922
  1101.4000      8.3251      2.4041      0.1074     14.9052    155.2514     35.3592
  1101.5000      8.2991      2.4397      0.1030     12.7475    154.8430     37.2151
  1101.6000      8.2991      2.4745      0.1417     10.6355    151.2457     38.4829
  1101.7000      8.2991      2.5092      0.1503      8.5341    144.5620     38.6659
  1101.8000      8.2581      2.5460      0.2166      6.3009    137.0265     37.9626
  1101.9000      8.2581      2.5899      0.2212      3.6411    131.7113     37.1992
  1102.0000      8.2276      2.6434      0.2491      0.4002    129.2435     37.0107
  1102.1000      8.2276      2.6817      0.3399     -1.9227    126.1844     37.0021
  1102.2000      8.2276      2.6762      0.1960     -1.5869    121.5474     36.6702
  1102.3000      8.3745      2.6440      0.1493      0.3640    116.2265     36.1874
  1102.4000      8.3745      2.6178      0.1126      1.9486    111.0618     35.7723
  1102.5000      8.2854      2.6031      0.1148      2.8397    107.0395     35.1963
  1102.6000      8.2854      2.5925      0.0791      3.4852    103.6874     33.9837
  1102.7000      8.2854      2.5899      0.0708      3.6411    100.1702     32.0075
  1102.8000      8.0916      2.5996      0.0773      3.0553     95.1103     29.7025
  1102.9000      8.0916      2.6122      0.0828      2.2889     88.4570     27.8112
  1103.0000      8.0747      2.6171      0.0854      1.9959     82.5016     26.7013
  1103.1000      8.0747      2.6128      0.0673      2.2528     79.2048     25.8958
  1103.2000      8.0747      2.6018      0.1161      2.9189     77.4575     24.7783
  1103.3000      8.0577      2.5855      0.1029      3.9102     75.9100     23.1340
  1103.4000      8.0577      2.5738      0.0616      4.6197     74.7419     21.1608
  1103.5000      8.0549      2.5732      0.1261      4.6564     73.2530     19.3102
  1103.6000      8.0549      2.5749      0.1051      4.5492     71.0074     17.8374
  1103.7000      8.0549      2.5744      0.1138      4.5801     70.8559     16.7562
  1103.8000      8.0523      2.5707      0.1055      4.8049     74.6846     16.0600
  1103.9000      8.0523      2.5577      0.0917      5.5945     79.5004     15.7585
  1104.0000      8.0546      2.5334      0.0862      7.0660     82.1703     15.8800
  1104.1000      8.0546      2.5103      0.0342      8.4657     82.0494     16.1919
  1104.2000      8.0546      2.5025      0.0509      8.9418     78.5527     16.3526
  1104.3000      8.0780      2.5074      0.0461      8.6434     72.4171     16.4394
  1104.4000      8.0780      2.5178      0.0627      8.0125     67.1624     16.4762
  1104.5000      8.1073      2.5314      0.0699      7.1852     65.2738     16.2350
  1104.6000      8.1073      2.5412      0.1053      6.5916     66.0205     15.8803
  1104.7000      8.1073      2.5379      0.0907      6.7938     67.1821     15.7985
  1104.8000      8.1040      2.5251      0.0647      7.5699     68.0676     16.0413
  1104.9000      8.1040      2.5129      0.0584      8.3118     69.9562     16.3416
  1105.0000      8.1000      2.5064      0.0462      8.7037     73.5757     16.5038
  1105.1000      8.1000      2.5028      0.0657      8.9210     77.2444     16.5562
  1105.2000      8.1000      2.4952      0.0467      9.3822     78.4700     16.5455
  1105.3000      8.1123      2.4851      0.0400      9.9962     77.4022     16.5149
  1105.4000      8.1123      2.4808      0.0517     10.2543     75.1140     16.4456
  1105.5000      8.1559      2.4848      0.0313     10.0127     72.4666     16.3150
  1105.6000      8.1559      2.4895      0.0665      9.7272     72.4388     16.1950
  1105.7000      8.1559      2.4908      0.0555      9.6506     75.9323     16.0759
  1105.8000      8.1355      2.4956      0.0537      9.3565     78.4692     16.0884
  1105.9000      8.1355      2.5057      0.0643      8.7458     78.6284     16.3395
  1106.0000      8.1125      2.5131      0.0589      8.2958     78.4244     16.4973
  1106.1000      8.1125      2.5170      0.0477      8.0599     75.7034     16.2574
  1106.2000      8.1125      2.5243      0.0432      7.6188     69.2178     15.8437
  1106.3000      8.1258      2.5299      0.0699      7.2782     63.1799     15.7041
  1106.4000      8.1258      2.5226      0.0818      7.7211     61.4545     15.9041
  1106.5000      8.1148      2.5118      0.0176      8.3777     63.3009     16.1038
