~Version Information
VERS.                      2.0: CWLS Log ASCII Standard - VERSION 2.0
WRAP.                       NO: One line per depth step
~Well Information Block
STRT.FT               801.5000: 
STOP.FT              2513.0000: 
STEP.FT                 0.2500: 
NULL.                -999.2500: 
COMP.          Petrogulf Corporation: COMPANY
WELL.               YWAM 7-32V: WELL
FLD.           Purgatoire River: FIELD
LOC.           2423' FNL & 2412' FEL: LOCATION
PROV.                 Colorado: PROVINCE
CNTY.               Las Animas: COUNTRY
SRVC.                Patterson: SERVICE COMPANY
DATE.          Sun Dec 14 06:58:17 2003: LOG DATE
UWI.                          : UNIQUE WELL ID
~Curve Information Block
DEPT.FT            0 000 00 00: Depth
SP.mV                         : DIL Spontaneous Potential
RILD.Ohm-m                    : DIL Deep Resistivity
RILM.Ohm-m                    : DIL Medium Resistivity
RLL3.Ohm-m                    : DIL Shallow Resistivity
GR.GAPI                       : Gamma Ray
~Parameter Information Block
~A  Depth        SP         RILD        RILM        RLL3         GR     
# ...
  2481.5000    -10.6012      9.8143     11.7652     23.4654    101.0431
  2481.7500     -9.9347      9.9700     11.7535     23.6379     99.7125
  2482.0000     -8.8973     10.1300     11.6852     22.3655     98.2073
  2482.2500     -7.8039     10.2802     11.5846     19.9033     97.9388
  2482.5000     -6.9624     10.4079     11.4867     17.1714     98.8911
  2482.7500     -6.5539     10.5023     11.4261     15.2270    100.0391
  2483.0000     -6.5775     10.5577     11.4256     14.7307    101.1397
  2483.2500     -6.8815     10.5770     11.4884     15.7849    100.7780
  2483.5000     -7.2583     10.5746     11.5950     17.9798     98.4230
  2483.7500     -7.5453     10.5755     11.7128     20.4060     95.9784
  2484.0000     -7.7004     10.6101     11.8148     21.8788     91.6682
  2484.2500     -7.8391     10.7067     11.8994     21.6283     88.7579
  2484.5000     -8.2118     10.8848     11.9958     19.9438     85.1714
  2484.7500     -9.0978     11.1534     12.1533     18.0235     83.7216
  2485.0000    -10.6630     11.5114     12.4235     17.1888     83.0690
  2485.2500    -12.8632     11.9502     12.8445     18.2613     83.3293
  2485.5000    -15.4499     12.4552     13.4309     21.4003     84.0212
  2485.7500    -18.0673     13.0061     14.1669     26.1315     84.3443
  2486.0000    -20.3896     13.5777     15.0087     31.4722     84.2527
  2486.2500    -22.2324     14.1412     15.8982     36.2742     83.6229
  2486.5000    -23.5776     14.6659     16.7860     39.6859     81.3566
  2486.7500    -24.5111     15.1198     17.6472     41.4399     78.4202
  2487.0000    -25.1305     15.4686     18.4719     41.8212     70.3089
  2487.2500    -25.4830     15.6767     19.2373     41.4138     61.5972
  2487.5000    -25.5521     15.7150     19.8818     40.8170     44.1012
  2487.7500    -25.2815     15.5713     20.3038     40.4238     31.4281
  2488.0000    -24.6149     15.2573     20.3875     40.2481     15.3298
  2488.2500    -23.5263     14.8054     20.0468     39.8410      8.1311
  2488.5000    -22.0341     14.2603     19.2695     38.4569      2.4395
  2488.7500    -20.2128     13.6711     18.1360     35.5387      0.9165
  2489.0000    -18.2053     13.0856     16.7956     31.2347      0.1590
  2489.2500    -16.2137     12.5453     15.4105     26.4295      0.0403
  2489.5000    -14.4535     12.0808     14.1089     22.1341      0.0025
  2489.7500    -13.0982     11.7086     12.9698     18.8106   -999.2500
  2490.0000    -12.2559     11.4315     12.0341     16.3123   -999.2500
  2490.2500    -11.9716     11.2402     11.3213     14.3550   -999.2500
  2490.5000    -12.2241     11.1171     10.8403     12.9019   -999.2500
  2490.7500    -12.9101     11.0405     10.5934     12.2010   -999.2500
  2491.0000    -13.8429     10.9878     10.5761     12.6839   -999.2500
  2491.2500    -14.7891     10.9370     10.7745     14.8078   -999.2500
  2491.5000    -15.5331     10.8701     11.1605     18.7103   -999.2500
  2491.7500    -15.9397     10.7780     11.6859     23.8148   -999.2500
  2492.0000    -15.9807     10.6653     12.2806     28.8636   -999.2500
  2492.2500    -15.7068     10.5516     12.8603     32.5484   -999.2500
  2492.5000    -15.1853     10.4657     13.3463     34.2130   -999.2500
  2492.7500    -14.4552     10.4370     13.6887     33.9810   -999.2500
  2493.0000    -13.5279     10.4871     13.8776     32.3255   -999.2500
  2493.2500    -12.4239     10.6222     13.9396     29.6469   -999.2500
  2493.5000    -11.2104     10.8312     13.9228     26.2639   -999.2500
  2493.7500    -10.0139     11.0857     13.8791     22.6619   -999.2500
  2494.0000     -8.9878     11.3462     13.8493     19.5512   -999.2500
  2494.2500     -8.2528     11.5703     13.8567     17.5328   -999.2500
  2494.5000     -7.8538     11.7230     13.9080     16.7016   -999.2500
  2494.7500     -7.7722     11.7876     13.9993     16.6917   -999.2500
  2495.0000     -7.9748     11.7711     14.1207     17.1712   -999.2500
  2495.2500     -8.4430     11.7422     14.2566     18.2019   -999.2500
  2495.5000     -9.1459     11.7071     14.3855     20.0169   -999.2500
  2495.7500     -9.9874     11.6751     14.4826     22.4839   -999.2500
  2496.0000    -10.7937     11.7185     14.5277     24.8917   -999.2500
  2496.2500    -11.3743     11.8478     14.5180     26.3019   -999.2500
  2496.5000    -11.6206     12.0446     14.4756     26.1352   -999.2500
  2496.7500    -11.5830     12.2648     14.4429     24.5512   -999.2500
  2497.0000    -11.4789     12.4522     14.4661     22.4535   -999.2500
  2497.2500    -11.6023     12.5571     14.5721     21.1364   -999.2500
  2497.5000    -12.1444     12.5563     14.7473     21.6471   -999.2500
  2497.7500    -13.0263     12.4702     14.9260     24.1414   -999.2500
  2498.0000    -13.8823     12.3737     15.0011     27.6922   -999.2500
  2498.2500    -14.2265     12.4032     14.8656     30.7481   -999.2500
  2498.5000    -13.6828     12.7629     14.4714     31.9182   -999.2500
  2498.7500    -12.1340     13.7483     13.8604     30.5827   -999.2500
  2499.0000     -9.7546     15.7479     13.1405     27.0834   -999.2500
  2499.2500     -6.9684     19.7376     12.4315     22.5048   -999.2500
  2499.5000     -4.3242     27.4027     11.8249     18.1414   -999.2500
  2499.7500     -2.2784     42.7533     11.3734     14.9029   -999.2500
  2500.0000     -0.9988     76.0325     11.1000     13.0491   -999.2500
  2500.2500     -0.3583    157.2130     11.0097     12.3985   -999.2500
  2500.5000     -0.1038    394.6182     11.0961     12.6904   -999.2500
  2500.7500     -0.0240   1405.2190     11.3422     13.7323   -999.2500
  2501.0000     -0.0043 100000.0000     11.7213     15.3735   -999.2500
  2501.2500     -0.0005 100000.0000     12.2012     17.5239   -999.2500
  2501.5000   -999.2500 100000.0000     12.7601     20.1597   -999.2500
  2501.7500   -999.2500 100000.0000     13.4112     23.1384   -999.2500
  2502.0000   -999.2500    293.4045     14.2308     26.0025   -999.2500
  2502.2500   -999.2500    372.0809     15.3884     28.1329   -999.2500
  2502.5000   -999.2500    531.2609     17.1831     29.1649   -999.2500
  2502.7500   -999.2500    887.4036     20.1105     29.2003   -999.2500
  2503.0000   -999.2500   1895.7124     24.9657     28.6176   -999.2500
  2503.2500   -999.2500   8075.5063     33.1992     27.7654   -999.2500
  2503.5000   -999.2500 100000.0000     46.8371     26.8459   -999.2500
  2503.7500   -999.2500 100000.0000     68.2711     25.9694   -999.2500
  2504.0000   -999.2500 100000.0000     97.4206     25.2017   -999.2500
  2504.2500   -999.2500 100000.0000    127.6955     24.5571   -999.2500
  2504.5000   -999.2500 100000.0000    149.3330     24.0221   -999.2500
  2504.7500   -999.2500 100000.0000    159.7022     23.6089   -999.2500
  2505.0000   -999.2500 100000.0000    163.1754     23.3540   -999.2500
  2505.2500   -999.2500 100000.0000    164.1974     23.2467   -999.2500
  2505.5000   -999.2500 100000.0000    164.9410     23.1849   -999.2500
  2505.7500   -999.2500 100000.0000    571.5129     23.0139   -999.2500
  2506.0000   -999.2500 100000.0000    590.5846     22.6161   -999.2500
  2506.2500   -999.2500 100000.0000    614.8037     21.9850   -999.2500
  2506.5000   -999.2500 100000.0000    643.1125     21.2449   -999.2500
  2506.7500   -999.2500 100000.0000    676.1876     20.6027   -999.2500
  2507.0000   -999.2500 100000.0000    717.9161     20.2158   -999.2500
  2507.2500   -999.2500 100000.0000    776.9627     19.9995   -999.2500
  2507.5000   -999.2500 100000.0000    868.8188     19.4832   -999.2500
  2507.7500   -999.2500 100000.0000   1019.5987     17.9121   -999.2500
  2508.0000   -999.2500 100000.0000   1273.9360     14.7013   -999.2500
  2508.2500   -999.2500 100000.0000   1709.9938      9.9984   -999.2500
  2508.5000   -999.2500   -999.2500   2460.8762      4.8007   -999.2500
  2508.7500   -999.2500   -999.2500   3716.7466      0.3656   -999.2500
  2509.0000   -999.2500   -999.2500   5607.0630     -2.5836   -999.2500
  2509.2500   -999.2500   -999.2500   7870.4531     -4.1170   -999.2500
