~Version Information
VERS.                      2.0: CWLS Log ASCII Standard - VERSION 2.0
WRAP.                       NO: One line per depth step
~Well Information Block
STRT.FT               -12.5000: 
STOP.FT              2284.7500: 
STEP.FT                 0.2500: 
NULL.                -999.2500: 
COMP.          Pioneer Natural Resources: COMPANY
WELL.          Hill Climb 22-2: WELL
FLD.           Purgatorie River: FIELD
LOC.           1820' FNL & 2193' FWL--: LOCATION
PROV.                       CO: PROVINCE
CNTY.               Las Animas: COUNTRY
SRVC.                         : SERVICE COMPANY
DATE.          Fri Oct 22 11:44:16 2004: LOG DATE
UWI.                          : UNIQUE WELL ID
~Curve Information Block
DEPT.FT            0 000 00 00: Depth
GR.GAPI                       : Gamma Ray
CCL.                          : Casing Collar Locator
TT3.usec                      : CBL 3' Travel Time
AMP3.mV                       : CBL 3' Amplitude
~Parameter Information Block
~A  Depth        GR         CCL         TT3         AMP3    
# ...
  1193.5000     46.7193      0.0000    259.0962     78.6240
  1193.7500     44.2255      0.0000    259.0940     78.5254
  1194.0000     42.7286      0.0000    259.0887     78.4712
  1194.2500     41.7597      0.0000    259.0815     78.4585
  1194.5000     40.6409      0.0000    259.0745     78.4624
  1194.7500     38.8859      0.0000    259.0683     78.4658
  1195.0000     36.4987      0.0000    259.0624     78.4728
  1195.2500     33.9008      0.0000    259.0562     78.4944
  1195.5000     31.6538      0.0000    259.0494     78.5376
  1195.7500     30.1948      0.0000    259.0419     78.6077
  1196.0000     29.6596      0.0000    259.0316     78.7059
  1196.2500     29.9382      0.0000    259.0159     78.8231
  1196.5000     30.9602      0.0000    258.9942     78.9438
  1196.7500     32.8395      0.0000    258.9726     79.0515
  1197.0000     35.6797      0.0000    258.9604     79.1313
  1197.2500     39.4252      0.0000    258.9620     79.1792
  1197.5000     44.0316      0.0000    258.9729     79.2075
  1197.7500     49.7393      0.0000    258.9844     79.2302
  1198.0000     57.2560      0.0000    258.9909     79.2451
  1198.2500     67.6694      0.0000    258.9927     79.2363
  1198.5000     81.6578      0.0000    258.9940     79.1868
  1198.7500     98.3809      0.0000    258.9985     79.0876
  1199.0000    115.3429      0.0000    259.0070     78.9481
  1199.2500    129.6879      0.0000    259.0193     78.7979
  1199.5000    139.6759      0.0000    259.0348     78.6705
  1199.7500    145.0707      0.0000    259.0502     78.5844
  1200.0000    146.7135      0.0000    259.0596     78.5443
  1200.2500    146.0437      0.0000    259.0589     78.5505
  1200.5000    144.3829      0.0000    259.0493     78.5959
  1200.7500    142.1357      0.0000    259.0358     78.6594
  1201.0000    138.9164      0.0000    259.0234     78.7209
  1201.2500    134.5129      0.0000    259.0154     78.7804
  1201.5000    129.3288      0.0000    259.0120     78.8464
  1201.7500    124.0962      0.0000    259.0114     78.9114
  1202.0000    119.7622      0.0000    259.0107     78.9553
  1202.2500    117.6016      0.0000    259.0057     78.9683
  1202.5000    118.7959      0.0000    258.9942     78.9564
  1202.7500    123.4283      0.0000    258.9804     78.9320
  1203.0000    129.8495      0.0000    258.9727     78.9122
  1203.2500    135.3718      0.0000    258.9761     78.9167
  1203.5000    138.0460      0.0000    258.9879     78.9525
  1203.7500    137.9713      0.0000    259.0027     78.9972
  1204.0000    136.7619      0.0000    259.0183     78.9991
  1204.2500    135.7649      0.0000    259.0351     78.9062
  1204.5000    135.1898      0.0000    259.0514     78.7099
  1204.7500    135.0015      0.0000    259.0636     78.4692
  1205.0000    135.9013      0.0000    259.0674     78.2823
  1205.2500    138.8205      0.0000    259.0594     78.2228
  1205.5000    143.7103      0.0000    259.0398     78.2932
  1205.7500    149.3788      0.0000    259.0154     78.4339
  1206.0000    154.5014      0.0000    258.9963     78.5762
  1206.2500    158.2817      0.0000    258.9879     78.6895
  1206.5000    160.1217      0.0000    258.9880     78.7837
  1206.7500    159.4399      0.0000    258.9914     78.8729
  1207.0000    156.2765      0.0000    258.9942     78.9464
  1207.2500    151.6969      0.0000    258.9944     78.9778
  1207.5000    147.1974      0.0000    258.9919     78.9546
  1207.7500    143.7201      0.0000    258.9864     78.8901
  1208.0000    141.2108      0.0000    258.9776     78.8019
  1208.2500    139.0306      0.0000    258.9673     78.6880
  1208.5000    136.9655      0.0000    258.9611     78.5341
  1208.7500    135.7262      0.0000    258.9637     78.3534
  1209.0000    135.8596      0.0000    258.9760     78.2152
  1209.2500    136.2386      0.0000    258.9934     78.2157
  1209.5000    134.3780      0.0000    259.0063     78.4025
  1209.7500    128.4551      0.0000    259.0033     78.7260
  1210.0000    118.8081      0.0000    258.9790     79.0743
  1210.2500    107.7993      0.0000    258.9394     79.3521
  1210.5000     98.5693      0.0000    258.8992     79.5215
  1210.7500     93.2094      0.0000    258.8741     79.5874
  1211.0000     91.3765      0.0000    258.8725     79.5753
  1211.2500     90.9006      0.0000    258.8914     79.5181
  1211.5000     89.9229      0.0000    258.9181     79.4434
  1211.7500     88.1300      0.0000    258.9393     79.3676
  1212.0000     86.2041      0.0000    258.9485     79.2995
  1212.2500     84.8115      0.0000    258.9486     79.2377
  1212.5000     84.0742      0.0000    258.9489     79.1668
  1212.7500     83.5526      0.0000    258.9590     79.0714
  1213.0000     82.7344      0.0000    258.9816     78.9531
  1213.2500     81.5509      0.0000    259.0094     78.8268
  1213.5000     80.1634      0.0000    259.0304     78.7085
  1213.7500     78.5030      0.0000    259.0366     78.6110
  1214.0000     76.4390      0.0000    259.0276     78.5435
  1214.2500     74.2185      0.0000    259.0099     78.5093
  1214.5000     72.3945      0.0000    258.9924     78.5129
  1214.7500     71.4185      0.0000    258.9805     78.5638
  1215.0000     71.4805      0.0000    258.9726     78.6615
  1215.2500     72.6708      0.0000    258.9632     78.7771
  1215.5000     75.2070      0.0000    258.9502     78.8607
  1215.7500     79.4169      0.0000    258.9388     78.8766
  1216.0000     85.3187      0.0000    258.9359     78.8293
  1216.2500     92.0821      0.0000    258.9442     78.7583
  1216.5000     98.0515      0.0000    258.9617     78.7061
  1216.7500    101.5498      0.0000    258.9842     78.6887
  1217.0000    101.9926      0.0000    259.0062     78.6927
  1217.2500    100.6204      0.0000    259.0225     78.7005
  1217.5000    100.1456      0.0000    259.0282     78.7169
  1217.7500    103.1702      0.0000    259.0199     78.7665
  1218.0000    110.4347      0.0000    258.9992     78.8658
  1218.2500    120.5531      0.0000    258.9740     78.9989
  1218.5000    131.5328      0.0000    258.9543     79.1136
  1218.7500    142.2726      0.0000    258.9466     79.1385
  1219.0000    152.3326      0.0000    258.9535     79.0172
  1219.2500    160.8414      0.0000    258.9744     78.7425
  1219.5000    166.3870      0.0000    259.0030     78.3635
  1219.7500    167.8923      0.0000    259.0276     77.9511
  1220.0000    165.3751      0.0000    259.0395     77.5478
  1220.2500    160.3698      0.0000    259.0403     77.1443
  1220.5000    155.5425      0.0000    259.0400     76.7104
  1220.7500    152.6204      0.0000    259.0451     76.2526
  1221.0000    150.0908      0.0000    259.0522     75.8353
  1221.2500    143.9352      0.0000    259.0534     75.5375
  1221.5000    131.4043      0.0000    259.0469     75.3945
  1221.7500    113.6443      0.0000    259.0410     75.3870
  1222.0000     94.3631      0.0000    259.0454     75.4667
  1222.2500     76.6780      0.0000    259.0607     75.5719
  1222.5000     61.7691      0.0000    259.0807     75.6276
  1222.7500     49.7231      0.0000    259.1012     75.5519
  1223.0000     40.4173      0.0000    259.1211     75.2796
  1223.2500     33.4639      0.0000    259.1354     74.7968
  1223.5000     28.0980      0.0000    259.1338     74.1640
  1223.7500     23.6578      0.0000    259.1111     73.5011
  1224.0000     20.0859      0.0000    259.0752     72.9427
  1224.2500     17.8224      0.0000    259.0429     72.6054
  1224.5000     17.3226      0.0000    259.0279     72.5710
  1224.7500     18.8985      0.0000    259.0317     72.8560
  1225.0000     22.8489      0.0000    259.0446     73.3776
  1225.2500     29.2984      0.0000    259.0549     73.9634
  1225.5000     37.8573      0.0000    259.0583     74.4170
  1225.7500     47.8404      0.0000    259.0563     74.6019
  1226.0000     59.0580      0.0000    259.0490     74.5055
  1226.2500     72.1626      0.0000    259.0336     74.2505
  1226.5000     87.8039      0.0000    259.0095     74.0247
  1226.7500    105.0999      0.0000    258.9814     73.9391
