~Version Information
 VERS.                                  2.0 : CWLS LAS VERSION
 WRAP.                                   NO : WRAPING MODE
 SWARE .                 MController 2.5.0J : SOFTWARE VERSION
~Well Information
 WELL.                         State 16-24R : WELL
 COMP.                Petrogulf Corporation : COMPANY
 FLD.                      Purgatoire River : FIELD
 LOC.                SE/SW Sec 16 T33S R67W : LOCATION
 DATE.                            8/9-11/05 : DATE(S) LOGGED
 SRVC.       BLANCO Geological Services LLC : SERVICE COMPANY
 STAT.                                   CO : STATE
 CNTY.                           Las Animas : COUNTY
 CTRY.                                  USA : COUNTRY
 API.                       05-071-08312-00 : API NUMBER
 STRT.FT                              27.00 : START DEPTH
 STOP.FT                            1870.00 : STOP DEPTH
 STEP.FT                               1.00 : DEPTH INCREMENT
 NULL.                                -9999 : NULL VALUE
~Curve information
 DEPTH.FT                                   :
 ROP.MIN/FT                                 :
 GAS.UNITS                                  :
~ASCII Log data
# ...
       827.0         0.27       1962.2 
       828.0         0.17       1960.3 
       829.0         0.23       1959.4 
       830.0         0.20       1946.0 
       831.0         0.20       1935.9 
       832.0         0.30       1913.3 
       833.0         0.23       1799.4 
       834.0         0.27       1551.8 
       835.0         0.33       1338.2 
       836.0         3.05       3932.2 
       837.0         0.40       2523.0 
       838.0         0.45       2274.8 
       839.0         0.43       1986.0 
       840.0         0.33       1758.8 
       841.0         0.47       1661.7 
       842.0         0.30       1566.4 
       843.0         0.37       1504.9 
       844.0         0.30       1440.4 
       845.0         0.37       1373.2 
       846.0         0.33       1333.2 
       847.0         0.45       1325.9 
       848.0         0.47       1330.9 
       849.0         0.53       1360.8 
       850.0         0.50       1364.3 
       851.0         0.43       1378.9 
       852.0         0.47       1374.7 
       853.0         0.58       1453.4 
       854.0         0.83       1530.6 
       855.0         0.93       1624.5 
       856.0         0.53       1682.9 
       857.0         0.57       1739.4 
       858.0         0.62       1772.4 
       859.0         0.57       1791.8 
       860.0         0.50       1811.1 
       861.0         0.50       1880.3 
       862.0         0.47       1877.2 
       863.0         0.33       1477.9 
       864.0         0.27       1261.4 
       865.0         0.30       1199.5 
       866.0         2.15       4015.0 
       867.0         0.20       2686.5 
       868.0         0.23       2597.0 
       869.0         0.30       2493.5 
       870.0         0.50       2358.6 
       871.0         0.55       2096.5 
       872.0         0.43       1887.3 
       873.0         0.37       1778.1 
       874.0         0.30       1733.1 
       875.0         0.37       1700.7 
       876.0         0.37       1681.3 
       877.0         0.37       1652.8 
       878.0         0.20       1651.2 
       879.0         0.23       1651.8 
       880.0         0.48       1649.6 
       881.0         0.50       1645.8 
       882.0         0.47       1640.7 
       883.0         0.47       1665.1 
       884.0         0.37       1668.6 
       885.0         0.30       1660.4 
       886.0         0.23       1642.3 
       887.0         0.30       1611.2 
       888.0         0.47       1589.0 
       889.0         0.45       1568.0 
       890.0         0.50       1569.9 
       891.0         0.57       1599.1 
       892.0         0.50       1640.4 
       893.0         0.40       1664.8 
       894.0         0.40       1630.9 
       895.0         0.50       1198.0 
       896.0         2.65       3296.5 
       897.0         0.43       2332.0 
       898.0         0.55       2175.8 
       899.0         0.70       1894.9 
       900.0         0.50       1609.9 
       901.0         0.47       1555.0 
       902.0         0.43       1524.9 
       903.0         0.37       1522.0 
       904.0         0.37       1496.6 
       905.0         0.20       1494.1 
       906.0         0.52       1507.1 
       907.0         0.47       1543.0 
       908.0         1.07       1570.6 
       909.0         0.50       1567.1 
       910.0         0.43       1554.1 
       911.0         0.45       1533.1 
       912.0         0.43       1528.7 
       913.0         0.40       1515.0 
       914.0         0.47       1487.7 
       915.0         0.27       1457.3 
       916.0         0.23       1436.6 
       917.0         0.47       1430.6 
       918.0         0.43       1403.3 
       919.0         0.27       1327.1 
       920.0         0.30       1304.0 
       921.0         0.52       1353.2 
       922.0         0.57       1385.5 
       923.0         0.53       1420.4 
       924.0         0.53       1430.0 
       925.0         0.43       1108.1 
       926.0         2.85       3306.6 
       927.0         0.40       2381.5 
       928.0         0.57       2241.2 
       929.0         0.58       1962.5 
       930.0         0.47       1744.2 
       931.0         0.40       1628.6 
       932.0         0.47       1543.9 
       933.0         0.47       1457.6 
       934.0         0.50       1424.9 
       935.0         0.50       1429.0 
       936.0         0.58       1432.5 
       937.0         0.53       1429.3 
       938.0         0.50       1416.6 
       939.0         0.47       1419.8 
       940.0         0.50       1413.8 
       941.0         0.53       1414.1 
       942.0         0.52       1413.1 
       943.0         0.53       1398.9 
       944.0         0.63       1418.9 
       945.0         0.57       1417.9 
       946.0         0.63       1395.4 
       947.0         0.63       1432.8 
       948.0         0.68       1436.6 
       949.0         0.57       1381.1 
       950.0         0.57       1385.2 
       951.0         0.60       1401.1 
       952.0         0.57       1402.0 
       953.0         0.58       1368.4 
       954.0         0.53       1323.3 
       955.0         0.60        915.5 
       956.0         3.62       3519.9 
       957.0         0.63       1639.4 
       958.0         0.60       1276.7 
       959.0         0.62        966.3 
       960.0         0.57        655.9 
       961.0         0.60        513.7 
       962.0         0.57        449.9 
       963.0         0.60         31.4 
       964.0         0.57         24.8 
       965.0         0.72         22.4 
       966.0         0.60         20.8 
       967.0         0.43         19.6 
       968.0         0.43         13.7 
       969.0         0.43         16.3 
       970.0         0.53         17.8 
       971.0         0.62         18.1 
       972.0         0.60         18.6 
       973.0         0.57         18.3 
       974.0         0.63         18.2 
       975.0         0.50         17.4 
       976.0         0.57         17.4 
       977.0         0.58         17.3 
       978.0         0.57         17.4 
       979.0         0.57         17.4 
       980.0         0.57         17.2 
       981.0         0.67         17.0 
       982.0         0.63         17.1 
       983.0         0.75         17.3 
       984.0         0.73         15.3 
       985.0         0.57         11.8 
       986.0         3.78       2473.2 
       987.0         0.77        803.4 
       988.0         0.48        490.8 
       989.0         0.53        747.0 
       990.0         0.53        752.0 
       991.0         0.63        687.6 
       992.0         0.23        639.4 
       993.0         0.47        632.4 
       994.0         0.40        620.6 
       995.0         0.55        614.3 
       996.0         0.33        605.4 
       997.0         0.43        600.3 
       998.0         0.50        593.3 
       999.0         0.53        589.8 
      1000.0         0.57        587.3 
      1001.0         0.63        581.3 
      1002.0         0.75        573.3 
      1003.0         0.67        573.0 
      1004.0         0.73        577.5 
      1005.0         0.63        577.8 
      1006.0         0.57        568.6 
      1007.0         0.72        566.4 
      1008.0         0.57        567.3 
      1009.0      1127.50       1102.7 
      1010.0        35.33        149.6 
      1011.0         0.33         24.6 
      1012.0         0.17         17.3 
      1013.0         0.13         25.5 
      1014.0         0.30        103.3 
      1015.0         0.20        187.6 
      1016.0         0.35        371.4 
      1017.0         0.23       1198.9 
      1018.0         1.77       1394.4 
      1019.0         0.37        440.0 
      1020.0         0.45        146.3 
      1021.0         0.40        127.1 
      1022.0         0.37        122.8 
      1023.0         0.30        121.4 
      1024.0         0.37        120.9 
      1025.0         0.37        118.4 
      1026.0         0.27         96.8 
