~Version Information
VERS.                      2.0: CWLS Log ASCII Standard - VERSION 2.0
WRAP.                       NO: One line per depth step
~Well Information Block
STRT.FT               780.0000: 
STOP.FT              1557.5000: 
STEP.FT                 0.1000: 
NULL.                -999.2500: 
COMP.          Pioneer Natural Resources: COMPANY
WELL.          Bunner's 13-26 Tr: WELL
FLD.           Purgatoire River: FIELD
LOC.           1843' FSL & 456' FWL----: LOCATION
PROV.                 Colorado: PROVINCE
CNTY.               Las Animas: COUNTRY
SRVC.                Patterson: SERVICE COMPANY
DATE.          Tue Mar 29 07:41:16 2005: LOG DATE
UWI.           05 071 08331 00: UNIQUE WELL ID
~Curve Information Block
DEPT.FT            0 000 00 00: Depth
DCAL.in                       : CDL Caliper
RHOB.g/cc                     : CDL Bulk Density
RHOC.g/cc                     : CDL Density Correction
DPOR.pu                       : CDL Density Porosity
NPOR.pu                       : Neutron Porosity
GR.GAPI                       : Gamma Ray
~Parameter Information Block
~A  Depth       DCAL        RHOB        RHOC        DPOR        NPOR         GR     
   780.0000      8.1047      2.6101     -0.1556      2.4176     44.4444     76.4616
   780.1000      8.1047      2.6160     -0.1739      2.0627     44.3959     76.8383
   780.2000      8.1047      2.6195     -0.1670      1.8503     44.6234     75.8094
   780.3000      8.1029      2.6287     -0.1956      1.2916     44.8712     76.0414
   780.4000      8.1029      2.6436     -0.1443      0.3888     45.0586     76.0920
   780.5000      8.1032      2.6627     -0.1671     -0.7722     45.1424     72.6955
   780.6000      8.1032      2.6906     -0.1452     -2.4578     44.9643     68.7344
   780.7000      8.1032      2.7273     -0.1324     -4.6849     44.4949     66.9163
   780.8000      8.1042      2.7648     -0.1228     -6.9573     44.0682     66.9768
   780.9000      8.1042      2.7900     -0.0822     -8.4849     43.8670     69.5701
   781.0000      8.1029      2.7892     -0.0862     -8.4341     43.7503     71.2041
   781.1000      8.1029      2.7690     -0.1674     -7.2135     43.7347     67.2932
   781.2000      8.1029      2.7471     -0.1231     -5.8844     43.7900     62.0584
   781.3000      8.1002      2.7169     -0.1484     -4.0516     43.9906     60.3388
   781.4000      8.1002      2.6756     -0.2044     -1.5510     44.4052     61.0808
   781.5000      8.1008      2.6472     -0.2720      0.1687     44.5814     62.0404
   781.6000      8.1008      2.6410     -0.1898      0.5469     44.2314     64.0161
   781.7000      8.1008      2.6399     -0.1970      0.6140     43.7548     67.5175
   781.8000      8.1032      2.6425     -0.2121      0.4574     43.7179     68.0920
   781.9000      8.1032      2.6578     -0.1881     -0.4721     44.0009     63.3975
   782.0000      8.1046      2.6824     -0.2277     -1.9610     44.0983     60.1265
   782.1000      8.1046      2.7057     -0.1267     -3.3762     44.0262     62.2542
   782.2000      8.1046      2.7180     -0.1630     -4.1236     43.9162     63.2677
   782.3000      8.1050      2.7221     -0.1682     -4.3675     43.5993     60.7189
   782.4000      8.1050      2.7185     -0.1416     -4.1513     43.1172     60.1739
   782.5000      8.1049      2.6963     -0.1596     -2.8064     42.7758     62.3757
   782.6000      8.1049      2.6593     -0.1929     -0.5653     42.7266     64.1536
   782.7000      8.1049      2.6337     -0.2204      0.9859     42.8771     65.7713
   782.8000      8.1041      2.6337     -0.1981      0.9907     42.9030     66.6742
   782.9000      8.1041      2.6471     -0.2037      0.1736     42.8829     64.5339
   783.0000      8.1024      2.6617     -0.1740     -0.7099     43.0688     61.8292
   783.1000      8.1024      2.6715     -0.1467     -1.3038     43.0937     60.1123
   783.2000      8.1024      2.6656     -0.1659     -0.9478     42.6624     57.5059
   783.3000      8.1020      2.6441     -0.2249      0.3583     42.2246     55.2196
   783.4000      8.1020      2.6228     -0.2506      1.6483     42.1699     53.8443
   783.5000      8.1045      2.6106     -0.1956      2.3870     42.3398     49.9185
   783.6000      8.1045      2.6088     -0.2123      2.4992     42.4254     43.9824
   783.7000      8.1045      2.6203     -0.1802      1.7981     42.2526     41.7947
   783.8000      8.1068      2.6388     -0.1531      0.6817     41.8701     44.8625
   783.9000      8.1068      2.6535     -0.1932     -0.2121     41.6245     48.5907
   784.0000      8.1073      2.6672     -0.1633     -1.0451     41.8250     48.8286
   784.1000      8.1073      2.6793     -0.1503     -1.7772     42.3220     46.6196
   784.2000      8.1073      2.6780     -0.1675     -1.6946     42.7346     45.2753
   784.3000      8.1065      2.6663     -0.2103     -0.9870     42.8733     45.3780
   784.4000      8.1065      2.6624     -0.2153     -0.7545     42.8166     46.5155
   784.5000      8.1062      2.6691     -0.1381     -1.1601     42.7529     49.6491
   784.6000      8.1062      2.6700     -0.1552     -1.2122     42.7156     53.0746
   784.7000      8.1062      2.6648     -0.2193     -0.8951     42.5198     53.7303
   784.8000      8.1067      2.6684     -0.2131     -1.1140     42.2284     51.4604
   784.9000      8.1067      2.6785     -0.1415     -1.7292     42.0343     48.1769
   785.0000      8.1068      2.6807     -0.1803     -1.8634     41.9763     45.4283
   785.1000      8.1068      2.6700     -0.1602     -1.2141     42.1060     43.9070
   785.2000      8.1068      2.6517     -0.1841     -0.1046     42.3699     45.1240
   785.3000      8.1073      2.6385     -0.2097      0.6967     42.5358     48.9122
   785.4000      8.1073      2.6375     -0.1836      0.7603     42.4639     51.9173
   785.5000      8.1065      2.6372     -0.1556      0.7748     42.3735     53.7378
   785.6000      8.1065      2.6250     -0.1833      1.5162     42.4774     55.6456
   785.7000      8.1065      2.6105     -0.2059      2.3928     42.6091     55.8472
   785.8000      8.1037      2.6102     -0.1809      2.4115     42.5914     54.1587
   785.9000      8.1037      2.6225     -0.2040      1.6641     42.4940     53.1607
   786.0000      8.1027      2.6284     -0.1398      1.3092     42.4096     52.6604
   786.1000      8.1027      2.6113     -0.1329      2.3430     42.3940     52.9049
   786.2000      8.1027      2.5891     -0.1988      3.6900     42.3180     55.2634
   786.3000      8.1039      2.5911     -0.1780      3.5726     41.9416     56.9588
   786.4000      8.1039      2.6115     -0.1552      2.3351     41.3773     54.6136
   786.5000      8.1052      2.6333     -0.1202      1.0135     41.1506     49.8596
   786.6000      8.1052      2.6631     -0.1517     -0.7946     41.5804     46.8006
   786.7000      8.1052      2.7033     -0.0901     -3.2291     42.3463     46.9958
   786.8000      8.1060      2.7316     -0.1028     -4.9437     42.9664     49.0041
   786.9000      8.1060      2.7313     -0.1139     -4.9285     43.2479     49.4339
   787.0000      8.1067      2.7072     -0.1163     -3.4644     43.1302     46.2031
   787.1000      8.1067      2.6747     -0.1409     -1.4960     42.7096     42.9342
   787.2000      8.1067      2.6442     -0.1414      0.3527     42.2820     44.9634
   787.3000      8.1060      2.6153     -0.1252      2.1002     41.9213     49.8937
   787.4000      8.1060      2.5928     -0.1046      3.4692     41.6687     52.6066
   787.5000      8.1036      2.5885     -0.1431      3.7273     41.9330     54.2859
   787.6000      8.1036      2.6047     -0.1492      2.7471     42.7308     55.2945
   787.7000      8.1036      2.6262     -0.1282      1.4431     43.0991     54.2174
   787.8000      8.1019      2.6366     -0.1249      0.8098     42.6124     51.6668
   787.9000      8.1019      2.6320     -0.1443      1.0885     42.0569     48.3641
   788.0000      8.1020      2.6257     -0.1659      1.4736     41.9367     45.0271
   788.1000      8.1020      2.6364     -0.1240      0.8245     41.9564     42.5343
   788.2000      8.1020      2.6561     -0.1122     -0.3699     41.9225     43.0917
   788.3000      8.1034      2.6596     -0.1074     -0.5827     42.0966     46.8995
   788.4000      8.1034      2.6472     -0.1475      0.1671     42.5417     49.8531
   788.5000      8.1039      2.6385     -0.1176      0.6949     42.8963     48.1390
   788.6000      8.1039      2.6393     -0.1363      0.6493     42.8935     43.3991
   788.7000      8.1039      2.6389     -0.1399      0.6754     42.3439     40.5598
   788.8000      8.1025      2.6307     -0.1827      1.1713     41.6458     41.4944
   788.9000      8.1025      2.6243     -0.2180      1.5583     41.4196     43.5598
   789.0000      8.1011      2.6251     -0.1862      1.5068     41.7418     44.2045
   789.1000      8.1011      2.6217     -0.1710      1.7175     42.2341     45.2883
   789.2000      8.1011      2.6118     -0.1754      2.3139     42.4913     48.6053
   789.3000      8.1009      2.6077     -0.1388      2.5608     42.5682     52.2237
   789.4000      8.1009      2.6162     -0.2020      2.0470     42.7122     53.2341
   789.5000      8.1020      2.6309     -0.1593      1.1579     42.8792     50.4080
