~Version Information
VERS.                      2.0: CWLS Log ASCII Standard - VERSION 2.0
WRAP.                       NO: One line per depth step
~Well Information Block
STRT.FT               260.0000: 
STOP.FT              2611.5000: 
STEP.FT                 0.2500: 
NULL.                -999.2500: 
COMP.          Pioneer Natural Resources: COMPANY
WELL.           Costello 44-24: WELL
FLD.           Purgatoire River: FIELD
LOC.           327' FSL & 378' FEL: LOCATION
PROV.                 Colorado: PROVINCE
CNTY.               Las Animas: COUNTRY
SRVC.                Patterson: SERVICE COMPANY
DATE.          Mon Jul 11 00:49:32 2005: LOG DATE
UWI.           05 071 08413 00: UNIQUE WELL ID
~Curve Information Block
DEPT.FT            0 000 00 00: Depth
SN.Ohm-m                      : IEL Short Normal
SP.mV                         : IEL Spontaneous Potential
DIR.Ohm-m                     : IEL Induction Resistivity
GR.GAPI                       : Gamma Ray
~Parameter Information Block
~A  Depth        SN          SP         DIR          GR     
# ...
   427.5000   2000.0000    200.0000     22.4704    143.2814
   427.7500   2000.0000    200.0000     22.5153    141.1821
   428.0000   2000.0000    200.0000     22.6132    138.0253
   428.2500   2000.0000    200.0000     22.7479    135.8436
   428.5000   2000.0000    200.0000     22.8785    132.7091
   428.7500   2000.0000    200.0000     22.9478    130.9440
   429.0000   2000.0000    200.0000     22.9054    129.1787
   429.2500   2000.0000    200.0000     22.7358    128.7852
   429.5000   2000.0000    200.0000     22.4714    129.4296
   429.7500   2000.0000    200.0000     22.1820    130.4795
   430.0000   2000.0000    200.0000     21.9455    132.4584
   430.2500   2000.0000    200.0000     21.8146    133.8307
   430.5000   2000.0000    200.0000     21.7942    135.8890
   430.7500   2000.0000    200.0000     21.8422    137.3041
   431.0000   2000.0000    200.0000     21.8940    139.5718
   431.2500   2000.0000    200.0000     21.8979    141.1928
   431.5000   2000.0000    200.0000     21.8407    143.6363
   431.7500   2000.0000    200.0000     21.7491    145.0611
   432.0000   2000.0000    200.0000     21.6724    146.6165
   432.2500   2000.0000    200.0000     21.6598    147.3258
   432.5000   2000.0000    200.0000     21.7405    148.0690
   432.7500   2000.0000    200.0000     21.9151    148.1645
   433.0000   2000.0000    200.0000     22.1583    147.0742
   433.2500   2000.0000    200.0000     22.4364    145.5030
   433.5000   2000.0000    200.0000     22.7292    142.7257
   433.7500   2000.0000    200.0000     23.0407    141.0725
   434.0000   2000.0000    200.0000     23.3950    138.8263
   434.2500   2000.0000    200.0000     23.8164    137.1708
   434.5000   2000.0000    200.0000     24.3168    134.2551
   434.7500   2000.0000    200.0000     24.8995    132.1297
   435.0000   2000.0000    200.0000     25.5745    128.8484
   435.2500   2000.0000    200.0000     26.3592    126.6582
   435.5000   2000.0000    200.0000     27.2465    123.4472
   435.7500   2000.0000    200.0000     28.1643    121.3668
   436.0000   2000.0000    200.0000     28.9713    118.2586
   436.2500   2000.0000    200.0000     29.5154    116.0809
   436.5000   2000.0000    200.0000     29.7156    112.3761
   436.7500   2000.0000    200.0000     29.5952    109.6229
   437.0000   2000.0000    200.0000     29.2436    106.0453
   437.2500   2000.0000    200.0000     28.7623    105.0942
   437.5000   2000.0000    200.0000     28.2318    107.1507
   437.7500   2000.0000    200.0000     27.7015    110.6576
   438.0000   2000.0000    200.0000     27.1888    117.5079
   438.2500   2000.0000    200.0000     26.6861    122.1952
   438.5000   2000.0000    200.0000     26.1766    128.4876
   438.7500   2000.0000    200.0000     25.6542    131.9767
   439.0000   2000.0000    200.0000     25.1308    136.1989
   439.2500   2000.0000    200.0000     24.6270    138.5938
   439.5000   2000.0000    200.0000     24.1508    142.0553
   439.7500   2000.0000    200.0000     23.6876    144.3428
   440.0000   2000.0000    200.0000     23.2152    147.2869
   440.2500   2000.0000    200.0000     22.7302    148.5371
   440.5000   2000.0000    200.0000     22.2619    149.1686
   440.7500   2000.0000    200.0000     21.8548    149.1027
   441.0000   2000.0000    200.0000     21.5395    149.2304
   441.2500   2000.0000    200.0000     21.3178    150.0058
   441.5000   2000.0000    200.0000     21.1753    152.8493
   441.7500   2000.0000    200.0000     21.1080    155.8530
   442.0000   2000.0000    200.0000     21.1381    160.9859
   442.2500   2000.0000    200.0000     21.3039    163.8403
   442.5000   2000.0000    200.0000     21.6344    165.8238
   442.7500   2000.0000    200.0000     22.1317    165.2698
   443.0000   2000.0000    200.0000     22.7705    162.0549
   443.2500   2000.0000    200.0000     23.5098    158.9587
   443.5000   2000.0000    200.0000     24.3014    153.8342
   443.7500   2000.0000    200.0000     25.0904    150.2645
   444.0000   2000.0000    200.0000     25.8195    144.5253
   444.2500   2000.0000    200.0000     26.4499    140.3415
   444.5000   2000.0000    200.0000     26.9866    133.2881
   444.7500   2000.0000    200.0000     27.4828    127.8034
   445.0000   2000.0000    200.0000     28.0135    118.2627
   445.2500   2000.0000    200.0000     28.6423    111.5156
   445.5000   2000.0000    200.0000     29.4077    102.3293
   445.7500   2000.0000    200.0000     30.3307     97.4824
   446.0000   2000.0000    200.0000     31.4228     92.3114
   446.2500   2000.0000    200.0000     32.6782     90.0473
   446.5000   2000.0000    200.0000     34.0546     87.8841
   446.7500   2000.0000    200.0000     35.4683     86.7834
   447.0000   2000.0000    200.0000     36.8161     84.6336
   447.2500   2000.0000    200.0000     38.0156     82.4818
   447.5000   2000.0000    200.0000     39.0188     78.2482
   447.7500   2000.0000    200.0000     39.7913     75.0902
   448.0000   2000.0000    200.0000     40.2900     70.5494
   448.2500   2000.0000    200.0000     40.4905     68.1156
   448.5000   2000.0000    200.0000     40.4501     66.1553
   448.7500   2000.0000    200.0000     40.3325     66.1794
   449.0000   2000.0000    200.0000     40.3443     67.7905
   449.2500   2000.0000    200.0000     40.6351     69.4179
   449.5000   2000.0000    200.0000     41.2310     72.0920
   449.7500   2000.0000    200.0000     42.0239     73.9137
   450.0000   2000.0000    200.0000     42.8066     76.4304
   450.2500   2000.0000    200.0000     43.3655     77.6050
   450.5000   2000.0000    200.0000     43.6118     78.1634
   450.7500   2000.0000    200.0000     43.6525     77.9129
   451.0000   2000.0000    200.0000     43.7116     77.3499
   451.2500   2000.0000    200.0000     43.9624     77.0004
   451.5000   2000.0000    200.0000     44.4299     75.9814
   451.7500   2000.0000    200.0000     45.0222     74.6481
   452.0000   2000.0000    200.0000     45.6240     71.9052
   452.2500   2000.0000    200.0000     46.1543     70.0801
   452.5000   2000.0000    200.0000     46.5576     68.0706
   452.7500   2000.0000    200.0000     46.7863     67.3689
   453.0000   2000.0000    200.0000     46.8085     67.2821
   453.2500   2000.0000    200.0000     46.6319     67.8196
   453.5000   2000.0000    200.0000     46.3091     69.3462
   453.7500   2000.0000    200.0000     45.9271     70.8336
   454.0000   2000.0000    200.0000     45.5881     74.3080
   454.2500   2000.0000    200.0000     45.3765     77.9300
   454.5000   2000.0000    200.0000     45.3217     85.4925
   454.7500   2000.0000    200.0000     45.3924     91.4263
   455.0000   2000.0000    200.0000     45.5324    100.1108
   455.2500   2000.0000    200.0000     45.6968    104.8693
   455.5000   2000.0000    200.0000     45.8431    109.5524
   455.7500   2000.0000    200.0000     45.9001    111.0087
   456.0000   2000.0000    200.0000     45.7850    111.2526
   456.2500   2000.0000    200.0000     45.4797    110.5602
   456.5000   2000.0000    200.0000     45.0934    109.2578
   456.7500   2000.0000    200.0000     44.8268    109.0990
   457.0000   2000.0000    200.0000     44.8668    111.2310
   457.2500   2000.0000    200.0000     45.2972    114.0902
   457.5000   2000.0000    200.0000     46.0708    118.4959
   457.7500   2000.0000    200.0000     47.0459    120.1684
   458.0000   2000.0000    200.0000     48.0686    119.6872
   458.2500   2000.0000    200.0000     49.0723    117.2935
   458.5000   2000.0000    200.0000     50.1242    110.6637
   458.7500   2000.0000    200.0000     51.3676    104.5232
   459.0000   2000.0000    200.0000     52.8772     94.2008
   459.2500   2000.0000    200.0000     54.5389     87.7459
   459.5000   2000.0000    200.0000     56.0753     80.2751
   459.7500   2000.0000    200.0000     57.2377     77.0685
   460.0000   2000.0000    200.0000     58.0017     74.2163
   460.2500   2000.0000    200.0000     58.5522     72.7456
   460.5000   2000.0000    200.0000     59.0880     69.9391
   460.7500   2000.0000    200.0000     59.6601     67.5684
