~Version Information
VERS.                      2.0: CWLS Log ASCII Standard - VERSION 2.0
WRAP.                       NO: One line per depth step
~Well Information Block
STRT.FT               577.8000: 
STOP.FT              2445.8000: 
STEP.FT                 0.1000: 
NULL.                -999.2500: 
COMP.          Petrogulf Corporation: COMPANY
WELL.             State 16-32V: WELL
FLD.           Purgatorie River: FIELD
LOC.           1599' FNL & 1783' FEL: LOCATION
CNTY.               Las Animas: COUNTY
SRVC.                         : SERVICE COMPANY
DATE.          Thu Jun 05 16:36:04 2003: LOG DATE
UWI.           05 071 07726 00: UNIQUE WELL ID
STAT.                 Colorado: STATE
~Curve Information Block
DEPT.FT            0 000 00 00: Depth
DCAL.in                       : Caliper from Density Tool
RHOB.g/cc                     : Bulk Density
RHOC.g/cc                     : Density Correction
DPOR.pu                       : Density Porosity
GR.GAPI                       : Gamma Ray
NPOR.pu                       : Neutron Porosity
~Parameter Information Block
~A  Depth       DCAL        RHOB        RHOC        DPOR         GR         NPOR    
# ...
  1691.4000      8.2617      2.5701      0.0808      4.8416    105.2466     22.2992
  1691.5000      8.3213      2.5692      0.0744      4.8992    103.5843     22.1077
  1691.6000      8.3213      2.5692      0.0744      4.8992    101.9051     21.8757
  1691.7000      8.3213      2.5692      0.0744      4.8992    100.2192     21.6012
  1691.8000      8.3922      2.5682      0.0653      4.9579     98.5240     21.2834
  1691.9000      8.3922      2.5682      0.0653      4.9579     96.8070     20.9239
  1692.0000      8.4060      2.5670      0.0594      5.0309     95.0501     20.5276
  1692.1000      8.4060      2.5670      0.0594      5.0309     93.2351     20.1024
  1692.2000      8.4060      2.5670      0.0594      5.0309     91.3453     19.6592
  1692.3000      8.3370      2.5624      0.0505      5.3099     89.3680     19.2109
  1692.4000      8.3370      2.5624      0.0505      5.3099     87.2963     18.7711
  1692.5000      8.2767      2.5566      0.0443      5.6581     85.1277     18.3532
  1692.6000      8.2767      2.5566      0.0443      5.6581     82.8697     17.9689
  1692.7000      8.2767      2.5566      0.0443      5.6581     80.5393     17.6277
  1692.8000      8.2471      2.5440      0.0349      6.4266     78.1674     17.3365
  1692.9000      8.2471      2.5440      0.0349      6.4266     75.7969     17.0998
  1693.0000      8.2149      2.5337      0.0293      7.0510     73.4813     16.9197
  1693.1000      8.2149      2.5337      0.0293      7.0510     71.2818     16.7965
  1693.2000      8.2149      2.5337      0.0293      7.0510     69.2586     16.7293
  1693.3000      8.1934      2.5180      0.0225      8.0017     67.4641     16.7153
  1693.4000      8.1934      2.5180      0.0225      8.0017     65.9359     16.7505
  1693.5000      8.2154      2.5090      0.0193      8.5472     64.6909     16.8293
  1693.6000      8.2154      2.5090      0.0193      8.5472     63.7235     16.9448
  1693.7000      8.2154      2.5090      0.0193      8.5472     63.0086     17.0890
  1693.8000      8.2702      2.5000      0.0164      9.0929     62.5064     17.2529
  1693.9000      8.2702      2.5000      0.0164      9.0929     62.1681     17.4277
  1694.0000      8.3040      2.4978      0.0157      9.2225     61.9467     17.6046
  1694.1000      8.3040      2.4978      0.0157      9.2225     61.8031     17.7754
  1694.2000      8.3040      2.4978      0.0157      9.2225     61.7114     17.9330
  1694.3000      8.2994      2.5008      0.0167      9.0412     61.6632     18.0713
  1694.4000      8.2994      2.5008      0.0167      9.0412     61.6687     18.1857
  1694.5000      8.2998      2.5064      0.0188      8.7039     61.7537     18.2732
  1694.6000      8.2998      2.5064      0.0188      8.7039     61.9566     18.3323
  1694.7000      8.2998      2.5064      0.0188      8.7039     62.3206     18.3640
  1694.8000      8.2889      2.5177      0.0235      8.0171     62.8858     18.3711
  1694.9000      8.2889      2.5177      0.0235      8.0171     63.6814     18.3582
  1695.0000      8.2869      2.5254      0.0269      7.5543     64.7181     18.3308
  1695.1000      8.2869      2.5254      0.0269      7.5543     65.9836     18.2951
  1695.2000      8.2869      2.5254      0.0269      7.5543     67.4403     18.2565
  1695.3000      8.2751      2.5338      0.0309      7.0433     69.0287     18.2192
  1695.4000      8.2751      2.5338      0.0309      7.0433     70.6724     18.1854
  1695.5000      8.2296      2.5363      0.0323      6.8934     72.2878     18.1550
  1695.6000      8.2296      2.5363      0.0323      6.8934     73.7927     18.1256
  1695.7000      8.2296      2.5363      0.0323      6.8934     75.1160     18.0931
  1695.8000      8.2138      2.5353      0.0322      6.9517     76.2061     18.0519
  1695.9000      8.2138      2.5353      0.0322      6.9517     77.0327     17.9968
  1696.0000      8.2143      2.5327      0.0315      7.1084     77.5881     17.9228
  1696.1000      8.2143      2.5327      0.0315      7.1084     77.8838     17.8271
  1696.2000      8.2143      2.5327      0.0315      7.1084     77.9438     17.7092
  1696.3000      8.2223      2.5289      0.0311      7.3387     77.7992     17.5715
  1696.4000      8.2223      2.5289      0.0311      7.3387     77.4814     17.4189
  1696.5000      8.1986      2.5279      0.0321      7.3996     77.0153     17.2580
  1696.6000      8.1986      2.5279      0.0321      7.3996     76.4200     17.0965
  1696.7000      8.1986      2.5279      0.0321      7.3996     75.7060     16.9410
  1696.8000      8.1701      2.5294      0.0360      7.3082     74.8806     16.7970
  1696.9000      8.1701      2.5294      0.0360      7.3082     73.9502     16.6673
  1697.0000      8.1679      2.5317      0.0393      7.1710     72.9249     16.5523
  1697.1000      8.1679      2.5317      0.0393      7.1710     71.8214     16.4499
  1697.2000      8.1679      2.5317      0.0393      7.1710     70.6620     16.3562
  1697.3000      8.2043      2.5345      0.0431      6.9997     69.4722     16.2665
  1697.4000      8.2043      2.5345      0.0431      6.9997     68.2771     16.1757
  1697.5000      8.2487      2.5347      0.0439      6.9890     67.0979     16.0797
  1697.6000      8.2487      2.5347      0.0439      6.9890     65.9467     15.9761
  1697.7000      8.2487      2.5347      0.0439      6.9890     64.8276     15.8645
  1697.8000      8.2692      2.5314      0.0412      7.1857     63.7386     15.7471
  1697.9000      8.2692      2.5314      0.0412      7.1857     62.6767     15.6286
  1698.0000      8.2902      2.5274      0.0373      7.4309     61.6435     15.5157
  1698.1000      8.2902      2.5274      0.0373      7.4309     60.6479     15.4160
  1698.2000      8.2902      2.5274      0.0373      7.4309     59.7093     15.3373
  1698.3000      8.2980      2.5207      0.0299      7.8356     58.8561     15.2862
  1698.4000      8.2980      2.5207      0.0299      7.8356     58.1202     15.2669
  1698.5000      8.2874      2.5175      0.0255      8.0286     57.5312     15.2806
  1698.6000      8.2874      2.5175      0.0255      8.0286     57.1096     15.3253
  1698.7000      8.2874      2.5175      0.0255      8.0286     56.8604     15.3959
  1698.8000      8.2786      2.5169      0.0214      8.0648     56.7753     15.4850
  1698.9000      8.2786      2.5169      0.0214      8.0648     56.8318     15.5837
  1699.0000      8.2593      2.5196      0.0205      7.9009     57.0007     15.6826
  1699.1000      8.2593      2.5196      0.0205      7.9009     57.2532     15.7729
  1699.2000      8.2593      2.5196      0.0205      7.9009     57.5666     15.8467
  1699.3000      8.2376      2.5267      0.0211      7.4723     57.9299     15.8980
  1699.4000      8.2376      2.5267      0.0211      7.4723     58.3414     15.9230
  1699.5000      8.2265      2.5316      0.0218      7.1734     58.8096     15.9204
  1699.6000      8.2265      2.5316      0.0218      7.1734     59.3442     15.8912
  1699.7000      8.2265      2.5316      0.0218      7.1734     59.9510     15.8389
  1699.8000      8.2487      2.5366      0.0221      6.8738     60.6277     15.7683
  1699.9000      8.2487      2.5366      0.0221      6.8738     61.3600     15.6856
  1700.0000      8.2696      2.5376      0.0221      6.8126     62.1245     15.5968
  1700.1000      8.2696      2.5376      0.0221      6.8126     62.8924     15.5075
  1700.2000      8.2696      2.5376      0.0221      6.8126     63.6331     15.4221
  1700.3000      8.3057      2.5365      0.0224      6.8818     64.3215     15.3440
  1700.4000      8.3057      2.5365      0.0224      6.8818     64.9377     15.2754
  1700.5000      8.3292      2.5350      0.0235      6.9726     65.4690     15.2177
  1700.6000      8.3292      2.5350      0.0235      6.9726     65.9093     15.1719
  1700.7000      8.3292      2.5350      0.0235      6.9726     66.2547     15.1390
  1700.8000      8.3175      2.5332      0.0269      7.0789     66.5024     15.1197
  1700.9000      8.3175      2.5332      0.0269      7.0789     66.6477     15.1147
