~Version Information
VERS.                      2.0: CWLS Log ASCII Standard - VERSION 2.0
WRAP.                       NO: One line per depth step
~Well Information Block
STRT.FT               806.0000: 
STOP.FT              1814.0000: 
STEP.FT                 0.2500: 
NULL.                -999.2500: 
COMP.          Pioneer Natural Resources: COMPANY
WELL.            Hill 33-22 Tr: WELL
FLD.           Purgatoire River: FIELD
LOC.           1573' FSL & 1585' FEL: LOCATION
PROV.                 Colorado: PROVINCE
CNTY.               Las Animas: COUNTRY
SRVC.                Patterson: SERVICE COMPANY
DATE.          Thu Apr 14 09:13:17 2005: LOG DATE
UWI.           05 071 08316 00: UNIQUE WELL ID
~Curve Information Block
DEPT.FT            0 000 00 00: Depth
SN.Ohm-m                      : IEL Short Normal
SP.mV                         : IEL Spontaneous Potential
DIR.Ohm-m                     : IEL Induction Resistivity
GR.GAPI                       : Gamma Ray
~Parameter Information Block
~A  Depth        SN          SP         DIR          GR     
# ...
  1442.5000      9.9875     42.6756      9.5627    119.9837
  1442.7500     10.5916     42.5814     10.0848    117.9370
  1443.0000     11.3850     42.4431     10.6739    111.7010
  1443.2500     12.3916     42.2818     11.3426    105.4552
  1443.5000     13.6702     42.1343     12.1071     94.2484
  1443.7500     15.2344     42.0358     12.9856     86.9182
  1444.0000     17.1273     42.0123     13.9963     78.3536
  1444.2500     19.4938     42.0723     15.1533     74.9723
  1444.5000     22.4391     42.1971     16.4647     73.4582
  1444.7500     25.7723     42.3457     17.9288     74.3438
  1445.0000     29.0721     42.4785     19.5248     77.1879
  1445.2500     32.0743     42.5777     21.1909     79.2731
  1445.5000     34.8034     42.6480     22.7904     81.6853
  1445.7500     37.2950     42.7058     24.0915     82.6029
  1446.0000     39.4003     42.7715     24.8132     83.1573
  1446.2500     40.8520     42.8656     24.7652     83.3371
  1446.5000     41.3377     43.0010     23.9857     84.0663
  1446.7500     40.5796     43.1777     22.7262     85.2029
  1447.0000     38.4760     43.3860     21.2874     88.1629
  1447.2500     35.1904     43.6145     19.8743     91.0358
  1447.5000     31.1802     43.8503     18.5668     96.6935
  1447.7500     27.0709     44.0715     17.3659    101.1265
  1448.0000     23.3856     44.2419     16.2484    107.7219
  1448.2500     20.3967     44.3195     15.1974    111.3882
  1448.5000     18.1144     44.2780     14.2074    115.3162
  1448.7500     16.3765     44.1248     13.2794    117.1110
  1449.0000     15.0188     43.9030     12.4158    119.1017
  1449.2500     13.9526     43.6764     11.6205    119.9957
  1449.5000     13.1304     43.5021     10.9002    120.4675
  1449.7500     12.4994     43.4070     10.2628    120.3364
  1450.0000     12.0123     43.3791      9.7125    120.4537
  1450.2500     11.6395     43.3810      9.2457    121.3753
  1450.5000     11.3182     43.3740      8.8521    124.2102
  1450.7500     10.9932     43.3400      8.5181    126.5570
  1451.0000     10.6902     43.2875      8.2309    129.6480
  1451.2500     10.4299     43.2442      7.9786    131.0670
  1451.5000     10.1642     43.2433      7.7504    132.0527
  1451.7500      9.8616     43.3132      7.5383    131.8263
  1452.0000      9.5566     43.4656      7.3383    130.0108
  1452.2500      9.2962     43.6824      7.1521    128.0284
  1452.5000      9.0976     43.9141      6.9858    124.7975
  1452.7500      8.9429     44.1019      6.8464    123.0559
  1453.0000      8.7895     44.2087      6.7390    121.8687
  1453.2500      8.6324     44.2350      6.6650    122.3178
  1453.5000      8.5518     44.2070      6.6208    124.7541
  1453.7500      8.5920     44.1538      6.5990    127.0671
  1454.0000      8.6505     44.0922      6.5896    130.4896
  1454.2500      8.6089     44.0292      6.5835    132.3232
  1454.5000      8.5016     43.9693      6.5752    134.0697
  1454.7500      8.4561     43.9159      6.5642    134.3101
  1455.0000      8.5612     43.8666      6.5546    132.5112
  1455.2500      8.8428     43.8112      6.5516    129.3905
  1455.5000      9.2493     43.7356      6.5594    121.5168
  1455.7500      9.6270     43.6276      6.5789    114.6349
  1456.0000      9.8059     43.4801      6.6087    104.2974
  1456.2500      9.7501     43.2965      6.6451     99.3328
  1456.5000      9.5993     43.0984      6.6839     97.0407
  1456.7500      9.5190     42.9256      6.7209     98.8869
  1457.0000      9.4968     42.8212      6.7545    104.7548
  1457.2500      9.4003     42.8099      6.7858    109.3729
  1457.5000      9.2322     42.8839      6.8166    115.6274
  1457.7500      9.1099     43.0075      6.8464    118.7199
  1458.0000      9.0492     43.1352      6.8697    121.3378
  1458.2500      9.0210     43.2295      6.8771    122.0119
  1458.5000      9.0477     43.2682      6.8609    122.5597
  1458.7500      9.0884     43.2489      6.8195    123.2277
  1459.0000      9.0431     43.1943      6.7588    124.8935
  1459.2500      8.9078     43.1504      6.6893    126.0537
  1459.5000      8.7873     43.1678      6.6215    126.8802
  1459.7500      8.7836     43.2751      6.5650    126.4644
  1460.0000      8.9024     43.4621      6.5287    124.6900
  1460.2500      9.0234     43.6829      6.5232    123.4459
  1460.5000      9.0365     43.8751      6.5605    122.8326
  1460.7500      9.0007     43.9879      6.6524    123.4892
  1461.0000      9.0602     44.0053      6.8072    124.9785
  1461.2500      9.2216     43.9532      7.0280    125.2458
  1461.5000      9.3382     43.8824      7.3109    123.5052
  1461.7500      9.3290     43.8391      7.6470    121.0488
  1462.0000      9.3151     43.8452      8.0275    115.9862
  1462.2500      9.5221     43.9009      8.4483    111.6120
  1462.5000     10.0724     43.9992      8.9132    102.7697
  1462.7500     10.9486     44.1413      9.4330     95.0851
  1463.0000     12.1907     44.3386     10.0227     81.5673
  1463.2500     14.0793     44.5994     10.6992     72.3000
  1463.5000     17.0194     44.9057     11.4798     60.3385
  1463.7500     21.0194     45.2049     12.3817     54.8966
  1464.0000     25.3011     45.4325     13.4211     51.9265
  1464.2500     28.7143     45.5478     14.6071     53.5987
  1464.5000     30.5285     45.5537     15.9279     60.7367
  1464.7500     30.7535     45.4917     17.3292     67.5459
  1465.0000     29.9027     45.4208     18.7034     78.6964
  1465.2500     28.5578     45.3916     19.9094     85.6491
  1465.5000     27.1228     45.4252     20.8220     94.3279
  1465.7500     25.8252     45.5079     21.3796     98.9285
  1466.0000     24.7341     45.6028     21.5951    104.3765
  1466.2500     23.8117     45.6739     21.5344    107.0353
  1466.5000     23.0426     45.7101     21.2861    109.1229
  1466.7500     22.4810     45.7358     20.9398    108.9314
  1467.0000     22.1301     45.7967     20.5726    106.0722
  1467.2500     21.8445     45.9296     20.2400    102.7721
  1467.5000     21.4782     46.1375     19.9720     96.9476
  1467.7500     21.0876     46.3877     19.7720     93.1119
  1468.0000     20.8455     46.6291     19.6243     87.6737
  1468.2500     20.7825     46.8174     19.5089     84.0895
  1468.5000     20.7900     46.9303     19.4166     78.7293
  1468.7500     20.8134     46.9659     19.3536     75.4446
  1469.0000     20.8167     46.9362     19.3347     71.6664
  1469.2500     20.7483     46.8621     19.3711     70.1841
  1469.5000     20.6865     46.7674     19.4617     69.3475
  1469.7500     20.7529     46.6739     19.5938     69.3844
  1470.0000     20.9332     46.6003     19.7519     70.1383
  1470.2500     21.1276     46.5635     19.9260     71.3660
  1470.5000     21.2514     46.5745     20.1112     74.7084
  1470.7500     21.2573     46.6314     20.2972     77.7711
  1471.0000     21.1653     46.7154     20.4616     82.7080
  1471.2500     21.0713     46.7966     20.5795     85.5922
  1471.5000     21.0662     46.8492     20.6440     88.3316
  1471.7500     21.1806     46.8623     20.6775     88.7804
  1472.0000     21.4087     46.8412     20.7202     87.8521
  1472.2500     21.7202     46.7984     20.8064     87.1819
  1472.5000     22.0420     46.7462     20.9466     88.4531
  1472.7500     22.2600     46.6984     21.1284     91.6879
  1473.0000     22.2959     46.6759     21.3297     99.3444
  1473.2500     22.1849     46.6998     21.5308    104.7118
  1473.5000     22.0125     46.7754     21.7152    110.6213
  1473.7500     21.8109     46.8833     21.8656    112.8509
  1474.0000     21.5804     46.9911     21.9657    114.8482
  1474.2500     21.3314     47.0749     22.0104    115.8976
  1474.5000     21.0986     47.1317     22.0132    116.8265
  1474.7500     20.9468     47.1769     22.0031    116.4919
  1475.0000     20.8852     47.2327     22.0054    114.0725
  1475.2500     20.8482     47.3171     22.0202    111.2884
  1475.5000     20.8093     47.4395     22.0135    105.9072
  1475.7500     20.8143     47.6020     21.9293    101.9693
