~Version Information
VERS.                      2.0: CWLS Log ASCII Standard - VERSION 2.0
WRAP.                       NO: One line per depth step
~Well Information Block
STRT.FT               275.0000: 
STOP.FT              1682.2500: 
STEP.FT                 0.2500: 
NULL.                -999.2500: 
COMP.          Pioneer Natural Resources: COMPANY
WELL.               Elmo 14-21: WELL
FLD.           Purgatoire River: FIELD
LOC.           623' FSL & 450' FWL----: LOCATION
PROV.                 Colorado: PROVINCE
CNTY.               Las Animas: COUNTRY
SRVC.                Patterson: SERVICE COMPANY
DATE.          Tue May 17 16:07:31 2005: LOG DATE
UWI.           05 071 08360 00: UNIQUE WELL ID
~Curve Information Block
DEPT.FT            0 000 00 00: Depth
SN.Ohm-m                      : IEL Short Normal
SP.mV                         : IEL Spontaneous Potential
DIR.Ohm-m                     : IEL Induction Resistivity
GR.GAPI                       : Gamma Ray
~Parameter Information Block
~A  Depth        SN          SP         DIR          GR     
# ...
  1012.0000     13.4112    -32.6030     12.4998    139.4949
  1012.2500     12.4118    -32.3216     11.6572    146.5413
  1012.5000     11.6360    -32.0856     10.9572    156.3793
  1012.7500     11.0767    -31.9011     10.4046    162.1868
  1013.0000     10.7085    -31.7701      9.9982    168.4717
  1013.2500     10.4974    -31.6904      9.7344    170.1803
  1013.5000     10.4124    -31.6572      9.6102    168.1986
  1013.7500     10.4333    -31.6626      9.6233    163.9438
  1014.0000     10.5512    -31.6973      9.7699    153.9876
  1014.2500     10.7596    -31.7511     10.0423    145.6221
  1014.5000     11.0457    -31.8143     10.4285    131.9327
  1014.7500     11.3951    -31.8783     10.9126    123.1365
  1015.0000     11.8065    -31.9367     11.4766    112.4014
  1015.2500     12.2925    -31.9853     12.1008    107.6982
  1015.5000     12.8586    -32.0224     12.7599    104.5398
  1015.7500     13.4769    -32.0480     13.4162    104.4967
  1016.0000     14.0795    -32.0635     14.0154    106.2948
  1016.2500     14.5825    -32.0710     14.4924    108.3308
  1016.5000     14.9216    -32.0737     14.7892    112.6043
  1016.7500     15.0758    -32.0754     14.8790    116.2285
  1017.0000     15.0649    -32.0807     14.7815    122.1242
  1017.2500     14.9322    -32.0949     14.5585    125.8356
  1017.5000     14.7285    -32.1225     14.2901    130.8641
  1017.7500     14.5007    -32.1670     14.0471    133.9794
  1018.0000     14.2865    -32.2288     13.8740    137.6817
  1018.2500     14.1139    -32.3054     13.7870    138.5733
  1018.5000     14.0056    -32.3908     13.7829    136.4040
  1018.7500     13.9816    -32.4768     13.8521    132.7846
  1019.0000     14.0542    -32.5545     13.9893    125.2727
  1019.2500     14.2213    -32.6159     14.1979    119.4995
  1019.5000     14.4653    -32.6552     14.4853    110.3475
  1019.7500     14.7592    -32.6701     14.8526    104.3103
  1020.0000     15.0805    -32.6609     15.2862     96.4635
  1020.2500     15.4215    -32.6299     15.7545     92.8741
  1020.5000     15.7913    -32.5800     16.2167     91.1672
  1020.7500     16.2040    -32.5133     16.6365     92.7317
  1021.0000     16.6596    -32.4310     16.9923     98.3191
  1021.2500     17.1278    -32.3337     17.2738    102.9449
  1021.5000     17.5451    -32.2223     17.4715    108.4926
  1021.7500     17.8385    -32.0993     17.5720    110.2476
  1022.0000     17.9712    -31.9698     17.5696    110.5017
  1022.2500     17.9824    -31.8412     17.4837    110.3799
  1022.5000     17.9841    -31.7227     17.3641    111.4826
  1022.7500     18.1057    -31.6241     17.2791    112.9884
  1023.0000     18.4274    -31.5544     17.2953    114.9589
  1023.2500     18.9501    -31.5207     17.4619    115.3347
  1023.5000     19.6196    -31.5273     17.8030    114.0272
  1023.7500     20.3848    -31.5752     18.3179    111.8777
  1024.0000     21.2451    -31.6623     18.9843    106.6302
  1024.2500     22.2579    -31.7832     19.7673    101.6916
  1024.5000     23.5086    -31.9306     20.6324     92.1906
  1024.7500     25.0744    -32.0960     21.5611     84.8605
  1025.0000     27.0042    -32.2705     22.5618     73.8622
  1025.2500     29.3145    -32.4463     23.6664     67.5691
  1025.5000     31.9785    -32.6165     24.9105     60.8291
  1025.7500     34.8930    -32.7756     26.3030     58.2109
  1026.0000     37.8524    -32.9196     27.7994     56.5118
  1026.2500     40.5872    -33.0457     29.2939     56.2633
  1026.5000     42.8727    -33.1536     30.6439     55.9426
  1026.7500     44.6257    -33.2452     31.7266     55.1969
  1027.0000     45.9183    -33.3249     32.4975     53.3079
  1027.2500     46.9092    -33.3994     33.0087     52.0177
  1027.5000     47.7540    -33.4757     33.3747     50.7023
  1027.7500     48.5467    -33.5600     33.7215     50.2595
  1028.0000     49.3085    -33.6558     34.1530     50.0404
  1028.2500     50.0079    -33.7629     34.7356     50.1505
  1028.5000     50.5888    -33.8773     35.4882     50.5955
  1028.7500     50.9923    -33.9926     36.3718     50.8322
  1029.0000     51.1784    -34.1011     37.2896     50.4511
  1029.2500     51.1492    -34.1954     38.1076     49.4129
  1029.5000     50.9660    -34.2694     38.6974     46.6652
  1029.7500     50.7410    -34.3187     38.9798     44.3414
  1030.0000     50.5936    -34.3404     38.9461     40.8560
  1030.2500     50.5833    -34.3332     38.6451     38.8787
  1030.5000     50.6632    -34.2974     38.1511     36.7719
  1030.7500     50.6931    -34.2358     37.5414     36.1149
  1031.0000     50.5090    -34.1533     36.8887     36.6158
  1031.2500     49.9981    -34.0575     36.2591     38.0012
  1031.5000     49.1278    -33.9577     35.6984     41.0757
  1031.7500     47.9221    -33.8626     35.2129     43.2121
  1032.0000     46.4186    -33.7789     34.7558     46.1040
  1032.2500     44.6367    -33.7088     34.2328     48.1036
  1032.5000     42.5711    -33.6495     33.5236     51.8519
  1032.7500     40.2120    -33.5939     32.5186     54.8113
  1033.0000     37.5870    -33.5328     31.1587     59.3087
  1033.2500     34.7967    -33.4575     29.4665     62.2741
  1033.5000     32.0047    -33.3628     27.5470     67.9431
  1033.7500     29.3798    -33.2490     25.5537     73.7337
  1034.0000     27.0371    -33.1217     23.6395     86.3295
  1034.2500     25.0162    -32.9911     21.9195     96.5048
  1034.5000     23.2924    -32.8695     20.4576    111.6008
  1034.7500     21.8045    -32.7678     19.2693    120.0871
  1035.0000     20.4829    -32.6932     18.3309    129.0563
  1035.2500     19.2679    -32.6469     17.5890    132.1157
  1035.5000     18.1101    -32.6234     16.9720    131.9197
  1035.7500     16.9650    -32.6119     16.4046    128.7923
  1036.0000     15.8027    -32.5986     15.8246    121.3819
  1036.2500     14.6334    -32.5694     15.1995    116.5176
  1036.5000     13.5203    -32.5134     14.5324    113.0735
  1036.7500     12.5576    -32.4248     13.8532    114.9311
  1037.0000     11.8214    -32.3036     13.1991    124.0612
  1037.2500     11.3270    -32.1551     12.5965    132.7282
  1037.5000     11.0182    -31.9880     12.0526    145.4565
  1037.7500     10.7977    -31.8128     11.5584    151.8906
  1038.0000     10.5787    -31.6401     11.0991    157.3066
  1038.2500     10.3219    -31.4791     10.6657    158.3148
  1038.5000     10.0383    -31.3372     10.2610    157.0108
  1038.7500      9.7650    -31.2196      9.8994    155.1017
  1039.0000      9.5367    -31.1292      9.6005    151.9691
  1039.2500      9.3677    -31.0663      9.3819    150.0408
  1039.5000      9.2529    -31.0285      9.2530    147.2536
  1039.7500      9.1800    -31.0105      9.2137    145.2563
  1040.0000      9.1390    -31.0041      9.2535    141.8056
  1040.2500      9.1190    -30.9990      9.3528    139.0641
  1040.5000      9.1025    -30.9844      9.4838    134.0597
  1040.7500      9.0696    -30.9503      9.6127    130.2289
  1041.0000      9.0097    -30.8900      9.7054    124.7405
  1041.2500      8.9298    -30.8013      9.7372    122.2317
  1041.5000      8.8505    -30.6870      9.7009    121.6715
  1041.7500      8.7917    -30.5544      9.6075    123.6808
  1042.0000      8.7585    -30.4135      9.4786    129.3580
  1042.2500      8.7373    -30.2747      9.3352    133.8633
  1042.5000      8.7032    -30.1469      9.1904    139.8126
  1042.7500      8.6336    -30.0357      9.0480    142.5383
  1043.0000      8.5189    -29.9436      8.9066    144.7733
  1043.2500      8.3684    -29.8700      8.7645    145.6082
  1043.5000      8.2039    -29.8122      8.6237    147.0044
  1043.7500      8.0474    -29.7667      8.4897    148.3165
  1044.0000      7.9119    -29.7296      8.3691    150.5793
  1044.2500      7.8002    -29.6973      8.2665    151.9689
  1044.5000      7.7091    -29.6667      8.1834    153.5860
  1044.7500      7.6337    -29.6355      8.1184    154.3229
  1045.0000      7.5714    -29.6020      8.0679    154.9449
  1045.2500      7.5211    -29.5649      8.0272    155.1340
