~Version Information
VERS.                      2.0: CWLS Log ASCII Standard - VERSION 2.0
WRAP.                       NO: One line per depth step
~Well Information Block
STRT.FT               801.5000: 
STOP.FT              2513.0000: 
STEP.FT                 0.2500: 
NULL.                -999.2500: 
COMP.          Petrogulf Corporation: COMPANY
WELL.               YWAM 7-32V: WELL
FLD.           Purgatoire River: FIELD
LOC.           2423' FNL & 2412' FEL: LOCATION
PROV.                 Colorado: PROVINCE
CNTY.               Las Animas: COUNTRY
SRVC.                Patterson: SERVICE COMPANY
DATE.          Sun Dec 14 06:58:17 2003: LOG DATE
UWI.                          : UNIQUE WELL ID
~Curve Information Block
DEPT.FT            0 000 00 00: Depth
SP.mV                         : DIL Spontaneous Potential
RILD.Ohm-m                    : DIL Deep Resistivity
RILM.Ohm-m                    : DIL Medium Resistivity
RLL3.Ohm-m                    : DIL Shallow Resistivity
GR.GAPI                       : Gamma Ray
~Parameter Information Block
~A  Depth        SP         RILD        RILM        RLL3         GR     
# ...
   941.5000   -676.0096     17.5676     14.9822     17.2161    140.1900
   941.7500   -664.4489     17.6451     15.3166     18.3261    137.9643
   942.0000   -654.0460     17.6998     15.7571     19.5514    133.6525
   942.2500   -646.8115     17.7196     16.2620     21.0379    130.4629
   942.5000   -643.6345     17.7017     16.7881     23.1447    125.9502
   942.7500   -644.1913     17.6551     17.2826     25.9686    123.3889
   943.0000   -646.8310     17.5964     17.6735     29.0039    120.2289
   943.2500   -649.3219     17.5441     17.8760     31.2410    118.4631
   943.5000   -650.5515     17.5135     17.8241     31.6897    116.5201
   943.7500   -651.2982     17.5120     17.5129     29.9899    116.3445
   944.0000   -652.8948     17.5370     17.0143     26.6417    119.2272
   944.2500   -655.5292     17.5764     16.4463     22.6797    123.3567
   944.5000   -658.2580     17.6126     15.9191     19.1155    130.8645
   944.7500   -660.2014     17.6260     15.4986     16.5933    135.0229
   945.0000   -661.1777     17.5910     15.1995     15.3358    138.2250
   945.2500   -661.4589     17.4694     14.9981     15.2030    138.3446
   945.5000   -661.3739     17.2130     14.8523     15.7941    136.4137
   945.7500   -661.1765     16.7893     14.7211     16.6227    134.3222
   946.0000   -661.0720     16.2137     14.5773     17.3064    130.8944
   946.2500   -661.2447     15.5523     14.4094     17.6734    128.7787
   946.5000   -661.8323     14.8899     14.2145     17.7748    126.0913
   946.7500   -662.8035     14.2927     13.9907     17.8207    124.6962
   947.0000   -663.8445     13.7957     13.7331     18.0210    123.4708
   947.2500   -664.4531     13.4080     13.4368     18.3750    123.2841
   947.5000   -664.2772     13.1246     13.1011     18.5895    123.5129
   947.7500   -663.3792     12.9328     12.7331     18.2697    123.6321
   948.0000   -662.1353     12.8155     12.3505     17.2591    123.7156
   948.2500   -660.9268     12.7532     11.9818     15.7946    124.2715
   948.5000   -659.9720     12.7264     11.6636     14.3296    127.3264
   948.7500   -659.3675     12.7180     11.4315     13.2483    131.2250
   949.0000   -659.1611     12.7149     11.3092     12.7440    138.5855
   949.2500   -659.3464     12.7115     11.3010     12.8590    142.9540
   949.5000   -659.8286     12.7111     11.3903     13.5434    146.5997
   949.7500   -660.4101     12.7254     11.5448     14.6825    146.8991
   950.0000   -660.7894     12.7703     11.7269     16.0893    145.3267
   950.2500   -660.5446     12.8626     11.9057     17.4620    143.8941
   950.5000   -659.2424     13.0184     12.0677     18.4107    142.3311
   950.7500   -656.8911     13.2549     12.2228     18.6667    141.7185
   951.0000   -654.4250     13.5885     12.4009     18.3181    140.4094
   951.2500   -653.4110     14.0300     12.6413     17.7871    138.6135
   951.5000   -654.7117     14.5807     12.9807     17.5662    134.6895
   951.7500   -657.4135     15.2336     13.4451     18.0018    132.0430
   952.0000   -659.5092     15.9785     14.0468     19.2641    128.8615
   952.2500   -659.9761     16.8070     14.7846     21.3748    126.9170
   952.5000   -659.8978     17.7118     15.6440     24.1919    123.2437
   952.7500   -660.8606     18.6842     16.5984     27.4120    120.1327
   953.0000   -662.2140     19.7153     17.6136     30.6738    114.8542
   953.2500   -660.8611     20.8019     18.6564     33.6966    111.1991
   953.5000   -654.4077     21.9518     19.7023     36.3137    105.9587
   953.7500   -644.1035     23.1819     20.7393     38.3882    102.9334
   954.0000   -634.3094     24.5151     21.7639     39.7845     99.5194
   954.2500   -629.3556     25.9776     22.7739     40.4883     98.1048
   954.5000   -630.7765     27.5968     23.7645     40.7166     97.0589
   954.7500   -636.5317     29.3857     24.7334     40.8474     96.6493
   955.0000   -642.4255     31.3109     25.6875     41.2538     95.5303
   955.2500   -645.3288     33.2558     26.6434     42.2092     94.1848
   955.5000   -646.1708     35.0149     27.6172     43.8744     91.5548
   955.7500   -649.6656     36.3454     28.6117     46.3244     89.6541
   956.0000   -660.1458     37.0726     29.6127     49.6172     86.3832
   956.2500   -677.1113     37.1957     30.5928     53.8102     83.4513
   956.5000   -694.7631     36.9228     31.5158     58.7994     77.5910
   956.7500   -705.9020     36.6042     32.3365     64.1241     73.3765
   957.0000   -706.3792     36.6060     33.0091     69.0216     68.8821
   957.2500   -696.5945     37.1890     33.5066     72.7093     68.0970
   957.5000   -680.0940     38.4245     33.8484     74.5935     69.7614
   957.7500   -661.3779     40.1562     34.1113     74.3215     71.4221
   958.0000   -644.2978     42.0447     34.4070     71.8995     72.6007
   958.2500   -631.1557     43.7274     34.8261     67.9133     72.1436
   958.5000   -622.5422     45.0134     35.3813     63.5381     70.2326
   958.7500   -618.1499     45.9362     35.9897     60.1267     68.7101
   959.0000   -617.9751     46.6301     36.5236     58.5955     66.8903
   959.2500   -622.7347     47.1825     36.9070     59.0595     66.3819
   959.5000   -633.1995     47.5844     37.1752     60.9621     67.0670
   959.7500   -649.1088     47.7694     37.4373     63.4847     68.3765
   960.0000   -668.4279     47.6790     37.7860     65.8412     70.7113
   960.2500   -687.5335     47.2954     38.2488     67.4737     71.7700
   960.5000   -702.4512     46.6315     38.8086     68.4871     71.6578
   960.7500   -710.3475     45.6941     39.4370     70.1384     70.2744
   961.0000   -710.1345     44.4731     40.0724     74.5284     66.4878
   961.2500   -702.2904     42.9664     40.5437     83.1126     63.2493
   961.5000   -688.9226     41.2158     40.5378     95.0420     58.4983
   961.7500   -673.9600     39.3214     39.7212    106.9565     56.1333
   962.0000   -661.9702     37.4226     37.9770    114.7189     54.5656
   962.2500   -655.5587     35.6590     35.5244    115.6783     54.9759
   962.5000   -653.9611     34.1276     32.7872    109.5246     57.8363
   962.7500   -654.4897     32.8555     30.1707     97.4638     61.3053
   963.0000   -654.9749     31.7978     27.9410     81.3121     68.8444
   963.2500   -654.7316     30.8583     26.2189     63.5638     75.2041
   963.5000   -653.9871     29.9218     25.0169     47.4517     85.7292
   963.7500   -653.1018     28.8853     24.2748     35.8772     92.3231
   964.0000   -652.2703     27.6846     23.8859     29.9986     99.1477
   964.2500   -651.5440     26.3108     23.7120     28.9989    100.5347
   964.5000   -650.8901     24.8116     23.5935     31.1137     97.7787
   964.7500   -650.1980     23.2720     23.3662     34.7420     93.7965
   965.0000   -649.2736     21.7855     22.8935     38.7370     87.2983
   965.2500   -647.9069     20.4312     22.1105     41.9928     84.0865
   965.5000   -645.9846     19.2626     21.0466     43.1663     82.7598
   965.7500   -643.5531     18.3078     19.8042     41.2143     84.6223
   966.0000   -640.7741     17.5744     18.5072     36.3192     90.7040
   966.2500   -637.8370     17.0539     17.2594     30.0101     95.7691
   966.5000   -634.9215     16.7191     16.1288     24.1420    103.2340
   966.7500   -632.2053     16.5173     15.1525     19.7805    108.0763
   967.0000   -629.8592     16.3678     14.3482     16.9752    116.0089
   967.2500   -628.0145     16.1827     13.7224     15.2713    121.8112
   967.5000   -626.7282     15.9049     13.2761     14.2470    129.8415
   967.7500   -625.9669     15.5341     13.0064     13.7118    133.5353
   968.0000   -625.6151     15.1166     12.9070     13.6435    135.4385
   968.2500   -625.5142     14.7135     12.9678     14.0689    134.5091
   968.5000   -625.5189     14.3798     13.1731     15.0009    131.2870
   968.7500   -625.5433     14.1582     13.5007     16.4332    128.8867
   969.0000   -625.5686     14.0750     13.9192     18.3545    125.7752
   969.2500   -625.6125     14.1338     14.3871     20.7277    123.8087
