~Version Information
VERS.                      2.0: CWLS Log ASCII Standard - VERSION 2.0
WRAP.                       NO: One line per depth step
~Well Information Block
STRT.FT               265.0000: 
STOP.FT              1214.0000: 
STEP.FT                 0.2500: 
NULL.                -999.2500: 
COMP.          Pioneer Natural Resources: COMPANY
WELL.          Pacheco 33-27 Tr: WELL
FLD.           Purgatoire River: FIELD
LOC.           2251' FSL & 2342' FEL: LOCATION
PROV.                 Colorado: PROVINCE
CNTY.               Las Animas: COUNTRY
SRVC.                Patterson: SERVICE COMPANY
DATE.          Fri Jun 10 13:29:04 2005: LOG DATE
UWI.           05 071 08384 00: UNIQUE WELL ID
~Curve Information Block
DEPT.FT            0 000 00 00: Depth
SN.Ohm-m                      : IEL Short Normal
SP.mV                         : IEL Spontaneous Potential
DIR.Ohm-m                     : IEL Induction Resistivity
GR.GAPI                       : Gamma Ray
~Parameter Information Block
~A  Depth        SN          SP         DIR          GR     
# ...
   700.5000     17.5191    -42.4843     15.5366    133.0804
   700.7500     16.3177    -42.4024     14.9087    138.1571
   701.0000     15.3806    -42.2910     14.3630    142.8667
   701.2500     14.6236    -42.1708     13.8866    144.3389
   701.5000     14.0073    -42.0731     13.4742    145.2154
   701.7500     13.5367    -42.0259     13.1248    145.6135
   702.0000     13.2471    -42.0320     12.8349    146.3957
   702.2500     13.1286    -42.0610     12.5937    146.6814
   702.5000     13.1177    -42.0665     12.3827    145.5016
   702.7500     13.1775    -42.0181     12.1835    143.1492
   703.0000     13.3184    -41.9206     11.9859    137.6543
   703.2500     13.5415    -41.8077     11.7917    133.4805
   703.5000     13.7954    -41.7146     11.6093    127.9703
   703.7500     14.0049    -41.6572     11.4457    125.4256
   704.0000     14.1200    -41.6343     11.3018    123.5907
   704.2500     14.1028    -41.6391     11.1740    123.3302
   704.5000     13.9215    -41.6647     11.0581    123.3208
   704.7500     13.6034    -41.7051     10.9538    123.1466
   705.0000     13.2531    -41.7562     10.8655    122.6925
   705.2500     12.9542    -41.8125     10.7995    122.6184
   705.5000     12.6754    -41.8620     10.7584    123.5105
   705.7500     12.3613    -41.8874     10.7381    124.8985
   706.0000     12.0318    -41.8757     10.7284    127.5743
   706.2500     11.7383    -41.8284     10.7175    129.0604
   706.5000     11.5196    -41.7657     10.6977    129.7638
   706.7500     11.4157    -41.7174     10.6668    128.9227
   707.0000     11.4268    -41.7044     10.6255    125.7818
   707.2500     11.4550    -41.7216     10.5738    122.7636
   707.5000     11.3695    -41.7401     10.5092    117.9784
   707.7500     11.1480    -41.7261     10.4303    115.6735
   708.0000     10.9436    -41.6570     10.3421    115.5925
   708.2500     10.9692    -41.5245     10.2602    118.4582
   708.5000     11.2878    -41.3342     10.2079    126.3795
   708.7500     11.7589    -41.1101     10.2069    132.7180
   709.0000     12.1818    -40.8977     10.2672    141.3821
   709.2500     12.4035    -40.7542     10.3822    145.8530
   709.5000     12.3620    -40.7280     10.5304    150.7172
   709.7500     12.1610    -40.8389     10.6829    153.1603
   710.0000     11.9866    -41.0713     10.8108    156.0409
   710.2500     11.8956    -41.3770     10.8916    157.4157
   710.5000     11.8039    -41.6861     10.9134    158.5144
   710.7500     11.6569    -41.9238     10.8768    158.5204
   711.0000     11.5097    -42.0320     10.7935    157.1767
   711.2500     11.4655    -41.9857     10.6840    155.2780
   711.5000     11.5714    -41.8026     10.5729    151.2830
   711.7500     11.7545    -41.5415     10.4845    148.3963
   712.0000     11.9121    -41.2811     10.4386    144.6395
   712.2500     12.0158    -41.0821     10.4486    142.7114
   712.5000     12.0833    -40.9585     10.5203    140.4668
   712.7500     12.1481    -40.8780     10.6520    139.2580
   713.0000     12.2593    -40.7863     10.8349    137.8509
   713.2500     12.4411    -40.6342     11.0545    137.0719
   713.5000     12.6499    -40.3986     11.2960    135.4969
   713.7500     12.8233    -40.0919     11.5496    133.8414
   714.0000     12.9548    -39.7576     11.8133    130.7894
   714.2500     13.0678    -39.4545     12.0902    129.0952
   714.5000     13.1739    -39.2311     12.3850    128.1537
   714.7500     13.3070    -39.1000     12.7016    128.4872
   715.0000     13.5182    -39.0276     13.0424    128.7158
   715.2500     13.8065    -38.9588     13.4080    127.4878
   715.5000     14.1244    -38.8635     13.7977    123.0607
   715.7500     14.4426    -38.7595     14.2126    119.1971
   716.0000     14.7688    -38.6843     14.6590    113.6984
   716.2500     15.1667    -38.6522     15.1514    110.5189
   716.5000     15.7505    -38.6424     15.7107    106.1347
   716.7500     16.5720    -38.6159     16.3574    103.3699
   717.0000     17.5509    -38.5346     17.1041     99.5246
   717.2500     18.5534    -38.3708     17.9516     96.9889
   717.5000     19.5364    -38.1176     18.8914     92.6236
   717.7500     20.6267    -37.7947     19.9153     89.2292
   718.0000     22.0577    -37.4364     21.0252     84.0068
   718.2500     24.0018    -37.0698     22.2360     80.9392
   718.5000     26.4060    -36.7020     23.5655     77.3836
   718.7500     28.9684    -36.3265     25.0169     75.7127
   719.0000     31.3332    -35.9365     26.5567     74.1941
   719.2500     33.3330    -35.5351     28.1037     73.6922
   719.5000     34.9777    -35.1388     29.5441     72.9311
   719.7500     36.2850    -34.7729     30.7901     71.8656
   720.0000     37.2812    -34.4589     31.8532     69.1639
   720.2500     38.0901    -34.1988     32.8605     66.9453
   720.5000     38.8983    -33.9693     33.9752     63.5729
   720.7500     39.8639    -33.7342     35.2723     61.3192
   721.0000     41.0073    -33.4688     36.6551     57.7233
   721.2500     42.1334    -33.1769     37.8812     55.2774
   721.5000     42.9868    -32.8899     38.6911     52.1712
   721.7500     43.5054    -32.6497     38.9511     50.8277
   722.0000     43.7876    -32.4883     38.6870     49.9989
   722.2500     43.8611    -32.4115     38.0114     50.0483
   722.5000     43.6501    -32.3916     37.0404     50.6822
   722.7500     43.1119    -32.3742     35.8639     51.3550
   723.0000     42.2549    -32.2975     34.5484     52.5786
   723.2500     41.0770    -32.1180     33.1399     53.4976
   723.5000     39.5779    -31.8316     31.6607     55.2746
   723.7500     37.7665    -31.4819     30.1099     57.1220
   724.0000     35.6208    -31.1448     28.4771     61.8246
   724.2500     33.1091    -30.8906     26.7670     66.6736
   724.5000     30.3274    -30.7456     25.0189     76.3656
   724.7500     27.5621    -30.6840     23.3032     83.6261
   725.0000     25.0855    -30.6519     21.6957     93.5761
   725.2500     22.9644    -30.6037     20.2491     98.6186
   725.5000     21.1480    -30.5222     18.9804    103.8045
   725.7500     19.6091    -30.4118     17.8776    106.6317
   726.0000     18.3286    -30.2811     16.9175    111.8076
   726.2500     17.2869    -30.1340     16.0793    116.2356
   726.5000     16.4904    -29.9723     15.3503    123.2156
   726.7500     15.8776    -29.7965     14.7207    127.0221
   727.0000     15.3178    -29.6046     14.1794    130.4180
   727.2500     14.7738    -29.3987     13.7129    131.3195
   727.5000     14.3313    -29.1910     13.3107    131.8593
   727.7500     14.0479    -28.9921     12.9669    132.4742
   728.0000     13.8584    -28.7886     12.6785    134.4795
   728.2500     13.6817    -28.5414     12.4403    136.3898
   728.5000     13.5461    -28.2191     12.2437    139.2766
   728.7500     13.5203    -27.8360     12.0799    140.6848
   729.0000     13.5579    -27.4540     11.9427    141.2091
   729.2500     13.4982    -27.1411     11.8294    140.1819
   729.5000     13.2239    -26.9218     11.7368    136.9922
   729.7500     12.7310    -26.7642     11.6591    134.8060
   730.0000     12.0917    -26.6102     11.5874    133.7517
   730.2500     11.4415    -26.4123     11.5146    135.2651
   730.5000     10.9529    -26.1534     11.4403    140.0231
   730.7500     10.7593    -25.8440     11.3728    143.5002
   731.0000     10.9089    -25.5104     11.3256    147.1048
   731.2500     11.3719    -25.1798     11.3115    147.9950
   731.5000     12.0215    -24.8710     11.3381    147.2702
   731.7500     12.6250    -24.5923     11.4064    145.6549
   732.0000     12.9756    -24.3376     11.5125    142.1784
   732.2500     13.0497    -24.0842     11.6504    139.8849
   732.5000     13.0073    -23.8046     11.8142    137.9083
   732.7500     13.0358    -23.4852     11.9994    137.9058
   733.0000     13.1858    -23.1330     12.2020    139.0387
   733.2500     13.4095    -22.7638     12.4185    139.4916
   733.5000     13.7203    -22.3910     12.6458    137.9379
   733.7500     14.1685    -22.0276     12.8825    134.8539
