~Version Information
VERS.                      2.0: CWLS Log ASCII Standard - VERSION 2.0
WRAP.                       NO: One line per depth step
~Well Information Block
STRT.FT               671.6000: 
STOP.FT              1890.7000: 
STEP.FT                 0.1000: 
NULL.                -999.2500: 
COMP.          Petrogulf Corporation: COMPANY
WELL.             State 16-14R: WELL
FLD.           Purgatorie River: FIELD
LOC.           598' FSL & 682' FWL: LOCATION
CNTY.               Las Animas: COUNTY
SRVC.                         : SERVICE COMPANY
DATE.          Fri Nov 05 07:21:30 2004: LOG DATE
UWI.           05 071 08034 00: UNIQUE WELL ID
STAT.                 Colorado: STATE
~Curve Information Block
DEPT.FT            0 000 00 00: Depth
DCAL.in                       : CDL Caliper
RHOB.g/cc                     : CDL Bulk Density
RHOC.g/cc                     : CDL Density Correction
DPOR.pu                       : CDL Density Porosity
GR.GAPI                       : Gamma Ray
NPOR.pu                       : Neutron Porosity
~Parameter Information Block
~A  Depth       DCAL        RHOB        RHOC        DPOR         GR         NPOR    
# ...
  1401.2000      7.8603      2.5387      0.0772      6.7473     83.4340     20.6712
  1401.3000      7.8654      2.5405      0.0860      6.6362     89.1191     21.6953
  1401.4000      7.8654      2.5400      0.0295      6.6658     96.5190     22.5743
  1401.5000      7.8796      2.5416      0.0680      6.5712    105.5001     23.1503
  1401.6000      7.8796      2.5418      0.0527      6.5555    115.2846     23.5400
  1401.7000      7.8796      2.5369      0.0457      6.8549    122.7719     23.8794
  1401.8000      7.9094      2.5387      0.0356      6.7452    123.8045     24.2020
  1401.9000      7.9094      2.5548      0.0920      5.7697    120.5767     24.3499
  1402.0000      7.8540      2.5735      0.1034      4.6385    120.9454     24.1849
  1402.1000      7.8540      2.5852      0.1278      3.9297    127.1936     23.8761
  1402.2000      7.8540      2.5898      0.1075      3.6460    135.6712     23.8557
  1402.3000      7.8463      2.5896      0.0683      3.6631    142.6064     24.3288
  1402.4000      7.8463      2.5839      0.0683      4.0087    145.4419     24.8974
  1402.5000      7.8460      2.5691      0.0974      4.9034    143.4504     25.3520
  1402.6000      7.8460      2.5546      0.0625      5.7832    139.2499     25.8325
  1402.7000      7.8460      2.5584      0.0709      5.5490    136.7131     26.2894
  1402.8000      7.8693      2.5789      0.1446      4.3107    139.2042     26.7226
  1402.9000      7.8693      2.5983      0.1484      3.1309    144.2087     27.4409
  1403.0000      7.8668      2.6137      0.1493      2.2024    145.1498     28.1898
  1403.1000      7.8668      2.6286      0.1720      1.2957    143.7349     27.9350
  1403.2000      7.8668      2.6333      0.1548      1.0100    145.4238     26.7350
  1403.3000      7.8825      2.6171      0.1336      1.9916    149.0880     25.9845
  1403.4000      7.8825      2.5890      0.1115      3.6961    151.2617     26.1962
  1403.5000      7.8862      2.5647      0.1272      5.1677    152.0699     26.6629
  1403.6000      7.8862      2.5438      0.0950      6.4358    151.1417     26.9491
  1403.7000      7.8862      2.5273      0.0441      7.4336    147.3094     26.9703
  1403.8000      7.8951      2.5280      0.0651      7.3912    143.5713     26.5961
  1403.9000      7.8951      2.5449      0.0934      6.3714    140.3956     26.0196
  1404.0000      7.8763      2.5617      0.1111      5.3534    136.2995     25.7155
  1404.1000      7.8763      2.5675      0.1169      5.0011    136.6448     25.8779
  1404.2000      7.8763      2.5662      0.0492      5.0817    144.6121     25.9886
  1404.3000      7.8454      2.5610      0.1102      5.3951    156.5584     25.8532
  1404.4000      7.8454      2.5410      0.0965      6.6044    167.6600     25.9256
  1404.5000      7.8714      2.5095      0.0327      8.5160    173.8629     26.3321
  1404.6000      7.8714      2.4898      0.0151      9.7076    173.4898     27.0622
  1404.7000      7.8714      2.4970      0.0072      9.2745    169.5438     28.1420
  1404.8000      7.8645      2.5213      0.0863      7.8020    166.4169     29.2078
  1404.9000      7.8645      2.5443      0.0711      6.4074    162.2450     29.7629
  1405.0000      7.8773      2.5666      0.0124      5.0563    154.9543     29.8266
  1405.1000      7.8773      2.5945      0.0880      3.3657    149.3084     29.5327
  1405.2000      7.8773      2.6204      0.1104      1.7937    149.2419     28.8811
  1405.3000      7.9151      2.6307      0.1270      1.1720    152.2769     28.1695
  1405.4000      7.9151      2.6148      0.1300      2.1355    152.7148     27.6341
  1405.5000      7.8983      2.5777      0.0709      4.3848    148.6621     27.3321
  1405.6000      7.8983      2.5386      0.0779      6.7488    142.8842     27.3930
  1405.7000      7.8983      2.5099      0.0169      8.4913    137.6326     27.7251
  1405.8000      7.8818      2.4900      0.0383      9.6977    134.2063     27.8470
  1405.9000      7.8818      2.4797      0.0133     10.3221    135.6008     27.3240
  1406.0000      7.8846      2.4922      0.0560      9.5642    140.0856     26.2401
  1406.1000      7.8846      2.5339      0.0903      7.0363    140.6134     25.2172
  1406.2000      7.8846      2.5902      0.1779      3.6220    136.8864     25.1161
  1406.3000      7.8575      2.6381      0.2170      0.7213    133.1317     25.8509
  1406.4000      7.8575      2.6644      0.2109     -0.8739    130.3428     26.3539
  1406.5000      7.8514      2.6719      0.2341     -1.3256    129.8987     26.4216
  1406.6000      7.8514      2.6701      0.2164     -1.2168    132.7256     26.5197
  1406.7000      7.8514      2.6624      0.2293     -0.7526    138.0965     26.6626
  1406.8000      7.8312      2.6443      0.2083      0.3426    144.3187     26.7626
  1406.9000      7.8312      2.6152      0.1195      2.1115    145.8360     26.8616
  1407.0000      7.8342      2.5816      0.0680      4.1458    141.0369     26.9815
  1407.1000      7.8342      2.5507      0.0368      6.0156    139.6135     27.0021
  1407.2000      7.8342      2.5272      0.0355      7.4440    143.9226     26.8497
  1407.3000      7.8565      2.5178      0.0116      8.0126    145.2101     26.7070
  1407.4000      7.8565      2.5242      0.0737      7.6256    141.6658     26.4456
  1407.5000      7.8681      2.5288      0.0498      7.3455    138.4022     25.9943
  1407.6000      7.8681      2.5279      0.0237      7.4004    138.9399     25.7959
  1407.7000      7.8681      2.5405      0.0696      6.6344    140.7293     25.7386
  1407.8000      7.8884      2.5748      0.0449      4.5591    138.7935     25.1953
  1407.9000      7.8884      2.6233      0.1040      1.6200    134.3863     24.1776
  1408.0000      7.8988      2.6672      0.1553     -1.0431    129.5926     23.2174
  1408.1000      7.8988      2.6875      0.1286     -2.2699    125.4095     22.6434
  1408.2000      7.8988      2.6767      0.2103     -1.6211    122.9860     22.2806
  1408.3000      7.9127      2.6382      0.1493      0.7152    118.3180     21.9752
  1408.4000      7.9127      2.5931      0.0788      3.4468    109.7231     21.7021
  1408.5000      7.8613      2.5597      0.0813      5.4732    101.9842     21.2568
  1408.6000      7.8613      2.5269      0.1025      7.4621     98.8916     20.9474
  1408.7000      7.8613      2.4873     -0.0009      9.8630     97.8907     21.2125
  1408.8000      7.7824      2.4576      0.0108     11.6614     95.6033     21.7497
  1408.9000      7.7824      2.4481     -0.0041     12.2361     95.4457     22.1753
  1409.0000      7.7907      2.4609      0.0506     11.4611    101.2273     22.5531
  1409.1000      7.7907      2.4950      0.0647      9.3964    110.1583     22.8390
  1409.2000      7.7907      2.5328      0.1738      7.1037    116.3537     23.0129
  1409.3000      7.8850      2.5526      0.1952      5.9000    118.8479     23.2207
  1409.4000      7.8850      2.5615      0.1756      5.3636    120.3993     23.5351
  1409.5000      7.7818      2.5719      0.1919      4.7310    123.4733     23.8794
  1409.6000      7.7818      2.5629      0.2457      5.2758    129.4965     24.0607
  1409.7000      7.7818      2.5218      0.1468      7.7712    137.9034     24.2292
  1409.8000      7.8183      2.4852      0.0849      9.9859    146.0047     24.7679
  1409.9000      7.8183      2.4829      0.0838     10.1282    150.2483     25.6037
  1410.0000      7.8218      2.4964      0.0741      9.3089    154.2006     26.5256
  1410.1000      7.8218      2.5056      0.0606      8.7537    163.3166     27.5033
  1410.2000      7.8218      2.5161      0.0047      8.1149    172.2706     28.3354
  1410.3000      7.9057      2.5336      0.0577      7.0564    171.7509     28.8551
  1410.4000      7.9057      2.5503      0.0485      6.0407    163.7037     29.0537
  1410.5000      7.8847      2.5614      0.0809      5.3676    156.6903     28.9551
  1410.6000      7.8847      2.5689      0.0796      4.9181    153.0538     28.9304
  1410.7000      7.8847      2.5689      0.1001      4.9164    151.5131     29.1039
