~Version Information
VERS.                      2.0: CWLS Log ASCII Standard - VERSION 2.0
WRAP.                       NO: One line per depth step
~Well Information Block
STRT.FT               -12.3000: 
STOP.FT              1768.7000: 
STEP.FT                 0.1000: 
NULL.                -999.2500: 
COMP.          Petrogulf Corporation: COMPANY
WELL.          Alexander 9-43R: WELL
FLD.           Purgatorie River: FIELD
LOC.           1652' FSL & 1049' FEL--: LOCATION
CNTY.               Las Animas: COUNTY
SRVC.                         : SERVICE COMPANY
DATE.          Tue Sep 28 14:27:54 2004: LOG DATE
UWI.                          : UNIQUE WELL ID
STAT.                       CO: STATE
~Curve Information Block
DEPT.FT            0 000 00 00: Depth
GR.GAPI                       : Gamma Ray
CCL.                          : Casing Collar Locator
TT3.usec                      : CBL 3' Travel Time
AMP3.mV                       : CBL 3' Amplitude
~Parameter Information Block
~A  Depth        GR         CCL         TT3         AMP3    
# ...
  1153.5000     79.4543      0.0000    849.7696      9.9199
  1153.6000     79.4543     -2.0000    849.7696      9.9199
  1153.7000     79.4543      2.0000    849.7696      9.9199
  1153.8000     75.1011      0.0000    847.9487     10.5098
  1153.9000     75.1011     -2.0000    847.9487     10.5098
  1154.0000     72.7194      0.0000    839.6155     10.6274
  1154.1000     72.7194      0.0000    839.6155     10.6274
  1154.2000     72.7194      0.0000    839.6155     10.6274
  1154.3000     72.5424      0.0000    825.7441     10.4321
  1154.4000     72.5424      0.0000    825.7441     10.4321
  1154.5000     73.7619      0.0000    802.7905     10.0482
  1154.6000     73.7619      0.0000    802.7905     10.0482
  1154.7000     73.7619      0.0000    802.7905     10.0482
  1154.8000     74.8149      0.0000    767.4799      9.5831
  1154.9000     74.8149      0.0000    767.4799      9.5831
  1155.0000     74.3946      0.0000    725.1411      9.1180
  1155.1000     74.3946      0.0000    725.1411      9.1180
  1155.2000     74.3946      0.0000    725.1411      9.1180
  1155.3000     72.6065      0.0000    689.6696      8.6730
  1155.4000     72.6065      0.0000    689.6696      8.6730
  1155.5000     70.7280      0.0000    672.4594      8.2450
  1155.6000     70.7280      0.0000    672.4594      8.2450
  1155.7000     70.7280      0.0000    672.4594      8.2450
  1155.8000     69.6792      0.0000    673.0845      7.8617
  1155.9000     69.6792      0.0000    673.0845      7.8617
  1156.0000     69.3287      0.0000    682.2925      7.5488
  1156.1000     69.3287      0.0000    682.2925      7.5488
  1156.2000     69.3287      0.0000    682.2925      7.5488
  1156.3000     69.4183      0.0000    690.9521      7.2855
  1156.4000     69.4183      0.0000    690.9521      7.2855
  1156.5000     70.2986      0.0000    694.5228      7.0412
  1156.6000     70.2986      0.0000    694.5228      7.0412
  1156.7000     70.2986      0.0000    694.5228      7.0412
  1156.8000     72.3172      0.0000    692.5530      6.8189
  1156.9000     72.3172      0.0000    692.5530      6.8189
  1157.0000     75.0363      0.0000    687.0922      6.6376
  1157.1000     75.0363      0.0000    687.0922      6.6376
  1157.2000     75.0363      0.0000    687.0922      6.6376
  1157.3000     77.5628      0.0000    681.0740      6.5025
  1157.4000     77.5628      0.0000    681.0740      6.5025
  1157.5000     79.6564      0.0000    676.6467      6.4087
  1157.6000     79.6564      0.0000    676.6467      6.4087
  1157.7000     79.6564      0.0000    676.6467      6.4087
  1157.8000     82.1946      0.0000    674.5515      6.3550
  1157.9000     82.1946      0.0000    674.5515      6.3550
  1158.0000     86.1165      0.0000    674.9250      6.3386
  1158.1000     86.1165      0.0000    674.9250      6.3386
  1158.2000     86.1165      0.0000    674.9250      6.3386
  1158.3000     90.9292      0.0000    678.2735      6.3472
  1158.4000     90.9292      0.0000    678.2735      6.3472
  1158.5000     95.0837      0.0000    685.4510      6.3653
  1158.6000     95.0837      0.0000    685.4510      6.3653
  1158.7000     95.0837      0.0000    685.4510      6.3653
  1158.8000     98.1452      0.0000    696.3544      6.3935
  1158.9000     98.1452      0.0000    696.3544      6.3935
  1159.0000    101.8230      0.0000    708.5955      6.4488
  1159.1000    101.8230      0.0000    708.5955      6.4488
  1159.2000    101.8230      0.0000    708.5955      6.4488
  1159.3000    108.3634      0.0000    718.0007      6.5409
  1159.4000    108.3634      0.0000    718.0007      6.5409
  1159.5000    118.3861      0.0000    721.2905      6.6500
  1159.6000    118.3861      0.0000    721.2905      6.6500
  1159.7000    118.3861      0.0000    721.2905      6.6500
  1159.8000    130.4071      0.0000    718.7218      6.7312
  1159.9000    130.4071      0.0000    718.7218      6.7312
  1160.0000    141.7746      0.0000    714.0755      6.7414
  1160.1000    141.7746      0.0000    714.0755      6.7414
  1160.2000    141.7746      0.0000    714.0755      6.7414
  1160.3000    150.0049      0.0000    711.9053      6.6682
  1160.4000    150.0049      0.0000    711.9053      6.6682
  1160.5000    154.2600      0.0000    714.3312      6.5433
  1160.6000    154.2600      0.0000    714.3312      6.5433
  1160.7000    154.2600      0.0000    714.3312      6.5433
  1160.8000    156.2070      0.0000    719.7863      6.4252
  1160.9000    156.2070      0.0000    719.7863      6.4252
  1161.0000    158.7975      0.0000    724.4810      6.3580
  1161.1000    158.7975      0.0000    724.4810      6.3580
  1161.2000    158.7975      0.0000    724.4810      6.3580
  1161.3000    163.6489      0.0000    725.3225      6.3412
  1161.4000    163.6489      0.0000    725.3225      6.3412
  1161.5000    169.8289      0.0000    721.9093      6.3446
  1161.6000    169.8289      0.0000    721.9093      6.3446
  1161.7000    169.8289      0.0000    721.9093      6.3446
  1161.8000    175.1504      0.0000    716.1961      6.3443
  1161.9000    175.1504      0.0000    716.1961      6.3443
  1162.0000    178.2404      0.0000    710.8210      6.3415
  1162.1000    178.2404      0.0000    710.8210      6.3415
  1162.2000    178.2404      0.0000    710.8210      6.3415
  1162.3000    179.4162      0.0000    707.8486      6.3457
  1162.4000    179.4162      0.0000    707.8486      6.3457
  1162.5000    180.0858      0.0000    708.0602      6.3449
  1162.6000    180.0858      0.0000    708.0602      6.3449
  1162.7000    180.0858      0.0000    708.0602      6.3449
  1162.8000    181.2889      0.0000    710.2568      6.2965
  1162.9000    181.2889      0.0000    710.2568      6.2965
  1163.0000    182.4513      0.0000    711.6310      6.1546
  1163.1000    182.4513      0.0000    711.6310      6.1546
  1163.2000    182.4513      0.0000    711.6310      6.1546
  1163.3000    181.5307      0.0000    710.2147      5.9127
  1163.4000    181.5307      0.0000    710.2147      5.9127
  1163.5000    176.6525      0.0000    707.4639      5.6236
  1163.6000    176.6525      0.0000    707.4639      5.6236
  1163.7000    176.6525      0.0000    707.4639      5.6236
  1163.8000    167.6747      0.0000    707.7144      5.3691
  1163.9000    167.6747      0.0000    707.7144      5.3691
  1164.0000    156.1510      0.0000    714.2576      5.2009
  1164.1000    156.1510      0.0000    714.2576      5.2009
  1164.2000    156.1510      0.0000    714.2576      5.2009
  1164.3000    143.9891      0.0000    725.9136      5.1100
  1164.4000    143.9891      0.0000    725.9136      5.1100
  1164.5000    132.4540      0.0000    738.0411      5.0507
  1164.6000    132.4540      0.0000    738.0411      5.0507
  1164.7000    132.4540      0.0000    738.0411      5.0507
  1164.8000    122.4054      0.0000    746.9299      4.9851
  1164.9000    122.4054      0.0000    746.9299      4.9851
  1165.0000    114.7687      0.0000    752.4243      4.9036
  1165.1000    114.7687      0.0000    752.4243      4.9036
  1165.2000    114.7687      0.0000    752.4243      4.9036
  1165.3000    110.2354      0.0000    756.4490      4.8206
  1165.4000    110.2354      0.0000    756.4490      4.8206
  1165.5000    108.7402      0.0000    760.3260      4.7628
  1165.6000    108.7402      0.0000    760.3260      4.7628
  1165.7000    108.7402      0.0000    760.3260      4.7628
  1165.8000    109.4722      0.0000    763.7063      4.7532
  1165.9000    109.4722      0.0000    763.7063      4.7532
  1166.0000    111.1559      0.0000    764.7696      4.7992
  1166.1000    111.1559      0.0000    764.7696      4.7992
  1166.2000    111.1559      0.0000    764.7696      4.7992
  1166.3000    112.4264      0.0000    760.7550      4.8970
  1166.4000    112.4264      0.0000    760.7550      4.8970
  1166.5000    112.7031      0.0000    748.5933      5.0467
  1166.6000    112.7031      0.0000    748.5933      5.0467
  1166.7000    112.7031      0.0000    748.5933      5.0467
  1166.8000    112.8006      0.0000    725.5835      5.2500
