~Version Information
VERS.                      2.0: CWLS Log ASCII Standard - VERSION 2.0
WRAP.                       NO: One line per depth step
~Well Information Block
STRT.FT                -6.7500: 
STOP.FT              2058.2500: 
STEP.FT                 0.2500: 
NULL.                -999.2500: 
COMP.          Petrogulf Corporation: COMPANY
WELL.           Schedler 9-23R: WELL
FLD.           Purgatorie River: FIELD
LOC.           2084' FSL & 2331' FWL--: LOCATION
PROV.                       CO: PROVINCE
CNTY.               Las Animas: COUNTRY
SRVC.                         : SERVICE COMPANY
DATE.          Fri Nov 12 13:22:46 2004: LOG DATE
UWI.       005 071 08040 : UNIQUE WELL ID
~Curve Information Block
DEPT.FT            0 000 00 00: Depth
GR.GAPI                       : Gamma Ray
CCL.                          : Casing Collar Locator
TT3.usec                      : CBL 3' Travel Time
AMP3.mV                       : CBL 3' Amplitude
~Parameter Information Block
~A  Depth        GR         CCL         TT3         AMP3    
# ...
   395.2500     61.4134      0.0000    457.1641     22.2588
   395.5000     67.3370      0.0000    504.4660     22.0276
   395.7500     72.0889      0.0000    558.2172     21.8383
   396.0000     74.8508      0.0000    614.3483     21.6855
   396.2500     75.4914      0.0000    660.3835     21.5513
   396.5000     74.1242      0.0000    691.4197     21.4136
   396.7500     71.1014      0.0000    717.3350     21.2621
   397.0000     67.1698      0.0000    747.7673     21.1218
   397.2500     63.2357      0.0000    776.7501     21.0456
   397.5000     59.9659      0.0000    787.4685     21.0662
   397.7500     57.6616      0.0000    767.4896     21.1708
   398.0000     56.1575      0.0000    718.4266     21.3290
   398.2500     54.7681      0.0000    658.7005     21.5210
   398.5000     52.7988      0.0000    618.1513     21.7270
   398.7500     50.2785      0.0000    619.6565     21.9127
   399.0000     47.8106      0.0000    659.5841     22.0393
   399.2500     45.6674      0.0000    709.1682     22.0868
   399.5000     43.4683      0.0000    737.5940     22.0732
   399.7500     40.9591      0.0000    733.5717     22.0578
   400.0000     38.8102      0.0000    708.1913     22.1027
   400.2500     38.2405      0.0000    680.1373     22.2194
   400.5000     39.7479      0.0000    656.6776     22.3645
   400.7500     42.4677      0.0000    629.6927     22.4882
   401.0000     44.9360      0.0000    592.2470     22.5683
   401.2500     46.2538      0.0000    554.5419     22.6005
   401.5000     46.2920      0.0000    537.7363     22.5843
   401.7500     45.1464      0.0000    555.0046     22.5231
   402.0000     43.0611      0.0000    602.7526     22.4152
   402.2500     40.9674      0.0000    665.5204     22.2413
   402.5000     40.4380      0.0000    724.7856     21.9776
   402.7500     42.5687      0.0000    767.2788     21.6228
   403.0000     46.9500      0.0000    790.6542     21.2020
   403.2500     51.8040      0.0000    801.7855     20.7460
   403.5000     54.9962      0.0000    808.8433     20.2773
   403.7500     55.1242      0.0000    814.7854     19.8126
   404.0000     52.2328      0.0000    817.8837     19.3741
   404.2500     47.8227      0.0000    816.8406     19.0040
   404.5000     43.9155      0.0000    813.6735     18.7679
   404.7500     41.7003      0.0000    811.6979     18.7271
   405.0000     40.9133      0.0000    812.0489     18.8839
   405.2500     40.4510      0.0000    813.1079     19.1558
   405.5000     39.4675      0.0000    812.6815     19.4191
   405.7500     37.8659      0.0000    810.0840     19.5840
   406.0000     35.9379      0.0000    806.2144     19.6288
   406.2500     33.8681      0.0000    802.1533     19.5806
   406.5000     31.7565      0.0000    798.0875     19.4840
   406.7500     29.8969      0.0000    793.6162     19.3853
   407.0000     28.6516      0.0000    788.8361     19.3243
   407.2500     28.1645      0.0000    784.7952     19.3309
   407.5000     28.5620      0.0000    782.7341     19.4263
   407.7500     30.2805      0.0000    782.8588     19.6102
   408.0000     33.6401      0.0000    783.9134     19.8382
   408.2500     38.0233      0.0000    784.0720     20.0305
   408.5000     42.0382      0.0000    782.4150     20.1266
   408.7500     44.8677      0.0000    779.5385     20.1329
   409.0000     47.1384      0.0000    776.6943     20.1099
   409.2500     50.1297      0.0000    774.6078     20.1135
   409.5000     54.3211      0.0000    772.8946     20.1472
   409.7500     59.0587      0.0000    769.9917     20.1499
   410.0000     63.5650      0.0000    763.1902     20.0071
   410.2500     67.9515      0.0000    750.1711     19.5700
   410.5000     73.0067      0.0000    733.1420     18.6972
   410.7500     79.0642      0.0000    722.0043     17.3481
   411.0000     85.3082      0.0000    729.7104     15.6966
   411.2500     90.1565      0.0000    761.0020     14.1171
   411.5000     92.0797      0.0000    806.9261     12.9613
   411.7500     90.3372      0.0000    851.9929     12.3117
   412.0000     85.5833      0.0000    885.0459     11.9757
   412.2500     80.0386      0.0000    903.0941     11.6993
   412.5000     76.7361      2.0000    908.4371     11.3539
   412.7500     77.9104      2.0000    905.0438     10.9618
   413.0000     83.5191      0.0000    896.7057     10.6249
   413.2500     91.3366      0.0000    885.7531     10.4656
   413.5000     98.7916      0.0000    872.0375     10.6064
   413.7500    104.5820      0.0000    854.2549     11.1463
   414.0000    108.3181      0.0000    833.1076     12.0857
   414.2500    109.5531      0.0000    812.4582     13.2354
   414.5000    108.3295      0.0000    796.9397     14.2467
   414.7500    106.2538      0.0000    789.2996     14.8090
   415.0000    105.7401      0.0000    789.8009     14.8546
   415.2500    107.8842      0.0000    796.7153     14.5625
   415.5000    111.4313      0.0000    806.7547     14.1854
   415.7500    113.8235      0.0000    815.8051     13.8915
   416.0000    113.1685      0.0000    820.3785     13.7343
   416.2500    109.5399      0.0000    818.9913     13.6987
   416.5000    104.7396      0.0000    812.4066     13.7450
   416.7500    100.8690      0.0000    802.8032     13.8288
   417.0000     98.9641      0.0000    792.7106     13.9163
   417.2500     98.6882      0.0000    784.1413     14.0011
   417.5000     98.9907      0.0000    777.6376     14.1092
   417.7500     99.1231      0.0000    771.5253     14.2801
   418.0000     99.1915      0.0000    761.8739     14.5381
   418.2500     99.7797      0.0000    744.0347     14.8725
   418.5000    101.1890      0.0000    716.5972     15.2358
   418.7500    103.3044      0.0000    684.8546     15.5584
   419.0000    106.0615      0.0000    658.3076     15.7833
   419.2500    109.6628      0.0000    643.2572     15.8985
   419.5000    114.1618      0.0000    639.3711     15.9371
   419.7500    118.8094      0.0000    641.3956     15.9510
   420.0000    121.9723      0.0000    638.6215     15.9956
   420.2500    121.9943      0.0000    615.3796     16.1268
   420.5000    118.2858      0.0000    561.8069     16.3764
   420.7500    111.8099      0.0000    486.1144     16.7156
   421.0000    104.8672      0.0000    410.7156     17.0612
   421.2500    100.1497      0.0000    355.0089     17.3290
   421.5000     99.1060      0.0000    324.2108     17.4755
   421.7500    100.7750      0.0000    312.6148     17.4937
   422.0000    102.4642      0.0000    312.1451     17.3961
   422.2500    101.9214      0.0000    316.6386     17.2209
   422.5000     99.0428      0.0000    321.6312     17.0404
   422.7500     95.9129      0.0000    323.7837     16.9397
   423.0000     95.4241      0.0000    321.7123     16.9719
   423.2500     99.3659      0.0000    316.5318     17.1315
   423.5000    107.0162      0.0000    310.7543     17.3667
   423.7500    115.2863      0.0000    306.3656     17.6151
   424.0000    120.6098      0.0000    303.8891     17.8371
   424.2500    121.3030      0.0000    302.8260     18.0275
   424.5000    118.5010      0.0000    302.5277     18.2039
   424.7500    114.9843      0.0000    302.7121     18.3761
   425.0000    113.1106      0.0000    303.5882     18.5242
   425.2500    113.6316      0.0000    305.7053     18.6028
   425.5000    115.9932      0.0000    309.4205     18.5684
   425.7500    119.2427      0.0000    314.1603     18.4049
   426.0000    122.6241      0.0000    318.4343     18.1295
   426.2500    125.6576      0.0000    321.2099     17.7835
   426.5000    127.8647      0.0000    323.2656     17.4190
   426.7500    128.5076      0.0000    326.8711     17.0890
   427.0000    126.9997      0.0000    334.4494     16.8406
   427.2500    123.9066      0.0000    348.7706     16.7056
   427.5000    120.9789      0.0000    373.9252     16.6920
   427.7500    119.5322      0.0000    413.7614     16.7763
   428.0000    119.0920      0.0000    467.9048     16.8998
   428.2500    118.0975      0.0000    529.9755     16.9799
   428.5000    115.5256      0.0000    589.0252     16.9511
