~Version Information
VERS.                      2.0: CWLS Log ASCII Standard - VERSION 2.0
WRAP.                       NO: One line per depth step
~Well Information Block
STRT.FT               425.0000: 
STOP.FT              2461.0000: 
STEP.FT                 0.1000: 
NULL.                -999.2500: 
COMP.          Evergreen Operating Corporation: COMPANY
WELL.              Nomad 32-10: WELL
FLD.           Purgatorie River: FIELD
LOC.           2281' FNL & 1585' FEL: LOCATION
PROV.                 Colorado: PROVINCE
CNTY.               Las Animas: COUNTRY
SRVC.                Patterson: SERVICE COMPANY
DATE.          Thu Aug 12 11:13:52 2004: LOG DATE
UWI.           05 071 08127 00: UNIQUE WELL ID
~Curve Information Block
DEPT.FT            0 000 00 00: Depth
DCAL.in                       : CDL Caliper
RHOB.g/cc                     : CDL Bulk Density
RHOC.g/cc                     : CDL Density Correction
DPOR.pu                       : CDL Density Porosity
NPOR.pu                       : Neutron Porosity
GR.GAPI                       : Gamma Ray
~Parameter Information Block
~A  Depth       DCAL        RHOB        RHOC        DPOR        NPOR         GR     
# ...
   828.2000      8.4192      2.4434      0.1505     12.5201     21.4784    152.5461
   828.3000      8.3916      2.4129      0.0931     14.3693     21.0247    151.6853
   828.4000      8.3916      2.3676      0.0903     17.1127     20.6914    153.8302
   828.5000      8.3827      2.2964      0.0837     21.4317     20.6485    153.3121
   828.6000      8.3827      2.1937     -0.0177     27.6526     20.5256    149.1371
   828.7000      8.3827      2.0835     -0.0409     34.3347     19.9460    144.2993
   828.8000      8.3766      1.9801     -0.0625     40.6021     19.0162    136.5714
   828.9000      8.3766      1.8725     -0.0070     47.1220     17.7535    124.0684
   829.0000      8.3835      1.7550     -0.0953     54.2428     16.1075    112.5987
   829.1000      8.3835      1.6428     -0.1070     61.0453     14.3050    104.7063
   829.2000      8.3835      1.5462     -0.0376     66.8987     12.6278     94.9861
   829.3000      8.3883      1.4635     -0.0046     71.9098     11.2150     82.9432
   829.4000      8.3883      1.3951      0.0097     76.0556      9.9482     74.5511
   829.5000      8.3999      1.3426      0.0185     79.2371      8.7387     70.9371
   829.6000      8.3999      1.3095      0.0249     81.2419      7.8706     69.6157
   829.7000      8.3999      1.3032      0.0264     81.6249      7.4747     68.8591
   829.8000      8.3820      1.3282      0.0308     80.1074      7.4322     69.1808
   829.9000      8.3820      1.3810      0.0737     76.9094      7.6740     73.0723
   830.0000      8.3744      1.4573      0.0853     72.2831      8.1207     80.7143
   830.1000      8.3744      1.5600      0.0995     66.0589      8.5927     87.5570
   830.2000      8.3744      1.6818      0.1758     58.6807      8.9670     90.7984
   830.3000      8.3460      1.8026      0.2242     51.3570      9.4309     94.6986
   830.4000      8.3460      1.9144      0.2243     44.5813     10.2873    103.5508
   830.5000      8.3472      2.0150      0.2219     38.4832     11.4734    114.1107
   830.6000      8.3472      2.0994      0.1961     33.3723     12.7485    121.3956
   830.7000      8.3472      2.1760      0.1270     28.7249     14.0350    126.7563
   830.8000      8.3398      2.2477      0.1806     24.3818     15.3102    131.7681
   830.9000      8.3398      2.2921      0.1380     21.6906     16.5915    135.8727
   831.0000      8.3572      2.3070      0.0449     20.7883     18.0162    140.6533
   831.1000      8.3572      2.3182      0.0412     20.1073     19.5423    146.7695
   831.2000      8.3572      2.3387      0.0558     18.8648     20.9147    153.2603
   831.3000      8.3334      2.3693      0.0381     17.0136     22.1206    156.8603
   831.4000      8.3334      2.4055      0.0914     14.8183     23.4147    153.6101
   831.5000      8.3317      2.4267      0.1447     13.5311     25.1973    146.0258
   831.6000      8.3317      2.4206      0.0965     13.9018     27.6277    143.3247
   831.7000      8.3317      2.4106      0.0579     14.5080     30.1651    147.9369
   831.8000      8.3205      2.4244      0.0922     13.6725     32.1500    150.2963
   831.9000      8.3205      2.4567      0.1450     11.7182     33.4237    147.2822
   832.0000      8.3292      2.4819      0.1407     10.1901     34.0664    147.2104
   832.1000      8.3292      2.4777      0.1341     10.4398     34.0108    153.9107
   832.2000      8.3292      2.4345      0.0634     13.0620     33.1286    158.9705
   832.3000      8.3313      2.3541      0.0152     17.9339     31.4937    158.1391
   832.4000      8.3313      2.2407      0.0055     24.8056     29.2978    156.1468
   832.5000      8.3300      2.0998     -0.0415     33.3427     26.3858    155.0950
   832.6000      8.3300      1.9448     -0.1520     42.7420     22.5749    156.3311
   832.7000      8.3300      1.7806     -0.1188     52.6933     18.2893    159.2171
   832.8000      8.3332      1.5764     -0.1456     65.0681     14.3495    158.2818
   832.9000      8.3332      1.2887     -0.2065     82.5020     11.5473    150.8370
   833.0000      8.3699      0.9227     -0.3356    104.6839     10.1163    140.6664
   833.1000      8.3699      0.5660     -0.5423    126.3060      9.9211    129.3619
   833.2000      8.3699      0.3641     -0.7267    138.5409     10.8049    118.1002
   833.3000      8.7101      0.4213     -0.4725    135.0748     12.5691    114.1833
   833.4000      8.7101      0.6958     -0.0391    118.4394     15.1214    117.4918
   833.5000      9.2296      1.0334      0.2800     97.9773     18.2294    119.9002
   833.6000      9.2296      1.3038      0.3949     81.5889     21.1382    117.0111
   833.7000      9.2296      1.4684      0.4578     71.6111     23.4567    108.6633
   833.8000      9.9541      1.5390      0.5004     67.3352     25.2605     98.6628
   833.9000      9.9541      1.5395      0.4203     67.3010     26.2395     91.6784
   834.0000     10.3666      1.5129      0.3093     68.9129     26.0817     90.8318
   834.1000     10.3666      1.5093      0.2515     69.1346     24.8012     95.5274
   834.2000     10.3666      1.5539      0.2447     66.4310     22.6834     97.7884
   834.3000      9.5327      1.6379      0.2757     61.3392     20.2705     94.3630
   834.4000      9.5327      1.7401      0.2997     55.1460     17.9267     91.4005
   834.5000      8.2778      1.8475      0.3273     48.6389     15.8837     92.1582
   834.6000      8.2778      1.9535      0.3873     42.2096     14.5848     98.5102
   834.7000      8.2778      2.0542      0.3649     36.1088     14.0942    109.1586
   834.8000      8.0674      2.1524      0.3349     30.1551     14.1196    117.4442
   834.9000      8.0674      2.2523      0.2990     24.1030     14.6918    121.8728
   835.0000      8.0243      2.3434      0.2773     18.5848     15.8597    126.8113
   835.1000      8.0243      2.4022      0.2053     15.0163     17.3204    132.3909
   835.2000      8.0243      2.4245      0.0835     13.6658     18.7371    132.4380
   835.3000      8.0247      2.4355      0.0229     12.9974     19.9222    127.4611
   835.4000      8.0247      2.4508      0.0426     12.0721     20.9107    125.9303
   835.5000      8.0232      2.4614      0.0473     11.4304     21.7313    129.0049
   835.6000      8.0232      2.4605      0.0927     11.4863     22.3584    133.0479
   835.7000      8.0232      2.4520      0.0710     12.0011     22.8758    138.8288
   835.8000      8.0208      2.4478      0.0606     12.2542     23.1109    145.5484
   835.9000      8.0208      2.4579      0.0476     11.6395     23.1162    148.8802
   836.0000      8.0255      2.4761      0.0825     10.5406     23.2532    147.5562
   836.1000      8.0255      2.4849      0.0789     10.0089     23.4640    144.8269
   836.2000      8.0255      2.4767      0.0796     10.5043     23.5592    142.8540
   836.3000      8.0288      2.4627      0.0495     11.3492     23.6148    139.9203
   836.4000      8.0288      2.4674      0.0452     11.0649     23.8344    134.7793
   836.5000      8.0297      2.4990      0.0939      9.1487     24.1546    131.4737
   836.6000      8.0297      2.5333      0.1390      7.0716     24.3151    135.7263
   836.7000      8.0297      2.5482      0.0796      6.1726     24.3849    144.6428
   836.8000      8.0378      2.5482      0.0722      6.1669     24.5472    150.6432
   836.9000      8.0378      2.5450      0.0949      6.3617     24.5979    151.3574
   837.0000      8.0215      2.5411      0.0856      6.6003     24.5096    149.7907
   837.1000      8.0215      2.5404      0.0370      6.6432     24.6694    148.2543
   837.2000      8.0215      2.5477      0.0628      6.1988     25.2896    145.6368
   837.3000      8.0004      2.5587      0.0503      5.5321     26.2746    142.5841
   837.4000      8.0004      2.5664      0.0546      5.0654     27.2006    139.9181
   837.5000      7.9980      2.5628      0.0627      5.2826     27.5397    137.5883
   837.6000      7.9980      2.5421      0.0740      6.5366     27.3051    136.4525
   837.7000      7.9980      2.5188      0.0299      7.9521     27.0531    134.4501
