~Version Information
 VERS.                                  2.0 : CWLS LAS VERSION
 WRAP.                                   NO : WRAPING MODE
 SWARE .                 MController 2.5.0E : SOFTWARE VERSION
~Well Information
 WELL.                        Rangely 22-28 : WELL
 COMP.             Evergreen Operating Corp : COMPANY
 FLD.                      Purgatorie River : FIELD
 LOC.                SE/NW Sec 28 T32S R67W : LOCATION
 DATE.                09/14/2004-09/15/2004 : DATE(S) LOGGED
 SRVC.       Blanco Geological Services LLC : SERVICE COMPANY
 STAT.                                   CO : STATE
 CNTY.                           Las Animas : COUNTY
 CTRY.                                  USA : COUNTRY
 API.                       05-071-08044-00 : API NUMBER
 STRT.FT                             858.00 : START DEPTH
 STOP.FT                            2847.00 : STOP DEPTH
 STEP.FT                               1.00 : DEPTH INCREMENT
 NULL.                                -9999 : NULL VALUE
~Curve information
 DEPTH.FT                                   :
 ROP.MIN/FT                                 :
 GAS.UNITS                                  :
~ASCII Log data
# ...
     2258.00        0.400       2203.6 
     2259.00        0.333       1982.2 
     2260.00        0.367       1992.3 
     2261.00        0.367       2032.4 
     2262.00        0.367       2069.5 
     2263.00        0.367       2086.3 
     2264.00        0.367       2083.0 
     2265.00        0.383       2086.3 
     2266.00        0.367       2096.8 
     2267.00        0.367       2096.1 
     2268.00        0.367       2085.7 
     2269.00        0.367       2060.1 
     2270.00        0.400       2042.5 
     2271.00        0.333       2062.7 
     2272.00        0.367       2069.5 
     2273.00        0.367       1989.6 
     2274.00        0.617       1870.4 
     2275.00        0.267       1390.6 
     2276.00        3.817       3306.6 
     2277.00        0.433       2902.0 
     2278.00        0.433       2821.5 
     2279.00        0.333       2524.0 
     2280.00        0.433       2286.1 
     2281.00        0.433       2086.3 
     2282.00        0.483       2025.7 
     2283.00        0.333       2056.0 
     2284.00        0.367       2069.5 
     2285.00        0.333       1870.7 
     2286.00        0.233       1762.9 
     2287.00        0.267       1731.9 
     2288.00        0.267       1743.7 
     2289.00        0.267       1747.7 
     2290.00        0.233       1748.4 
     2291.00        0.233       1773.3 
     2292.00        0.233       1830.6 
     2293.00        0.233       1907.8 
     2294.00        0.283       1982.9 
     2295.00        0.267       1975.5 
     2296.00        0.233       1921.6 
     2297.00        0.267       1874.4 
     2298.00        0.267       1837.0 
     2299.00        0.233       1816.1 
     2300.00        0.233       1823.5 
     2301.00        0.233       1823.5 
     2302.00        0.233       1863.0 
     2303.00        0.267       1911.1 
     2304.00        0.267       1950.6 
     2305.00        0.267       1897.7 
     2306.00        4.233       3479.1 
     2307.00        0.100       2189.1 
     2308.00        0.233       2135.9 
     2309.00        0.433       2292.5 
     2310.00        0.333       2339.7 
     2311.00        0.333       2332.3 
     2312.00        0.300       2205.9 
     2313.00        0.267       2099.8 
     2314.00        0.200       2086.3 
     2315.00        0.267       1992.0 
     2316.00        0.300       1821.9 
     2317.00        0.283       1803.3 
     2318.00        0.233       1790.5 
     2319.00        0.200       1779.7 
     2320.00        0.367       1769.0 
     2321.00        0.300       1768.3 
     2322.00        0.233       1752.8 
     2323.00        0.267       1792.5 
     2324.00        0.267       1847.8 
     2325.00        0.333       1901.0 
     2326.00        0.433       1926.3 
     2327.00        0.300       1885.9 
     2328.00        0.317       1853.9 
     2329.00        0.367       1833.6 
     2330.00        0.300       1751.4 
     2331.00        0.233       1660.1 
     2332.00        0.267       1621.1 
     2333.00        0.200       1624.4 
     2334.00        0.200       1624.4 
     2335.00        0.933       1842.1 
     2336.00        3.917       2700.5 
     2337.00        0.150       2086.3 
     2338.00        0.267       2241.7 
     2339.00        0.200       2277.4 
     2340.00        0.367       2406.7 
     2341.00        0.400       2415.8 
     2342.00        0.333       2217.7 
     2343.00        0.367       2019.0 
     2344.00        0.333       1868.7 
     2345.00        0.333       1724.5 
     2346.00        0.333       1661.8 
     2347.00        0.333       1698.2 
     2348.00        0.383       1724.8 
     2349.00        0.333       1732.9 
     2350.00        0.333       1734.6 
     2351.00        0.333       1732.6 
     2352.00        0.300       1692.1 
     2353.00        0.300       1675.6 
     2354.00        0.300       1681.7 
     2355.00        0.300       1698.9 
     2356.00        0.333       1701.6 
     2357.00        0.300       1685.4 
     2358.00        0.283       1674.3 
     2359.00        0.333       1675.3 
     2360.00        0.300       1667.5 
     2361.00        0.367       1601.2 
     2362.00        0.367       1593.8 
     2363.00        0.433       1603.9 
     2364.00        0.400       1631.2 
     2365.00        0.400       1587.7 
     2366.00        4.933       2703.2 
     2367.00        0.533       2732.9 
     2368.00        0.433       2426.3 
     2369.00        0.267       2099.1 
     2370.00        0.200       1887.2 
     2371.00        0.200       1823.9 
     2372.00        0.467       1698.2 
     2373.00        0.450       1789.8 
     2374.00        0.367       1842.1 
     2375.00        0.233       1823.2 
     2376.00        0.233       1810.1 
     2377.00        0.300       1676.6 
     2378.00        0.267       1664.5 
     2379.00        0.267       1600.5 
     2380.00        0.267       1569.5 
     2381.00        0.267       1631.2 
     2382.00        0.233       1692.1 
     2383.00        0.300       1740.3 
     2384.00        0.267       1766.3 
     2385.00        0.350       1752.1 
     2386.00        0.300       1699.2 
     2387.00        0.300       1681.7 
     2388.00        0.267       1543.9 
     2389.00        0.300       1526.4 
     2390.00        0.267       1499.1 
     2391.00        0.300       1553.3 
     2392.00        0.267       1622.7 
     2393.00        0.267       1668.9 
     2394.00        0.333       1635.2 
     2395.00        0.267       1490.7 
     2396.00        3.867       2652.3 
     2397.00        0.467       2483.6 
     2398.00        0.500       2523.0 
     2399.00        0.400       2477.2 
     2400.00        0.333       2239.0 
     2401.00        0.367       1993.7 
     2402.00        0.367       1864.3 
     2403.00        0.400       1625.1 
     2404.00        0.383       1611.3 
     2405.00        0.400       1709.0 
     2406.00        0.400       1739.3 
     2407.00        0.267       1678.7 
     2408.00        0.233       1574.9 
     2409.00        0.267       1515.6 
     2410.00        0.233       1465.1 
     2411.00        0.233       1456.3 
     2412.00        0.200       1487.3 
     2413.00        0.200       1487.3 
     2414.00        0.233       1675.0 
     2415.00        0.233       1855.5 
     2416.00        0.517       2047.9 
     2417.00        0.667       2086.3 
     2418.00        0.233       1737.6 
     2419.00        0.233       1411.2 
     2420.00        1.267       1612.6 
     2421.00        0.567       1623.4 
     2422.00        0.650       1893.3 
     2423.00        0.233       2039.2 
     2424.00        0.300       1985.6 
     2425.00        0.300       1756.8 
     2426.00        4.050       2423.2 
     2427.00        0.333       2492.0 
     2428.00        0.333       2464.4 
     2429.00        0.333       2339.0 
     2430.00        0.333       2160.5 
     2431.00        0.350       1931.4 
     2432.00        0.333       1796.6 
     2433.00        0.367       1732.9 
     2434.00        0.400       1623.8 
     2435.00        0.333       1651.7 
     2436.00        0.367       1729.2 
     2437.00        0.300       1732.6 
     2438.00        0.400       1724.5 
     2439.00        0.400       1709.3 
     2440.00        0.383       1678.7 
     2441.00        0.267       1597.8 
     2442.00        0.333       1456.3 
     2443.00        0.200       1397.7 
     2444.00        0.233       1430.0 
     2445.00        0.200       1430.0 
     2446.00        0.300       1520.0 
     2447.00        0.367       1617.7 
     2448.00        0.400       1665.5 
     2449.00        0.400       1661.8 
     2450.00        0.367       1567.5 
     2451.00        0.317       1532.8 
     2452.00        0.333       1530.8 
     2453.00        0.300       1499.4 
     2454.00        0.433       1450.9 
     2455.00        0.533       1378.5 
     2456.00        4.283       2669.5 
     2457.00        0.550       2766.9 
