~Version Information
VERS.                      2.0: CWLS Log ASCII Standard - VERSION 2.0
WRAP.                       NO: One line per depth step
~Well Information Block
STRT.FT               590.0000: 
STOP.FT              1563.5000: 
STEP.FT                 0.2500: 
NULL.                -999.2500: 
COMP.          Petrogulf Corporation: COMPANY
WELL.             State 16-43R: WELL
FLD.           Purgatorie River: FIELD
LOC.           2538' FSL & 716' FEL: LOCATION
PROV.                 Colorado: PROVINCE
CNTY.               Las Animas: COUNTRY
SRVC.                Patterson: SERVICE COMPANY
DATE.          Tue Aug 09 14:21:37 2005: LOG DATE
UWI.                          : UNIQUE WELL ID
~Curve Information Block
DEPT.FT            0 000 00 00: Depth
RILD.Ohm-m                    : DIL Deep Resistivity
RILM.Ohm-m                    : DIL Medium Resistivity
GR.GAPI                       : Gamma Ray
~Parameter Information Block
~A  Depth       RILD        RILM         GR     
# ...
  1383.2500     10.1590      8.7170    138.9264
  1383.5000      9.7800      8.7334    150.9447
  1383.7500     10.1160      8.7791    149.4120
  1384.0000     10.2093      9.1664    128.9666
  1384.2500     10.4345      9.5866    126.6883
  1384.5000     10.5846      9.9751    116.9012
  1384.7500     11.0636     10.9771    106.8431
  1385.0000     10.9918     12.1771     90.1155
  1385.2500     10.8902     13.3574     85.2483
  1385.5000     11.0865     14.0597     83.7356
  1385.7500     11.1713     14.5538     85.2568
  1386.0000     11.0462     15.7217     88.9618
  1386.2500     10.6390     16.0427     87.7615
  1386.5000     10.7355     17.0380     94.4034
  1386.7500     10.6045     14.3682    101.2488
  1387.0000     10.6574     14.3463    126.3641
  1387.2500     10.5862     11.7567    131.2446
  1387.5000     10.2021     11.3814    139.3187
  1387.7500      9.9467      9.9312    143.1197
  1388.0000      9.4113      9.2158    139.4722
  1388.2500      9.0986      8.7421    149.9182
  1388.5000      8.3907      8.2413    147.2804
  1388.7500      8.0340      8.0597    143.8114
  1389.0000      7.4639      7.7609    142.5789
  1389.2500      7.4662      7.4424    144.4699
  1389.5000      7.2846      7.1367    140.6504
  1389.7500      6.8373      6.9067    147.3422
  1390.0000      6.8681      6.7687    155.1740
  1390.2500      6.9320      6.5236    159.0125
  1390.5000      6.7013      6.5368    152.6004
  1390.7500      6.5862      6.5237    148.8450
  1391.0000      6.5683      6.4871    146.6298
  1391.2500      6.4315      6.5658    145.1643
  1391.5000      6.4160      6.5842    150.6972
  1391.7500      6.4756      6.5481    146.5151
  1392.0000      6.4002      6.5854    151.4858
  1392.2500      6.4736      6.5468    150.3631
  1392.5000      6.3379      6.5606    148.3203
  1392.7500      6.4393      6.5847    144.5839
  1393.0000      7.4336      6.5240    147.8749
  1393.2500      7.4150      7.0964    153.7095
  1393.5000      6.5021      6.6034    141.8387
  1393.7500      6.3058      6.5261    135.5622
  1394.0000      6.3112      6.5957    126.6118
  1394.2500      6.2082      6.5382    128.8250
  1394.5000      6.2456      6.5452    136.8190
  1394.7500      6.2372      6.5068    135.4403
  1395.0000      6.3105      6.4860    151.1116
  1395.2500      6.4423      6.4225    148.5322
  1395.5000      6.5062      6.3314    140.4736
  1395.7500      6.4445      6.3768    141.1842
  1396.0000      6.7446      6.5023    149.1956
  1396.2500      7.2048      6.5506    143.4481
  1396.5000      8.0935      6.9403    134.0437
  1396.7500      7.4019      9.2125    139.0880
  1397.0000      7.4430     10.1473    120.1578
  1397.2500      7.6326      8.4386    113.5780
  1397.5000      7.7105      8.4834    112.6242
  1397.7500      8.1094      8.9128    108.0794
  1398.0000      8.3289      9.4508    105.5988
  1398.2500      8.7121      9.7236    109.9813
  1398.5000      8.9801     10.0808    107.5453
  1398.7500      9.1209     10.7024    102.5828
  1399.0000      9.3906     11.3690    107.3209
  1399.2500      9.8958     12.3709    102.4833
  1399.5000      9.8497     12.4887    110.8395
  1399.7500      9.8786     12.3437    116.4500
  1400.0000      9.7394     12.5336    117.5247
  1400.2500      9.5879     14.1044    122.9451
  1400.5000      9.5260     11.6745    134.0105
  1400.7500      9.3521     11.2081    135.3907
  1401.0000      9.3731     10.5919    135.4582
  1401.2500     10.1251     10.3013    143.8134
  1401.5000      9.7726      9.7791    147.2415
  1401.7500      9.0036      9.6128    147.1598
  1402.0000      8.9525      9.3745    143.2313
  1402.2500      8.8849      9.1843    146.9574
  1402.5000      8.8934      9.1513    146.5943
  1402.7500      8.7078      9.0744    147.3536
  1403.0000      8.5574      9.0048    144.0966
  1403.2500      8.2554      9.2159    139.0509
  1403.5000      8.1093      9.3162    129.9265
  1403.7500      7.9815      9.3151    133.5406
  1404.0000      7.7398      9.1598    133.2313
  1404.2500      7.7555      8.8969    129.3386
  1404.5000      7.6382      8.4768    134.8072
  1404.7500      7.5031      8.3587    144.5994
  1405.0000      7.4598      8.9219    152.1128
  1405.2500      7.5461      8.9738    146.5936
  1405.5000      7.4880      7.7191    155.0614
  1405.7500      7.5229      7.4330    152.4404
  1406.0000      7.5476      7.3782    148.3767
  1406.2500      7.4475      7.4032    144.5039
  1406.5000      7.4626      7.4604    153.2400
  1406.7500      7.4471      7.2105    154.6175
  1407.0000      7.4117      7.2254    146.3698
  1407.2500      7.3788      7.2405    140.8645
  1407.5000      7.4326      7.3984    138.9321
  1407.7500      7.3747      7.6489    141.4663
  1408.0000      7.4159      7.7772    132.5039
  1408.2500      7.3537      7.9240    134.3565
  1408.5000      7.2777      8.0513    131.6537
  1408.7500      7.2153      8.1184    136.0705
  1409.0000      7.2886      7.8864    146.8186
  1409.2500      7.3300      7.9008    147.4921
  1409.5000      7.4498      7.7268    141.5138
  1409.7500      7.5607      7.6887    141.3089
  1410.0000      7.5685      7.6486    145.5507
  1410.2500      7.4208      7.5453    146.7027
  1410.5000      7.5655      7.4852    159.1924
  1410.7500      7.4475      7.4169    163.4635
  1411.0000      7.4908      7.5323    161.7038
  1411.2500      7.4394      7.6261    157.0488
  1411.5000      7.2011      7.7679    147.2595
  1411.7500      6.9606      7.8370    145.2211
  1412.0000      7.1090      7.8652    145.7385
  1412.2500      7.0465      7.8577    139.8220
  1412.5000      6.8989      7.7580    139.1513
  1412.7500      6.7707      7.5588    145.1556
  1413.0000      6.6846      7.3934    150.1773
  1413.2500      6.7805      7.1586    151.1334
  1413.5000      6.8510      6.9774    148.0367
  1413.7500      6.7887      6.8126    150.2365
  1414.0000      6.8877      6.7240    154.2024
  1414.2500      6.9202      6.7463    155.5304
  1414.5000      6.9641      6.8117    151.1369
  1414.7500      6.9598      6.7695    154.6531
  1415.0000      7.0161      6.7529    147.2135
  1415.2500      7.2668      7.0531    151.6927
  1415.5000      7.3848      7.3719    150.6419
  1415.7500      7.3692      7.4490    136.9510
  1416.0000      7.6519      7.6633    129.9771
  1416.2500      7.8225      8.0302    129.1576
  1416.5000      8.2503      8.5631    134.8076
  1416.7500      8.5073      9.2061    129.2863
  1417.0000      8.9432      9.6814    111.2108
  1417.2500      9.2499     10.0311    105.9885
  1417.5000      9.9072     10.9726    116.2743
  1417.7500     10.9516     11.3227    109.8481
  1418.0000     10.8926     11.9983    110.6637
  1418.2500     11.2066     12.7539    111.3424
  1418.5000     12.1471     13.8348    100.4302
  1418.7500     12.6764     15.2637     91.7363
  1419.0000     13.5561     17.3613     82.7642
  1419.2500     14.6250     17.4222     76.9276
  1419.5000     14.8797     19.1833     91.9779
  1419.7500     15.2867     19.2053     99.3487
  1420.0000     15.3641     19.8446     88.0214
  1420.2500     16.8081     20.0645     92.6984
  1420.5000     17.1008     20.6948    102.7627
  1420.7500     18.2113     21.6150    105.1350
  1421.0000     18.9182     22.3584     97.4777
  1421.2500     19.3120     22.1773     92.4521
  1421.5000     19.5113     26.3345     90.8895
  1421.7500     18.8968     24.3277     93.4450
  1422.0000     18.8752     25.6313     96.7830
  1422.2500     18.3879     25.1442     91.7535
  1422.5000     19.6108     25.7741     81.4540
  1422.7500     19.3304     25.6758     82.7310
  1423.0000     19.4057     24.2845     89.5950
  1423.2500     18.7939     24.3124     91.2599
  1423.5000     18.6905     23.1037    108.3418
  1423.7500     18.9681     22.4977    114.3774
  1424.0000     18.4210     20.4218    111.7625
  1424.2500     18.3310     20.4558    118.5831
  1424.5000     17.3160     19.7430    122.0689
  1424.7500     16.9743     19.8937    114.9216
