~Version Information
 VERS.                                  2.0 : CWLS LAS VERSION
 WRAP.                                   NO : WRAPING MODE
 SWARE .                 MController 2.5.0J : SOFTWARE VERSION
~Well Information
 WELL.                       Rancher 12-35 Tr : WELL
 COMP.    Pioneer Natural Resources USA Inc : COMPANY
 FLD.                      Purgatoire River : FIELD
 LOC.                2242' FNL & 308' FWL SWNW 35 32S 67W : LOCATION
 DATE.                            7/02/2005 : DATE(S) LOGGED
 SRVC.       BLANCO Geological Services LLC : SERVICE COMPANY
 STAT.                                   CO : STATE
 CNTY.                           Las Animas : COUNTY
 CTRY.                                  USA : COUNTRY
 API.                       05-071-08430-00 : API NUMBER
 STRT.FT                             369.00 : START DEPTH
 STOP.FT                            1735.00 : STOP DEPTH
 STEP.FT                               1.00 : DEPTH INCREMENT
 NULL.                                -9999 : NULL VALUE
~Curve information
 DEPTH.FT                                   :
 ROP.MIN/FT                                 :
 GAS.UNITS                                  :
~ASCII Log data
# ...
       769.0         0.17        572.2 
       770.0         0.20        559.8 
       771.0         0.17        523.4 
       772.0         0.13        465.1 
       773.0         0.17        440.0 
       774.0         0.17        131.9 
       775.0         0.13        165.6 
       776.0         0.80       1694.8 
       777.0         0.10       1676.3 
       778.0         0.23       1641.9 
       779.0         0.30       1496.7 
       780.0         0.37       1260.2 
       781.0         0.30        957.3 
       782.0         0.32        782.8 
       783.0         0.20        696.6 
       784.0         0.20        665.6 
       785.0         0.20        632.9 
       786.0         0.20        617.1 
       787.0         0.20        605.6 
       788.0         0.17        596.5 
       789.0         0.20        589.4 
       790.0         0.20        573.3 
       791.0         0.20        568.2 
       792.0         0.20        560.1 
       793.0         0.17        555.4 
       794.0         0.20        551.7 
       795.0         0.17        550.3 
       796.0         0.17        550.3 
       797.0         0.17        547.3 
       798.0         0.17        546.0 
       799.0         0.18        540.9 
       800.0         0.20        506.9 
       801.0         0.20        471.8 
       802.0         0.17        492.1 
       803.0         0.40        508.2 
       804.0         0.20        531.1 
       805.0         0.13        657.5 
       806.0         1.30       1788.5 
       807.0         0.33       1333.7 
       808.0         0.27       1080.6 
       809.0         0.32        893.7 
       810.0         0.23        763.6 
       811.0         0.23        684.4 
       812.0         0.23        644.3 
       813.0         0.17        614.4 
       814.0         0.23        593.5 
       815.0         0.20        589.1 
       816.0         0.20        564.2 
       817.0         0.20        535.9 
       818.0         0.17        525.1 
       819.0         0.10        521.4 
       820.0         0.17        527.4 
       821.0         0.17        529.5 
       822.0         0.10        531.1 
       823.0         0.17        531.8 
       824.0         0.17        531.1 
       825.0         0.17        531.5 
       826.0         0.25        533.5 
       827.0         0.23        531.8 
       828.0         0.20        527.8 
       829.0         0.17        522.7 
       830.0         0.17        511.9 
       831.0         0.17        508.6 
       832.0         0.20        461.4 
       833.0         0.20        441.9 
       834.0         0.27        440.0 
       835.0         0.27        145.0 
       836.0         1.23       1797.6 
       837.0         0.55       1483.9 
       838.0         0.33       1056.1 
       839.0         0.27        844.5 
       840.0         0.23        740.0 
       841.0         0.30        678.0 
       842.0         0.20        624.1 
       843.0         0.17        586.7 
       844.0         0.17        555.1 
       845.0         0.23        566.5 
       846.0         0.23        580.7 
       847.0         0.23        590.1 
       848.0         0.17        589.1 
       849.0         0.20        588.1 
       850.0         0.22        580.3 
       851.0         0.20        570.9 
       852.0         0.20        561.1 
       853.0         0.20        549.3 
       854.0         0.20        542.6 
       855.0         0.23        537.2 
       856.0         0.17        537.2 
       857.0         0.20        540.6 
       858.0         0.20        542.9 
       859.0         0.17        546.0 
       860.0         0.20        543.6 
       861.0         0.20        534.5 
       862.0         0.17        474.5 
       863.0         0.17        440.0 
       864.0         0.20        440.0 
       865.0         0.20        141.6 
       866.0         1.28       2005.1 
       867.0         0.63       1607.6 
       868.0         0.37        983.3 
       869.0         0.23        794.3 
       870.0         0.33        713.7 
       871.0         0.20        647.0 
       872.0         0.17        617.1 
       873.0         0.23        566.5 
       874.0         0.23        525.1 
       875.0         0.18        536.9 
       876.0         0.13        556.1 
       877.0         0.17        559.1 
       878.0         0.20        562.1 
       879.0         0.23        556.7 
       880.0         0.23        550.3 
       881.0         0.23        540.6 
       882.0         0.20        490.7 
       883.0         0.20        491.7 
       884.0         0.17        527.8 
       885.0         0.23        540.6 
       886.0         0.13        543.3 
       887.0         0.17        543.9 
       888.0         0.17        538.2 
       889.0         0.20        536.5 
       890.0         0.23        538.2 
       891.0         0.23        532.5 
       892.0         0.22        492.1 
       893.0         0.23        440.0 
       894.0         0.20        440.0 
       895.0         0.20        191.7 
       896.0         1.00       1630.5 
       897.0         0.37       1483.3 
       898.0         0.30       1184.8 
       899.0         0.23        961.0 
       900.0         0.23        818.9 
       901.0         0.27        720.5 
       902.0         0.25        584.4 
       903.0         0.13        529.5 
       904.0         0.17        534.2 
       905.0         0.13        541.6 
       906.0         0.10        546.6 
       907.0         0.10        550.3 
       908.0         0.17        552.4 
       909.0         0.17        552.0 
       910.0         0.10        548.7 
       911.0         0.17        546.6 
       912.0         0.10        532.1 
       913.0         0.23        526.8 
       914.0         0.30        517.7 
       915.0         0.20        513.3 
       916.0         0.20        507.9 
       917.0         0.23        507.2 
       918.0         0.20        501.2 
       919.0         0.23        499.1 
       920.0         0.20        494.1 
       921.0         0.22        472.9 
       922.0         0.20        440.0 
       923.0         0.23        440.0 
       924.0         0.40        125.3 
       925.0         0.50       1418.6 
       926.0         1.27       1744.4 
       927.0         0.30       1028.4 
       928.0         0.20        832.0 
       929.0         0.28        771.0 
       930.0         0.20        656.5 
       931.0         0.23        609.0 
       932.0         0.20        512.6 
       933.0         0.17        504.9 
       934.0         0.23        512.3 
       935.0         0.20        511.9 
       936.0         0.20        458.0 
       937.0         0.20        440.0 
       938.0         0.23         95.7 
       939.0         0.20         61.8 
       940.0         0.20         39.4 
       941.0         0.23         29.5 
       942.0         0.20         22.1 
       943.0         0.20         16.5 
       944.0         0.20         13.4 
       945.0         0.18         11.5 
       946.0         0.23          9.0 
       947.0         0.20          4.8 
       948.0         0.23          3.4 
       949.0         0.20          3.8 
       950.0         0.20          7.7 
       951.0         0.20          9.3 
       952.0         0.17          7.7 
       953.0         0.10         13.3 
       954.0         0.07         30.7 
       955.0         0.17         92.7 
       956.0         0.87       1522.3 
       957.0         0.20       1510.2 
       958.0         0.27       1440.1 
       959.0         0.42       1354.2 
       960.0         0.27        975.2 
       961.0         0.23        819.5 
       962.0         0.30        708.4 
       963.0         0.27        652.1 
       964.0         0.20        602.6 
       965.0         0.30        556.4 
       966.0         0.30        513.6 
       967.0         0.23        512.6 
       968.0         0.20        504.9 
