~Version Information
VERS.                      2.0: CWLS Log ASCII Standard - VERSION 2.0
WRAP.                       NO: One line per depth step
~Well Information Block
STRT.FT               510.0000: 
STOP.FT              1845.5000: 
STEP.FT                 0.1000: 
NULL.                -999.2500: 
COMP.          Pioneer Natural Resources: COMPANY
WELL.           Stampede 42-18: WELL
FLD.           Purgatoire River: FIELD
LOC.           2479' FNL & 160' FEL--: LOCATION
CNTY.               Las Animas: COUNTY
SRVC.          Superior Well Services: SERVICE COMPANY
DATE.          Sat Jun 09 02:39:23 2007: LOG DATE
UWI.           05 071 08237 00: UNIQUE WELL ID
STAT.                 Colorado: STATE
~Curve Information Block
DEPT.FT            0 000 00 00: Depth
DCAL.in                       : CDL Caliper
RHOB.g/cc                     : CDL Bulk Density
RHOC.g/cc                     : CDL Density Correction
DPOR.pu                       : CDL Density Porosity
GR.GAPI                       : Gamma Ray
~Parameter Information Block
~A  Depth       DCAL        RHOB        RHOC        DPOR         GR     
   510.0000      8.0898      2.2003     -0.3516     27.2568     63.5961
   510.1000      8.0898      2.1316     -0.4430     31.4204     67.8098
   510.2000      8.0898      2.1063     -0.5898     32.9503     72.9814
   510.3000      8.0899      2.1350     -0.4100     31.2098     75.3600
   510.4000      8.0899      2.1603     -0.3948     29.6804     74.5765
   510.5000      8.0905      2.1519     -0.4574     30.1906     72.7972
   510.6000      8.0905      2.1470     -0.5003     30.4862     72.6070
   510.7000      8.0905      2.1757     -0.4270     28.7439     72.7850
   510.8000      8.0907      2.2326     -0.4599     25.2997     71.8548
   510.9000      8.0907      2.3012     -0.3232     21.1407     72.6011
   511.0000      8.0901      2.3492     -0.2456     18.2324     77.5487
   511.1000      8.0901      2.3480     -0.2977     18.3017     82.0361
   511.2000      8.0901      2.3093     -0.3688     20.6484     82.8207
   511.3000      8.0898      2.2583     -0.3315     23.7397     83.2198
   511.4000      8.0898      2.2032     -0.3848     27.0791     81.8415
   511.5000      8.0900      2.1434     -0.3957     30.7045     76.9131
   511.6000      8.0900      2.0879     -0.4778     34.0677     73.6647
   511.7000      8.0900      2.0657     -0.5761     35.4151     73.3913
   511.8000      8.0906      2.0931     -0.5188     33.7545     73.0938
   511.9000      8.0906      2.1408     -0.4345     30.8590     73.4410
   512.0000      8.0909      2.1605     -0.3492     29.6681     74.5348
   512.1000      8.0909      2.1447     -0.4687     30.6229     75.5749
   512.2000      8.0909      2.1351     -0.4839     31.2088     76.8747
   512.3000      8.0907      2.1512     -0.3987     30.2322     76.6930
   512.4000      8.0907      2.1671     -0.3894     29.2666     75.7723
   512.5000      8.0903      2.1659     -0.4379     29.3384     76.7089
   512.6000      8.0903      2.1574     -0.4360     29.8552     77.1507
   512.7000      8.0903      2.1527     -0.4532     30.1368     74.6301
   512.8000      8.0898      2.1682     -0.4807     29.2016     72.2751
   512.9000      8.0898      2.2133     -0.3840     26.4648     73.2317
   513.0000      8.0891      2.2578     -0.3141     23.7677     75.9023
   513.1000      8.0891      2.2716     -0.4103     22.9317     78.2349
   513.2000      8.0891      2.2568     -0.3442     23.8319     79.4948
   513.3000      8.0888      2.2253     -0.4173     25.7388     78.6915
   513.4000      8.0888      2.2051     -0.4536     26.9620     75.6544
   513.5000      8.0896      2.2136     -0.4159     26.4497     74.8880
   513.6000      8.0896      2.2283     -0.3687     25.5567     81.7637
   513.7000      8.0896      2.2237     -0.4116     25.8340     91.5360
   513.8000      8.0902      2.2020     -0.4303     27.1504     96.3942
   513.9000      8.0902      2.1780     -0.4992     28.6086     93.8399
   514.0000      8.0903      2.1596     -0.4228     29.7222     85.6158
   514.1000      8.0903      2.1452     -0.4730     30.5944     78.3336
   514.2000      8.0903      2.1428     -0.4946     30.7378     76.5600
   514.3000      8.0902      2.1623     -0.4716     29.5551     78.4602
   514.4000      8.0902      2.1857     -0.3976     28.1407     80.1073
   514.5000      8.0902      2.1890     -0.3897     27.9371     80.2010
   514.6000      8.0902      2.1833     -0.4673     28.2836     79.4099
   514.7000      8.0902      2.1905     -0.3727     27.8459     79.5712
   514.8000      8.0900      2.2083     -0.4505     26.7723     82.2979
   514.9000      8.0900      2.2272     -0.4133     25.6267     84.8986
   515.0000      8.0900      2.2427     -0.4197     24.6863     84.6882
   515.1000      8.0900      2.2525     -0.4294     24.0907     82.5323
   515.2000      8.0900      2.2570     -0.4067     23.8169     78.5269
   515.3000      8.0906      2.2559     -0.4335     23.8851     74.4344
   515.4000      8.0906      2.2441     -0.3872     24.5975     72.8825
   515.5000      8.0909      2.2197     -0.4147     26.0806     72.0020
   515.6000      8.0909      2.1967     -0.4638     27.4704     70.5273
   515.7000      8.0909      2.1876     -0.4130     28.0235     70.2607
   515.8000      8.0905      2.1782     -0.4103     28.5940     71.5747
   515.9000      8.0905      2.1497     -0.4852     30.3205     74.1577
   516.0000      8.0900      2.1095     -0.5324     32.7557     76.3251
   516.1000      8.0900      2.0725     -0.5112     35.0016     75.7267
   516.2000      8.0900      2.0364     -0.4980     37.1887     71.9742
   516.3000      8.0898      1.9993     -0.5351     39.4381     66.1295
   516.4000      8.0898      1.9673     -0.5150     41.3786     61.4661
   516.5000      8.0904      1.9459     -0.5590     42.6747     61.8574
   516.6000      8.0904      1.9371     -0.5483     43.2057     65.3886
   516.7000      8.0904      1.9444     -0.5782     42.7653     66.8963
   516.8000      8.0909      1.9802     -0.5576     40.5948     66.2204
   516.9000      8.0909      2.0438     -0.5470     36.7385     65.7954
   517.0000      8.0906      2.1132     -0.5974     32.5312     66.6368
   517.1000      8.0906      2.1664     -0.4765     29.3069     68.1170
   517.2000      8.0906      2.1956     -0.5152     27.5406     68.1846
   517.3000      8.0901      2.2176     -0.5924     26.2040     64.9428
   517.4000      8.0901      2.2483     -0.4525     24.3477     58.4856
   517.5000      8.0902      2.2790     -0.4499     22.4855     51.0743
   517.6000      8.0902      2.3082     -0.4439     20.7133     47.5249
   517.7000      8.0902      2.3386     -0.3523     18.8729     50.5508
   517.8000      8.0898      2.3554     -0.3846     17.8559     55.8555
   517.9000      8.0898      2.3533     -0.4441     17.9797     58.9754
   518.0000      8.0896      2.3493     -0.4046     18.2219     59.1555
   518.1000      8.0896      2.3484     -0.4133     18.2793     57.4471
   518.2000      8.0896      2.3522     -0.4723     18.0497     56.2370
   518.3000      8.0896      2.3684     -0.4049     17.0640     57.2714
   518.4000      8.0896      2.3803     -0.3967     16.3427     60.2651
   518.5000      8.0893      2.3708     -0.4176     16.9217     64.6120
   518.6000      8.0893      2.3480     -0.3851     18.3027     68.8922
   518.7000      8.0893      2.3225     -0.4147     19.8515     72.1412
   518.8000      8.0890      2.3032     -0.4199     21.0195     73.1958
   518.9000      8.0890      2.2996     -0.4212     21.2384     72.1199
   519.0000      8.0893      2.3088     -0.4290     20.6803     72.4569
   519.1000      8.0893      2.3164     -0.4122     20.2165     74.2679
   519.2000      8.0893      2.3054     -0.3590     20.8862     74.0170
   519.3000      8.0899      2.2848     -0.4340     22.1358     73.2347
   519.4000      8.0899      2.2822     -0.4086     22.2903     75.9958
   519.5000      8.0899      2.2895     -0.4003     21.8486     80.7821
   519.6000      8.0899      2.2873     -0.4584     21.9793     83.8313
   519.7000      8.0899      2.2752     -0.3920     22.7139     85.3882
   519.8000      8.0893      2.2496     -0.3846     24.2674     87.0996
   519.9000      8.0893      2.2223     -0.4468     25.9234     89.8768
   520.0000      8.0892      2.2244     -0.5090     25.7952     93.4544
   520.1000      8.0892      2.2592     -0.4474     23.6834     94.8069
   520.2000      8.0892      2.2930     -0.3298     21.6370     92.1749
   520.3000      8.0894      2.3079     -0.3965     20.7304     89.1970
   520.4000      8.0894      2.3191     -0.3781     20.0526     89.2740
   520.5000      8.0891      2.3281     -0.3481     19.5097     88.9624
   520.6000      8.0891      2.3433     -0.4238     18.5890     85.5861
   520.7000      8.0891      2.3881     -0.3413     15.8745     83.6407
   520.8000      8.0888      2.4378     -0.2705     12.8629     85.0483
   520.9000      8.0888      2.4501     -0.2830     12.1131     87.1945
   521.0000      8.0892      2.4262     -0.3553     13.5617     87.0745
   521.1000      8.0892      2.3902     -0.4008     15.7479     83.5627
