~Version Information
VERS.                      2.0: CWLS Log ASCII Standard - VERSION 2.0
WRAP.                       NO: One line per depth step
~Well Information Block
STRT.FT                -7.5000: 
STOP.FT               978.5000: 
STEP.FT                 0.2500: 
NULL.                -999.2500: 
COMP.          Pioneer Natural Resources: COMPANY
WELL.          Piggyback 33-25: WELL
FLD.           Purgatoire River: FIELD
LOC.           1600' FSL & 1800' FEL: LOCATION
PROV.                 Colorado: PROVINCE
CNTY.               Las Animas: COUNTRY
SRVC.                Patterson: SERVICE COMPANY
DATE.          Mon May 09 09:22:28 2005: LOG DATE
UWI.           05 071 08233 00: UNIQUE WELL ID
~Curve Information Block
DEPT.FT            0 000 00 00: Depth
CCL.                          : Casing Collar Locator
TT3.usec                      : CBL 3' Travel Time
AMP3.mV                       : CBL 3' Amplitude
GR.GAPI                       : Gamma Ray
~Parameter Information Block
~A  Depth       CCL         TT3         AMP3         GR     
# ...
   796.5000      0.0000    710.1667      6.1703     52.9625
   796.7500      0.0000    709.9905      6.2033     53.1770
   797.0000      0.0000    703.0708      6.2065     53.8713
   797.2500      0.0000    694.8461      6.1833     55.3574
   797.5000      0.0000    689.5875      6.1313     57.9863
   797.7500      0.0000    688.1907      6.0484     61.7948
   798.0000      0.0000    689.3744      5.9624     66.1575
   798.2500      0.0000    692.5116      5.9453     69.8789
   798.5000      0.0000    699.0213      6.0583     71.8026
   798.7500      0.0000    710.4380      6.2548     71.5755
   799.0000      0.0000    725.4172      6.3807     69.7723
   799.2500      0.0000    740.1349      6.3283     66.9909
   799.5000      0.0000    751.7611      6.1579     62.9470
   799.7500      0.0000    760.0503      6.0164     56.8407
   800.0000     -2.0000    765.5182      5.9741     48.6963
   800.2500      0.0000    767.7643      5.9854     40.2496
   800.5000      2.0000    765.8944      5.9741     34.4305
   800.7500      0.0000    759.2923      5.9099     33.7220
   801.0000      0.0000    748.0837      5.8149     38.7307
   801.2500      0.0000    734.1830      5.7264     48.1235
   801.5000      0.0000    721.5715      5.6613     59.7214
   801.7500      0.0000    713.8724      5.6206     71.6045
   802.0000      0.0000    711.3765      5.6296     82.5377
   802.2500      0.0000    711.0517      5.7370     91.8066
   802.5000      0.0000    709.0198      5.9480     98.8916
   802.7500      0.0000    702.6096      6.1915    103.4282
   803.0000      0.0000    691.2836      6.3785    105.5726
   803.2500      0.0000    677.0311      6.4710    106.1115
   803.5000      0.0000    663.5392      6.4860    105.7514
   803.7500      0.0000    653.9364      6.4599    104.4383
   804.0000      0.0000    649.0352      6.4274    101.8414
   804.2500      0.0000    647.7759      6.4178     98.2833
   804.5000      0.0000    648.9061      6.4478     94.6299
   804.7500      0.0000    651.8263      6.5128     91.3018
   805.0000      0.0000    656.0674      6.5954     87.8306
   805.2500      0.0000    660.6323      6.6862     83.5464
   805.5000      0.0000    664.3488      6.7896     78.5936
   805.7500      0.0000    666.6436      6.9063     74.1912
   806.0000      0.0000    667.7057      7.0194     71.9266
   806.2500      0.0000    668.0258      7.1086     72.7746
   806.5000      0.0000    668.0004      7.1782     76.4991
   806.7500      0.0000    667.8491      7.2700     81.4895
   807.0000      0.0000    667.6722      7.4493     85.0636
   807.2500      0.0000    667.5087      7.7716     84.5578
   807.5000      0.0000    667.3878      8.2466     78.9701
   807.7500      0.0000    667.3484      8.8225     69.9724
   808.0000      0.0000    667.4152      9.4122     61.1701
   808.2500      0.0000    667.5659      9.9430     55.8647
   808.5000      0.0000    667.7510     10.3851     55.1397
   808.7500      0.0000    667.9370     10.7460     57.8961
   809.0000      0.0000    668.1011     11.0517     62.3064
   809.2500      0.0000    668.1991     11.3289     66.8263
   809.5000      0.0000    668.1843     11.5825     70.2508
   809.7500      0.0000    668.0660     11.7814     71.8032
   810.0000      0.0000    667.9110     11.8681     71.5334
   810.2500      0.0000    667.7766     11.7830     70.2770
   810.5000      0.0000    667.6661     11.4864     69.0114
   810.7500      0.0000    667.5448     10.9803     68.2842
   811.0000      0.0000    667.3676     10.3251     68.0706
   811.2500      0.0000    667.0999      9.6264     67.9154
   811.5000      0.0000    666.7477      8.9945     67.2592
   811.7500      0.0000    666.3743      8.5057     65.8989
   812.0000      0.0000    666.0688      8.1850     64.1520
   812.2500      0.0000    665.8824      8.0035     62.5279
   812.5000      0.0000    665.7589      7.8942     61.4815
   812.7500      0.0000    665.4815      7.7874     61.4644
   813.0000      0.0000    664.6562      7.6467     62.7114
   813.2500      0.0000    662.8682      7.4818     64.7980
   813.5000      0.0000    660.1559      7.3279     66.8626
   813.7500      0.0000    657.4558      7.2097     68.5362
   814.0000      0.0000    656.1825      7.1252     70.3691
   814.2500      0.0000    656.8692      7.0613     73.0725
   814.5000      0.0000    658.2401      7.0146     76.4528
   814.7500      0.0000    657.8774      6.9882     79.2604
   815.0000      0.0000    653.9167      6.9783     80.1798
   815.2500      0.0000    646.4463      6.9744     79.0865
   815.5000      0.0000    637.7965      6.9665     77.3692
   815.7500      0.0000    631.4747      6.9482     77.0162
   816.0000      0.0000    630.2740      6.9149     79.3816
   816.2500      0.0000    634.7397      6.8703     84.6947
   816.5000      0.0000    642.8970      6.8328     92.3337
   816.7500      0.0000    651.3072      6.8308    101.0203
   817.0000      0.0000    656.8849      6.8821    108.6605
   817.2500      0.0000    658.4965      6.9778    112.6278
   817.5000      0.0000    657.2699      7.0836    111.0917
   817.7500      0.0000    655.3126      7.1617    104.5385
   818.0000      0.0000    653.9169      7.1956     95.8219
   818.2500      0.0000    653.0915      7.2003     88.1980
   818.5000      0.0000    652.7067      7.2071     83.0250
   818.7500      0.0000    653.3549      7.2365     79.3471
   819.0000      0.0000    655.6509      7.2850     75.4366
   819.2500      0.0000    659.1915      7.3315     70.3178
   819.5000      0.0000    662.7384      7.3502     64.1090
   819.7500      0.0000    665.2778      7.3241     57.7464
   820.0000      0.0000    666.6226      7.2559     52.5403
   820.2500      0.0000    667.1466      7.1653     49.3535
   820.5000      0.0000    667.2705      7.0758     47.9268
   820.7500      0.0000    667.2246      7.0047     47.3315
   821.0000      0.0000    667.0930      6.9650     47.1421
   821.2500      0.0000    666.9162      6.9670     47.8342
   821.5000      0.0000    666.7368      7.0118     49.9904
   821.7500      0.0000    666.5947      7.0855     53.3577
   822.0000      0.0000    666.5056      7.1632     56.7852
   822.2500      0.0000    666.4550      7.2198     58.9883
   822.5000      0.0000    666.4280      7.2397     59.3499
   822.7500      0.0000    666.4539      7.2231     58.1065
   823.0000      0.0000    666.5988      7.1855     55.9828
   823.2500      0.0000    666.8841      7.1531     53.7574
   823.5000      0.0000    667.1765      7.1529     52.0049
   823.7500      0.0000    667.1495      7.2004     50.9808
   824.0000      0.0000    666.3396      7.2899     50.6499
   824.2500      0.0000    664.3694      7.4011     50.8207
   824.5000      0.0000    661.4056      7.5182     51.2583
   824.7500      0.0000    658.5261      7.6413     51.8160
   825.0000      0.0000    657.2597      7.7772     52.6447
   825.2500      0.0000    658.3202      7.9211     54.1599
   825.5000      0.0000    660.9107      8.0487     56.5166
   825.7500      0.0000    663.5219      8.1270     59.2056
   826.0000      0.0000    665.2103      8.1336     61.5319
   826.2500      0.0000    665.9633      8.0706     63.5616
   826.5000      0.0000    666.1965      7.9658     66.2751
   826.7500      0.0000    666.2468      7.8567     70.4368
   827.0000      0.0000    666.2543      7.7676     75.3125
   827.2500      0.0000    666.2822      7.6988     78.7954
   827.5000      0.0000    666.4964      7.6379     78.9947
   827.7500      0.0000    667.3929      7.5799     75.6580
   828.0000      0.0000    670.0396      7.5325     70.0672
   828.2500      0.0000    675.9676      7.5053     63.8711
   828.5000      0.0000    686.0917      7.4978     58.2499
   828.7500      0.0000    699.0173      7.5014     53.9679
   829.0000      0.0000    710.9654      7.5070     51.5281
   829.2500      0.0000    718.8413      7.5108     50.6946
   829.5000      0.0000    723.4838      7.5104     50.1672
   829.7500      0.0000    728.4442      7.4973     48.5563
