~Version Information
VERS.                      2.0: CWLS Log ASCII Standard - VERSION 2.0
WRAP.                       NO: One line per depth step
~Well Information Block
STRT.FT                -9.2500: 
STOP.FT              2353.7500: 
STEP.FT                 0.2500: 
NULL.                -999.2500: 
COMP.          Petrogulf Corporation: COMPANY
WELL.             Kraft 17-23V: WELL
FLD.           Purgatorie River: FIELD
LOC.           1500' FSL & 1773' FWL--: LOCATION
PROV.                       CO: PROVINCE
CNTY.               Las Animas: COUNTRY
SRVC.          Patterson Wireline: SERVICE COMPANY
DATE.          Wed Dec 10 19:09:59 2003: LOG DATE
UWI.                          : UNIQUE WELL ID
~Curve Information Block
DEPT.FT            0 000 00 00: Depth
CCL.                          : Casing Collar Locator
TT3.usec                      : CBL 3' Travel Time
AMP3.mV                       : CBL 3' Amplitude
GR.GAPI                       : Gamma Ray
~Parameter Information Block
~A  Depth       CCL         TT3         AMP3         GR     
# ...
  1866.7500      0.0000    689.2802      1.2324    103.0576
  1867.0000      0.0000    683.7690      1.2542     93.8496
  1867.2500      0.0000    678.2982      1.2552     84.6462
  1867.5000      0.0000    673.1628      1.2315     76.5467
  1867.7500      0.0000    668.7945      1.1920     70.1316
  1868.0000      0.0000    665.3686      1.1462     65.0154
  1868.2500      0.0000    662.8687      1.1017     60.4157
  1868.5000      0.0000    661.1775      1.0693     56.0381
  1868.7500      0.0000    660.0964      1.0601     52.2552
  1869.0000      0.0000    659.3870      1.0749     49.5580
  1869.2500      0.0000    658.7845      1.1029     48.0558
  1869.5000      0.0000    657.9684      1.1279     47.3716
  1869.7500      0.0000    656.5586      1.1362     46.8400
  1870.0000      0.0000    654.2429      1.1254     45.9526
  1870.2500      0.0000    651.1473      1.1100     44.7461
  1870.5000      0.0000    648.1630      1.1125     43.6643
  1870.7500      0.0000    646.5472      1.1418     43.0837
  1871.0000      0.0000    646.8158      1.1836     43.1526
  1871.2500      0.0000    648.3013      1.2133     44.0756
  1871.5000      0.0000    650.3600      1.2118     46.3837
  1871.7500      0.0000    653.8255      1.1751     50.8172
  1872.0000      0.0000    660.6210      1.1198     57.8110
  1872.2500      0.0000    671.7538      1.0758     66.9429
  1872.5000      0.0000    686.0390      1.0698     76.6877
  1872.7500      0.0000    700.7317      1.1087     84.6242
  1873.0000      0.0000    712.9495      1.1736     88.2658
  1873.2500      0.0000    720.6838      1.2303     86.3820
  1873.5000      0.0000    723.1279      1.2523     79.9332
  1873.7500      0.0000    720.3435      1.2332     71.6342
  1874.0000      0.0000    712.7897      1.1823     64.2701
  1874.2500      0.0000    701.4662      1.1188     59.1451
  1874.5000      0.0000    688.3759      1.0640     55.8963
  1874.7500      0.0000    676.1851      1.0323     53.5183
  1875.0000      0.0000    666.9489      1.0267     51.4169
  1875.2500      0.0000    661.1710      1.0353     49.7059
  1875.5000      0.0000    658.0696      1.0351     48.9799
  1875.7500      0.0000    656.4835      1.0145     49.9775
  1876.0000      0.0000    655.5389      0.9926     53.0626
  1876.2500      0.0000    654.7933      1.0033     57.5293
  1876.5000      0.0000    654.1137      1.0598     61.4370
  1876.7500      0.0000    653.5182      1.1395     62.6594
  1877.0000      0.0000    653.0594      1.2051     60.4912
  1877.2500      0.0000    652.7634      1.2375     56.2065
  1877.5000      0.0000    652.6133      1.2454     51.9359
  1877.7500      0.0000    652.5631      1.2449     48.9944
  1878.0000      0.0000    652.5548      1.2396     47.2439
  1878.2500      0.0000    652.5488      1.2268     45.9304
  1878.5000      0.0000    652.5611      1.2111     45.0035
  1878.7500      0.0000    652.6661      1.2031     45.5520
  1879.0000      0.0000    652.9534      1.2062     48.8727
  1879.2500      0.0000    653.4630      1.2104     55.1505
  1879.5000      0.0000    654.1290      1.2024     63.0469
  1879.7500      0.0000    654.7741      1.1790     70.5357
  1880.0000      0.0000    655.1865      1.1445     76.2626
  1880.2500      0.0000    655.2293      1.1045     80.1918
  1880.5000      0.0000    654.9014      1.0701     82.9325
  1880.7500      0.0000    654.3356      1.0618     84.7390
  1881.0000      0.0000    653.7446      1.0946     85.5836
  1881.2500      0.0000    653.3137      1.1663     85.8916
  1881.5000      0.0000    653.0901      1.2629     86.4178
  1881.7500      0.0000    652.9731      1.3653     87.3698
  1882.0000      0.0000    652.8301      1.4482     88.2945
  1882.2500      0.0000    652.6329      1.4909     88.9849
  1882.5000      0.0000    652.4863      1.4951     90.0776
  1882.7500      0.0000    652.5400      1.4834     92.6627
  1883.0000      0.0000    652.8978      1.4778     97.4009
  1883.2500      0.0000    653.6009      1.4798    103.7390
  1883.5000      0.0000    654.7359      1.4653    109.6712
  1883.7500      0.0000    656.7021      1.4008    112.7191
  1884.0000      0.0000    660.5971      1.2735    111.7884
  1884.2500      0.0000    668.2029      1.1056    108.0104
  1884.5000      0.0000    680.6685      0.9411    103.5869
  1884.7500      0.0000    696.1100      0.8280    100.2107
  1885.0000      0.0000    708.7909      0.8038     98.6234
  1885.2500      0.0000    712.4036      0.8714     98.7676
  1885.5000      0.0000    705.2504      0.9866     99.7621
  1885.7500      0.0000    691.8174      1.0825    100.3450
  1886.0000      0.0000    679.0668      1.1168    100.0467
  1886.2500      0.0000    671.6970      1.1018     99.7426
  1886.5000      0.0000    670.4962      1.0881    100.6488
  1886.7500      0.0000    673.4789      1.1138    103.0161
  1887.0000      0.0000    677.5565      1.1682    106.2539
  1887.2500      0.0000    679.9431      1.2120    110.0491
  1887.5000      0.0000    679.3967      1.2213    114.5699
  1887.7500      0.0000    676.6389      1.2014    119.5236
  1888.0000      0.0000    673.4617      1.1713    123.7402
  1888.2500      0.0000    671.4006      1.1512    125.9876
  1888.5000      0.0000    671.1686      1.1551    125.8560
  1888.7500      0.0000    672.9871      1.1819    123.8026
  1889.0000      0.0000    677.1694      1.2155    120.8528
  1889.2500      0.0000    684.1694      1.2377    118.5025
  1889.5000      0.0000    693.7985      1.2379    118.3120
  1889.7500      0.0000    704.2239      1.2173    120.9723
  1890.0000      0.0000    711.8998      1.1848    125.6920
  1890.2500      0.0000    713.0763      1.1470    130.5681
  1890.5000      0.0000    706.3280      1.1060    133.6218
  1890.7500      0.0000    694.2668      1.0729    133.8171
  1891.0000      0.0000    682.2739      1.0723    131.3876
  1891.2500      0.0000    674.6915      1.1249    127.0610
  1891.5000      0.0000    672.0737      1.2263    121.0817
  1891.7500      0.0000    672.0336      1.3416    113.6431
  1892.0000      0.0000    672.1511      1.4254    106.1077
  1892.2500      2.0000    671.7426      1.4520    100.6873
  1892.5000      0.0000    671.3735      1.4332     98.8420
  1892.7500      0.0000    671.5506      1.4069    100.6401
  1893.0000      0.0000    672.1935      1.4115    105.2465
  1893.2500      0.0000    673.0066      1.4612    111.2605
  1893.5000      0.0000    674.0487      1.5333    116.8599
  1893.7500      0.0000    675.9308      1.5759    120.2953
  1894.0000      0.0000    679.7168      1.5445    120.5764
  1894.2500      0.0000    686.5582      1.4392    118.0772
  1894.5000      0.0000    696.6931      1.3132    114.6367
  1894.7500      0.0000    708.0660      1.2429    112.4917
  1895.0000      0.0000    716.4673      1.2689    112.5658
  1895.2500      0.0000    718.4066      1.3613    113.8140
  1895.5000      0.0000    714.3366      1.4491    114.2981
  1895.7500      0.0000    708.4413      1.4796    112.9502
  1896.0000      0.0000    704.8430      1.4468    110.5265
  1896.2500      0.0000    704.1017      1.3867    109.0999
  1896.5000      0.0000    703.5513      1.3565    110.5164
  1896.7500      0.0000    700.8967      1.3972    114.8993
  1897.0000      0.0000    697.0206      1.4981    120.4023
  1897.2500      0.0000    695.3275      1.6107    124.6277
  1897.5000      0.0000    699.0275      1.6958    126.5872
  1897.7500      0.0000    708.8098      1.7400    127.2915
  1898.0000      0.0000    722.0181      1.7426    128.3585
  1898.2500      0.0000    734.0108      1.7191    130.1796
  1898.5000      0.0000    741.2108      1.7050    131.5941
  1898.7500      0.0000    742.7496      1.7192    131.1708
  1899.0000      0.0000    739.1273      1.7297    128.6101
  1899.2500      0.0000    730.9955      1.6824    124.9631
  1899.5000      0.0000    720.1101      1.5628    121.6203
  1899.7500      0.0000    709.3708      1.4091    119.1629
  1900.0000      0.0000    700.4792      1.2768    117.3144
