~Version Information
VERS.                      2.0: CWLS Log ASCII Standard - VERSION 2.0
WRAP.                       NO: One line per depth step
~Well Information Block
STRT.FT               948.2500: 
STOP.FT              2134.5000: 
STEP.FT                 0.2500: 
NULL.                -999.2500: 
COMP.          Petrogulf Corporation: COMPANY
WELL.             Valejo 8-12R: WELL
FLD.           Purgatorie River: FIELD
LOC.           1351'' FNL & 1562' FWL: LOCATION
CNTY.               Las Animas: COUNTY
SRVC.                         : SERVICE COMPANY
DATE.          Wed Apr 28 02:30:32 2004: LOG DATE
UWI.           05 071 08038 00: UNIQUE WELL ID
STAT.                 Colorado: STATE
~Curve Information Block
DEPT.FT            0 000 00 00: Depth
SP.mV                         : DIL Spontaneous Potential
RILD.Ohm-m                    : DIL Deep Resistivity
RILM.Ohm-m                    : DIL Medium Resistivity
RLL3.Ohm-m                    : DIL Shallow Resistivity
GR.GAPI                       : Gamma Ray
~Parameter Information Block
~A  Depth        SP         RILD        RILM        RLL3         GR     
# ...
  1284.2500     91.4089     16.5819     19.5781     30.6978    123.0435
  1284.5000     91.5330     15.8139     18.1378     23.5522    131.4798
  1284.7500     91.6122     15.0503     17.0049     20.3005    134.3319
  1285.0000     91.6658     14.3056     16.0523     18.9295    137.3612
  1285.2500     91.7186     13.5967     15.1932     18.1781    140.0349
  1285.5000     91.7876     12.9384     14.3888     17.6021    145.3760
  1285.7500     91.8775     12.3436     13.6344     17.2134    149.0290
  1286.0000     91.9822     11.8258     12.9386     17.0616    153.2951
  1286.2500     92.0871     11.3981     12.3102     17.0239    155.0736
  1286.5000     92.1721     11.0697     11.7550     16.8680    156.2659
  1286.7500     92.2203     10.8425     11.2789     16.4217    156.0750
  1287.0000     92.2307     10.7097     10.8895     15.6580    154.1533
  1287.2500     92.2276     10.6566     10.5984     14.6641    151.9061
  1287.5000     92.2557     10.6618     10.4203     13.5990    148.0569
  1287.7500     92.3582     10.6987     10.3710     12.7111    145.9775
  1288.0000     92.5514     10.7369     10.4621     12.3731    144.3078
  1288.2500     92.8134     10.7454     10.6925     13.0508    143.6720
  1288.5000     93.0939     10.6991     11.0385     15.1591    141.3182
  1288.7500     93.3398     10.5874     11.4445     18.8169    137.7957
  1289.0000     93.5193     10.4187     11.8219     23.5693    130.0557
  1289.2500     93.6333     10.2203     12.0672     28.2621    124.9320
  1289.5000     93.7091     10.0288     12.1006     31.3376    120.7735
  1289.7500     93.7823      9.8771     11.9064     31.5880    121.4842
  1290.0000     93.8800      9.7833     11.5398     28.9082    127.2758
  1290.2500     94.0123      9.7473     11.0930     24.4004    133.0523
  1290.5000     94.1723      9.7556     10.6514     19.6868    142.1295
  1290.7500     94.3425      9.7893     10.2690     15.9917    147.2065
  1291.0000     94.5060      9.8316      9.9689     13.6891    152.1575
  1291.2500     94.6525      9.8704      9.7536     12.4973    153.9116
  1291.5000     94.7729      9.8990      9.6163     11.9639    155.8986
  1291.7500     94.8520      9.9159      9.5481     11.8031    157.6648
  1292.0000     94.8766      9.9248      9.5426     11.9275    160.9336
  1292.2500     94.8585      9.9332      9.5986     12.3094    162.6429
  1292.5000     94.8384      9.9493      9.7206     12.9023    162.5841
  1292.7500     94.8563      9.9807      9.9163     13.7172    160.0645
  1293.0000     94.9148     10.0334     10.1915     14.9099    152.7888
  1293.2500     94.9738     10.1135     10.5450     16.6548    146.7443
  1293.5000     94.9828     10.2277     10.9654     18.8520    138.7730
  1293.7500     94.9179     10.3824     11.4309     21.0397    135.4552
  1294.0000     94.7937     10.5827     11.9130     22.7026    133.5514
  1294.2500     94.6452     10.8294     12.3804     23.6236    133.4425
  1294.5000     94.5007     11.1182     12.8042     23.8695    133.7158
  1294.7500     94.3670     11.4419     13.1627     23.5525    134.0794
  1295.0000     94.2360     11.7951     13.4456     22.7685    135.1183
  1295.2500     94.1017     12.1766     13.6576     21.7219    135.8638
  1295.5000     93.9727     12.5877     13.8185     20.7300    135.8501
  1295.7500     93.8691     13.0271     13.9627     20.0482    134.5411
  1296.0000     93.8135     13.4872     14.1341     19.7743    130.9640
  1296.2500     93.8208     13.9542     14.3799     20.0075    128.3523
  1296.5000     93.8845     14.4118     14.7421     21.1092    125.3989
  1296.7500     93.9708     14.8469     15.2535     23.7443    124.0169
  1297.0000     94.0334     15.2555     15.9354     28.5476    121.2507
  1297.2500     94.0435     15.6452     16.7972     35.6414    118.0104
  1297.5000     94.0057     16.0319     17.8330     44.4043    111.1441
  1297.7500     93.9521     16.4334     19.0134     53.6436    106.2218
  1298.0000     93.9225     16.8631     20.2770     61.9968    100.0561
  1298.2500     93.9447     17.3284     21.5369     68.3568     97.2045
  1298.5000     94.0226     17.8313     22.7207     72.2215     94.8651
  1298.7500     94.1357     18.3733     23.8176     73.8757     94.4232
  1299.0000     94.2504     18.9610     24.8826     74.2920     94.5165
  1299.2500     94.3375     19.6049     25.9754     74.6752     94.2376
  1299.5000     94.3848     20.3081     27.0860     75.7049     92.7386
  1299.7500     94.3961     21.0492     28.1104     76.9213     91.8656
  1300.0000     94.3779     21.7775     28.8956     76.9403     93.1267
  1300.2500     94.3263     22.4301     29.3244     74.5284     96.2205
  1300.5000     94.2259     22.9594     29.3870     69.5565    102.7188
  1300.7500     94.0576     23.3464     29.2009     63.0581    106.7314
  1301.0000     93.8081     23.5963     28.9698     56.8650    110.1476
  1301.2500     93.4747     23.7290     28.9051     53.5510    110.0543
  1301.5000     93.0703     23.7766     29.1472     56.1734    106.1293
  1301.7500     92.6235     23.7813     29.7257     66.7938    101.3217
  1302.0000     92.1678     23.7872     30.5728     84.3739     92.1526
  1302.2500     91.7323     23.8283     31.5814    104.4661     85.7269
  1302.5000     91.3427     23.9221     32.6648    122.1375     77.0114
  1302.7500     91.0234     24.0748     33.7619    135.8591     72.3148
  1303.0000     90.7869     24.2896     34.7885    147.9728     67.5325
  1303.2500     90.6254     24.5706     35.6088    160.5495     66.1101
  1303.5000     90.5230     24.9159     36.0944    171.0658     66.5651
  1303.7500     90.4765     25.3066     36.2264    173.3373     68.1804
  1304.0000     90.5006     25.7017     36.1251    163.3514     71.6534
  1304.2500     90.6131     26.0444     35.9722    143.6712     74.3448
  1304.5000     90.8134     26.2769     35.9064    121.7251     78.8212
  1304.7500     91.0750     26.3575     35.9581    104.4430     81.9429
  1305.0000     91.3533     26.2754     36.0319     94.9386     85.8113
  1305.2500     91.6026     26.0606     35.9339     93.1021     86.9316
  1305.5000     91.7920     25.7796     35.4591     97.2667     85.4926
  1305.7500     91.9174     25.5125     34.5144    104.2681     82.9376
  1306.0000     91.9984     25.3195     33.1931    108.9152     79.1657
  1306.2500     92.0629     25.2173     31.7303    105.7717     78.0683
  1306.5000     92.1315     25.1802     30.3927     93.3033     78.7411
  1306.7500     92.2196     25.1628     29.3944     76.4161     79.4655
  1307.0000     92.3475     25.1296     28.8721     64.2294     78.3321
  1307.2500     92.5414     25.0716     28.8915     64.7812     75.4059
  1307.5000     92.8195     25.0010     29.4500     80.4893     68.4496
  1307.7500     93.1704     24.9337     30.4610    106.2556     63.0878
  1308.0000     93.5439     24.8720     31.7345    130.9805     55.5819
  1308.2500     93.8687     24.8005     33.0049    143.3484     51.4709
  1308.5000     94.0945     24.6927     34.0424    139.9359     46.6725
  1308.7500     94.2265     24.5213     34.7802    129.3882     44.1180
  1309.0000     94.3213     24.2649     35.3092    127.5233     41.0608
  1309.2500     94.4439     23.9072     35.7153    145.7644     39.8052
  1309.5000     94.6234     23.4366     35.9065    181.6776     39.9726
  1309.7500     94.8397     22.8510     35.5878    219.1706     41.9352
  1310.0000     95.0449     22.1646     34.4425    238.4105     48.2090
  1310.2500     95.1918     21.4077     32.4054    228.0737     54.7495
  1310.5000     95.2491     20.6159     29.7639    191.1673     67.8293
  1310.7500     95.2078     19.8142     26.9745    141.3356     78.1160
  1311.0000     95.0862     19.0075     24.4128     93.9007     94.1150
  1311.2500     94.9259     18.1863     22.2640     58.5550    104.0251
  1311.5000     94.7743     17.3416     20.5480     37.4783    116.5022
  1311.7500     94.6612     16.4799     19.1856     27.7913    123.1779
  1312.0000     94.5902     15.6272     18.0575     25.0177    131.4358
