~Version Information
VERS.                      2.0: CWLS Log ASCII Standard - VERSION 2.0
WRAP.                       NO: One line per depth step
~Well Information Block
STRT.FT               965.2500: 
STOP.FT              2602.5000: 
STEP.FT                 0.2500: 
NULL.                -999.2500: 
COMP.          Petrogulf Corporation: COMPANY
WELL.             Valejo 8-12V: WELL
FLD.           Purgatorie River: FIELD
LOC.           1510' FNL & 1460' FWL: LOCATION
CNTY.               Las Animas: COUNTY
SRVC.                         : SERVICE COMPANY
DATE.          Fri Nov 14 05:32:33 2003: LOG DATE
UWI.                          : UNIQUE WELL ID
STAT.                 Colorado: STATE
~Curve Information Block
DEPT.FT            0 000 00 00: Depth
RILD.Ohm-m                    : DIL Deep Resistivity
RILM.Ohm-m                    : DIL Medium Resistivity
RLL3.Ohm-m                    : DIL Shallow Resistivity
SP.mV                         : DIL Spontaneous Potential
GR.GAPI                       : Gamma Ray
~Parameter Information Block
~A  Depth       RILD        RILM        RLL3         SP          GR     
# ...
  1385.2500     29.5890     28.6299     40.3155    -40.1252     91.2512
  1385.5000     27.6622     26.3239     31.7659    -40.7670    105.8165
  1385.7500     25.9743     24.7887     29.5334    -41.2392    113.3210
  1386.0000     24.5454     23.7410     30.0035    -41.6082    121.9317
  1386.2500     23.3899     22.9752     31.1753    -41.9158    126.5711
  1386.5000     22.5087     22.3607     32.1581    -42.1688    132.2121
  1386.7500     21.8988     21.8392     32.6915    -42.3410    134.6839
  1387.0000     21.5614     21.4083     32.8526    -42.3875    135.6140
  1387.2500     21.4966     21.0934     32.8545    -42.2674    134.4848
  1387.5000     21.6867     20.9208     32.8827    -41.9691    131.7209
  1387.7500     22.0826     20.9086     33.0038    -41.5268    130.2722
  1388.0000     22.6097     21.0713     33.1761    -41.0210    129.3633
  1388.2500     23.1988     21.4306     33.3460    -40.5522    129.1304
  1388.5000     23.8254     22.0212     33.5677    -40.1975    128.3388
  1388.7500     24.5240     22.8853     34.0596    -39.9803    127.4875
  1389.0000     25.3623     24.0631     35.1627    -39.8736    126.3771
  1389.2500     26.3962     25.5876     37.2638    -39.8237    125.8661
  1389.5000     27.6439     27.4930     40.7785    -39.7725    124.5625
  1389.7500     29.0918     29.8364     46.2053    -39.6754    122.5026
  1390.0000     30.7225     32.7204     54.1484    -39.5164    116.6225
  1390.2500     32.5323     36.3082     65.2806    -39.3132    110.6783
  1390.5000     34.5202     40.8290     80.4100    -39.1091     99.0114
  1390.7500     36.6539     46.5631    100.5359    -38.9553     89.9271
  1391.0000     38.8573     53.7804    126.1724    -38.8894     76.1411
  1391.2500     41.0573     62.5776    155.7235    -38.9187     68.2050
  1391.5000     43.2577     72.5793    184.4095    -39.0208     59.8740
  1391.7500     45.5535     82.6532    205.5046    -39.1612     56.8676
  1392.0000     48.0199     91.1146    213.5175    -39.3171     55.4942
  1392.2500     50.5343     96.6842    207.2552    -39.4877     56.2463
  1392.5000     52.6643     99.2677    190.9151    -39.6862     59.3250
  1392.7500     53.7496     99.4698    172.0867    -39.9204     62.1169
  1393.0000     53.2028     97.4934    157.2899    -40.1778     65.9224
  1393.2500     50.8440     92.8345    148.6607    -40.4272     67.4736
  1393.5000     46.9995     85.0653    145.1595    -40.6381     67.9210
  1393.7500     42.3181     74.7390    146.1942    -40.7997     67.0723
  1394.0000     37.4933     63.3045    151.9818    -40.9283     64.4774
  1394.2500     33.0651     52.2553    159.7771    -41.0588     62.3437
  1394.5000     29.3470     42.5436    162.0419    -41.2286     59.9244
  1394.7500     26.4455     34.5551    151.0396    -41.4627     59.7347
  1395.0000     24.3218     28.3130    125.6833    -41.7626     62.5567
  1395.2500     22.8538     23.6567     92.9008    -42.1027     66.4742
  1395.5000     21.8794     20.3538     62.2589    -42.4358     74.2076
  1395.7500     21.2230     18.1695     39.9119    -42.7085     79.4621
  1396.0000     20.7137     16.9053     27.1481    -42.8805     85.6998
  1396.2500     20.2042     16.4103     23.0414    -42.9371     88.2911
  1396.5000     19.5906     16.5704     27.6882    -42.8912     89.9700
  1396.7500     18.8324     17.2771     43.3947    -42.7767     89.7733
  1397.0000     17.9581     18.3796     72.8452    -42.6353     87.2335
  1397.2500     17.0488     19.6329    114.8749    -42.5046     83.7788
  1397.5000     16.2069     20.6863    160.8169    -42.4106     76.1608
  1397.7500     15.5204     21.1691    195.6920    -42.3683     70.1757
  1398.0000     15.0382     20.8657    205.5165    -42.3846     61.8871
  1398.2500     14.7568     19.8389    186.0324    -42.4596     58.1999
  1398.5000     14.6179     18.3735    145.5699    -42.5888     57.3141
  1398.7500     14.5226     16.8000     99.4474    -42.7622     60.2512
  1399.0000     14.3610     15.3571     60.8589    -42.9598     69.3994
  1399.2500     14.0529     14.1572     35.4677    -43.1503     77.7556
  1399.5000     13.5776     13.2143     22.1474    -43.3056     91.3493
  1399.7500     12.9766     12.4851     16.8115    -43.4251     99.4565
  1400.0000     12.3270     11.9014     15.5176    -43.5398    107.6865
  1400.2500     11.7058     11.3964     15.6305    -43.6810    109.9262
  1400.5000     11.1656     10.9269     15.7852    -43.8479    109.1503
  1400.7500     10.7301     10.4865     15.5175    -44.0095    106.9982
  1401.0000     10.4015     10.1021     14.8962    -44.1335    103.4162
  1401.2500     10.1716      9.8160     14.2138    -44.2104    101.6677
  1401.5000     10.0274      9.6653     13.7814    -44.2541    100.4053
  1401.7500      9.9556      9.6702     13.8525    -44.2872    100.1451
  1402.0000      9.9415      9.8305     14.5937    -44.3235     99.9722
  1402.2500      9.9686     10.1255     16.0125    -44.3579     99.9399
  1402.5000     10.0190     10.5158     17.8788    -44.3647    100.1899
  1402.7500     10.0774     10.9475     19.7616    -44.3066    100.5298
  1403.0000     10.1380     11.3608     21.2183    -44.1519    101.2089
  1403.2500     10.2076     11.7025     22.0161    -43.8891    101.9665
  1403.5000     10.2992     11.9371     22.2036    -43.5294    103.9807
  1403.7500     10.4200     12.0494     21.9937    -43.0986    105.7477
  1404.0000     10.5636     12.0418     21.5901    -42.6269    108.1998
  1404.2500     10.7107     11.9313     21.0872    -42.1401    109.5292
  1404.5000     10.8381     11.7464     20.4737    -41.6536    111.8116
  1404.7500     10.9278     11.5215     19.6963    -41.1699    114.0635
  1405.0000     10.9715     11.2887     18.7411    -40.6829    118.6060
  1405.2500     10.9714     11.0731     17.6936    -40.1856    121.8678
  1405.5000     10.9410     10.8927     16.7453    -39.6793    125.5841
  1405.7500     10.9072     10.7604     16.1136    -39.1781    126.4660
  1406.0000     10.9070     10.6844     15.9030    -38.7070    125.2617
  1406.2500     10.9768     10.6708     16.0213    -38.2936    123.5841
  1406.5000     11.1381     10.7299     16.2507    -37.9567    121.3760
  1406.7500     11.3877     10.8844     16.4549    -37.6999    120.3346
  1407.0000     11.6992     11.1729     16.8578    -37.5162    118.6168
  1407.2500     12.0329     11.6473     18.4002    -37.4034    116.9491
  1407.5000     12.3468     12.3640     23.1538    -37.3737    113.6170
  1407.7500     12.6038     13.3698     34.3971    -37.4450    110.6830
  1408.0000     12.7749     14.6748     55.4565    -37.6202    103.9954
  1408.2500     12.8413     16.2030     86.7883    -37.8778     97.3478
  1408.5000     12.7983     17.7292    122.7969    -38.1880     84.7365
  1408.7500     12.6577     18.8663    151.9657    -38.5345     76.0705
  1409.0000     12.4471     19.2113    162.4114    -38.9178     65.7064
  1409.2500     12.2021     18.6204    149.5946    -39.3406     61.7784
  1409.5000     11.9547     17.3271    119.4771    -39.7937     60.9773
  1409.7500     11.7223     15.7479     84.1298    -40.2549     63.4175
  1410.0000     11.5038     14.2232     54.0384    -40.7013     69.9686
  1410.2500     11.2841     12.9248     33.6322    -41.1215     75.1928
  1410.5000     11.0447     11.8939     22.0619    -41.5136     82.7436
  1410.7500     10.7757     11.1058     16.3781    -41.8758     86.9246
  1411.0000     10.4798     10.5135     13.9022    -42.2013     91.1966
  1411.2500     10.1696     10.0701     12.9579    -42.4759     92.5461
  1411.5000      9.8618      9.7374     12.7013    -42.6766     92.6672
  1411.7500      9.5736      9.4888     12.7743    -42.7765     92.1440
  1412.0000      9.3238      9.3081     13.0316    -42.7603     92.0944
  1412.2500      9.1321      9.1891     13.3796    -42.6357     93.3138
  1412.5000      9.0172      9.1334     13.7315    -42.4283     96.9505
  1412.7500      8.9943      9.1481     14.0386    -42.1680     99.6083
  1413.0000      9.0709      9.2444     14.3090    -41.8787    101.8360
