~Version Information
VERS.                      2.0: CWLS Log ASCII Standard - VERSION 2.0
WRAP.                       NO: One line per depth step
~Well Information Block
STRT.FT               -12.5000: 
STOP.FT              1613.0000: 
STEP.FT                 0.2500: 
NULL.                -999.2500: 
COMP.          Pioneer Natural Resources: COMPANY
WELL.          Peregrine 12-20: WELL
FLD.           Purgatorie River: FIELD
LOC.           1722' FNL & 999' FWL--: LOCATION
PROV.                       CO: PROVINCE
CNTY.               Las Animas: COUNTRY
SRVC.          Patterson Wireline: SERVICE COMPANY
DATE.          Fri Jul 22 12:50:00 2005: LOG DATE
UWI.           05 071 08428 00: UNIQUE WELL ID
~Curve Information Block
DEPT.FT            0 000 00 00: Depth
CCL.                          : Casing Collar Locator
TT3.usec                      : CBL 3' Travel Time
AMP3.mV                       : CBL 3' Amplitude
GR.GAPI                       : Gamma Ray
~Parameter Information Block
~A  Depth       CCL         TT3         AMP3         GR     
# ...
   322.5000      0.0000    808.9108      6.5217    146.1517
   322.7500      0.0000    812.0804      6.6330    144.5263
   323.0000      0.0000    823.5627      6.8720    143.4489
   323.2500      0.0000    839.5500      7.2192    143.7355
   323.5000      0.0000    854.1469      7.6011    145.5998
   323.7500      0.0000    862.5117      7.9289    147.6586
   324.0000      0.0000    862.4214      8.1497    147.6335
   324.2500      0.0000    854.0657      8.2623    144.3619
   324.5000      0.0000    840.1027      8.2877    138.7347
   324.7500      0.0000    825.6805      8.2360    132.6985
   325.0000      0.0000    816.2480      8.1099    127.9751
   325.2500      0.0000    813.7971      7.9326    125.7706
   325.5000      0.0000    815.4418      7.7534    126.8810
   325.7500      0.0000    816.1253      7.6165    131.2924
   326.0000      0.0000    812.7456      7.5255    137.6678
   326.2500      0.0000    806.2324      7.4395    143.5695
   326.5000      0.0000    800.5725      7.3078    146.4377
   326.7500      0.0000    799.7534      7.1135    144.6963
   327.0000      0.0000    804.7287      6.8897    138.5011
   327.2500      0.0000    812.6235      6.6943    129.8505
   327.5000      0.0000    818.7750      6.5700    121.7740
   327.7500      0.0000    819.7993      6.5255    116.9565
   328.0000      0.0000    815.3669      6.5424    116.5936
   328.2500      0.0000    807.7818      6.5980    120.0276
   328.5000      0.0000    799.7521      6.6793    125.2353
   328.7500      0.0000    791.0034      6.7751    129.9953
   329.0000      0.0000    777.1752      6.8472    133.0818
   329.2500      0.0000    755.2823      6.8142    134.6585
   329.5000      0.0000    732.5955      6.5933    135.6934
   329.7500      0.0000    726.1089      6.1847    136.7851
   330.0000      0.0000    746.9860      5.7082    137.2312
   330.2500      0.0000    786.1880      5.3301    135.3919
   330.5000      0.0000    820.4677      5.1429    130.4449
   330.7500      0.0000    832.5511      5.1200    123.8236
   331.0000      0.0000    822.7413      5.1786    118.3955
   331.2500      2.0000    803.4630      5.2596    115.8942
   331.5000      2.0000    787.0818      5.3479    115.4111
   331.7500      0.0000    776.7087      5.4438    114.6942
   332.0000      0.0000    763.1682      5.5607    112.5482
   332.2500      0.0000    731.3275      5.7565    109.5500
   332.5000      0.0000    675.4655      6.1187    106.8251
   332.7500      0.0000    610.7543      6.6590    104.8741
   333.0000      0.0000    566.0314      7.2403    103.5439
   333.2500      0.0000    561.7374      7.6672    102.6559
   333.5000      0.0000    595.4013      7.8545    102.5100
   333.7500      0.0000    647.8091      7.8722    103.8734
   334.0000      0.0000    698.8190      7.8453    107.4275
   334.2500      0.0000    736.6512      7.8456    113.0756
   334.5000      0.0000    758.4479      7.8679    119.7486
   334.7500      0.0000    767.5927      7.8677    125.8282
   335.0000      0.0000    770.4275      7.8106    129.7332
   335.2500      0.0000    773.0189      7.6949    130.4628
   335.5000      0.0000    778.8159      7.5420    128.0786
   335.7500      0.0000    787.8860      7.3709    123.8717
   336.0000      0.0000    797.9351      7.1880    119.7661
   336.2500      0.0000    806.3380      6.9977    117.1650
   336.5000      0.0000    811.8060      6.8172    116.2774
   336.7500      0.0000    814.5771      6.6767    116.3750
   337.0000      0.0000    815.5734      6.6023    116.4219
   337.2500      0.0000    815.4756      6.5948    115.5916
   337.5000      0.0000    814.3097      6.6227    113.5692
   337.7500      0.0000    811.5487      6.6371    110.6360
   338.0000      0.0000    806.6407      6.6011    107.6886
   338.2500      0.0000    799.7591      6.5112    105.9852
   338.5000      0.0000    792.1666      6.3937    106.2128
   338.7500      0.0000    785.6052      6.2799    107.5611
   339.0000      0.0000    781.1786      6.1842    108.2467
   339.2500      0.0000    778.8896      6.1038    107.2655
   339.5000      0.0000    778.1500      6.0320    105.3946
   339.7500      0.0000    778.5264      5.9695    104.4506
   340.0000      0.0000    779.9958      5.9245    105.7437
   340.2500      0.0000    782.6182      5.9029    109.0249
   340.5000      0.0000    786.0007      5.8979    112.3810
   340.7500      0.0000    789.1846      5.8903    113.3187
   341.0000      0.0000    791.3167      5.8642    110.8308
   341.2500      0.0000    792.5541      5.8230    106.6377
   341.5000      0.0000    794.1450      5.7895    103.8651
   341.7500      0.0000    797.3312      5.7865    104.3595
   342.0000      0.0000    802.0712      5.8188    107.6083
   342.2500      0.0000    807.0264      5.8744    111.9721
   342.5000      0.0000    810.8350      5.9362    116.1309
   342.7500      0.0000    813.1783      5.9893    119.2068
   343.0000      0.0000    814.6981      6.0242    120.4704
   343.2500      0.0000    816.3713      6.0406    119.7478
   343.5000      0.0000    819.2526      6.0491    118.0211
   343.7500      0.0000    824.6122      6.0611    117.1466
   344.0000      0.0000    833.6178      6.0750    118.6993
   344.2500      0.0000    846.0811      6.0750    122.8979
   344.5000      0.0000    859.3970      6.0433    128.4332
   344.7500      0.0000    869.5024      5.9763    133.3272
   345.0000      0.0000    873.6422      5.8905    136.3222
   345.2500      0.0000    872.3413      5.8109    137.7660
   345.5000      0.0000    868.7883      5.7539    139.0249
   345.7500      0.0000    866.4814      5.7217    140.8777
   346.0000      0.0000    867.1642      5.7108    142.5576
   346.2500      0.0000    870.5336      5.7178    142.4563
   346.5000      0.0000    875.6076      5.7386    139.6680
   346.7500      0.0000    881.9542      5.7677    134.7845
   347.0000      0.0000    889.3959      5.8036    129.4135
   347.2500      0.0000    897.0689      5.8469    125.0332
   347.5000      0.0000    903.4996      5.8906    122.0960
   347.7500      0.0000    907.6663      5.9208    120.0089
   348.0000      0.0000    909.6415      5.9277    117.8794
   348.2500      0.0000    910.2141      5.9164    115.1144
   348.5000      0.0000    910.1960      5.9013    111.3129
   348.7500      0.0000    910.0430      5.8959    106.1773
   349.0000      0.0000    909.7733      5.9094    100.1267
   349.2500      0.0000    908.9219      5.9523     94.7553
   349.5000      0.0000    906.6426      6.0378     92.0503
   349.7500      0.0000    902.1649      6.1709     93.0094
   350.0000      0.0000    895.4470      6.3341     97.0907
   350.2500      0.0000    887.5081      6.4854    103.0271
   350.5000      0.0000    879.9692      6.5784    110.1228
   350.7500      0.0000    873.8989      6.5913    118.4734
   351.0000      0.0000    869.0301      6.5416    127.7519
   351.2500      0.0000    864.6615      6.4701    136.3301
   351.5000      0.0000    861.5043      6.4099    142.0731
   351.7500      0.0000    861.5030      6.3715    143.6664
   352.0000      0.0000    865.2314      6.3546    141.1815
   352.2500      0.0000    870.5985      6.3621    136.1568
   352.5000      0.0000    874.6882      6.3954    131.1035
   352.7500      0.0000    875.7609      6.4433    127.9331
   353.0000      0.0000    873.2478      6.4862    126.4779
   353.2500      0.0000    867.6064      6.5107    124.9506
   353.5000      0.0000    860.9908      6.5132    121.8111
   353.7500      0.0000    856.2275      6.4920    116.7526
   354.0000      0.0000    854.0422      6.4404    110.2221
   354.2500      0.0000    852.4491      6.3508    103.1216
   354.5000      0.0000    849.0759      6.2210     97.2410
   354.7500      0.0000    842.5933      6.0542     94.9791
   355.0000      0.0000    832.2624      5.8499     97.5749
   355.2500      0.0000    818.5126      5.5987    103.4998
   355.5000      0.0000    804.4890      5.2911    109.1093
   355.7500      0.0000    795.3919      4.9343    111.3050
