~Version Information
VERS.                      2.0: CWLS Log ASCII Standard - VERSION 2.0
WRAP.                       NO: One line per depth step
~Well Information Block
STRT.FT               480.0000: 
STOP.FT              1994.2500: 
STEP.FT                 0.2500: 
NULL.                -999.2500: 
COMP.          Evergreen Operating Corporation: COMPANY
WELL.          McCullough 34-32 Tr: WELL
FLD.           Purgatoire River: FIELD
LOC.           394' FSL & 2077' FEL: LOCATION
PROV.                 Colorado: PROVINCE
CNTY.               Las Animas: COUNTRY
SRVC.                Patterson: SERVICE COMPANY
DATE.          Sun Sep 19 05:48:59 2004: LOG DATE
UWI.           05 071 08157 00: UNIQUE WELL ID
~Curve Information Block
DEPT.FT            0 000 00 00: Depth
SN.Ohm-m                      : IEL Short Normal
SP.mV                         : IEL Spontaneous Potential
DIR.Ohm-m                     : IEL Induction Resistivity
GR.GAPI                       : Gamma Ray
~Parameter Information Block
~A  Depth        SN          SP         DIR          GR     
# ...
  1853.5000      6.9757    288.6783      6.0821    143.1689
  1853.7500      7.0901    288.8146      6.0149    143.9248
  1854.0000      7.1278    288.9632      5.9435    144.2447
  1854.2500      7.1083    289.1201      5.8736    143.5486
  1854.5000      7.0588    289.2833      5.8119    141.4679
  1854.7500      7.0026    289.4514      5.7640    140.0249
  1855.0000      6.9540    289.6209      5.7320    138.6958
  1855.2500      6.9183    289.7855      5.7148    138.3949
  1855.5000      6.8986    289.9360      5.7097    137.9986
  1855.7500      6.8997    290.0628      5.7149    137.1383
  1856.0000      6.9265    290.1586      5.7301    134.4559
  1856.2500      6.9778    290.2206      5.7558    132.0988
  1856.5000      7.0445    290.2521      5.7933    129.2784
  1856.7500      7.1160    290.2616      5.8440    128.8622
  1857.0000      7.1846    290.2615      5.9101    131.0394
  1857.2500      7.2437    290.2634      5.9938    133.7200
  1857.5000      7.2833    290.2747      6.0968    137.4245
  1857.7500      7.2849    290.2940      6.2184    138.6693
  1858.0000      7.2202    290.3102      6.3551    138.4991
  1858.2500      7.0623    290.3037      6.5009    137.6409
  1858.5000      6.8085    290.2516      6.6491    136.5042
  1858.7500      6.4990    290.1342      6.7949    136.3628
  1859.0000      6.2143    289.9417      6.9379    137.5013
  1859.2500      6.0490    289.6780      7.0806    139.1857
  1859.5000      6.0716    289.3600      7.2259    142.6468
  1859.7500      6.2946    289.0141      7.3735    144.9213
  1860.0000      6.6724    288.6688      7.5175    146.7969
  1860.2500      7.1333    288.3486      7.6472    146.4512
  1860.5000      7.6236    288.0700      7.7514    143.8377
  1860.7500      8.1331    287.8405      7.8241    141.4869
  1861.0000      8.6837    287.6604      7.8702    138.4873
  1861.2500      9.2920    287.5260      7.9043    137.3058
  1861.5000      9.9351    287.4330      7.9443    136.7339
  1861.7500     10.5478    287.3778      8.0049    136.8197
  1862.0000     11.0559    287.3579      8.0931    137.0836
  1862.2500     11.4183    287.3704      8.2100    137.2802
  1862.5000     11.6433    287.4102      8.3536    137.8844
  1862.7500     11.7743    287.4697      8.5229    138.5268
  1863.0000     11.8652    287.5396      8.7197    139.2326
  1863.2500     11.9627    287.6105      8.9464    139.0397
  1863.5000     12.0954    287.6743      9.2030    137.5947
  1863.7500     12.2711    287.7246      9.4853    136.2169
  1864.0000     12.4837    287.7562      9.7869    134.1499
  1864.2500     12.7271    287.7665     10.1035    132.8556
  1864.5000     13.0021    287.7563     10.4346    130.8439
  1864.7500     13.3145    287.7315     10.7809    129.2947
  1865.0000     13.6690    287.7010     11.1385    126.4599
  1865.2500     14.0654    287.6726     11.4987    124.2860
  1865.5000     14.4982    287.6490     11.8518    121.1767
  1865.7500     14.9627    287.6253     12.1956    119.6742
  1866.0000     15.4650    287.5903     12.5397    118.7202
  1866.2500     16.0297    287.5311     12.9046    118.7926
  1866.5000     16.6955    287.4372     13.3177    119.2170
  1866.7500     17.4968    287.3036     13.8123    119.3279
  1867.0000     18.4426    287.1319     14.4255    118.9382
  1867.2500     19.5097    286.9288     15.1885    118.1859
  1867.5000     20.6550    286.7049     16.1056    115.7504
  1867.7500     21.8424    286.4724     17.1326    112.7527
  1868.0000     23.0668    286.2441     18.1786    105.9256
  1868.2500     24.3668    286.0326     19.1529    100.5415
  1868.5000     25.8195    285.8489     20.0366     93.4196
  1868.7500     27.5128    285.7004     20.9094     90.0218
  1869.0000     29.4985    285.5883     21.8951     86.1022
  1869.2500     31.7487    285.5062     23.0656     83.3187
  1869.5000     34.1489    285.4412     24.3662     78.2284
  1869.7500     36.5469    285.3784     25.6199     74.3540
  1870.0000     38.8300    285.3056     26.6345     67.8690
  1870.2500     40.9730    285.2182     27.3432     62.9881
  1870.5000     43.0174    285.1190     27.8368     55.0934
  1870.7500     45.0004    285.0157     28.2619     49.9307
  1871.0000     46.8995    284.9161     28.7121     43.2130
  1871.2500     48.6327    284.8259     29.2001     39.7432
  1871.5000     50.1031    284.7481     29.6969     36.2466
  1871.7500     51.2427    284.6842     30.1726     34.9855
  1872.0000     52.0290    284.6366     30.6138     34.3387
  1872.2500     52.4784    284.6087     31.0168     34.4495
  1872.5000     52.6298    284.6045     31.3818     34.9780
  1872.7500     52.5340    284.6273     31.7136     35.4440
  1873.0000     52.2529    284.6784     32.0185     36.3392
  1873.2500     51.8598    284.7560     32.2943     37.0597
  1873.5000     51.4294    284.8549     32.5096     37.9895
  1873.7500     51.0232    284.9675     32.5984     38.1866
  1874.0000     50.6794    285.0847     32.4854     37.5368
  1874.2500     50.4082    285.1962     32.1359     36.6111
  1874.5000     50.1849    285.2919     31.5880     35.0990
  1874.7500     49.9516    285.3625     30.9368     34.3181
  1875.0000     49.6408    285.4008     30.2910     33.6448
  1875.2500     49.2176    285.4033     29.7379     33.5215
  1875.5000     48.7016    285.3727     29.3278     33.9488
  1875.7500     48.1492    285.3181     29.0725     34.7308
  1876.0000     47.6192    285.2537     28.9490     36.4905
  1876.2500     47.1529    285.1948     28.9106     37.7846
  1876.5000     46.7694    285.1534     28.9047     39.5313
  1876.7500     46.4704    285.1340     28.8914     40.4971
  1877.0000     46.2491    285.1323     28.8573     41.5543
  1877.2500     46.1009    285.1381     28.8186     41.8674
  1877.5000     46.0228    285.1404     28.8092     41.6181
  1877.7500     46.0061    285.1326     28.8592     41.0722
  1878.0000     46.0369    285.1164     28.9733     39.9541
  1878.2500     46.1057    285.1008     29.1205     39.0665
  1878.5000     46.2123    285.0990     29.2459     37.5566
  1878.7500     46.3542    285.1238     29.2985     36.5916
  1879.0000     46.5188    285.1829     29.2593     35.6765
  1879.2500     46.6931    285.2763     29.1460     35.5687
  1879.5000     46.8783    285.3962     28.9941     35.8702
  1879.7500     47.0907    285.5283     28.8320     35.9953
  1880.0000     47.3495    285.6548     28.6716     35.6042
  1880.2500     47.6666    285.7575     28.5169     35.0135
  1880.5000     48.0508    285.8203     28.3794     34.1264
  1880.7500     48.5191    285.8293     28.2852     33.8073
  1881.0000     49.1005    285.7717     28.2674     33.9209
  1881.2500     49.8263    285.6330     28.3448     34.3269
  1881.5000     50.7149    285.3950     28.5038     35.0547
  1881.7500     51.7640    285.0364     28.7011     35.3121
  1882.0000     52.9528    284.5382     28.8919     35.0072
  1882.2500     54.2430    283.8931     29.0612     34.4014
  1882.5000     55.5661    283.1156     29.2245     33.4199
  1882.7500     56.7950    282.2486     29.3900     33.0820
  1883.0000     57.7234    281.3613     29.5187     33.3123
  1883.2500     58.0847    280.5374     29.5220     33.8320
  1883.5000     57.6326    279.8568     29.3043     34.8773
  1883.7500     56.2690    279.3777     28.8161     35.7751
  1884.0000     54.1366    279.1259     28.0760     37.7572
  1884.2500     51.5776    279.0966     27.1487     39.8169
  1884.5000     48.9507    279.2652     26.1077     45.0620
  1884.7500     46.4207    279.6000     25.0028     50.9187
  1885.0000     43.8745    280.0695     23.8445     64.2592
  1885.2500     41.0228    280.6411     22.6083     75.6339
  1885.5000     37.6251    281.2737     21.2588     93.3010
  1885.7500     33.6839    281.9139     19.7852    103.3217
  1886.0000     29.4775    282.5006     18.2254    113.6739
  1886.2500     25.4247    282.9779     16.6625    117.7716
  1886.5000     21.9011    283.3106     15.1942    121.9815
  1886.7500     19.1260    283.4944     13.8991    124.8351
