~Version Information
VERS.                      2.0: CWLS Log ASCII Standard - VERSION 2.0
WRAP.                       NO: One line per depth step
~Well Information Block
STRT.FT                -7.5000: 
STOP.FT              2339.2500: 
STEP.FT                 0.2500: 
NULL.                -999.2500: 
COMP.          Pioneer Natural Resources: COMPANY
WELL.            Harrier 44-33: WELL
FLD.           Purgatorie River: FIELD
LOC.           456' FSL & 930' FEL--: LOCATION
PROV.                       CO: PROVINCE
CNTY.               Las Animas: COUNTRY
SRVC.          Patterson Wireline: SERVICE COMPANY
DATE.          Wed Jun 29 11:08:51 2005: LOG DATE
UWI.           05 071 08398 00: UNIQUE WELL ID
~Curve Information Block
DEPT.FT            0 000 00 00: Depth
CCL.                          : Casing Collar Locator
TT3.usec                      : CBL 3' Travel Time
AMP3.mV                       : CBL 3' Amplitude
GR.GAPI                       : Gamma Ray
~Parameter Information Block
~A  Depth       CCL         TT3         AMP3         GR     
# ...
   930.5000      0.0000    839.0031      6.7453    158.9112
   930.7500      0.0000    824.3099      6.5301    152.9696
   931.0000      0.0000    807.5845      6.4379    145.0222
   931.2500      0.0000    791.5651      6.4962    137.8303
   931.5000      0.0000    776.1254      6.6777    133.3134
   931.7500      0.0000    759.4825      6.9197    130.5934
   932.0000      0.0000    742.8862      7.1516    127.2330
   932.2500      0.0000    732.0474      7.3199    122.0825
   932.5000      0.0000    732.9883      7.4117    116.2004
   932.7500      0.0000    747.1881      7.4664    111.3359
   933.0000      0.0000    770.3162      7.5524    108.3154
   933.2500      0.0000    794.5417      7.7179    106.8812
   933.5000      0.0000    812.8586      7.9545    106.4163
   933.7500      0.0000    822.8428      8.2142    106.5216
   934.0000      0.0000    826.8107      8.4591    107.1572
   934.2500      0.0000    828.0319      8.6933    108.7017
   934.5000      0.0000    826.9257      8.9512    112.0366
   934.7500      0.0000    821.2343      9.2678    118.1887
   935.0000      0.0000    809.2480      9.6576    127.3740
   935.2500      0.0000    790.5797     10.1072    138.2288
   935.5000      0.0000    763.0495     10.5690    148.0763
   935.7500      0.0000    723.6227     10.9572    154.1733
   936.0000      0.0000    677.7585     11.1618    155.1007
   936.2500      0.0000    644.8104     11.0930    151.5336
   936.5000      0.0000    645.5657     10.7319    146.0406
   936.7500      0.0000    682.4979     10.1527    141.9249
   937.0000      0.0000    736.9908      9.4938    141.5845
   937.2500      0.0000    785.5387      8.8910    145.2287
   937.5000      0.0000    814.4549      8.4114    150.7184
   937.7500      0.0000    821.1940      8.0313    154.8975
   938.0000      0.0000    808.4576      7.6746    155.7917
   938.2500      0.0000    779.7158      7.2834    154.0058
   938.5000      0.0000    739.3971      6.8660    151.9707
   938.7500      0.0000    696.2627      6.4867    151.6246
   939.0000      0.0000    664.3562      6.2143    152.7293
   939.2500      0.0000    656.9523      6.0787    153.3767
   939.5000      0.0000    677.8547      6.0685    152.0271
   939.7500      0.0000    718.7593      6.1585    148.8756
   940.0000      0.0000    764.1043      6.3386    145.1715
   940.2500      0.0000    798.3615      6.6210    141.6439
   940.5000      0.0000    810.7856      7.0265    138.2807
   940.7500      0.0000    796.7543      7.5645    135.5005
   941.0000      0.0000    757.8995      8.2167    134.4983
   941.2500      0.0000    702.3718      8.9231    135.8825
   941.5000      0.0000    643.9036      9.5645    138.4688
   941.7500      0.0000    599.2870      9.9686    139.8559
   942.0000      0.0000    584.8018      9.9830    138.0955
   942.2500      0.0000    608.9138      9.5940    132.8848
   942.5000      0.0000    663.2628      8.9732    125.4399
   942.7500      0.0000    724.4862      8.3658    117.3683
   943.0000      0.0000    770.7185      7.9123    109.8802
   943.2500      0.0000    795.9946      7.5854    104.1132
   943.5000      2.0000    807.9413      7.2811    101.4667
   943.7500      0.0000    815.0444      6.9365    102.6671
   944.0000      0.0000    819.0136      6.5685    106.5142
   944.2500      0.0000    817.7740      6.2466    110.3720
   944.5000      0.0000    811.6942      6.0513    112.3547
   944.7500      0.0000    804.7997      6.0337    112.6590
   945.0000      0.0000    800.7642      6.1717    112.5709
   945.2500      0.0000    799.1019      6.3617    112.7253
   945.5000      0.0000    795.0460      6.4820    112.7391
   945.7500      0.0000    782.8657      6.4808    112.1552
   946.0000      0.0000    760.4854      6.3982    111.2256
   946.2500      0.0000    731.7563      6.3112    110.7051
   946.5000      0.0000    703.8611      6.2740    111.1367
   946.7500      0.0000    682.4717      6.3014    112.5015
   947.0000      0.0000    669.5605      6.3785    114.4201
   947.2500      0.0000    664.7763      6.4698    116.2489
   947.5000      0.0000    667.5470      6.5276    116.9527
   947.7500      0.0000    678.0701      6.5140    115.5073
   948.0000      0.0000    697.0759      6.4256    111.8488
   948.2500      0.0000    724.0178      6.2969    107.2082
   948.5000      0.0000    754.7743      6.1740    103.3373
   948.7500      0.0000    781.8856      6.0865    101.3873
   949.0000      0.0000    798.4218      6.0431    101.3680
   949.2500      0.0000    801.9327      6.0410    102.4696
   949.5000      0.0000    794.3967      6.0727    103.7835
   949.7500      0.0000    779.0062      6.1229    104.7942
   950.0000      0.0000    758.4249      6.1679    105.4796
   950.2500      0.0000    736.3314      6.1822    106.2088
   950.5000      0.0000    718.3470      6.1539    107.4578
   950.7500      0.0000    708.8170      6.0955    109.5289
   951.0000      0.0000    706.6848      6.0332    112.6178
   951.2500      0.0000    706.5041      5.9810    116.8734
   951.5000      0.0000    704.7780      5.9301    121.9084
   951.7500      0.0000    704.5514      5.8675    126.3124
   952.0000      0.0000    712.6943      5.7982    128.1886
   952.2500      0.0000    732.7053      5.7430    126.5085
   952.5000      0.0000    760.6335      5.7196    121.9535
   952.7500      0.0000    787.9451      5.7338    116.3339
   953.0000      0.0000    807.7039      5.7849    111.1481
   953.2500      0.0000    817.8778      5.8726    106.7411
   953.5000      0.0000    820.1145      5.9917    102.8379
   953.7500      0.0000    817.1339      6.1224     99.5741
   954.0000      0.0000    811.2869      6.2292     97.5201
   954.2500      0.0000    803.9084      6.2808     96.7129
   954.5000      0.0000    794.7076      6.2749     96.1480
   954.7500      0.0000    782.2485      6.2380     94.4622
   955.0000      0.0000    766.3880      6.1997     90.9039
   955.2500      0.0000    750.5323      6.1773     85.6799
   955.5000      0.0000    740.3990      6.1895     79.7399
   955.7500      0.0000    739.3388      6.2599     74.3293
   956.0000      0.0000    745.2792      6.3905     70.4131
   956.2500      0.0000    753.2989      6.5381     68.2039
   956.5000      0.0000    760.6827      6.6355     67.0867
   956.7500      0.0000    767.4758      6.6422     65.9127
   957.0000      0.0000    772.2742      6.5746     63.5225
   957.2500      0.0000    771.1017      6.4894     59.4178
   957.5000      0.0000    762.8275      6.4365     54.1933
   957.7500      0.0000    753.2929      6.4161     49.2236
   958.0000      0.0000    750.7328      6.3758     45.7652
   958.2500      0.0000    757.5395      6.2568     44.2232
   958.5000      0.0000    768.3947      6.0488     44.1043
   958.7500      0.0000    776.0115      5.7984     44.6109
   959.0000      0.0000    777.3694      5.5700     45.5190
   959.2500      0.0000    774.8274      5.4081     47.6094
   959.5000      0.0000    772.8221      5.3342     51.8927
   959.7500      0.0000    774.1191      5.3589     58.1489
   960.0000      0.0000    778.5275      5.4769     64.6165
   960.2500      0.0000    784.0427      5.6507     69.6843
   960.5000      0.0000    788.7200      5.8106     73.7495
   960.7500      0.0000    791.6755      5.8826     78.7355
   961.0000      0.0000    792.8741      5.8316     85.7406
   961.2500      0.0000    792.7275      5.6876     93.8383
   961.5000      0.0000    792.5180      5.5330    101.2546
   961.7500      0.0000    794.4641      5.4530    106.9215
   962.0000      0.0000    799.9028      5.4803    110.6344
   962.2500      0.0000    807.5073      5.5824    112.5973
   962.5000      0.0000    814.3806      5.6953    113.5327
   962.7500      0.0000    818.4966      5.7706    114.8355
   963.0000      0.0000    818.8585      5.7928    117.8302
   963.2500      0.0000    813.8406      5.7674    122.6375
   963.5000      0.0000    801.5669      5.7054    127.9330
   963.7500      0.0000    782.9706      5.6198    131.8790
