~Version Information
VERS.                      2.0: CWLS Log ASCII Standard - VERSION 2.0
WRAP.                       NO: One line per depth step
~Well Information Block
STRT.FT               -16.0000: 
STOP.FT              2454.2500: 
STEP.FT                 0.2500: 
NULL.                -999.2500: 
COMP.                         : COMPANY
WELL.                         : WELL
FLD.                          : FIELD
LOC.                          : LOCATION
CNTY.                         : COUNTY
SRVC.                         : SERVICE COMPANY
DATE.          Tue Aug 31 08:09:44 2004: LOG DATE
UWI.                          : UNIQUE WELL ID
STAT.                         : STATE
~Curve Information Block
DEPT.FT            0 000 00 00: Depth
GR.GAPI                       : Gamma Ray
CCL.                          : Casing Collar Locator
TT3.usec                      : CBL 3' Travel Time
AMP3.mV                       : CBL 3' Amplitude
~Parameter Information Block
~A  Depth        GR         CCL         TT3         AMP3    
# ...
   788.0000     32.8567      0.0000    313.0000     85.4371
   788.2500     31.8529      0.0000    313.0000     85.2993
   788.5000     31.9670      0.0000    313.0000     85.1823
   788.7500     32.7457      0.0000    313.0000     85.1911
   789.0000     34.2194      0.0000    313.0001     85.3223
   789.2500     36.6395      0.0000    313.0010     85.4665
   789.5000     39.5679      0.0000    313.0076     85.5129
   789.7500     41.7511      0.0000    313.0360     85.4267
   790.0000     42.2348      0.0000    313.1093     85.2477
   790.2500     41.3365      0.0000    313.2130     85.0451
   790.5000     40.2465      0.0000    313.2660     84.9000
   790.7500     39.6860      0.0000    313.2130     84.8971
   791.0000     39.1464      0.0000    313.1093     85.0519
   791.2500     37.6800      0.0000    313.0361     85.2679
   791.5000     35.4229      0.0000    313.0086     85.4034
   791.7500     33.9414      0.0000    313.0086     85.2811
   792.0000     34.8242      0.0000    313.0362     84.5451
   792.2500     38.1697      0.0000    313.1105     82.6754
   792.5000     42.6030      0.0000    313.2216     79.5585
   792.7500     46.3572      0.0000    313.3096     76.0729
   793.0000     48.0402      0.0000    313.3584     73.5088
   793.2500     46.9296      0.0000    313.4328     72.3774
   793.5000     43.3622      0.0000    313.5237     72.2954
   793.7500     38.8575      0.0000    313.5312     72.7146
   794.0000     35.3642      0.0000    313.4763     73.3296
   794.2500     34.2227      0.0000    313.5049     74.0362
   794.5000     35.7076      0.0000    313.6406     74.7709
   794.7500     38.9862      0.0000    313.7452     75.3702
   795.0000     42.2697      0.0000    313.7434     75.4502
   795.2500     43.6353      0.0000    313.7254     74.4124
   795.5000     42.3856      0.0000    313.7860     71.9147
   795.7500     39.5682      0.0000    313.8916     68.5956
   796.0000     37.0426      0.0000    313.9716     65.7687
   796.2500     36.2555      0.0000    314.0284     64.1436
   796.5000     37.8354      0.0000    314.1083     63.4804
   796.7500     41.6627      0.0000    314.2130     63.3227
   797.0000     46.8950      0.0000    314.2686     63.4276
   797.2500     52.3491      0.0000    314.2393     63.4625
   797.5000     57.2807      0.0000    314.2854     62.5505
   797.7500     61.5782      0.0000    314.9072     59.8292
   798.0000     65.0666      0.0000    317.1912     55.9212
   798.2500     67.1170      0.0000    322.3712     52.2040
   798.5000     67.1972      0.0000    329.4362     48.4959
   798.7500     65.4588      0.0000    333.8706     44.6041
   799.0000     62.5809      0.0000    332.5077     42.2971
   799.2500     59.3133      0.0000    327.9677     42.4146
   799.5000     56.3533      4.9983    324.5034     43.4313
   799.7500     54.4853     -5.0000    323.1696     44.0239
   800.0000     54.6194      0.0000    322.9146     44.3058
   800.2500     57.5027      0.0000    322.8706     44.7861
   800.5000     63.1436      0.0000    322.7596     45.6497
   800.7500     70.3932      0.0000    322.4969     47.1315
   801.0000     77.4416      0.0000    321.9292     49.5630
   801.2500     83.1393      0.0000    320.8937     52.5555
   801.5000     87.6627      0.0000    319.3342     55.8554
   801.7500     91.6500      0.0000    317.3914     60.5837
   802.0000     94.9757      0.0000    315.5342     67.0059
   802.2500     96.6342      0.0000    314.2753     73.0655
   802.5000     95.6458      0.0000    313.6750     76.8109
   802.7500     91.9192      0.0000    313.4232     78.2699
   803.0000     86.3463      0.0000    313.2624     78.7257
   803.2500     80.2462      0.0000    313.1534     79.2258
   803.5000     74.8193      0.0000    313.1465     79.9251
   803.7500     70.9601      0.0000    313.2218     80.4433
   804.0000     68.9923      0.0000    313.2757     80.3962
   804.2500     68.3244      0.0000    313.2577     79.5171
   804.5000     67.8538      0.0000    313.2624     77.6798
   804.7500     67.0353      0.0000    313.3954     75.2331
   805.0000     66.3764      0.0000    313.6046     73.0429
   805.2500     66.9013      0.0000    313.7375     71.7849
   805.5000     69.3693      0.0000    313.7414     71.4424
   805.7500     73.8858      0.0000    313.7177     71.6378
   806.0000     79.8970      0.0000    313.7499     72.0543
   806.2500     86.3362      0.0000    313.7812     72.4536
   806.5000     91.7821      0.0000    313.7510     72.6306
   806.7500     94.7773      0.0000    313.7264     72.5193
   807.0000     94.5955      0.0000    313.7860     72.1412
   807.2500     91.8811      0.0000    313.8906     71.3116
   807.5000     88.1523      0.0000    313.9640     69.7224
   807.7500     84.5110      0.0000    313.9924     67.5281
   808.0000     81.0992      0.0000    313.9990     65.4653
   808.2500     77.7640      0.0000    313.9999     64.1800
   808.5000     74.8579      0.0000    314.0000     63.7281
   808.7500     73.3213      0.0000    314.0000     63.8013
   809.0000     74.1476      0.0000    314.0000     64.1232
   809.2500     77.6355      0.0000    314.0000     64.5194
   809.5000     82.8906      0.0000    314.0000     64.8517
   809.7500     88.1651      0.0000    314.0000     65.0458
   810.0000     92.0568      0.0000    313.9999     65.1249
   810.2500     94.5179      0.0000    313.9990     65.1564
   810.5000     96.4633      0.0000    313.9924     65.1731
   810.7500     98.3694      0.0000    313.9640     65.1645
   811.0000     99.7514      0.0000    313.8907     65.1252
   811.2500    100.1133      0.0000    313.7870     65.0725
   811.5000     99.6924      0.0000    313.7340     65.0142
   811.7500     98.8568      0.0000    313.7870     64.9386
   812.0000     97.4236      0.0000    313.8907     64.8591
   812.2500     95.1766      0.0000    313.9640     64.8298
   812.5000     92.6516      0.0000    313.9924     64.8768
   812.7500     90.7450      0.0000    313.9990     64.9508
   813.0000     89.7085      0.0000    313.9999     64.9808
   813.2500     88.9794      0.0000    314.0000     64.9584
   813.5000     87.9836      0.0000    314.0000     64.9297
   813.7500     86.8762      0.0000    314.0000     64.9067
   814.0000     86.3906      0.0000    314.0000     64.8487
   814.2500     86.9470      0.0000    314.0000     64.7362
   814.5000     88.0747      0.0000    314.0000     64.6084
   814.7500     88.8237      0.0000    314.0000     64.5076
   815.0000     88.6147      0.0000    314.0000     64.4324
   815.2500     87.6562      0.0000    314.0000     64.3666
   815.5000     86.7668      0.0000    314.0000     64.3092
   815.7500     86.7836      0.0000    314.0000     64.2556
   816.0000     87.8296      0.0000    314.0000     64.1862
   816.2500     88.9941      0.0000    314.0000     64.1127
   816.5000     88.8338      0.0000    314.0000     64.0839
   816.7500     86.4091      0.0000    314.0000     64.0774
   817.0000     82.1377      0.0000    314.0000     63.9721
   817.2500     77.5921      0.0000    314.0000     63.7001
   817.5000     74.1714      0.0000    314.0001     63.3404
   817.7500     71.9359      0.0000    314.0010     63.0377
   818.0000     69.9740      0.0000    314.0076     62.8697
   818.2500     67.9683      0.0000    314.0360     62.8077
   818.5000     67.0565      0.0000    314.1093     62.7947
   818.7500     68.6980      0.0000    314.2130     62.7976
   819.0000     72.8102      0.0000    314.2670     62.7881
   819.2500     77.5281      0.0000    314.2206     62.7585
   819.5000     80.8596      0.0000    314.1453     62.7151
   819.7500     82.2605      0.0000    314.1453     62.6153
   820.0000     82.5920      0.0000    314.2206     62.3905
   820.2500     83.0107      0.0000    314.2681     62.0477
   820.5000     84.2606      0.0000    314.2217     61.7030
   820.7500     86.7381      0.0000    314.1529     61.4811
   821.0000     90.5328      0.0000    314.1813     61.3956
   821.2500     95.0701      0.0000    314.3299     61.4008
