~Version Information
VERS.                      2.0: CWLS Log ASCII Standard - VERSION 2.0
WRAP.                       NO: One line per depth step
~Well Information Block
STRT.FT                 0.5000: 
STOP.FT              2744.2500: 
STEP.FT                 0.2500: 
NULL.                -999.2500: 
COMP.          Petrogulf Corporation: COMPANY
WELL.              Silva 1-43V: WELL
FLD.           Purgatoire River: FIELD
LOC.           2010' FSL & 614' FEL--: LOCATION
PROV.                 Colorado: PROVINCE
CNTY.               Las Animas: COUNTRY
SRVC.                Patterson: SERVICE COMPANY
DATE.          Mon Sep 12 10:37:12 2005: LOG DATE
UWI.           05 071 08371 00: UNIQUE WELL ID
~Curve Information Block
DEPT.FT            0 000 00 00: Depth
CCL.                          : Casing Collar Locator
TT3.usec                      : CBL 3' Travel Time
AMP3.mV                       : CBL 3' Amplitude
GR.GAPI                       : Gamma Ray
~Parameter Information Block
~A  Depth       CCL         TT3         AMP3         GR     
# ...
  2345.5000      0.0000    695.4291      1.8844     93.6414
  2345.7500      0.0000    709.0182      1.8760     90.4651
  2346.0000      0.0000    723.7679      1.8770     82.9595
  2346.2500      0.0000    737.2291      1.8906     74.4125
  2346.5000      0.0000    745.7321      1.9183     68.9078
  2346.7500      0.0000    746.1627      1.9566     68.6880
  2347.0000      0.0000    738.2246      2.0010     72.9274
  2347.2500      0.0000    725.0390      2.0513     78.8994
  2347.5000      0.0000    711.6501      2.1091     84.1246
  2347.7500      0.0000    702.5947      2.1720     87.5546
  2348.0000      0.0000    700.1359      2.2334     89.3010
  2348.2500      0.0000    704.3391      2.2875     89.7577
  2348.5000      0.0000    714.6232      2.3313     89.1143
  2348.7500      0.0000    730.4754      2.3626     87.5808
  2349.0000      0.0000    749.9539      2.3795     85.7786
  2349.2500      0.0000    768.2159      2.3832     84.5011
  2349.5000      0.0000    778.8312      2.3785     83.8620
  2349.7500      0.0000    777.5453      2.3698     82.8870
  2350.0000      0.0000    765.4723      2.3557     80.4573
  2350.2500      0.0000    748.5102      2.3302     76.9071
  2350.5000      0.0000    732.8283      2.2911     74.2944
  2350.7500      0.0000    720.7178      2.2438     74.6025
  2351.0000      0.0000    710.7473      2.1960     78.0241
  2351.2500      0.0000    700.9400      2.1496     83.4762
  2351.5000      0.0000    690.9144      2.1025     90.0817
  2351.7500      0.0000    681.5464      2.0557     97.1241
  2352.0000      0.0000    673.3925      2.0166    103.0770
  2352.2500      0.0000    665.5986      1.9926    106.0329
  2352.5000      0.0000    656.8499      1.9853    105.3801
  2352.7500      0.0000    647.6502      1.9902    102.3968
  2353.0000      0.0000    640.6904      2.0017     99.0237
  2353.2500      0.0000    638.2483      2.0146     96.3768
  2353.5000      0.0000    639.8715      2.0202     94.4680
  2353.7500      0.0000    643.1034      2.0067     93.0114
  2354.0000      0.0000    645.9112      1.9687     92.1411
  2354.2500      0.0000    648.1117      1.9143     92.1325
  2354.5000      0.0000    651.1260      1.8597     92.6227
  2354.7500      0.0000    656.8456      1.8161     92.7012
  2355.0000      0.0000    665.9915      1.7837     91.8985
  2355.2500      0.0000    676.7028      1.7578     90.5088
  2355.5000      0.0000    685.2194      1.7388     88.8102
  2355.7500      0.0000    689.0207      1.7322     86.5696
  2356.0000      0.0000    689.0815      1.7406     83.4762
  2356.2500      0.0000    688.3344      1.7608     79.6448
  2356.5000      0.0000    688.5848      1.7892     75.6448
  2356.7500      0.0000    689.6497      1.8243     72.3018
  2357.0000      0.0000    690.5465      1.8612     70.4176
  2357.2500      0.0000    690.3468      1.8886     70.4473
  2357.5000      0.0000    688.2364      1.8945     72.4066
  2357.7500      0.0000    683.9240      1.8749     75.8970
  2358.0000      0.0000    678.6103      1.8361     79.9267
  2358.2500      0.0000    675.1983      1.7905     82.9305
  2358.5000      0.0000    676.7962      1.7510     83.4817
  2358.7500      0.0000    684.5922      1.7254     81.2762
  2359.0000      0.0000    696.9514      1.7150     77.4902
  2359.2500      0.0000    709.9718      1.7184     74.1417
  2359.5000      0.0000    718.8905      1.7335     72.8909
  2359.7500      0.0000    720.3660      1.7568     74.0966
  2360.0000      0.0000    714.6700      1.7824     76.7112
  2360.2500      0.0000    705.5306      1.8060     79.1813
  2360.5000      0.0000    697.4849      1.8276     80.6823
  2360.7500      0.0000    693.2743      1.8482     81.4639
  2361.0000      0.0000    693.0190      1.8656     82.1569
  2361.2500      0.0000    694.9181      1.8746     83.3122
  2361.5000      0.0000    696.6637      1.8727     85.6094
  2361.7500      0.0000    696.6697      1.8619     89.5729
  2362.0000      0.0000    694.3394      1.8480     94.5923
  2362.2500      0.0000    689.5724      1.8360     98.8719
  2362.5000      0.0000    682.5999      1.8275    100.9847
  2362.7500      0.0000    674.4993      1.8219    101.2291
  2363.0000      0.0000    667.3235      1.8189    101.0267
  2363.2500      0.0000    662.9662      1.8170    101.1369
  2363.5000      0.0000    661.8640      1.8127    100.9286
  2363.7500      0.0000    663.1848      1.8027     99.4839
  2364.0000      0.0000    666.0800      1.7878     96.8513
  2364.2500      0.0000    670.2153      1.7738     93.9007
  2364.5000      0.0000    675.2134      1.7683     91.3615
  2364.7500      0.0000    680.2994      1.7757     89.4172
  2365.0000      0.0000    684.8713      1.7947     88.0438
  2365.2500      0.0000    689.2262      1.8222     87.4811
  2365.5000      0.0000    694.3175      1.8569     88.3387
  2365.7500      0.0000    700.4887      1.8989     91.0727
  2366.0000      0.0000    706.3399      1.9455     95.1225
  2366.2500      0.0000    709.2487      1.9909     98.7291
  2366.5000      0.0000    707.4454      2.0323     99.9712
  2366.7500      0.0000    701.5109      2.0715     98.0868
  2367.0000      0.0000    694.0577      2.1137     93.9072
  2367.2500      0.0000    688.6270      2.1667     89.2497
  2367.5000      0.0000    688.5595      2.2429     85.8148
  2367.7500      0.0000    695.3713      2.3580     84.1857
  2368.0000      0.0000    707.4691      2.5241     83.5400
  2368.2500      0.0000    721.0845      2.7450     82.4266
  2368.5000      0.0000    733.0292      3.0162     80.0427
  2368.7500      0.0000    742.4843      3.3285     76.8224
  2369.0000      0.0000    749.9677      3.6742     73.9510
  2369.2500      0.0000    755.1374      4.0525     72.5661
  2369.5000      0.0000    756.3500      4.4729     73.2367
  2369.7500      0.0000    752.1000      4.9501     75.7830
  2370.0000      0.0000    742.1820      5.4884     79.4916
  2370.2500      0.0000    727.9592      6.0661     83.6131
  2370.5000      0.0000    712.3912      6.6353     87.6377
  2370.7500      0.0000    699.4543      7.1390     91.2053
  2371.0000      0.0000    692.4959      7.5342     94.1191
  2371.2500      0.0000    692.6492      7.8062     96.3993
  2371.5000      0.0000    698.5261      7.9703     97.8493
  2371.7500      0.0000    707.2556      8.0600     97.7028
  2372.0000      0.0000    716.2104      8.1072     95.3412
  2372.2500      0.0000    724.0836      8.1249     91.3573
  2372.5000      0.0000    730.0381      8.1079     87.3810
  2372.7500      0.0000    732.4548      8.0636     84.7957
  2373.0000      0.0000    730.2930      8.0461     83.9578
  2373.2500      0.0000    726.3577      8.1273     84.4575
  2373.5000      0.0000    727.0413      8.2993     85.6000
  2373.7500      0.0000    736.2401      8.4360     86.7107
  2374.0000      0.0000    749.6589      8.4023     87.4066
  2374.2500      0.0000    757.4053      8.1842     87.6640
  2374.5000      0.0000    753.0880      7.8644     87.6277
  2374.7500      0.0000    739.1480      7.5088     87.5294
  2375.0000     -2.0000    723.4216      7.1281     87.6510
  2375.2500      0.0000    712.8642      6.7266     87.9769
  2375.5000      0.0000    710.8944      6.3392     87.9632
  2375.7500      0.0000    717.7795      6.0130     87.0305
  2376.0000      0.0000    731.0581      5.7656     85.3137
  2376.2500      0.0000    745.7101      5.5628     83.8233
  2376.5000      0.0000    755.6450      5.3460     83.9583
  2376.7500      0.0000    757.0125      5.0965     86.6807
  2377.0000      0.0000    750.7267      4.8582     91.8120
  2377.2500      0.0000    741.2255      4.6825     98.0543
  2377.5000      0.0000    732.4305      4.5698    103.6454
  2377.7500      0.0000    725.0533      4.4796    107.0514
  2378.0000      0.0000    717.6432      4.3746    107.5711
  2378.2500      0.0000    709.8157      4.2397    105.7635
  2378.5000      0.0000    703.9023      4.0715    103.0013
  2378.7500      0.0000    702.9455      3.8682    100.1606
