~Version Information
VERS.                      2.0: CWLS Log ASCII Standard - VERSION 2.0
WRAP.                       NO: One line per depth step
~Well Information Block
STRT.FT                -8.2500: 
STOP.FT              2209.7500: 
STEP.FT                 0.2500: 
NULL.                -999.2500: 
COMP.          Petrogulf Corporation: COMPANY
WELL.          Alexander 9-43V: WELL
FLD.           Purgatorie River: FIELD
LOC.                          : LOCATION
CNTY.               Las Animas: COUNTY
SRVC.                         : SERVICE COMPANY
DATE.          Wed May 28 09:25:28 2003: LOG DATE
UWI.           05 071 07727 00: UNIQUE WELL ID
STAT.                 Colorado: STATE
~Curve Information Block
DEPT.FT            0 000 00 00: Depth
CCL.                          : Casing Collar Locator
TT3.usec                      : CBL 3' Travel Time
AMP3.mV                       : CBL 3' Amplitude
GR.GAPI                       : Gamma Ray
~Parameter Information Block
~A  Depth       CCL         TT3         AMP3         GR     
# ...
  2035.2500      0.0000    692.7482      4.2934     92.1760
  2035.5000      0.0000    708.9139      4.1774     96.5400
  2035.7500      0.0000    720.6492      3.9151    100.5809
  2036.0000      0.0000    723.3333      3.6163    102.3570
  2036.2500      0.0000    717.3008      3.4503    101.1373
  2036.5000      0.0000    707.0289      3.5591     97.9493
  2036.7500      0.0000    697.1623      3.9593     95.0436
  2037.0000      0.0000    689.3414      4.5190     94.0444
  2037.2500      0.0000    681.7544      5.0444     94.3427
  2037.5000      0.0000    671.1626      5.4068     93.9154
  2037.7500      0.0000    656.5604      5.6097     91.7924
  2038.0000      0.0000    642.0436      5.7497     89.0163
  2038.2500      0.0000    634.9280      5.9059     87.0918
  2038.5000      0.0000    639.3801      6.0565     86.1714
  2038.7500      0.0000    652.5764      6.1129     85.1646
  2039.0000      0.0000    667.7720      6.0395     83.4518
  2039.2500      0.0000    679.5568      5.9109     82.1103
  2039.5000      0.0000    685.7228      5.8241     83.1752
  2039.7500      0.0000    686.4907      5.7716     87.6439
  2040.0000      0.0000    683.5196      5.6512     94.2478
  2040.2500      0.0000    678.9014      5.4067    100.0983
  2040.5000      0.0000    674.2216      5.1050    102.5837
  2040.7500      0.0000    670.3477      4.8404    101.0120
  2041.0000      0.0000    667.8237      4.6090     96.7646
  2041.2500      0.0000    667.1255      4.3381     92.0159
  2041.5000      0.0000    668.6651      4.0191     88.2784
  2041.7500      0.0000    672.7075      3.7439     85.8047
  2042.0000      0.0000    679.1569      3.5983     83.8190
  2042.2500      0.0000    687.0235      3.5718     81.2345
  2042.5000      0.0000    693.9917      3.5856     77.5944
  2042.7500      0.0000    697.1740      3.5733     73.5647
  2043.0000      0.0000    695.1693      3.5178     70.3513
  2043.2500      0.0000    689.4355      3.4429     68.7315
  2043.5000      0.0000    683.0724      3.3880     68.9438
  2043.7500      0.0000    678.2067      3.3730     71.2448
  2044.0000      0.0000    674.8581      3.3846     75.9095
  2044.2500      0.0000    672.0195      3.4017     82.4893
  2044.5000      0.0000    669.1429      3.4249     89.3167
  2044.7500      0.0000    666.5239      3.4695     94.0594
  2045.0000      0.0000    664.7451      3.5367     95.1626
  2045.2500      0.0000    663.9218      3.6072     93.0337
  2045.5000      0.0000    663.3631      3.6603     89.5435
  2045.7500      0.0000    662.1214      3.6839     86.1768
  2046.0000      0.0000    660.0636      3.6693     83.1087
  2046.2500      0.0000    658.0354      3.6179     80.0660
  2046.5000      0.0000    656.4610      3.5535     77.2544
  2046.7500      0.0000    653.4726      3.5084     75.1815
  2047.0000      0.0000    644.8328      3.4924     74.1873
  2047.2500      0.0000    626.9941      3.4844     74.3114
  2047.5000      0.0000    600.8340      3.4604     75.2307
  2047.7500      0.0000    571.2697      3.4196     76.4061
  2048.0000      0.0000    542.3427      3.3796     77.5434
  2048.2500      0.0000    514.2059      3.3530     78.6700
  2048.5000      0.0000    486.0921      3.3343     79.6042
  2048.7500      0.0000    461.0759      3.3083     79.7308
  2049.0000      0.0000    446.7415      3.2669     78.5770
  2049.2500      0.0000    450.5841      3.2178     76.4685
  2049.5000      0.0000    473.4189      3.1824     74.5048
  2049.7500      0.0000    507.0474      3.1801     73.9097
  2050.0000      0.0000    539.9959      3.2066     75.2143
  2050.2500      0.0000    566.0875      3.2319     77.8052
  2050.5000      0.0000    586.8807      3.2259     80.3063
  2050.7500      0.0000    606.6582      3.1849     81.6220
  2051.0000      0.0000    626.7507      3.1333     81.8048
  2051.2500      0.0000    644.6216      3.1070     81.9961
  2051.5000      0.0000    656.9912      3.1266     83.5041
  2051.7500      0.0000    662.9747      3.1781     86.7478
  2052.0000      0.0000    664.3701      3.2240     90.9776
  2052.2500      0.0000    663.7225      3.2409     95.0005
  2052.5000      0.0000    662.5164      3.2389     98.0369
  2052.7500      0.0000    660.9517      3.2407     99.8660
  2053.0000      0.0000    658.8137      3.2548    100.5684
  2053.2500      0.0000    656.0536      3.2754    100.3850
  2053.5000      0.0000    652.0607      3.2965     99.4391
  2053.7500      0.0000    644.1481      3.3167     97.3264
  2054.0000      0.0000    627.7667      3.3387     93.4829
  2054.2500      0.0000    599.8753      3.3608     88.2526
  2054.5000      0.0000    562.5243      3.3682     83.1283
  2054.7500      0.0000    522.1168      3.3373     79.7097
  2055.0000      0.0000    484.9886      3.2616     78.7122
  2055.2500      0.0000    454.5739      3.1722     79.8596
  2055.5000      0.0000    432.0534      3.1188     82.2062
  2055.7500      0.0000    417.4394      3.1271     84.6150
  2056.0000      0.0000    409.5169      3.1835     86.4786
  2056.2500      0.0000    406.0623      3.2588     87.9466
  2056.5000      0.0000    404.8344      3.3296     89.1861
  2056.7500      0.0000    404.3513      3.3802     89.8914
  2057.0000      0.0000    404.2793      3.4002     89.9991
  2057.2500      0.0000    405.9384      3.3899     90.3371
  2057.5000      0.0000    412.4605      3.3619     91.8582
  2057.7500      0.0000    426.6120      3.3365     94.5307
  2058.0000      0.0000    446.2831      3.3338     97.6170
  2058.2500      0.0000    462.5864      3.3653    100.6695
  2058.5000      0.0000    465.6538      3.4285    103.4369
  2058.7500      0.0000    453.7515      3.5037    105.0061
  2059.0000      0.0000    434.8747      3.5626    104.0605
  2059.2500      0.0000    418.9148      3.5826    100.4190
  2059.5000     -2.5720    410.4456      3.5575     95.8370
  2059.7500     -4.2102    409.2048      3.4946     92.8314
  2060.0000      0.0000    414.8364      3.4070     92.8477
  2060.2500      0.0000    429.5215      3.3090     95.7539
  2060.5000      0.0000    456.0774      3.2160    100.8771
  2060.7500      0.0000    493.3062      3.1445    108.0638
  2061.0000      0.0000    533.4827      3.1078    117.4835
  2061.2500      0.0000    566.0992      3.1064    128.5363
  2061.5000      0.0000    585.0786      3.1243    139.2881
  2061.7500      0.0000    591.7497      3.1416    147.1707
  2062.0000      0.0000    590.9429      3.1520    150.4111
  2062.2500      0.0000    585.8283      3.1623    148.9695
  2062.5000      0.0000    577.2607      3.1779    144.3186
  2062.7500      0.0000    566.0200      3.1933    138.3057
  2063.0000      0.0000    552.6462      3.2016    131.8582
  2063.2500      0.0000    535.0616      3.2075    124.4145
  2063.5000      0.0000    509.8156      3.2279    114.6503
  2063.7500      0.0000    477.3702      3.2751    102.1267
  2064.0000      0.0000    443.7888      3.3433     88.3811
  2064.2500      0.0000    415.7960      3.4124     76.1443
  2064.5000      0.0000    396.1489      3.4642     67.3355
  2064.7500      0.0000    384.3693      3.4928     61.9914
  2065.0000      0.0000    379.4311      3.5038     59.0121
  2065.2500      0.0000    380.2210      3.5042     57.2716
  2065.5000      0.0000    384.6547      3.4925     55.8939
  2065.7500      0.0000    390.0276      3.4598     54.3060
  2066.0000      0.0000    394.4026      3.4054     52.7096
  2066.2500      0.0000    397.2975      3.3509     52.1537
  2066.5000      0.0000    399.1354      3.3265     53.5221
  2066.7500      0.0000    400.3739      3.3403     56.4043
  2067.0000      0.0000    401.1212      3.3721     59.2945
  2067.2500      0.0000    401.1436      3.3959     60.8172
  2067.5000      0.0000    400.0331      3.3967     60.5105
  2067.7500      0.0000    397.5555      3.3711     58.8128
  2068.0000      0.0000    394.0908      3.3253     56.8203
  2068.2500      0.0000    390.6791      3.2733     55.7094
  2068.5000      0.0000    388.3979      3.2311     55.8225
