~Version Information
VERS.                      2.0: CWLS Log ASCII Standard - VERSION 2.0
WRAP.                       NO: One line per depth step
~Well Information Block
STRT.FT                -8.5000: 
STOP.FT              2286.0000: 
STEP.FT                 0.2500: 
NULL.                -999.2500: 
COMP.          Pioneer Natural Resources: COMPANY
WELL.             Culver 14-12: WELL
FLD.           Purgatorie River: FIELD
LOC.           913' FSL & 1140' FWL--: LOCATION
PROV.                       CO: PROVINCE
CNTY.               Las Animas: COUNTRY
SRVC.          Patterson Wireline: SERVICE COMPANY
DATE.          Wed Jun 15 13:05:36 2005: LOG DATE
UWI.           05 071 08386 00: UNIQUE WELL ID
~Curve Information Block
DEPT.FT            0 000 00 00: Depth
CCL.                          : Casing Collar Locator
TT3.usec                      : CBL 3' Travel Time
AMP3.mV                       : CBL 3' Amplitude
GR.GAPI                       : Gamma Ray
~Parameter Information Block
~A  Depth       CCL         TT3         AMP3         GR     
# ...
  2102.0000      0.0000    827.7589      3.9684     84.8955
  2102.2500      0.0000    822.1398      4.0837     84.3178
  2102.5000      0.0000    817.5645      4.1471     84.1907
  2102.7500      0.0000    812.9507      4.1762     84.7820
  2103.0000      0.0000    807.5587      4.2290     86.3934
  2103.2500      0.0000    800.9935      4.3129     88.8434
  2103.5000      0.0000    791.7828      4.3695     91.2258
  2103.7500      0.0000    776.8588      4.3458     92.4612
  2104.0000      0.0000    753.9460      4.2556     92.0018
  2104.2500      0.0000    725.4390      4.1689     90.0271
  2104.5000      0.0000    698.8431      4.1530     87.2685
  2104.7500      0.0000    681.3509      4.2224     84.7580
  2105.0000      0.0000    673.7877      4.3295     83.3527
  2105.2500      0.0000    670.5297      4.4076     83.1443
  2105.5000      0.0000    664.5170      4.4250     83.4349
  2105.7500      0.0000    652.3027      4.3956     83.5005
  2106.0000      0.0000    636.7072      4.3425     83.3161
  2106.2500      0.0000    625.8945      4.2735     83.3262
  2106.5000      0.0000    627.9001      4.1952     83.4416
  2106.7500      0.0000    644.2655      4.1325     82.7093
  2107.0000      0.0000    669.3986      4.1187     80.3787
  2107.2500      0.0000    696.1028      4.1672     77.0383
  2107.5000      0.0000    720.3788      4.2611     74.2995
  2107.7500      0.0000    740.9482      4.3667     73.4968
  2108.0000      0.0000    756.1406      4.4503     74.8461
  2108.2500      0.0000    763.0522      4.4933     77.5920
  2108.5000      0.0000    759.8591      4.5019     80.6592
  2108.7500      0.0000    748.0266      4.4988     83.2565
  2109.0000      0.0000    731.6654      4.4935     85.1018
  2109.2500      0.0000    714.9301      4.4699     86.2370
  2109.5000      0.0000    700.3643      4.4139     86.7610
  2109.7500      0.0000    689.2897      4.3431     86.7506
  2110.0000      0.0000    682.7156      4.2951     86.2014
  2110.2500      0.0000    681.4456      4.2929     85.0000
  2110.5000      0.0000    685.7312      4.3309     83.2454
  2110.7500      0.0000    695.0676      4.3895     81.5294
  2111.0000      0.0000    708.1158      4.4535     80.5971
  2111.2500      0.0000    722.7916      4.5125     80.8436
  2111.5000      0.0000    736.6819      4.5503     82.1692
  2111.7500      0.0000    747.5157      4.5389     83.9520
  2112.0000      0.0000    753.3956      4.4571     85.0345
  2112.2500      0.0000    753.1794      4.3198     84.1873
  2112.5000      0.0000    747.3442      4.1823     80.9369
  2112.7500      0.0000    738.3813      4.1063     75.9809
  2113.0000      0.0000    729.5857      4.1186     70.7706
  2113.2500      0.0000    723.0739      4.1999     66.7371
  2113.5000      0.0000    718.9240      4.3037     64.9243
  2113.7500      0.0000    715.9630      4.3878     65.9557
  2114.0000      0.0000    713.1995      4.4370     69.6008
  2114.2500      0.0000    710.7342      4.4666     74.1277
  2114.5000      0.0000    709.5023      4.4993     76.8689
  2114.7500      0.0000    710.1066      4.5415     76.2634
  2115.0000      0.0000    712.0142      4.5898     73.3676
  2115.2500      0.0000    713.9985      4.6533     71.0070
  2115.5000      0.0000    715.1125      4.7417     71.4637
  2115.7500      0.0000    714.9526      4.8218     75.0849
  2116.0000      0.0000    713.0407      4.8199     80.6843
  2116.2500      0.0000    707.9678      4.7019     86.6491
  2116.5000      0.0000    697.1783      4.5357     91.6528
  2116.7500      0.0000    678.3004      4.4391     95.0618
  2117.0000      0.0000    651.8328      4.4627     97.1881
  2117.2500      0.0000    622.6538      4.5495     98.8004
  2117.5000      0.0000    597.8050      4.6066    100.1248
  2117.7500      0.0000    582.1514      4.5919    100.9190
  2118.0000      0.0000    576.4274      4.5321    101.4715
  2118.2500      0.0000    578.9014      4.4854    102.3081
  2118.5000      0.0000    587.5860      4.4971    102.7603
  2118.7500      0.0000    600.7446      4.5742    101.1705
  2119.0000      0.0000    616.7728      4.6894     97.0485
  2119.2500      0.0000    634.6829      4.8016     91.9761
  2119.5000      0.0000    654.4516      4.8717     87.8545
  2119.7500      0.0000    676.4489      4.8721     85.0477
  2120.0000      0.0000    700.4737      4.8003     82.7043
  2120.2500      0.0000    724.9820      4.6871     80.1619
  2120.5000      0.0000    747.1475      4.5787     77.3078
  2120.7500      0.0000    764.0781      4.5041     73.9231
  2121.0000      0.0000    774.2744      4.4693     69.5393
  2121.2500      0.0000    778.3183      4.4787     64.1340
  2121.5000      0.0000    778.8365      4.5392     58.5231
  2121.7500      0.0000    779.4794      4.6395     53.9167
  2122.0000      0.0000    782.7982      4.7484     51.3656
  2122.2500      0.0000    788.6231      4.8408     51.6507
  2122.5000      0.0000    794.4963      4.9083     55.2130
  2122.7500      0.0000    797.2766      4.9442     61.6996
  2123.0000      0.0000    794.7070      4.9396     69.5365
  2123.2500      0.0000    786.8467      4.8980     76.4077
  2123.5000      0.0000    776.5657      4.8381     80.7023
  2123.7500      0.0000    767.9428      4.7779     82.4687
  2124.0000      0.0000    763.6324      4.7239     82.8555
  2124.2500      0.0000    763.3561      4.6724     82.8870
  2124.5000      0.0000    764.1774      4.6149     82.8661
  2124.7500      0.0000    762.1508      4.5493     82.5868
  2125.0000      0.0000    754.9446      4.4892     81.8356
  2125.2500      0.0000    743.8209      4.4496     80.6410
  2125.5000      0.0000    732.8915      4.4226     79.1445
  2125.7500      0.0000    726.1311      4.3855     77.4834
  2126.0000      0.0000    724.9828      4.3411     75.8807
  2126.2500      0.0000    728.0167      4.3332     74.6266
  2126.5000      0.0000    731.9877      4.4079     73.9498
  2126.7500      0.0000    733.5408      4.5607     74.0853
  2127.0000      0.0000    730.9874      4.7255     75.2686
  2127.2500      0.0000    724.9612      4.8126     77.3659
  2127.5000      0.0000    717.3503      4.7688     79.6912
  2127.7500      0.0000    709.8354      4.6159     81.4758
  2128.0000      0.0000    703.6785      4.4364     82.4352
  2128.2500      0.0000    700.2346      4.3124     82.7635
  2128.5000      0.0000    700.5314      4.2759     82.8160
  2128.7500      0.0000    704.1492      4.3135     83.0855
  2129.0000      0.0000    709.2476      4.4039     84.2625
  2129.2500      0.0000    714.0451      4.5358     86.6343
  2129.5000      0.0000    717.9601      4.6862     89.3050
  2129.7500      0.0000    721.2120      4.8070     90.7996
  2130.0000      0.0000    723.7198      4.8496     90.8264
  2130.2500      0.0000    724.8167      4.8017     90.7784
  2130.5000      0.0000    724.0765      4.6948     92.1231
  2130.7500      0.0000    722.0172      4.5793     94.7862
  2131.0000      0.0000    719.7145      4.5018     97.2235
  2131.2500      0.0000    717.8997      4.4920     97.5966
  2131.5000      0.0000    716.5438      4.5454     95.0015
  2131.7500      0.0000    714.9741      4.6186     90.2615
  2132.0000      0.0000    712.1689      4.6616     85.5957
  2132.2500      0.0000    707.4103      4.6632     82.8600
  2132.5000      0.0000    701.5227      4.6564     81.8363
  2132.7500      0.0000    697.8123      4.6818     80.6267
  2133.0000      0.0000    700.9619      4.7566     77.9462
  2133.2500      0.0000    713.6672      4.8742     74.6492
  2133.5000      0.0000    733.7345      5.0107     72.7413
  2133.7500      0.0000    754.8005      5.1316     73.3092
  2134.0000      0.0000    770.1498      5.2103     75.7066
  2134.2500      0.0000    775.9671      5.2521     78.0853
  2134.5000      0.0000    772.0262      5.2871     78.1977
  2134.7500      0.0000    761.1234      5.3361     74.4255
  2135.0000      0.0000    748.2759      5.3904     67.0232
  2135.2500      0.0000    738.7404      5.4230     58.2928
