~Version Information
VERS.                      2.0: CWLS Log ASCII Standard - VERSION 2.0
WRAP.                       NO: One line per depth step
~Well Information Block
STRT.FT                -7.0000: 
STOP.FT              2736.0000: 
STEP.FT                 0.2500: 
NULL.                -999.2500: 
COMP.          Pioneer Natural Resources: COMPANY
WELL.              Getem 21-23: WELL
FLD.           Purgatorie River: FIELD
LOC.           2623' FWL & 790' FNL----: LOCATION
PROV.                       CO: PROVINCE
CNTY.               Las Animas: COUNTRY
SRVC.          Patterson Wireline: SERVICE COMPANY
DATE.          Mon Jun 27 09:57:55 2005: LOG DATE
UWI.           05 071 08411 00: UNIQUE WELL ID
~Curve Information Block
DEPT.FT            0 000 00 00: Depth
CCL.                          : Casing Collar Locator
TT3.usec                      : CBL 3' Travel Time
AMP3.mV                       : CBL 3' Amplitude
GR.GAPI                       : Gamma Ray
~Parameter Information Block
~A  Depth       CCL         TT3         AMP3         GR     
    -7.0000   -999.2500   -999.2500   -999.2500     65.2540
    -6.7500   -999.2500   -999.2500   -999.2500     68.5701
    -6.5000   -999.2500   -999.2500   -999.2500     70.5662
    -6.2500   -999.2500   -999.2500   -999.2500     70.7301
    -6.0000   -999.2500   -999.2500   -999.2500     69.2847
    -5.7500   -999.2500   -999.2500   -999.2500     67.0468
    -5.5000   -999.2500   -999.2500   -999.2500     64.7833
    -5.2500   -999.2500   -999.2500   -999.2500     62.7753
    -5.0000   -999.2500   -999.2500   -999.2500     61.1031
    -4.7500   -999.2500   -999.2500   -999.2500     60.1329
    -4.5000   -999.2500   -999.2500   -999.2500     60.3141
    -4.2500   -999.2500   -999.2500   -999.2500     61.4101
    -4.0000   -999.2500   -999.2500   -999.2500     62.2919
    -3.7500   -999.2500   -999.2500   -999.2500     61.8416
    -3.5000   -999.2500   -999.2500   -999.2500     59.9482
    -3.2500   -999.2500   -999.2500   -999.2500     57.4566
    -3.0000   -999.2500   -999.2500   -999.2500     55.3453
    -2.7500   -999.2500   -999.2500   -999.2500     54.1209
    -2.5000   -999.2500   -999.2500   -999.2500     53.7834
    -2.2500   -999.2500   1170.0000      0.6325     54.0889
    -2.0000   -999.2500   1170.0000      0.6236     54.8307
    -1.7500   -999.2500   1170.0000      0.6195     55.9937
    -1.5000   -999.2500   1170.0000      0.6253     57.5884
    -1.2500   -999.2500   1170.0000      0.6449     59.1670
    -1.0000   -999.2500   1170.0000      0.6759     59.6311
    -0.7500   -999.2500   1170.0000      0.7072     57.8638
    -0.5000   -999.2500   1170.0000      0.7249     53.6818
    -0.2500   -999.2500   1170.0000      0.7078     42.0973
     0.0000   -999.2500   1170.0000      0.6884     36.9299
     0.2500   -999.2500   1170.0000      0.6695     32.9941
     0.5000   -999.2500   1170.0000      0.6529     30.2545
     0.7500   -999.2500   1170.0000      0.6425     28.1170
     1.0000   -999.2500   1170.0000      0.6421     25.8395
     1.2500   -999.2500   1170.0000      0.6501     23.2237
     1.5000   -999.2500   1170.0000      0.6593     20.8601
     1.7500   -999.2500   1170.0000      0.6650     19.6233
     2.0000   -999.2500   1170.0000      0.6676     19.9962
     2.2500   -999.2500   1170.0000      0.6689     21.9509
     2.5000   -999.2500   1170.0000      0.6677     25.2350
     2.7500   -999.2500   1170.0000      0.6627     29.3951
     3.0000      0.0000   1170.0000      0.6562     33.5928
     3.2500      0.0000   1170.0000      0.6531     36.8496
     3.5000      0.0000   1170.0000      0.6543     38.5985
     3.7500      0.0000   1170.0000      0.6549     38.8281
     4.0000      0.0000   1170.0000      0.6498     37.9079
     4.2500      0.0000   1170.0000      0.6401     36.6311
     4.5000      0.0000   1170.0000      0.6331     36.1540
     4.7500      0.0000   1170.0000      0.6343     37.3190
     5.0000      0.0000   1170.0000      0.6421     40.0032
     5.2500      0.0000   1170.0000      0.6479     43.4498
     5.5000      0.0000   1170.0000      0.6427     47.2984
     5.7500      0.0000   1170.0000      0.6265     52.1738
     6.0000      0.0000   1170.0000      0.6092     59.0549
     6.2500      0.0000   1170.0000      0.6035     67.9100
     6.5000      0.0000   1170.0000      0.6148     77.1476
     6.7500      0.0000   1170.0000      0.6377     84.6573
     7.0000      0.0000   1170.0000      0.6607     89.3136
     7.2500      0.0000   1170.0000      0.6736     91.5364
     7.5000      0.0000   1170.0000      0.6737     92.7917
     7.7500      0.0000   1170.0000      0.6662     94.6197
     8.0000      0.0000   1170.0000      0.6605     97.7269
     8.2500      0.0000   1170.0000      0.6627    101.5510
     8.5000      0.0000   1170.0000      0.6721    104.5014
     8.7500      0.0000   1170.0000      0.6828    104.9367
     9.0000      0.0000   1170.0000      0.6891    102.4227
     9.2500      0.0000   1170.0000      0.6904     98.2249
     9.5000      0.0000   1170.0000      0.6915     94.5194
     9.7500      0.0000   1170.0000      0.6991     93.0738
    10.0000      0.0000   1170.0000      0.7152     94.2726
    10.2500      0.0000   1170.0000      0.7348     96.8810
    10.5000      0.0000   1170.0000      0.7485     98.8110
    10.7500      0.0000   1169.9392      0.7536     98.5900
    11.0000      0.0000   1169.5426      0.7687     96.2851
    11.2500      0.0000   1167.5287      0.8772     93.0779
    11.5000      0.0000   1159.5640      1.3367     90.1476
    11.7500      0.0000   1135.0327      2.7500     87.8798
    12.0000      0.0000   1076.1913      6.0997     85.8853
    12.2500      0.0000    966.2755     12.2803     83.6678
    12.5000      0.0000    806.3770     21.1628     81.2572
    12.7500      0.0000    625.2311     31.0990     79.1947
    13.0000      0.0000    465.4226     39.7540     78.0602
    13.2500      0.0000    355.6382     45.6460     78.1074
    13.5000      0.0000    296.9106     48.8198     79.0993
    13.7500      0.0000    272.4420     50.2161     80.3027
    14.0000      0.0000    264.4883     50.7430     80.8691
    14.2500      0.0000    262.4554     50.9052     80.5138
    14.5000      0.0000    262.0362     50.9147     79.7543
    14.7500      0.0000    261.9655     50.8748     79.2371
    15.0000      0.0000    261.9685     50.8542     78.8617
    15.2500      0.0000    261.9728     50.8887     77.8499
    15.5000      0.0000    261.9656     50.9753     75.7375
    15.7500      0.0000    261.9413     51.0933     72.9375
    16.0000      0.0000    261.9036     51.2316     70.1316
    16.2500      0.0000    261.8614     51.3957     67.3427
    16.5000      0.0000    261.8230     51.5888     63.9956
    16.7500      0.0000    261.7919     51.7940     59.9320
    17.0000      0.0000    261.7672     51.9825     56.0457
    17.2500      0.0000    261.7460     52.1388     53.5476
    17.5000      0.0000    261.7271     52.2682     52.7509
    17.7500      0.0000    261.7147     52.3820     52.9492
    18.0000      0.0000    261.7222     52.4756     53.3868
    18.2500      0.0000    261.7720     52.5074     53.9115
    18.5000      0.0000    261.9253     52.3735     54.7511
    18.7500      0.0000    262.3747     51.8941     56.1509
    19.0000      0.0000    263.5933     50.8425     58.1933
    19.2500      0.0000    266.3690     49.0296     60.2972
    19.5000      0.0000    271.4369     46.4027     60.9779
    19.7500      0.0000    278.7770     43.0932     59.0719
    20.0000      0.0000    287.3124     39.3820     55.4001
    20.2500      0.0000    296.0858     35.5998     52.3570
    20.5000      0.0000    306.9575     32.0047     51.6222
    20.7500      0.0000    327.6220     28.7023     52.9367
    21.0000      0.0000    372.1978     25.6660     55.2013
    21.2500      0.0000    455.3987     22.8299     57.8435
    21.5000      0.0000    580.4174     20.1691     60.5719
    21.7500      0.0000    730.6915     17.7101     62.4507
    22.0000      0.0000    877.0269     15.5011     62.1303
    22.2500      0.0000    995.2017     13.5921     59.0408
    22.5000      0.0000   1076.7123     12.0318     53.9850
    22.7500      0.0000   1125.8809     10.8525     48.5921
    23.0000      0.0000   1151.8942     10.0398     44.4321
    23.2500      0.0000   1163.7235      9.5212     42.4527
    23.5000      0.0000   1168.2095      9.1939     42.7326
    23.7500      0.0000   1169.5811      8.9657     44.4967
    24.0000      0.0000   1169.8502      8.7772     46.5001
    24.2500      0.0000   1169.5925      8.6019     47.7909
    24.5000      0.0000   1168.3531      8.4354     48.3310
    24.7500      0.0000   1164.6335      8.2834     48.6817
    25.0000      0.0000   1156.2117      8.1525     49.0018
    25.2500      0.0000   1142.0227      8.0438     48.7028
    25.5000      0.0000   1124.9996      7.9515     47.1747
    25.7500      0.0000   1112.1627      7.8669     44.5046
    26.0000      0.0000   1109.3605      7.7876     41.4617
    26.2500      0.0000   1115.4346      7.7227     39.1131
