~Version Information
VERS.                      2.0: CWLS Log ASCII Standard - VERSION 2.0
WRAP.                       NO: One line per depth step
~Well Information Block
STRT.FT               240.0000: 
STOP.FT              1709.2000: 
STEP.FT                 0.1000: 
NULL.                -999.2500: 
COMP.          Pioneer Natural Resources: COMPANY
WELL.              Patten 22-2: WELL
FLD.           Purgatoire River: FIELD
LOC.           2157' FNL & 1528' FWL: LOCATION
PROV.                 Colorado: PROVINCE
CNTY.               Las Animas: COUNTRY
SRVC.                Patterson: SERVICE COMPANY
DATE.          Fri Dec 10 09:15:13 2004: LOG DATE
UWI.           05 071 08168 00: UNIQUE WELL ID
~Curve Information Block
DEPT.FT            0 000 00 00: Depth
DCAL.in                       : CDL Caliper
RHOB.g/cc                     : CDL Bulk Density
RHOC.g/cc                     : CDL Density Correction
DPOR.pu                       : CDL Density Porosity
NPOR.pu                       : Neutron Porosity
GR.GAPI                       : Gamma Ray
~Parameter Information Block
~A  Depth       DCAL        RHOB        RHOC        DPOR        NPOR         GR     
# ...
   336.0000      8.1178      2.4110     -0.0537     14.4854     26.5807     99.3977
   336.1000      8.1178      2.3439     -0.0654     18.5486     26.4886     99.6184
   336.2000      8.1178      2.3021     -0.0988     21.0869     26.2550    100.8056
   336.3000      8.1149      2.2492     -0.0053     24.2903     25.6647    102.7989
   336.4000      8.1149      2.1492     -0.0536     30.3532     24.8344    103.0645
   336.5000      8.1347      2.0027     -0.1059     39.2293     23.8565    101.2317
   336.6000      8.1347      1.8294     -0.0995     49.7305     22.6470     99.8653
   336.7000      8.1347      1.6460     -0.1994     60.8463     21.1240     97.0477
   336.8000      8.1708      1.4876     -0.2424     70.4494     19.3513     92.7052
   336.9000      8.1708      1.3905     -0.2147     76.3309     17.7367     91.7558
   337.0000      8.2364      1.3521     -0.1148     78.6586     16.4961     93.5675
   337.1000      8.2364      1.3442     -0.0405     79.1370     15.4278     93.0865
   337.2000      8.2364      1.3548      0.0356     78.4953     14.2642     89.7799
   337.3000      8.3372      1.3903      0.1338     76.3445     12.9913     85.8173
   337.4000      8.3372      1.4537      0.1860     72.5012     11.8672     83.4813
   337.5000      8.4413      1.5409      0.1893     67.2193     11.0592     85.2914
   337.6000      8.4413      1.6491      0.2007     60.6616     10.5111     90.0303
   337.7000      8.4413      1.7791      0.2600     52.7840     10.0742     93.3287
   337.8000      8.4788      1.9275      0.2937     43.7880      9.7319     92.6953
   337.9000      8.4788      2.0793      0.3434     34.5872      9.7294     89.9569
   338.0000      8.4227      2.2110      0.3748     26.6087     10.3111     90.5044
   338.1000      8.4227      2.3153      0.3452     20.2849     11.1904     97.5909
   338.2000      8.4227      2.4056      0.3671     14.8106     11.9184    104.3053
   338.3000      8.3493      2.4768      0.4252     10.4982     12.6065    104.1697
   338.4000      8.3493      2.5039      0.3494      8.8516     13.5370    102.9124
   338.5000      8.3165      2.4891      0.2047      9.7505     14.7139    105.8511
   338.6000      8.3165      2.4682      0.1666     11.0159     16.0423    109.5172
   338.7000      8.3165      2.4698      0.1882     10.9191     17.3482    108.8363
   338.8000      8.3060      2.4845      0.1990     10.0277     18.5583    105.9126
   338.9000      8.3060      2.4865      0.1096      9.9119     19.6626    106.0569
   339.0000      8.2998      2.4744      0.0736     10.6411     20.4995    110.0873
   339.1000      8.2998      2.4684      0.0326     11.0051     20.8069    115.7863
   339.2000      8.2998      2.4776      0.0685     10.4483     20.7431    121.1066
   339.3000      8.3094      2.4889      0.1211      9.7609     20.8988    124.0470
   339.4000      8.3094      2.4888      0.1029      9.7689     21.5519    124.7021
   339.5000      8.3353      2.4774      0.0709     10.4630     22.4229    127.5935
   339.6000      8.3353      2.4576      0.0787     11.6597     22.9331    131.8374
   339.7000      8.3353      2.4350      0.0218     13.0317     23.0221    129.4606
   339.8000      8.3576      2.4203      0.0282     13.9183     23.0750    121.5648
   339.9000      8.3576      2.4210      0.0002     13.8798     23.1467    116.3084
   340.0000      8.3684      2.4326      0.0589     13.1782     23.3404    117.5079
   340.1000      8.3684      2.4326      0.0659     13.1762     23.7189    123.4001
   340.2000      8.3684      2.4069      0.0334     14.7332     23.8525    127.4417
   340.3000      8.3733      2.3731      0.0339     16.7841     23.4640    127.2491
   340.4000      8.3733      2.3471      0.0481     18.3566     22.8706    125.8358
   340.5000      8.3807      2.3278      0.0326     19.5276     22.2675    124.7976
   340.6000      8.3807      2.3212      0.0313     19.9265     21.5280    125.3983
   340.7000      8.3807      2.3357      0.0620     19.0464     20.8371    125.8429
   340.8000      8.3917      2.3608      0.1296     17.5278     20.6222    122.5462
   340.9000      8.3917      2.3757      0.0909     16.6262     20.9690    119.1294
   341.0000      8.3973      2.3773      0.0891     16.5289     21.4884    120.6020
   341.1000      8.3973      2.3833      0.0442     16.1609     21.9401    124.3162
   341.2000      8.3973      2.4092      0.0708     14.5931     22.5616    125.1484
   341.3000      8.3968      2.4463      0.1644     12.3476     23.3182    121.7798
   341.4000      8.3968      2.4734      0.2147     10.7052     23.7405    117.6048
   341.5000      8.3910      2.4867      0.1948      9.8956     23.8567    115.5020
   341.6000      8.3910      2.4959      0.2145      9.3409     24.1746    114.9417
   341.7000      8.3910      2.5033      0.2016      8.8919     24.7890    114.8367
   341.8000      8.3804      2.5058      0.1546      8.7406     25.2633    115.4612
   341.9000      8.3804      2.5011      0.1340      9.0229     25.2839    115.6956
   342.0000      8.3740      2.4933      0.0649      9.4972     25.2357    113.5773
   342.1000      8.3740      2.4884      0.0575      9.7925     25.5365    110.4689
   342.2000      8.3740      2.4816      0.0671     10.2074     25.7301    108.4519
   342.3000      8.3702      2.4667      0.0663     11.1072     25.2666    107.4941
   342.4000      8.3702      2.4515      0.0285     12.0321     24.5455    109.7370
   342.5000      8.3583      2.4451      0.0678     12.4157     24.0326    119.8438
   342.6000      8.3583      2.4456      0.0599     12.3860     23.5507    133.7502
   342.7000      8.3583      2.4384      0.1125     12.8253     22.8971    140.7676
   342.8000      8.3439      2.4156      0.0535     14.2073     22.2092    138.2352
   342.9000      8.3439      2.4018      0.0233     15.0424     21.7760    132.8243
   343.0000      8.3480      2.4199      0.0454     13.9465     21.8216    132.5145
   343.1000      8.3480      2.4508      0.1156     12.0704     22.2541    134.9951
   343.2000      8.3480      2.4629      0.1108     11.3415     22.5876    132.4832
   343.3000      8.3505      2.4506      0.0968     12.0877     22.5109    127.3508
   343.4000      8.3505      2.4377      0.0759     12.8685     22.1857    126.2284
   343.5000      8.3255      2.4507      0.1146     12.0777     22.0695    129.0867
   343.6000      8.3255      2.4853      0.1726      9.9837     22.5404    132.7930
   343.7000      8.3255      2.5128      0.1720      8.3136     23.2010    135.2317
   343.8000      8.2994      2.5217      0.1300      7.7730     23.3650    135.9710
   343.9000      8.2994      2.5246      0.1552      7.5991     23.1171    136.0336
   344.0000      8.2896      2.5293      0.1131      7.3128     22.9770    134.4519
   344.1000      8.2896      2.5321      0.1207      7.1466     23.1389    130.4048
   344.2000      8.2896      2.5337      0.0355      7.0470     23.3902    126.7686
   344.3000      8.2873      2.5400      0.1027      6.6675     23.6738    127.0209
   344.4000      8.2873      2.5459      0.0811      6.3063     24.0150    130.8646
   344.5000      8.2870      2.5434      0.0744      6.4623     24.0593    134.4279
   344.6000      8.2870      2.5268      0.0754      7.4652     23.8419    135.9506
   344.7000      8.2870      2.4989      0.0317      9.1585     23.6896    136.7474
   344.8000      8.2884      2.4701      0.0266     10.9039     23.6724    136.9040
   344.9000      8.2884      2.4409      0.0217     12.6734     23.7265    133.0520
   345.0000      8.2932      2.4118     -0.0407     14.4348     23.7960    123.9058
   345.1000      8.2932      2.3934     -0.0155     15.5513     24.1588    116.1818
   345.2000      8.2932      2.3760      0.0370     16.6045     24.7493    115.1952
   345.3000      8.3104      2.3363     -0.0040     19.0121     24.7695    118.5068
   345.4000      8.3104      2.2758     -0.0361     22.6801     23.8574    124.1551
   345.5000      8.3458      2.2128     -0.0522     26.4966     22.7360    131.1813
