~Version Information
VERS.                      2.0: CWLS Log ASCII Standard - VERSION 2.0
WRAP.                       NO: One line per depth step
~Well Information Block
STRT.FT               745.0000: 
STOP.FT              2945.7500: 
STEP.FT                 0.2500: 
NULL.                -999.2500: 
COMP.          Pioneer Natural Resources: COMPANY
WELL.          Old Yeller 31-32: WELL
FLD.           Purgatoire River: FIELD
LOC.           1832' FEL & 793' FNL--: LOCATION
STAT.                 Colorado: State
CNTY.               Las Animas: COUNTY
CTRY. USA : Country
SECT. 32 : Section
TOWN. 32S : Township
RANG. 67W : Range
SRVC.                Patterson: SERVICE COMPANY
DATE.          Sun Aug 28 20:20:00 2005: LOG DATE
API.           05 071 08356 00: UNIQUE WELL ID
~Curve Information Block
DEPT.FT            0 000 00 00: Depth
SN.Ohm-m                      : IEL Short Normal
SP.mV                         : IEL Spontaneous Potential
DIR.Ohm-m                     : IEL Induction Resistivity
GR.GAPI                       : Gamma Ray
~Parameter Information Block
~A  Depth        SN          SP         DIR          GR     
# ...
   879.0000   2000.0000   2004.0000     18.5170    125.0783
   879.2500   2000.0000   2004.0000     18.5210    123.5373
   879.5000   2000.0000   2004.0000     18.4447    122.0316
   879.7500   2000.0000   2004.0000     18.3067    122.6765
   880.0000   2000.0000   2004.0000     18.1349    126.6832
   880.2500   2000.0000   2004.0000     17.9446    130.7874
   880.5000   2000.0000   2004.0000     17.7300    137.1000
   880.7500   2000.0000   2004.0000     17.4693    140.2420
   881.0000   2000.0000   2004.0000     17.1382    142.1191
   881.2500   2000.0000   2004.0000     16.7240    141.3611
   881.5000   2000.0000   2004.0000     16.2368    137.9291
   881.7500   2000.0000   2004.0000     15.7105    134.7271
   882.0000   2000.0000   2004.0000     15.0857    129.1275
   882.2500   2000.0000   2004.0000     14.6365    124.8966
   882.5000   2000.0000   2004.0000     14.2830    118.2888
   882.7500   2000.0000   2004.0000     14.0399    114.5331
   883.0000   2000.0000   2004.0000     13.9007    111.2662
   883.2500   2000.0000   2004.0000     13.8433    110.6665
   883.5000   2000.0000   2004.0000     13.8382    110.5706
   883.7500   2000.0000   2004.0000     13.8560    109.9545
   884.0000   2000.0000   2004.0000     13.8726    107.4302
   884.2500   2000.0000   2004.0000     13.8704    105.0128
   884.5000   2000.0000   2004.0000     13.8371    101.5032
   884.7500   2000.0000   2004.0000     13.7664     99.8948
   885.0000   2000.0000   2004.0000     13.6602     99.1579
   885.2500     17.2521   2004.0000     13.5327     99.7715
   885.5000     16.5019   2004.0000     13.4820    101.9891
   885.7500     15.4007   2004.0000     13.3929    104.1080
   886.0000     14.1762   2004.0000     13.3621    107.8704
   886.2500     13.1515   2004.0000     13.3977    110.4089
   886.5000     12.6112   2004.0000     13.4901    113.3574
   886.7500     12.6948    -59.4764     13.6205    114.2387
   887.0000     13.3638    -52.1007     13.7742    113.4698
   887.2500     14.4375    -45.5706     13.9524    111.6225
   887.5000     15.6929    -40.1287     14.1753    107.3489
   887.7500     16.9812    -35.8774     14.4735    103.7636
   888.0000     18.2847    -32.7941     14.8799     97.4344
   888.2500     19.6802    -30.7638     15.4251     92.6503
   888.5000     21.2474    -29.6178     16.1366     84.9463
   888.7500     23.0035    -29.1698     17.0368     99.5415
   889.0000     24.9207    -29.2420     18.1387     89.4298
   889.2500     26.9929    -29.6800     19.4415     82.7575
   889.5000     29.2772    -30.3589     20.9320     73.3586
   889.7500     31.8643    -31.1786     22.5858     81.2182
   890.0000     34.7953    -32.0590     24.3599     71.9338
   890.2500     37.9625    -32.9322     26.1688     66.2945
   890.5000     41.0320    -33.7362     27.8562     59.2644
   890.7500     43.4555    -34.4110     29.1932     56.2324
   891.0000     44.6374    -34.9008     29.9350     54.9956
   891.2500     44.2261    -35.1614     29.9214     56.2679
   891.5000     42.3351    -35.1707     29.1560     60.6176
   891.7500     39.4851    -34.9379     27.8019     65.0858
   892.0000     36.2971    -34.5057     26.1070     75.2856
   892.2500     33.1938    -33.9473     24.3129     85.4933
   892.5000     30.3224    -33.3522     22.5939    106.7790
   892.7500     27.6649    -32.8046     21.0387    123.8633
   893.0000     25.1772    -32.3578     19.6662    148.9261
   893.2500     22.8623    -32.0133     18.4588    161.9492
   893.5000     20.7836    -31.7112     17.3945    173.0325
   893.7500     19.0445    -31.3418     16.4647    175.3954
   894.0000     17.7436    -30.7775     15.6756    174.5986
   894.2500     16.9149    -29.9191     15.0363    172.9360
   894.5000     16.4854    -28.7415     14.5472    170.5755
   894.7500     16.2860    -27.3196     14.1943    169.6160
   895.0000     16.1229    -25.8212     13.9525    169.4775
   895.2500     15.8726    -24.4656     13.7932    170.2107
   895.5000     15.5378    -23.4614     13.6929    171.8989
   895.7500     15.2302    -22.9471     13.6390    172.7076
   896.0000     15.0960    -22.9571     13.6300    172.1741
   896.2500     15.2326    -23.4229     13.6719    170.2318
   896.5000     15.6422    -24.2061     13.7722    164.9601
   896.7500     16.2398    -25.1460     13.9329    160.2044
   897.0000     16.8994    -26.1020     14.1476    152.2399
   897.2500     17.5094    -26.9777     14.4018    147.2541
   897.5000     18.0074    -27.7253     14.6776    141.7840
   897.7500     18.3851    -28.3349     14.9601    139.9046
   898.0000     18.6701    -28.8184     15.2413    139.2918
   898.2500     18.9053    -29.1969     15.5211    139.6127
   898.5000     19.1335    -29.4922     15.8062    139.8414
   898.7500     19.3879    -29.7252     16.1087    139.3503
   899.0000     19.6880    -29.9153     16.4449    137.7167
   899.2500     20.0430    -30.0822     16.8337    136.3996
   899.5000     20.4626    -30.2445     17.2934    134.5783
   899.7500     20.9638    -30.4191     17.8390    133.5661
   900.0000     21.5681    -30.6201     18.4794    132.4450
   900.2500     22.2916    -30.8585     19.2164    131.9742
   900.5000     23.1397    -31.1397     20.0460    131.5608
   900.7500     24.1100    -31.4655     20.9613    131.4979
   901.0000     25.2044    -31.8370     21.9575    131.9794
   901.2500     26.4374    -32.2592     23.0347    132.6098
   901.5000     27.8342    -32.7436     24.1987    133.1054
   901.7500     29.4208    -33.3099     25.4601    132.4883
   902.0000     31.2172    -33.9821     26.8337    129.8016
   902.2500     33.2338    -34.7824     28.3378    127.2287
   902.5000     35.4665    -35.7224     29.9879    123.2594
   902.7500     37.8940    -36.7975     31.7833    120.8919
   903.0000     40.4848    -37.9847     33.6959    117.3475
   903.2500     43.2074    -39.2459     35.6774    114.2940
   903.5000     46.0387    -40.5344     37.6855    107.5543
   903.7500     48.9707    -41.8035     39.7048    101.5009
   904.0000     52.0155    -43.0134     41.7319     91.3153
   904.2500     55.1907    -44.1360     43.7325     85.2290
   904.5000     58.4763    -45.1566     45.6052     79.6089
   904.7500     61.7705    -46.0733     47.1916     78.7823
   905.0000     64.8838    -46.8943     48.3346     81.0000
   905.2500     67.5847    -47.6346     48.9570     83.5978
   905.5000     69.6764    -48.3109     49.1065     87.0259
   905.7500     71.0656    -48.9366     48.9360     88.0011
   906.0000     71.7925    -49.5156     48.6372     86.7501
   906.2500     72.0033    -50.0381     48.3734     84.3868
   906.5000     71.8765    -50.4772     48.2398     79.8746
   906.7500     71.5342    -50.7908     48.2493     77.1056
   907.0000     70.9688    -50.9262     48.3324     74.4742
   907.2500     70.0135    -50.8290     48.3488     73.9779
   907.5000     68.3904    -50.4538     48.1079     74.5492
   907.7500     65.8453    -49.7738     47.3988     75.1501
   908.0000     62.3161    -48.7876     46.0343     75.7825
   908.2500     58.0313    -47.5205     43.9270     76.4050
   908.5000     53.4549    -46.0217     41.1699     79.2223
   908.7500     49.0883    -44.3559     38.0411     83.2479
   909.0000     45.2578    -42.5950     34.8942     93.0441
   909.2500     42.0338    -40.8093     32.0169    101.6109
   909.5000     39.3138    -39.0614     29.5620    115.4398
   909.7500     36.9627    -37.4038     27.5623    123.6930
   910.0000     34.8963    -35.8782     25.9808    132.2738
   910.2500     33.0880    -34.5163     24.7559    134.8843
   910.5000     31.5486    -33.3406     23.8272    134.6339
   910.7500     30.3155    -32.3639     23.1493    132.4752
   911.0000     29.4474    -31.5871     22.6973    127.6594
   911.2500     29.0060    -30.9992     22.4672    124.0576
   911.5000     29.0229    -30.5769     22.4699    118.9356
   911.7500     29.4745    -30.2882     22.7207    116.0761
   912.0000     30.2814    -30.0978     23.2260    112.9531
   912.2500     31.3326    -29.9742     23.9718    111.6751
