~Version Information
 VERS.                                  2.0 : CWLS LAS VERSION
 WRAP.                                   NO : WRAPING MODE
 SWARE .                 MController 2.5.0N : SOFTWARE VERSION
~Well Information
 WELL.                          Border 21-3 : WELL
 COMP.              Pioneer Natural Resouce : COMPANY
 FLD.                 NE/NW Sec 3 T35S R65W : FIELD
 LOC.                      Purgatiore River : LOCATION
 DATE.                             12/09/04 : DATE(S) LOGGED
 SRVC.       Blanco Geological Services LLC : SERVICE COMPANY
 STAT.                                   CO : STATE
 CNTY.                           Las Animas : COUNTY
 CTRY.                                  USA : COUNTRY
 API.                          05-071-08169 : API NUMBER
 STRT.FT                             250.00 : START DEPTH
 STOP.FT                            1525.00 : STOP DEPTH
 STEP.FT                               1.00 : DEPTH INCREMENT
 NULL.                                -9999 : NULL VALUE
~Curve information
 DEPTH.FT                                   :
 ROP.MIN/FT                                 :
 GAS.UNITS                                  :
~ASCII Log data
# ...
      1050.0         0.27         34.0 
      1051.0         0.23         36.6 
      1052.0         0.20         33.6 
      1053.0         0.20         32.2 
      1054.0         0.23         32.7 
      1055.0         0.23         31.3 
      1056.0         0.25         31.4 
      1057.0         0.23         30.7 
      1058.0         0.20         30.7 
      1059.0         0.13         30.7 
      1060.0         0.13         30.1 
      1061.0         0.17         29.0 
      1062.0         0.17         27.4 
      1063.0         0.13         25.9 
      1064.0         0.17         20.1 
      1065.0         0.13         20.1 
      1066.0         0.13         21.2 
      1067.0         0.17         22.2 
      1068.0         0.13         36.0 
      1069.0         0.17         48.1 
      1070.0         0.17         65.7 
      1071.0         0.23         92.1 
      1072.0         0.20        145.9 
      1073.0         0.23        164.6 
      1074.0         0.22        184.4 
      1075.0         0.27        176.5 
      1076.0         1.97        132.1 
      1077.0         0.40         30.8 
      1078.0         0.37         27.4 
      1079.0         0.28         27.7 
      1080.0         0.23         29.9 
      1081.0         0.23         38.7 
      1082.0         0.27         44.3 
      1083.0         0.23         45.2 
      1084.0         0.27         43.5 
      1085.0         0.20         39.9 
      1086.0         0.20         34.6 
      1087.0         0.20         34.0 
      1088.0         0.17         34.6 
      1089.0         0.13         34.6 
      1090.0         0.17         32.7 
      1091.0         0.13         32.4 
      1092.0         0.13         31.4 
      1093.0         0.20         31.3 
      1094.0         0.20         31.9 
      1095.0         0.23         28.8 
      1096.0         0.28         27.6 
      1097.0         0.23         25.9 
      1098.0         0.23         20.5 
      1099.0         0.33         18.8 
      1100.0         0.30         23.3 
      1101.0         0.33         62.8 
      1102.0         0.42        109.0 
      1103.0         0.23        134.2 
      1104.0         0.27        154.2 
      1105.0         0.23        247.9 
      1106.0         5.02        244.0 
      1107.0         0.20         30.0 
      1108.0         0.23         26.7 
      1109.0         0.23         26.9 
      1110.0         0.23         23.9 
      1111.0         0.28         23.3 
      1112.0         0.10         23.3 
      1113.0         0.17         22.7 
      1114.0         0.17         22.0 
      1115.0         0.27         22.2 
      1116.0         0.27         22.3 
      1117.0         0.33         22.1 
      1118.0         0.20         22.7 
      1119.0         0.23         22.8 
      1120.0         0.30         22.6 
      1121.0         0.30         23.1 
      1122.0         0.23         22.8 
      1123.0         0.27         22.4 
      1124.0         0.25         23.2 
      1125.0         0.23         24.5 
      1126.0         0.27         24.1 
      1127.0         0.23         22.0 
      1128.0         0.27         15.8 
      1129.0         0.20         15.8 
      1130.0         0.27         12.9 
      1131.0         0.20         14.3 
      1132.0         0.23         21.4 
      1133.0         0.23         21.4 
      1134.0         0.30         32.6 
      1135.0         0.27         75.0 
      1136.0         3.17        134.0 
      1137.0         0.57         31.5 
      1138.0         0.37         28.8 
      1139.0         0.23         27.4 
      1140.0         0.23         27.7 
      1141.0         0.20         26.9 
      1142.0         0.23         27.3 
      1143.0         0.20         26.0 
      1144.0         0.27         26.2 
      1145.0         0.23         26.6 
      1146.0         0.23         25.6 
      1147.0         0.22         25.1 
      1148.0         0.23         23.8 
      1149.0         0.27         23.7 
      1150.0         0.33         20.7 
      1151.0         0.33         20.0 
      1152.0         0.43         20.0 
      1153.0         0.43         20.8 
      1154.0         0.53         21.6 
      1155.0         0.57         20.7 
      1156.0         0.45         21.9 
      1157.0         0.33         16.9 
      1158.0         0.37         17.7 
      1159.0         0.23         22.0 
      1160.0         0.10         23.5 
      1161.0         0.20         37.1 
      1162.0         0.27         60.4 
      1163.0         0.30         83.5 
      1164.0         0.30         82.2 
      1165.0         0.23         61.2 
      1166.0         2.02         60.4 
      1167.0         0.43         31.3 
      1168.0         0.45         30.8 
      1169.0         0.37         28.9 
      1170.0         0.30         26.4 
      1171.0         0.30         25.2 
      1172.0         0.23         22.2 
      1173.0         0.23         23.1 
      1174.0         0.27         23.2 
      1175.0         0.23         22.2 
      1176.0         0.27         21.8 
      1177.0         0.30         22.2 
      1178.0         0.27         23.4 
      1179.0         0.27         22.5 
      1180.0         0.22         24.2 
      1181.0         0.17         24.2 
      1182.0         0.23         24.7 
      1183.0         0.23         21.4 
      1184.0         0.20         16.4 
      1185.0         0.20         16.4 
      1186.0         0.17         17.0 
      1187.0         0.17         17.0 
      1188.0         0.20         23.0 
      1189.0         0.20         52.1 
      1190.0         0.17         52.1 
      1191.0         0.17         76.8 
      1192.0         0.17         76.8 
      1193.0         0.23         93.6 
      1194.0         0.17         93.7 
      1195.0         0.23         83.2 
      1196.0         2.02         73.3 
      1197.0         0.37         33.4 
      1198.0         0.33         33.0 
      1199.0         0.20         30.9 
      1200.0         0.10         30.9 
      1201.0         0.27         29.7 
      1202.0         0.30         29.4 
      1203.0         0.25         31.7 
      1204.0         0.23         32.8 
      1205.0         0.20         30.3 
      1206.0         0.23         30.3 
      1207.0         0.20         30.0 
      1208.0         0.17         28.8 
      1209.0         0.17         26.6 
      1210.0         0.13         26.6 
      1211.0         0.17         27.3 
      1212.0         0.13         25.6 
      1213.0         0.13         24.9 
      1214.0         0.13         22.0 
      1215.0         0.10         22.0 
      1216.0         0.20         20.9 
      1217.0         0.20         17.0 
      1218.0         0.23         16.2 
      1219.0         0.23         14.0 
      1220.0         0.23         14.9 
      1221.0         0.28         17.8 
      1222.0         0.23         20.0 
      1223.0         0.30         31.5 
      1224.0         0.40         72.0 
      1225.0         0.30        111.9 
      1226.0         3.05        130.5 
      1227.0         0.40         30.7 
      1228.0         0.30         29.2 
      1229.0         0.30         28.3 
      1230.0         0.33         26.9 
      1231.0         0.30         24.4 
      1232.0         0.37         21.1 
      1233.0         0.28         22.7 
      1234.0         0.23         24.8 
      1235.0         0.13         24.8 
      1236.0         0.20         25.4 
      1237.0         0.33         24.8 
      1238.0         0.27         25.3 
      1239.0         0.23         24.2 
      1240.0         0.20         23.5 
      1241.0         0.13         22.5 
      1242.0         0.17         22.7 
      1243.0         0.17         22.7 
      1244.0         0.13         21.6 
      1245.0         0.20         17.1 
      1246.0         0.17         17.1 
      1247.0         0.23         15.6 
      1248.0         0.20         20.4 
      1249.0         0.32         34.5 
