~Version Information
VERS.                      2.0: CWLS Log ASCII Standard - VERSION 2.0
WRAP.                       NO: One line per depth step
~Well Information Block
STRT.FT               519.6000: 
STOP.FT              2727.5000: 
STEP.FT                 0.1000: 
NULL.                -999.2500: 
COMP.          Petrogulf Corporation: COMPANY
WELL.              Silva 6-22V: WELL
FLD.           Purgatorie River: FIELD
LOC.           1936' FNL & 1798' FWL: LOCATION
CNTY.               Las Animas: COUNTY
SRVC.                         : SERVICE COMPANY
DATE.          Tue Nov 09 12:21:27 2004: LOG DATE
UWI.           05 071 08143 00: UNIQUE WELL ID
STAT.                 Colorado: STATE
~Curve Information Block
DEPT.FT            0 000 00 00: Depth
DCAL.in                       : CDL Caliper
RHOB.g/cc                     : CDL Bulk Density
RHOC.g/cc                     : CDL Density Correction
DPOR.pu                       : CDL Density Porosity
GR.GAPI                       : Gamma Ray
NPOR.pu                       : Neutron Porosity
~Parameter Information Block
~A  Depth       DCAL        RHOB        RHOC        DPOR         GR         NPOR    
# ...
  1700.4000      7.6625      2.5612      0.0319      5.3824    114.7862     22.2139
  1700.5000      7.6616      2.5596      0.0300      5.4804    106.9341     22.5714
  1700.6000      7.6616      2.5679      0.0315      4.9760     95.5853     22.4987
  1700.7000      7.6616      2.5838      0.0388      4.0095     95.3669     21.6406
  1700.8000      7.6682      2.6004      0.0089      3.0064    104.0227     20.8220
  1700.9000      7.6682      2.6100      0.0426      2.4243    112.7618     20.4697
  1701.0000      7.6753      2.6068      0.0584      2.6153    116.2557     20.6118
  1701.1000      7.6753      2.5939      0.0886      3.4013    112.8508     21.1375
  1701.2000      7.6753      2.5796      0.0034      4.2678    105.2269     21.6006
  1701.3000      7.6804      2.5669      0.0165      5.0360     97.7010     21.6735
  1701.4000      7.6804      2.5501      0.0249      6.0568     92.4536     21.6669
  1701.5000      7.6926      2.5342     -0.0013      7.0155     90.5082     21.6599
  1701.6000      7.6926      2.5323      0.0015      7.1329     90.3228     21.3695
  1701.7000      7.6926      2.5414      0.0485      6.5793     90.6742     21.2717
  1701.8000      7.7109      2.5521      0.0491      5.9327     92.0578     21.8937
  1701.9000      7.7109      2.5667      0.0415      5.0489     92.7178     22.4164
  1702.0000      7.7186      2.5846      0.0215      3.9621     91.0712     22.0569
  1702.1000      7.7186      2.5906      0.0840      3.5989     89.2810     21.0681
  1702.2000      7.7186      2.5779      0.0363      4.3697     88.8513     19.7585
  1702.3000      7.7070      2.5574      0.0411      5.6111     86.8803     19.1106
  1702.4000      7.7070      2.5399      0.0264      6.6743     85.7580     19.7234
  1702.5000      7.6960      2.5336      0.0156      7.0556     90.5704     20.8522
  1702.6000      7.6960      2.5441      0.0488      6.4198     96.2872     21.4640
  1702.7000      7.6960      2.5690      0.0402      4.9120     99.4642     21.2728
  1702.8000      7.6983      2.5928      0.0761      3.4645    104.7771     21.2613
  1702.9000      7.6983      2.6003      0.0621      3.0124    110.4391     21.6100
  1703.0000      7.7145      2.6031      0.0371      2.8406    112.0503     21.5154
  1703.1000      7.7145      2.6129      0.0874      2.2515    111.5936     21.3056
  1703.2000      7.7145      2.6146      0.0769      2.1431    112.4430     21.3339
  1703.3000      7.7503      2.6033      0.0492      2.8328    113.9078     21.3949
  1703.4000      7.7503      2.5914      0.0683      3.5517    112.0309     21.4471
  1703.5000      7.7910      2.5900      0.0425      3.6393    106.1395     21.7572
  1703.6000      7.7910      2.5977      0.0726      3.1687    100.5227     22.5874
  1703.7000      7.7910      2.5968      0.0933      3.2252     99.4907     23.4679
  1703.8000      7.8153      2.5836      0.0170      4.0224    101.2598     23.5428
  1703.9000      7.8153      2.5785      0.0377      4.3308    102.4612     22.7053
  1704.0000      7.8192      2.5841      0.0881      3.9932    103.8479     21.6191
  1704.1000      7.8192      2.5863      0.0570      3.8626    105.4367     21.1541
  1704.2000      7.8192      2.5876      0.0532      3.7808    103.5908     21.4421
  1704.3000      7.8174      2.5913      0.0990      3.5554     99.2249     21.8499
  1704.4000      7.8174      2.5869      0.0573      3.8257     99.1835     22.0758
  1704.5000      7.8218      2.5759      0.0357      4.4913    104.6464     21.9797
  1704.6000      7.8218      2.5671      0.0552      5.0246    109.8418     21.6791
  1704.7000      7.8218      2.5579      0.0450      5.5801    111.8791     21.8499
  1704.8000      7.8321      2.5478      0.0281      6.1922    113.1205     22.3223
  1704.9000      7.8321      2.5486      0.0040      6.1431    114.0029     22.3194
  1705.0000      7.8396      2.5678      0.0230      4.9839    110.2191     22.1097
  1705.1000      7.8396      2.5937      0.0297      3.4142    103.0693     22.2229
  1705.2000      7.8396      2.6095      0.0545      2.4545     99.4828     22.5358
  1705.3000      7.8429      2.6086      0.0607      2.5102     99.3129     22.7253
  1705.4000      7.8429      2.5988      0.0547      3.1044     98.2894     22.4745
  1705.5000      7.8453      2.5963     -0.0036      3.2568     95.5144     21.9219
  1705.6000      7.8453      2.6025      0.0576      2.8774     91.4788     21.2604
  1705.7000      7.8453      2.5991      0.0718      3.0846     88.2930     20.6525
  1705.8000      7.8523      2.5808      0.0206      4.1958     86.7469     20.3071
  1705.9000      7.8523      2.5677     -0.0152      4.9886     84.3742     20.3126
  1706.0000      7.8568      2.5742      0.0155      4.5934     81.9144     20.4127
  1706.1000      7.8568      2.5891      0.0321      3.6935     83.6464     20.2762
  1706.2000      7.8568      2.5947      0.0303      3.3501     88.9398     20.2544
  1706.3000      7.8457      2.5905      0.0237      3.6031     92.4119     20.4316
  1706.4000      7.8457      2.5874      0.0159      3.7953     90.0907     20.1738
  1706.5000      7.8288      2.5875      0.0362      3.7873     83.3043     19.8371
  1706.6000      7.8288      2.5857      0.0225      3.8940     76.3840     20.1466
  1706.7000      7.8288      2.5828      0.0320      4.0734     73.4527     20.9329
  1706.8000      7.8204      2.5824      0.0356      4.0994     75.8801     21.5401
  1706.9000      7.8204      2.5839      0.0641      4.0050     79.7990     21.9337
  1707.0000      7.8232      2.5815      0.0666      4.1526     82.3539     22.5041
  1707.1000      7.8232      2.5766      0.0174      4.4503     87.1421     23.3130
  1707.2000      7.8232      2.5765      0.0623      4.4554     97.0931     24.4992
  1707.3000      7.8316      2.5731      0.0933      4.6583    107.6543     25.6355
  1707.4000      7.8316      2.5598      0.0393      5.4693    113.4054     25.7451
  1707.5000      7.8402      2.5442      0.0640      6.4133    114.1811     25.0096
  1707.6000      7.8402      2.5323      0.0514      7.1313    113.6811     24.4974
  1707.7000      7.8402      2.5245      0.0714      7.6082    117.1615     24.6534
  1707.8000      7.8492      2.5232      0.0681      7.6877    124.4552     25.2459
  1707.9000      7.8492      2.5273      0.0823      7.4373    128.0717     26.0968
  1708.0000      7.8573      2.5270      0.0785      7.4543    124.7225     27.1366
  1708.1000      7.8573      2.5234      0.0585      7.6756    118.7843     27.7385
  1708.2000      7.8573      2.5253      0.0818      7.5574    115.6032     27.1278
  1708.3000      7.8590      2.5307      0.0945      7.2287    118.5491     25.5888
  1708.4000      7.8590      2.5433      0.0416      6.4655    123.9406     24.2685
  1708.5000      7.8555      2.5744      0.0514      4.5809    125.0757     23.5209
  1708.6000      7.8555      2.6213      0.0692      1.7393    124.1905     23.1011
  1708.7000      7.8555      2.6721      0.1245     -1.3409    126.8907     23.1342
  1708.8000      7.8531      2.7188      0.1449     -4.1693    130.0234     23.6706
  1708.9000      7.8531      2.7590      0.1556     -6.6060    129.0597     24.3150
  1709.0000      7.8531      2.7855      0.1398     -8.2109    128.4956     24.8319
  1709.1000      7.8531      2.7883      0.1010     -8.3804    130.5095     25.5354
  1709.2000      7.8531      2.7722      0.0837     -7.4075    128.8608     26.0670
  1709.3000      7.8570      2.7521      0.0558     -6.1851    123.2646     25.6204
  1709.4000      7.8570      2.7306      0.0591     -4.8826    119.9908     24.7908
  1709.5000      7.8596      2.7013     -0.0010     -3.1083    118.2775     24.5824
  1709.6000      7.8596      2.6685      0.0224     -1.1209    115.1149     25.0364
  1709.7000      7.8596      2.6430      0.0139      0.4271    111.4403     25.6039
  1709.8000      7.8603      2.6291      0.0252      1.2639    108.2575     25.7983
  1709.9000      7.8603      2.6195      0.0275      1.8512    107.7631     25.4579
