~Version Information
VERS.                      2.0: CWLS Log ASCII Standard - VERSION 2.0
WRAP.                       NO: One line per depth step
~Well Information Block
STRT.FT               758.7500: 
STOP.FT              2420.7500: 
STEP.FT                 0.2500: 
NULL.                -999.2500: 
COMP.          Petrogulf Corporation: COMPANY
WELL.            Montoya 7-21V: WELL
FLD.           Purgatorie River: FIELD
LOC.           738' FSL & 2070' FWL: LOCATION
CNTY.               Las Animas: COUNTY
SRVC.                         : SERVICE COMPANY
DATE.          Fri Aug 20 07:13:07 2004: LOG DATE
UWI.           05 071 08018 00: UNIQUE WELL ID
STAT.                 Colorado: STATE
~Curve Information Block
DEPT.FT            0 000 00 00: Depth
SP.mV                         : DIL Spontaneous Potential
RILD.Ohm-m                    : DIL Deep Resistivity
RILM.Ohm-m                    : DIL Medium Resistivity
RLL3.Ohm-m                    : DIL Shallow Resistivity
GR.GAPI                       : Gamma Ray
~Parameter Information Block
~A  Depth        SP         RILD        RILM        RLL3         GR     
# ...
  1626.7500    -12.0516     12.6616     12.9267     26.7551    148.7046
  1627.0000    -12.1896     12.8668     13.0858     23.8866    154.1624
  1627.2500    -12.3555     13.0050     13.1388     21.0540    158.2060
  1627.5000    -12.5383     13.0573     13.0943     18.5744    164.7440
  1627.7500    -12.7273     13.0116     12.9670     16.5558    169.4021
  1628.0000    -12.9133     12.8670     12.7745     14.9935    175.8272
  1628.2500    -13.0895     12.6350     12.5343     13.8430    178.9447
  1628.5000    -13.2513     12.3370     12.2635     13.0466    181.2841
  1628.7500    -13.3968     11.9983     11.9774     12.5380    181.2679
  1629.0000    -13.5259     11.6443     11.6894     12.2480    178.8466
  1629.2500    -13.6396     11.2962     11.4107     12.1165    175.9362
  1629.5000    -13.7396     10.9705     11.1506     12.0983    171.5437
  1629.7500    -13.8275     10.6790     10.9165     12.1546    170.1919
  1630.0000    -13.9049     10.4291     10.7140     12.2393    172.2892
  1630.2500    -13.9729     10.2255     10.5479     12.2959    176.1708
  1630.5000    -14.0325     10.0707     10.4223     12.2774    183.0945
  1630.7500    -14.0833      9.9660     10.3410     12.1767    186.4888
  1631.0000    -14.1239      9.9111     10.3074     12.0376    188.0341
  1631.2500    -14.1505      9.9045     10.3249     11.9338    187.3455
  1631.5000    -14.1583      9.9423     10.3964     11.9269    186.1673
  1631.7500    -14.1413     10.0183     10.5246     12.0435    185.9153
  1632.0000    -14.0942     10.1244     10.7117     12.2912    185.3640
  1632.2500    -14.0134     10.2517     10.9587     12.7032    184.1787
  1632.5000    -13.8987     10.3924     11.2653     13.3745    181.1592
  1632.7500    -13.7528     10.5422     11.6285     14.4554    178.5238
  1633.0000    -13.5815     10.7004     12.0417     16.0888    173.4130
  1633.2500    -13.3928     10.8702     12.4940     18.3117    169.1396
  1633.5000    -13.1965     11.0557     12.9697     20.9633    162.3954
  1633.7500    -13.0027     11.2613     13.4490     23.6551    158.7182
  1634.0000    -12.8223     11.4894     13.9107     25.8439    155.7427
  1634.2500    -12.6656     11.7409     14.3351     27.0083    155.5861
  1634.5000    -12.5419     12.0150     14.7079     26.8638    157.8866
  1634.7500    -12.4583     12.3091     15.0228     25.5028    161.0948
  1635.0000    -12.4189     12.6167     15.2810     23.3690    167.9164
  1635.2500    -12.4239     12.9245     15.4899     21.0649    172.6703
  1635.5000    -12.4698     13.2104     15.6599     19.1040    177.4818
  1635.7500    -12.5496     13.4460     15.8005     17.7457    178.4656
  1636.0000    -12.6542     13.6047     15.9184     16.9864    177.8449
  1636.2500    -12.7735     13.6716     16.0164     16.6711    177.1066
  1636.5000    -12.8979     13.6497     16.0943     16.6285    175.7239
  1636.7500    -13.0193     13.5589     16.1494     16.7488    174.1502
  1637.0000    -13.1318     13.4277     16.1788     16.9828    171.3988
  1637.2500    -13.2322     13.2839     16.1798     17.2947    170.7107
  1637.5000    -13.3196     13.1488     16.1515     17.6225    173.3080
  1637.7500    -13.3951     13.0348     16.0942     17.8791    177.2173
  1638.0000    -13.4615     12.9471     16.0096     17.9880    184.2287
  1638.2500    -13.5217     12.8856     15.9004     17.9232    188.4420
  1638.5000    -13.5786     12.8470     15.7702     17.7277    192.7639
  1638.7500    -13.6334     12.8257     15.6229     17.4972    193.8123
  1639.0000    -13.6851     12.8141     15.4631     17.3340    192.1172
  1639.2500    -13.7299     12.8043     15.2960     17.2890    189.0130
  1639.5000    -13.7617     12.7900     15.1272     17.3262    182.9203
  1639.7500    -13.7727     12.7699     14.9631     17.3389    179.0937
  1640.0000    -13.7550     12.7497     14.8113     17.2148    175.2063
  1640.2500    -13.7025     12.7415     14.6807     16.9068    174.2177
  1640.5000    -13.6124     12.7603     14.5815     16.4609    175.0273
  1640.7500    -13.4859     12.8191     14.5253     15.9864    176.5986
  1641.0000    -13.3280     12.9249     14.5249     15.5981    179.0663
  1641.2500    -13.1474     13.0784     14.5934     15.3744    179.9938
  1641.5000    -12.9549     13.2766     14.7434     15.3555    179.8108
  1641.7500    -12.7626     13.5172     14.9873     15.5791    179.0380
  1642.0000    -12.5823     13.8012     15.3357     16.1271    178.3807
  1642.2500    -12.4244     14.1334     15.7980     17.1514    178.8106
  1642.5000    -12.2969     14.5205     16.3812     18.8517    179.5160
  1642.7500    -12.2041     14.9664     17.0897     21.3866    178.3298
  1643.0000    -12.1463     15.4696     17.9236     24.7348    172.0819
  1643.2500    -12.1204     16.0215     18.8781     28.5766    165.2627
  1643.5000    -12.1199     16.6069     19.9415     32.3119    153.4503
  1643.7500    -12.1366     17.2059     21.0940     35.2795    146.0657
  1644.0000    -12.1618     17.7961     22.3072     37.0908    137.4074
  1644.2500    -12.1875     18.3540     23.5445     37.8470    133.3867
  1644.5000    -12.2077     18.8569     24.7618     38.0545    129.1497
  1644.7500    -12.2190     19.2844     25.9098     38.2840    127.0044
  1645.0000    -12.2207     19.6205     26.9370     38.8276    124.7742
  1645.2500    -12.2138     19.8536     27.7929     39.5839    124.3928
  1645.5000    -12.2003     19.9770     28.4324     40.1985    126.0843
  1645.7500    -12.1818     19.9878     28.8200     40.3020    128.5291
  1646.0000    -12.1586     19.8846     28.9334     39.6814    133.1461
  1646.2500    -12.1295     19.6644     28.7638     38.3309    136.4406
  1646.5000    -12.0921     19.3175     28.3136     36.4248    141.8565
  1646.7500    -12.0444     18.8292     27.5930     34.2764    146.0334
  1647.0000    -11.9857     18.1881     26.6172     32.2975    152.8732
  1647.2500    -11.9173     17.4012     25.4083     30.9214    157.0435
  1647.5000    -11.8425     16.5037     24.0003     30.4507    160.9483
  1647.7500    -11.7659     15.5556     22.4451     30.8587    161.3364
  1648.0000    -11.6926     14.6258     20.8124     31.6769    158.8280
  1648.2500    -11.6267     13.7742     19.1818     32.1027    155.7705
  1648.5000    -11.5705     13.0390     17.6298     31.3400    150.4361
  1648.7500    -11.5249     12.4348     16.2176     29.0000    147.2739
  1649.0000    -11.4887     11.9557     14.9843     25.3124    144.8589
  1649.2500    -11.4602     11.5827     13.9471     21.0086    145.3684
  1649.5000    -11.4369     11.2900     13.1053     16.9652    148.3238
  1649.7500    -11.4171     11.0521     12.4461     13.8466    150.2485
  1650.0000    -11.3998     10.8475     11.9500     11.9428    150.9562
  1650.2500    -11.3858     10.6632     11.5944     11.2195    150.1036
  1650.5000    -11.3776     10.4954     11.3568     11.4531    149.2453
  1650.7500    -11.3790     10.3499     11.2164     12.3303    150.3119
  1651.0000    -11.3946     10.2396     11.1563     13.4874    154.2671
  1651.2500    -11.4289     10.1819     11.1647     14.5516    157.1749
  1651.5000    -11.4849     10.1955     11.2364     15.2267    160.0202
  1651.7500    -11.5637     10.2987     11.3727     15.3937    160.8253
  1652.0000    -11.6636     10.5085     11.5817     15.1526    161.4319
  1652.2500    -11.7803     10.8383     11.8770     14.7769    162.1316
  1652.5000    -11.9076     11.2970     12.2767     14.6197    164.7287
  1652.7500    -12.0385     11.8866     12.8019     15.0446    167.8083
  1653.0000    -12.1669     12.6001     13.4756     16.4051    173.1028
  1653.2500    -12.2887     13.4214     14.3214     19.0418    175.0524
  1653.5000    -12.4019     14.3263     15.3615     23.2472    172.0968
  1653.7500    -12.5064     15.2859     16.6146     29.1855    165.5747
  1654.0000    -12.6025     16.2714     18.0914     36.7894    151.0207
  1654.2500    -12.6894     17.2585     19.7899     45.6643    140.3429
  1654.5000    -12.7650     18.2317     21.6878     55.0255    126.1689
