~Version Information
VERS.                      2.0: CWLS Log ASCII Standard - VERSION 2.0
WRAP.                       NO: One line per depth step
~Well Information Block
STRT.FT               682.0000: 
STOP.FT              2190.5000: 
STEP.FT                 0.1000: 
NULL.                -999.2500: 
COMP.          Pioneer Natural Resources: COMPANY
WELL.               King 22-13: WELL
FLD.           Purgatoire River: FIELD
LOC.           2419' FNL & 1806' FWL----: LOCATION
PROV.                 Colorado: PROVINCE
CNTY.               Las Animas: COUNTRY
SRVC.                Patterson: SERVICE COMPANY
DATE.          Fri Apr 01 07:38:12 2005: LOG DATE
UWI.           05 071 08318 00: UNIQUE WELL ID
~Curve Information Block
DEPT.FT            0 000 00 00: Depth
DCAL.in                       : CDL Caliper
RHOB.g/cc                     : CDL Bulk Density
RHOC.g/cc                     : CDL Density Correction
DPOR.pu                       : CDL Density Porosity
NPOR.pu                       : Neutron Porosity
GR.GAPI                       : Gamma Ray
~Parameter Information Block
~A  Depth       DCAL        RHOB        RHOC        DPOR        NPOR         GR     
# ...
  1574.8000      8.0897      2.5129      0.1441      8.3102     30.0743    112.0023
  1574.9000      8.0897      2.4875      0.1022      9.8512     30.0990    114.1100
  1575.0000      8.0904      2.4669      0.1209     11.0993     30.2486    121.5580
  1575.1000      8.0904      2.4542      0.1178     11.8644     30.0825    131.3851
  1575.2000      8.0904      2.4492      0.0796     12.1687     29.5130    136.1137
  1575.3000      8.0829      2.4530      0.0992     11.9390     29.0545    130.4881
  1575.4000      8.0829      2.4613      0.1001     11.4387     28.8738    120.5095
  1575.5000      8.0842      2.4721      0.0618     10.7838     28.6826    115.7143
  1575.6000      8.0842      2.4862      0.1107      9.9248     28.4222    116.1481
  1575.7000      8.0842      2.4958      0.1119      9.3479     28.3508    116.5310
  1575.8000      8.1003      2.4983      0.0682      9.1941     28.7702    117.1679
  1575.9000      8.1003      2.5049      0.1069      8.7968     29.4491    121.3417
  1576.0000      8.1177      2.5202      0.0680      7.8642     29.6154    126.2200
  1576.1000      8.1177      2.5351      0.1152      6.9659     28.9271    128.9373
  1576.2000      8.1177      2.5346      0.1137      6.9922     27.9704    134.2827
  1576.3000      8.1167      2.5171      0.1021      8.0521     27.6134    141.5593
  1576.4000      8.1167      2.4962      0.0679      9.3202     27.9036    140.9827
  1576.5000      8.0952      2.4943      0.0360      9.4352     28.0949    134.0419
  1576.6000      8.0952      2.5242      0.0702      7.6246     27.6856    131.9138
  1576.7000      8.0952      2.5730      0.1181      4.6677     26.6700    135.1765
  1576.8000      8.0732      2.6210      0.0960      1.7554     25.4235    136.4575
  1576.9000      8.0732      2.6546      0.1367     -0.2811     24.5621    130.1409
  1577.0000      8.0571      2.6642      0.0863     -0.8599     24.3115    118.7677
  1577.1000      8.0571      2.6575      0.0709     -0.4550     24.3321    109.0862
  1577.2000      8.0571      2.6473      0.0582      0.1655     24.1149    102.7596
  1577.3000      8.0438      2.6340      0.0498      0.9721     23.5420     95.9926
  1577.4000      8.0438      2.6198      0.0235      1.8301     23.0473     85.3057
  1577.5000      8.0346      2.6151     -0.0081      2.1129     23.0063     75.7424
  1577.6000      8.0346      2.6281      0.0517      1.3272     23.2544     72.5326
  1577.7000      8.0346      2.6606      0.0532     -0.6397     23.3319     74.5554
  1577.8000      8.0325      2.6993      0.0808     -2.9883     23.0097     81.6490
  1577.9000      8.0325      2.7201      0.1008     -4.2473     22.7508     87.7786
  1578.0000      8.0320      2.7118      0.0936     -3.7446     22.6695     83.4793
  1578.1000      8.0320      2.6846      0.0607     -2.0972     22.6456     73.0654
  1578.2000      8.0320      2.6594      0.0859     -0.5698     23.0973     67.8083
  1578.3000      8.0292      2.6496      0.0729      0.0242     23.5688     69.8946
  1578.4000      8.0292      2.6519      0.1098     -0.1145     22.8845     75.1904
  1578.5000      8.0287      2.6554      0.0848     -0.3257     21.3571     77.6233
  1578.6000      8.0287      2.6525      0.0676     -0.1503     20.3651     75.5419
  1578.7000      8.0287      2.6365      0.0769      0.8183     20.1553     76.2591
  1578.8000      8.0342      2.6143      0.0281      2.1623     20.0350     81.3562
  1578.9000      8.0342      2.6085      0.0148      2.5168     19.8226     82.5539
  1579.0000      8.0413      2.6139      0.1062      2.1896     19.9631     78.0301
  1579.1000      8.0413      2.6077      0.0227      2.5640     20.4379     73.8170
  1579.2000      8.0413      2.5886      0.0868      3.7195     20.7717     72.6730
  1579.3000      8.0465      2.5638      0.0277      5.2263     20.7681     72.6542
  1579.4000      8.0465      2.5488     -0.0232      6.1308     20.6896     72.5017
  1579.5000      8.0490      2.5575      0.0227      5.6067     20.9325     72.8525
  1579.6000      8.0490      2.5802      0.0552      4.2294     21.5457     72.7937
  1579.7000      8.0490      2.6076      0.0338      2.5725     21.7943     72.5326
  1579.8000      8.0499      2.6401      0.0652      0.5971     20.9827     73.7112
  1579.9000      8.0499      2.6675      0.0643     -1.0589     19.7134     75.3194
  1580.0000      8.0497      2.6752      0.0800     -1.5260     19.0974     74.3400
  1580.1000      8.0497      2.6611      0.0515     -0.6743     19.3027     69.7678
  1580.2000      8.0497      2.6332      0.0589      1.0173     19.8083     63.1585
  1580.3000      8.0497      2.6040      0.0430      2.7886     20.0861     57.0866
  1580.4000      8.0497      2.5830      0.0252      4.0614     19.9430     54.8203
  1580.5000      8.0485      2.5726      0.0087      4.6894     19.7337     57.1699
  1580.6000      8.0485      2.5717      0.0259      4.7469     19.8078     61.5432
  1580.7000      8.0485      2.5739      0.0497      4.6093     20.0617     65.9910
  1580.8000      8.0471      2.5773      0.0333      4.4088     20.1877     69.3170
  1580.9000      8.0471      2.5947      0.0052      3.3490     20.2169     68.4006
  1581.0000      8.0473      2.6270      0.0976      1.3917     20.4368     63.9667
  1581.1000      8.0473      2.6454      0.1094      0.2780     20.8895     62.0053
  1581.2000      8.0473      2.6313      0.0803      1.1348     21.3619     64.3757
  1581.3000      8.0460      2.5996      0.0337      3.0555     21.3579     65.9647
  1581.4000      8.0460      2.5746      0.0392      4.5722     20.8333     65.5060
  1581.5000      8.0436      2.5652      0.0354      5.1389     20.5319     67.7112
  1581.6000      8.0436      2.5645      0.0440      5.1803     20.6404     74.7943
  1581.7000      8.0436      2.5671     -0.0061      5.0231     20.8347     82.0740
  1581.8000      8.0434      2.5714      0.0731      4.7632     21.3378     84.1113
  1581.9000      8.0434      2.5714      0.0534      4.7621     22.2536     80.9227
  1582.0000      8.0425      2.5668      0.0929      5.0398     22.8243     75.3293
  1582.1000      8.0425      2.5617      0.0503      5.3517     22.4592     71.6976
  1582.2000      8.0425      2.5607      0.0549      5.4133     21.8289     71.1306
  1582.3000      8.0436      2.5636      0.0418      5.2358     21.7916     68.8984
  1582.4000      8.0436      2.5643      0.0602      5.1914     22.0507     65.6227
  1582.5000      8.0465      2.5601      0.0335      5.4464     21.9938     65.5500
  1582.6000      8.0465      2.5597      0.0703      5.4745     21.6184     65.2902
  1582.7000      8.0465      2.5723      0.0441      4.7075     21.1827     63.5230
  1582.8000      8.0495      2.5924      0.1138      3.4888     20.6771     64.5282
  1582.9000      8.0495      2.6018      0.0751      2.9201     20.1358     69.2111
  1583.0000      8.0518      2.5955      0.1039      3.3044     19.8491     74.6767
  1583.1000      8.0518      2.5888      0.0105      3.7119     19.7461     80.3124
  1583.2000      8.0518      2.5912      0.1004      3.5640     19.5866     83.7844
  1583.3000      8.0519      2.5921      0.0722      3.5064     19.3556     80.3745
  1583.4000      8.0519      2.5857      0.0622      3.8961     19.4580     71.8739
  1583.5000      8.0516      2.5784      0.0755      4.3408     20.0830     66.6683
  1583.6000      8.0516      2.5738      0.0628      4.6196     20.7959     67.9908
  1583.7000      8.0516      2.5720      0.0481      4.7252     21.3964     71.6613
  1583.8000      8.0528      2.5788      0.0472      4.3127     21.7206     73.8055
  1583.9000      8.0528      2.5966      0.0848      3.2340     21.5566     72.8349
  1584.0000      8.0532      2.6093      0.0992      2.4645     21.1369     69.4184
  1584.1000      8.0532      2.6077      0.0737      2.5659     20.5560     66.2796
  1584.2000      8.0532      2.6084      0.0552      2.5226     19.8297     64.4395
  1584.3000      8.0521      2.6200      0.0945      1.8174     19.1561     64.1056
