~Version Information
VERS.                      2.0: CWLS Log ASCII Standard - VERSION 2.0
WRAP.                       NO: One line per depth step
~Well Information Block
STRT.FT               -19.5000: 
STOP.FT              2456.0000: 
STEP.FT                 0.2500: 
NULL.                -999.2500: 
COMP.          Petrogulf Corporation: COMPANY
WELL.           Montoya 12-44V: WELL
FLD.           Purgatorie River: FIELD
LOC.           698' FSL & 599' FEL: LOCATION
CNTY.               Las Animas: COUNTY
SRVC.                         : SERVICE COMPANY
DATE.          Mon Sep 13 13:44:10 2004: LOG DATE
UWI.           05-071-08094-00: UNIQUE WELL ID
STAT.                 Colorado: STATE
~Curve Information Block
DEPT.FT            0 000 00 00: Depth
TT3.usec                      : CBL 3' Travel Time
AMP3.mV                       : CBL 3' Amplitude
GR.GAPI                       : Gamma Ray
CCL.                          : Casing Collar Locator
~Parameter Information Block
~A  Depth       TT3         AMP3         GR         CCL     
# ...
   952.0000    437.0629      5.2486    137.5566      0.0000
   952.2500    429.0709      5.3483    144.7893      0.0000
   952.5000    429.4339      5.4093    150.6092      0.0000
   952.7500    432.8128      5.4377    153.4191      0.0000
   953.0000    440.8221      5.4645    151.7993      0.0000
   953.2500    466.1471      5.5063    145.0743      0.0000
   953.5000    510.2661      5.5477    134.5222      0.0000
   953.7500    544.8439      5.5692    123.4308      0.0000
   954.0000    544.4891      5.5801    115.1135      0.0000
   954.2500    522.7084      5.6022    110.9026      0.0000
   954.5000    505.9464      5.6281    110.2475      0.0000
   954.7500    502.8239      5.6243    112.2412      0.0000
   955.0000    513.9493      5.5739    116.5111      0.0000
   955.2500    534.7792      5.5029    122.9352      0.0000
   955.5000    547.6256      5.4624    130.9660      0.0000
   955.7500    547.7157      5.4791    139.2813      0.0000
   956.0000    558.6937      5.5301    146.2098      0.0000
   956.2500    593.0001      5.5735    150.7645      0.0000
   956.5000    634.3768      5.5911    153.1956      0.0000
   956.7500    669.3777      5.5970    154.4811      0.0000
   957.0000    701.6302      5.6077    155.5260      0.0000
   957.2500    735.2585      5.6057    156.8154      0.0000
   957.5000    763.5625      5.5629    158.3549      0.0000
   957.7500    779.5456      5.4919    159.7489      0.0000
   958.0000    785.3351      5.4303    160.6185      0.0000
   958.2500    786.5617      5.3818    161.0689      0.0000
   958.5000    786.4348      5.3193    161.6112      0.0000
   958.7500    785.7370      5.2409    162.5895      0.0000
   959.0000    783.4238      5.1849    163.7847      0.0000
   959.2500    775.3674      5.1815    164.6129      0.0000
   959.5000    754.9916      5.2051    164.6810      0.0000
   959.7500    723.5786      5.1846    164.0427      0.0000
   960.0000    699.3855      5.0757    162.8998      0.0000
   960.2500    700.4850      4.9197    161.3600      0.0000
   960.5000    722.3657      4.8061    159.6170      0.0000
   960.7500    745.2622      4.7837    157.9649      0.0000
   961.0000    749.2404      4.8304    156.4808      0.0000
   961.2500    720.7023      4.8835    155.0310      0.0000
   961.5000    667.8069      4.8457    153.5641      0.0000
   961.7500    630.2108      4.6048    151.9384      0.0000
   962.0000    638.7548      4.2080    149.5520      0.0000
   962.2500    665.0242      3.9164    145.6206      0.0000
   962.5000    656.3267      3.8667    139.9460      0.0000
   962.7500    612.3892      3.8899    133.2973      2.9755
   963.0000    584.8790      3.7872    127.1336      2.1332
   963.2500    610.6489      3.5496    122.9370     -2.5970
   963.5000    671.7903      3.2629    121.4448      0.0000
   963.7500    719.7084      2.9821    122.0868      0.0000
   964.0000    721.7939      2.7386    123.0640      0.0000
   964.2500    680.9160      2.5616    122.2709      0.0000
   964.5000    624.4865      2.4460    118.5125      0.0000
   964.7500    572.8191      2.3568    112.0200      0.0000
   965.0000    525.3929      2.2936    103.9837      0.0000
   965.2500    483.1818      2.2924     95.6823      0.0000
   965.5000    454.0368      2.3469     87.9656      0.0000
   965.7500    437.7696      2.3927     81.4316      0.0000
   966.0000    427.9235      2.3910     76.7762      0.0000
   966.2500    421.4693      2.3788     74.5142      0.0000
   966.5000    418.4617      2.4302     74.3423      0.0000
   966.7500    418.2155      2.6066     75.2412      0.0000
   967.0000    419.3207      2.9312     76.3576      0.0000
   967.2500    420.7161      3.3778     77.5241      0.0000
   967.5000    421.9651      3.8894     78.9366      0.0000
   967.7500    423.5333      4.4125     80.5150      0.0000
   968.0000    427.0029      4.9105     81.5875      0.0000
   968.2500    433.6183      5.3694     81.3453      0.0000
   968.5000    439.5915      5.8041     79.7718      0.0000
   968.7500    435.3027      6.2311     77.8210      0.0000
   969.0000    416.7618      6.6385     76.4419      0.0000
   969.2500    392.2538      7.0251     75.7811      0.0000
   969.5000    371.6253      7.4220     75.5790      0.0000
   969.7500    361.8310      7.7916     75.9128      0.0000
   970.0000    373.2179      7.9732     77.1300      0.0000
   970.2500    413.4715      7.8381     79.3066      0.0000
   970.5000    473.2931      7.4379     82.1130      0.0000
   970.7500    532.0611      6.9257     85.1467      0.0000
   971.0000    579.6854      6.4123     88.2349      0.0000
   971.2500    615.2617      5.9454     91.2892      0.0000
   971.5000    628.8676      5.5335     93.7381      0.0000
   971.7500    612.0017      5.1504     94.3924      0.0000
   972.0000    575.5758      4.7698     92.3461      0.0000
   972.2500    535.5361      4.3987     88.0415      0.0000
   972.5000    499.3587      4.0504     83.1834      0.0000
   972.7500    470.3897      3.7239     79.5980      0.0000
   973.0000    448.6435      3.4336     78.2235      0.0000
   973.2500    432.3750      3.2159     78.8578      0.0000
   973.5000    421.8611      3.0934     80.3992      0.0000
   973.7500    417.2634      3.0544     81.4615      0.0000
   974.0000    416.6164      3.0645     81.2379      0.0000
   974.2500    417.5028      3.0807     79.8876      0.0000
   974.5000    418.4799      3.0641     78.0705      0.0000
   974.7500    419.1517      3.0002     76.3716      0.0000
   975.0000    419.8397      2.9045     75.2706      0.0000
   975.2500    421.5569      2.8021     75.1679      0.0000
   975.5000    426.0652      2.7061     75.8844      0.0000
   975.7500    434.4371      2.6216     76.3419      0.0000
   976.0000    444.9420      2.5716     75.3820      0.0000
   976.2500    455.6439      2.6029     72.9566      0.0000
   976.5000    471.1255      2.7555     70.0713      0.0000
   976.7500    500.3597      3.0280     67.6166      0.0000
   977.0000    538.0052      3.3826     65.6305      0.0000
   977.2500    553.6387      3.7676     63.6587      0.0000
   977.5000    522.8425      4.1306     61.4801      0.0000
   977.7500    463.2868      4.4215     59.3686      0.0000
   978.0000    413.0410      4.5971     57.9431      0.0000
   978.2500    388.0130      4.6391     58.0017      0.0000
   978.5000    380.3790      4.5763     60.3216      0.0000
   978.7500    379.6049      4.4804     65.1537      0.0000
   979.0000    382.6524      4.4230     71.6814      0.0000
   979.2500    396.2456      4.4229     78.1473      0.0000
   979.5000    435.7534      4.4294     82.7438      0.0000
   979.7500    506.8877      4.3732     84.5487      0.0000
   980.0000    578.9011      4.2296     83.8901      0.0000
   980.2500    603.3430      4.0235     82.0405      0.0000
   980.5000    571.9618      3.7947     80.4181      0.0000
   980.7500    521.6248      3.5730     79.7409      0.0000
   981.0000    484.2456      3.3756     79.7529      0.0000
   981.2500    464.4272      3.2187     79.8071      0.0000
   981.5000    453.5271      3.1187     79.7659      0.0000
   981.7500    443.7329      3.0966     80.2526      0.0000
   982.0000    433.6609      3.1821     82.0511      0.0000
   982.2500    426.6369      3.3926     85.5325      0.0000
   982.5000    424.5217      3.7112     90.8388      0.0000
   982.7500    425.7968      4.0895     98.1735      0.0000
   983.0000    429.4858      4.4706    107.2494      0.0000
   983.2500    439.2122      4.8081    116.4750      0.0000
   983.5000    460.8292      5.0832    123.3777      0.0000
   983.7500    488.0654      5.3206    126.3902      0.0000
   984.0000    497.0130      5.5727    126.3015      0.0000
   984.2500    479.6094      5.8754    125.7495      0.0000
   984.5000    465.6285      6.2337    127.1361      0.0000
   984.7500    473.9997      6.6542    130.9298      0.0000
   985.0000    474.6071      7.1590    135.8757      0.0000
   985.2500    439.0889      7.7164    140.5793      0.0000
