~Version Information
VERS.                      2.0: CWLS Log ASCII Standard - VERSION 2.0
WRAP.                       NO: One line per depth step
~Well Information Block
STRT.FT               732.2500: 
STOP.FT              2476.0000: 
STEP.FT                 0.2500: 
NULL.                -999.2500: 
COMP.          Petrogulf Corporation: COMPANY
WELL.            Montoya 7-14V: WELL
FLD.           Purgatorie River: FIELD
LOC.           535' FSL & 491' FWL: LOCATION
CNTY.               Las Animas: COUNTY
SRVC.                         : SERVICE COMPANY
DATE.          Mon Aug 23 05:51:43 2004: LOG DATE
UWI.           05 071 08019 00: UNIQUE WELL ID
STAT.                 Colorado: STATE
~Curve Information Block
DEPT.FT            0 000 00 00: Depth
SP.mV                         : DIL Spontaneous Potential
RILD.Ohm-m                    : DIL Deep Resistivity
RILM.Ohm-m                    : DIL Medium Resistivity
RLL3.Ohm-m                    : DIL Shallow Resistivity
GR.GAPI                       : Gamma Ray
~Parameter Information Block
~A  Depth        SP         RILD        RILM        RLL3         GR     
# ...
  1880.2500    -17.8093     35.7461     34.8310     42.4092     44.7836
  1880.5000    -18.6032     34.3033     34.6755     42.1215     47.5644
  1880.7500    -19.5110     32.9486     34.5572     41.6048     50.3380
  1881.0000    -20.4355     31.6849     34.5011     41.0327     55.1684
  1881.2500    -21.2578     30.4938     34.5204     40.5095     58.3347
  1881.5000    -21.8647     29.3498     34.6078     40.0476     62.0684
  1881.7500    -22.1783     28.2443     34.7338     39.5998     63.3373
  1882.0000    -22.1820     27.2029     34.8515     39.1224     62.6847
  1882.2500    -21.9231     26.2880     34.9046     38.6231     60.4249
  1882.5000    -21.4976     25.5792     34.8442     38.1606     55.0122
  1882.7500    -21.0206     25.1440     34.6439     37.7927     51.0589
  1883.0000    -20.5852     25.0116     34.3076     37.5169     46.6727
  1883.2500    -20.2377     25.1590     33.8707     37.2519     45.5586
  1883.5000    -19.9706     25.5137     33.3884     36.8848     46.5040
  1883.7500    -19.7368     25.9783     32.9233     36.3550     48.1465
  1884.0000    -19.4800     26.4801     32.5338     35.7152     50.6985
  1884.2500    -19.1704     27.0196     32.2657     35.1242     51.9860
  1884.5000    -18.8232     27.6801     32.1508     34.7750     53.2061
  1884.7500    -18.4968     28.5845     32.2065     34.8052     53.6371
  1885.0000    -18.2661     29.8201     32.4397     35.2527     53.7784
  1885.2500    -18.1853     31.3732     32.8479     36.0770     53.6347
  1885.5000    -18.2624     33.1011     33.4228     37.2134     53.5334
  1885.7500    -18.4565     34.7681     34.1528     38.5942     53.7804
  1886.0000    -18.6950     36.1558     35.0197     40.1212     54.5040
  1886.2500    -18.9047     37.1807     35.9997     41.6345     55.0334
  1886.5000    -19.0375     37.9290     37.0561     42.9420     56.1755
  1886.7500    -19.0796     38.5881     38.1399     43.9086     57.6085
  1887.0000    -19.0476     39.3542     39.1873     44.5355     60.7865
  1887.2500    -18.9769     40.3713     40.1261     44.9575     62.8188
  1887.5000    -18.9074     41.7062     40.8827     45.3652     63.9549
  1887.7500    -18.8750     43.3263     41.3943     45.9213     62.8537
  1888.0000    -18.9050     45.0704     41.6137     46.7302     58.5892
  1888.2500    -19.0093     46.6372     41.5127     47.8565     54.5955
  1888.5000    -19.1840     47.6288     41.0805     49.3477     48.3475
  1888.7500    -19.4109     47.6947     40.3254     51.2234     44.8871
  1889.0000    -19.6586     46.7135     39.2773     53.4245     41.6576
  1889.2500    -19.8873     44.8815     37.9946     55.7320     40.8495
  1889.5000    -20.0537     42.6217     36.5617     57.6926     41.3391
  1889.7500    -20.1210     40.3925     35.0815     58.6171     42.8453
  1890.0000    -20.0644     38.5380     33.6578     57.7365     47.8329
  1890.2500    -19.8830     37.2309     32.3809     54.5264     53.8787
  1890.5000    -19.5979     36.4833     31.3164     49.0613     67.9622
  1890.7500    -19.2394     36.1786     30.5011     42.1610     80.1221
  1891.0000    -18.8326     36.1137     29.9434     35.1852     99.2015
  1891.2500    -18.3830     36.0624     29.6264     29.5763    109.8582
  1891.5000    -17.8805     35.8552     29.5084     26.4267    119.2807
  1891.7500    -17.3151     35.4388     29.5250     26.2814    120.5624
  1892.0000    -16.6947     34.8725     29.5918     29.1569    116.0310
  1892.2500    -16.0518     34.2634     29.6106     34.6318    109.8608
  1892.5000    -15.4323     33.6908     29.4864     41.9351     97.9863
  1892.7500    -14.8681     33.1651     29.1439     50.0827     89.5798
  1893.0000    -14.3614     32.6306     28.5479     58.0899     78.2543
  1893.2500    -13.8864     32.0016     27.7105     65.1567     72.3472
  1893.5000    -13.4056     31.2113     26.6843     70.6856     66.3126
  1893.7500    -12.8972     30.2520     25.5444     74.1360     64.0200
  1894.0000    -12.3703     29.1809     24.3688     74.9092     63.0856
  1894.2500    -11.8650     28.0952     23.2252     72.4555     64.4628
  1894.5000    -11.4427     27.0905     22.1649     66.6008     70.5970
  1894.7500    -11.1690     26.2289     21.2239     57.8786     77.8376
  1895.0000    -11.1023     25.5258     20.4243     47.5882     92.8579
  1895.2500    -11.2796     24.9563     19.7785     37.4505    104.3939
  1895.5000    -11.7092     24.4710     19.2893     29.0122    121.0719
  1895.7500    -12.3627     24.0158     18.9515     23.1480    130.3122
  1896.0000    -13.1775     23.5499     18.7520     19.9324    139.9286
  1896.2500    -14.0639     23.0615     18.6712     18.8734    143.1349
  1896.5000    -14.9148     22.5762     18.6853     19.2745    142.8668
  1896.7500    -15.6241     22.1519     18.7702     20.5039    139.6301
  1897.0000    -16.1007     21.8632     18.9052     22.1037    132.1942
  1897.2500    -16.2855     21.7792     19.0774     23.7951    127.0504
  1897.5000    -16.1641     21.9482     19.2831     25.4401    120.4618
  1897.7500    -15.7724     22.3899     19.5278     26.9822    116.6819
  1898.0000    -15.1962     23.0971     19.8233     28.3828    111.3638
  1898.2500    -14.5597     24.0366     20.1840     29.5818    108.0770
  1898.5000    -14.0017     25.1465     20.6224     30.4970    103.7447
  1898.7500    -13.6442     26.3247     21.1444     31.0505    101.0108
  1899.0000    -13.5565     27.4213     21.7464     31.1894     96.0915
  1899.2500    -13.7296     28.2537     22.4120     30.8965     91.7212
  1899.5000    -14.0725     28.6611     23.1126     30.2052     83.4703
  1899.7500    -14.4378     28.5820     23.8099     29.2253     77.3937
  1900.0000    -14.6767     28.0969     24.4634     28.1420     74.5799
  1900.2500    -14.6948     27.3984     25.0389     27.1633     69.5322
  1900.5000    -14.4943     26.7118     25.5174     26.4425     63.8897
  1900.7500    -14.1764     26.2218     25.8984     26.0408     61.0633
  1901.0000    -13.9016     26.0395     26.2007     25.9584     57.8499
  1901.2500    -13.8339     26.1969     26.4567     26.1951     56.7516
  1901.5000    -14.0833     26.6589     26.7041     26.7782     57.5532
  1901.7500    -14.6727     27.3427     26.9788     27.7407     59.5012
  1902.0000    -15.5364     28.1418     27.3061     29.0861     67.3159
  1902.2500    -16.5420     28.9524     27.6956     30.7746     68.0997
  1902.5000    -17.5259     29.6906     28.1372     32.7274     66.3119
  1902.7500    -18.3323     30.3015     28.6026     34.8230     63.6477
  1903.0000    -18.8407     30.7621     29.0509     36.8891     59.0410
  1903.2500    -18.9831     31.0832     29.4407     38.7141     56.4257
  1903.5000    -18.7499     31.3019     29.7412     40.0954     54.1638
  1903.7500    -18.1872     31.4576     29.9421     40.8976     53.8785
  1904.0000    -17.3854     31.5590     30.0530     41.0716     54.5587
  1904.2500    -16.4689     31.5688     30.0980     40.6245     55.0985
  1904.5000    -15.5836     31.4207     30.1044     39.5780     55.4873
  1904.7500    -14.8790     31.0660     30.0957     37.9703     55.6618
  1905.0000    -14.4831     30.5159     30.0865     35.9070     56.5650
  1905.2500    -14.4732     29.8493     30.0869     33.6067     57.9337
  1905.5000    -14.8536     29.1836     30.1050     31.3834     60.9611
  1905.7500    -15.5488     28.6366     30.1518     29.5595     62.9824
  1906.0000    -16.4203     28.2983     30.2443     28.3646     64.5472
  1906.2500    -17.3025     28.2226     30.4051     27.8858     64.0874
  1906.5000    -18.0410     28.4319     30.6604     28.0912     61.3621
  1906.7500    -18.5261     28.9285     31.0381     28.8884     58.7651
  1907.0000    -18.7074     29.7095     31.5672     30.1685     54.5961
  1907.2500    -18.5914     30.7819     32.2771     31.8112     51.8213
  1907.5000    -18.2319     32.1656     33.2002     33.6711     47.7820
  1907.7500    -17.7207     33.8803     34.3712     35.5830     45.4937
  1908.0000    -17.1741     35.9111     35.8260     37.4009     43.6299
