~Version Information
VERS.                      2.0: CWLS Log ASCII Standard - VERSION 2.0
WRAP.                       NO: One line per depth step
~Well Information Block
STRT.FT               362.0000: 
STOP.FT               983.0000: 
STEP.FT                 0.1000: 
NULL.                -999.2500: 
COMP.          Pioneer Natural Resources: COMPANY
WELL.             Tomcat 32-10: WELL
FLD.           Purgatoire River: FIELD
LOC.           2286' FNL & 2463' FEL: LOCATION
PROV.                 Colorado: PROVINCE
CNTY.               Las Animas: COUNTRY
SRVC.                Patterson: SERVICE COMPANY
DATE.          Tue Mar 22 11:24:45 2005: LOG DATE
UWI.           05 071 08301 00: UNIQUE WELL ID
~Curve Information Block
DEPT.FT            0 000 00 00: Depth
DCAL.in                       : CDL Caliper
RHOB.g/cc                     : CDL Bulk Density
RHOC.g/cc                     : CDL Density Correction
DPOR.pu                       : CDL Density Porosity
GR.GAPI                       : Gamma Ray
NPOR.pu                       : Neutron Porosity
~Parameter Information Block
~A  Depth       DCAL        RHOB        RHOC        DPOR         GR         NPOR    
# ...
   400.4000      8.0120      2.4644      0.0180     11.2475    170.0403     29.2945
   400.5000      8.0314      2.4869      0.0604      9.8841    166.4221     29.2041
   400.6000      8.0314      2.5361      0.1427      6.9032    158.2540     29.0684
   400.7000      8.0314      2.5869      0.1489      3.8235    146.0769     29.2486
   400.8000      8.0723      2.6297      0.1653      1.2303    135.2025     29.3072
   400.9000      8.0723      2.6707      0.1702     -1.2528    131.8427     28.9536
   401.0000      7.9721      2.6996      0.2331     -3.0060    136.5245     28.5479
   401.1000      7.9721      2.6935      0.1998     -2.6349    140.5497     28.4818
   401.2000      7.9721      2.6621      0.1172     -0.7334    135.7817     28.7697
   401.3000      7.9338      2.6398      0.0999      0.6178    124.3703     28.9377
   401.4000      7.9338      2.6347      0.1243      0.9249    114.4243     28.7451
   401.5000      7.9214      2.6330      0.0714      1.0315    110.5466     28.5153
   401.6000      7.9214      2.6268      0.0758      1.4077    112.3452     28.4348
   401.7000      7.9214      2.6229      0.0264      1.6432    116.8337     28.2787
   401.8000      7.9403      2.6346      0.0271      0.9326    121.3637     27.8589
   401.9000      7.9403      2.6508      0.0893     -0.0469    122.2736     27.4203
   402.0000      7.9355      2.6478      0.0982      0.1317    116.6994     27.1964
   402.1000      7.9355      2.6276      0.0839      1.3579    107.9989     26.9788
   402.2000      7.9355      2.6077      0.0080      2.5635    101.0651     26.4890
   402.3000      7.9088      2.5982     -0.0145      3.1371     98.1612     25.9091
   402.4000      7.9088      2.5891      0.0584      3.6924     98.3858     25.6911
   402.5000      7.9232      2.5636      0.0333      5.2379    100.7139     25.7988
   402.6000      7.9232      2.5297     -0.0359      7.2912    107.8262     25.6864
   402.7000      7.9232      2.5094      0.0090      8.5211    118.7552     25.0913
   402.8000      7.9304      2.5065      0.0387      8.6986    128.5862     24.4657
   402.9000      7.9304      2.5141      0.0211      8.2377    135.2312     24.3206
   403.0000      7.9415      2.5292      0.0900      7.3240    136.7413     24.6992
   403.1000      7.9415      2.5470      0.1050      6.2427    134.6138     25.2583
   403.2000      7.9415      2.5641      0.0685      5.2041    133.1664     25.6152
   403.3000      7.9487      2.5730      0.1000      4.6649    135.3678     25.7678
   403.4000      7.9487      2.5646      0.0937      5.1756    142.4732     26.1176
   403.5000      8.0240      2.5522      0.0680      5.9283    153.0193     26.7603
   403.6000      8.0240      2.5582      0.0562      5.5622    161.2697     27.4841
   403.7000      8.0240      2.5718      0.1298      4.7396    161.0282     28.2159
   403.8000      8.0372      2.5681      0.0810      4.9631    154.4443     28.8896
   403.9000      8.0372      2.5567      0.0727      5.6528    151.9238     29.5078
   404.0000      8.0638      2.5583      0.0574      5.5605    156.7099     29.9037
   404.1000      8.0638      2.5713      0.0463      4.7708    161.0610     29.7621
   404.2000      8.0638      2.5777      0.0624      4.3833    161.0424     29.2598
   404.3000      8.0787      2.5657      0.0190      5.1068    158.1453     28.8413
   404.4000      8.0787      2.5493      0.0159      6.1021    151.8789     28.7007
   404.5000      8.0706      2.5493     -0.0196      6.1008    142.9694     28.8354
   404.6000      8.0706      2.5630      0.0002      5.2716    136.1658     28.8057
   404.7000      8.0706      2.5713      0.0190      4.7681    133.1458     28.3445
   404.8000      8.0757      2.5701      0.0465      4.8439    130.1005     27.9805
   404.9000      8.0757      2.5677      0.0603      4.9891    127.2054     27.9556
   405.0000      8.0210      2.5667      0.1071      5.0483    128.9251     27.9024
   405.1000      8.0210      2.5686      0.1370      4.9316    134.4610     27.6419
   405.2000      8.0210      2.5830      0.1679      4.0631    140.6776     27.2918
   405.3000      7.9942      2.6155      0.1835      2.0883    145.2164     27.0366
   405.4000      7.9942      2.6513      0.2583     -0.0781    147.4194     26.9909
   405.5000      7.9757      2.6759      0.1928     -1.5684    151.1259     27.0036
   405.6000      7.9757      2.6945      0.1934     -2.6981    154.5469     26.9956
   405.7000      7.9757      2.6999      0.2255     -3.0256    148.0455     27.0565
   405.8000      8.0195      2.6784      0.1867     -1.7219    132.9999     27.1827
   405.9000      8.0195      2.6476      0.0582      0.1425    122.9528     27.2699
   406.0000      8.0260      2.6287      0.0935      1.2893    121.3935     27.2794
   406.1000      8.0260      2.6129      0.0383      2.2455    119.4690     27.2003
   406.2000      8.0260      2.5943      0.0232      3.3767    112.8411     26.9755
   406.3000      8.0016      2.5760      0.0037      4.4842    103.7467     26.4147
   406.4000      8.0016      2.5570      0.0073      5.6343     93.2694     25.3700
   406.5000      7.9551      2.5407      0.0219      6.6253     84.6306     24.3858
   406.6000      7.9551      2.5348      0.0022      6.9793     82.5408     24.1483
   406.7000      7.9551      2.5411      0.0330      6.6026     84.2129     24.5858
   406.8000      7.9590      2.5494      0.0625      6.0965     85.4098     25.2700
   406.9000      7.9590      2.5543      0.0705      5.8017     87.1226     25.7660
   407.0000      7.9691      2.5664      0.0285      5.0658     90.1063     25.7401
   407.1000      7.9691      2.5931      0.0400      3.4496     92.3168     25.3233
   407.2000      7.9691      2.6169      0.1128      2.0075     93.1220     24.9473
   407.3000      7.9512      2.6112      0.1300      2.3546     95.5272     24.7611
   407.4000      7.9512      2.5786      0.0361      4.3296    100.7853     24.7637
   407.5000      7.9560      2.5491      0.0336      6.1127    104.6046     25.1977
   407.6000      7.9560      2.5308      0.0519      7.2219    106.0293     25.7481
   407.7000      7.9560      2.5129     -0.0360      8.3110    108.7684     25.6803
   407.8000      7.9558      2.4992     -0.0143      9.1414    112.4291     25.1584
   407.9000      7.9558      2.4950      0.0516      9.3927    112.7775     24.8008
   408.0000      7.9949      2.4960      0.0073      9.3356    107.2374     24.8324
   408.1000      7.9949      2.4977      0.0047      9.2298     98.9811     25.0489
   408.2000      7.9949      2.5002     -0.0455      9.0789     94.4532     25.1616
   408.3000      8.0147      2.5036     -0.0044      8.8748     93.9758     25.1908
   408.4000      8.0147      2.5024      0.0578      8.9449     91.7691     25.3631
   408.5000      8.0626      2.4994     -0.0047      9.1264     87.2520     25.6265
   408.6000      8.0626      2.5053     -0.0032      8.7691     83.2319     25.7188
   408.7000      8.0626      2.5176      0.0222      8.0257     79.5376     25.7133
   408.8000      8.0319      2.5276      0.0102      7.4198     76.5024     25.7533
   408.9000      8.0319      2.5348      0.0091      6.9820     76.1723     25.7140
   409.0000      7.9989      2.5395      0.0258      6.6967     80.2475     25.6422
   409.1000      7.9989      2.5410     -0.0161      6.6062     87.4572     25.6567
   409.2000      7.9989      2.5407      0.0272      6.6222     92.6794     25.5866
   409.3000      7.9736      2.5413     -0.0399      6.5904     96.4413     25.4565
   409.4000      7.9736      2.5412      0.0445      6.5926    102.0398     25.4699
   409.5000      7.9802      2.5428     -0.0460      6.4991    107.0804     25.5389
   409.6000      7.9802      2.5627     -0.0579      5.2906    110.0121     25.5382
   409.7000      7.9802      2.5985      0.0392      3.1195    114.8058     25.6051
   409.8000      7.9911      2.6189      0.0079      1.8871    124.2775     25.7341
   409.9000      7.9911      2.6060      0.0187      2.6686    137.5312     25.9075
