~Version Information
VERS.                      2.0: CWLS Log ASCII Standard - VERSION 2.0
WRAP.                       NO: One line per depth step
~Well Information Block
STRT.FT                 5.0000: 
STOP.FT              1874.2500: 
STEP.FT                 0.2500: 
NULL.                -999.2500: 
COMP.          Pioneer Natural Resources: COMPANY
WELL.           Stampede 42-18: WELL
FLD.           Purgatoire River: FIELD
LOC.           2479' FNL & 160' FEL--: LOCATION
CNTY.               Las Animas: COUNTY
SRVC.          Superior Well Services: SERVICE COMPANY
DATE.          Mon Jun 25 12:19:16 2007: LOG DATE
UWI.                          : UNIQUE WELL ID
STAT.                 Colorado: STATE
~Curve Information Block
DEPT.FT            0 000 00 00: Depth
GR.GAPI                       : Gamma Ray
CCL.                          : Casing Collar Locator
TT3.usec                      : CBL 3' Travel Time
AMP3.mV                       : CBL 3' Amplitude
AMP5.mV                       : CBL 5' Amplitude
~Parameter Information Block
~A  Depth        GR         CCL         TT3         AMP3        AMP5    
# ...
   509.0000    105.2300      0.0000    520.8347      7.4673      2.5977
   509.2500    108.5027      0.0000    491.9456      7.8156      2.6032
   509.5000    110.1348      0.0000    463.5563      8.0798      2.6096
   509.7500    109.9753      0.0000    436.6904      8.2645      2.6335
   510.0000    109.5838      0.0000    416.5828      8.4026      2.6759
   510.2500    110.6834      0.0000    406.8627      8.5191      2.7183
   510.5000    113.5453      0.0000    406.3292      8.6108      2.7400
   510.7500    116.8760      0.0000    410.4252      8.6515      2.7372
   511.0000    118.9045      0.0000    414.5777      8.6089      2.7229
   511.2500    118.3682      0.0000    416.9761      8.4606      2.7094
   511.5000    114.8936      0.0000    418.9328      8.2035      2.6962
   511.7500    109.1538      0.0000    422.6674      7.8529      2.6757
   512.0000    102.8507      0.0000    429.4969      7.4368      2.6472
   512.2500     98.0213      0.0000    440.2050      6.9918      2.6223
   512.5000     95.7630      0.0000    455.4355      6.5611      2.6116
   512.7500     95.5508      0.0000    474.0838      6.1858      2.6097
   513.0000     96.0711      0.0000    491.2839      5.8968      2.5984
   513.2500     96.8096      0.0000    499.1442      5.7114      2.5672
   513.5000     98.5413      0.0000    491.3783      5.6316      2.5240
   513.7500    101.9411      0.0000    468.9458      5.6400      2.4835
   514.0000    105.8066      0.0000    440.8201      5.7009      2.4518
   514.2500    107.4241      0.0000    417.7988      5.7699      2.4265
   514.5000    105.2556      0.0000    405.6045      5.8102      2.4057
   514.7500    100.6595      0.0000    403.7201      5.8040      2.3901
   515.0000     96.2301      0.0000    408.4942      5.7569      2.3785
   515.2500     93.0811      0.0000    415.8603      5.6942      2.3668
   515.5000     90.6010      0.0000    422.5165      5.6468      2.3536
   515.7500     88.2293      0.0000    426.5877      5.6333      2.3432
   516.0000     86.3513      0.0000    428.0219      5.6521      2.3420
   516.2500     85.5383      0.0000    428.3968      5.6848      2.3502
   516.5000     85.6124      0.0000    430.0434      5.7079      2.3601
   516.7500     85.6576      0.0000    434.0546      5.7054      2.3628
   517.0000     84.9175      0.0000    438.6828      5.6824      2.3575
   517.2500     83.6397      0.0000    441.1424      5.6656      2.3516
   517.5000     82.7290      0.0000    442.2607      5.6845      2.3504
   517.7500     82.5457      0.0000    447.4001      5.7474      2.3511
   518.0000     82.5230      0.0000    460.1520      5.8360      2.3483
   518.2500     82.0895      0.0000    475.9301      5.9184      2.3427
   518.5000     81.5704      0.0000    485.0033      5.9659      2.3411
   518.7500     82.0722      0.0000    482.9270      5.9676      2.3489
   519.0000     84.7389      0.0000    475.5100      5.9352      2.3654
   519.2500     89.9787      0.0000    471.5065      5.8918      2.3855
   519.5000     96.8028      0.0000    472.3065      5.8568      2.4045
   519.7500    102.7482      0.0000    471.4201      5.8456      2.4212
   520.0000    105.0809      0.0000    463.3948      5.8727      2.4358
   520.2500    102.8272      0.0000    450.4347      5.9447      2.4449
   520.5000     97.7765      0.0000    439.3690      6.0506      2.4435
   520.7500     93.1683      0.0000    434.1922      6.1741      2.4333
   521.0000     91.2268      0.0000    433.8164      6.3166      2.4257
   521.2500     91.9603      0.0000    435.9773      6.5004      2.4315
   521.5000     94.0403      0.0000    439.6599      6.7464      2.4468
   521.7500     96.2456      0.0000    442.4350      7.0449      2.4548
   522.0000     97.9322      0.0000    439.2407      7.3526      2.4434
   522.2500     98.7319      0.0000    427.1282      7.6223      2.4192
   522.5000     98.4816      0.0000    409.3423      7.8334      2.4002
   522.7500     97.4377      0.0000    392.1424      7.9905      2.3969
   523.0000     96.1448      0.0000    379.0717      8.1017      2.4049
   523.2500     94.9414      0.0000    369.9887      8.1707      2.4156
   523.5000     93.7881      0.0000    363.8851      8.2037      2.4281
   523.7500     92.6618      0.0000    360.6440      8.2086      2.4482
   524.0000     91.7706      0.0000    360.6724      8.1814      2.4801
   524.2500     91.0272      0.0000    363.9660      8.0952      2.5252
   524.5000     89.6275      0.0000    369.5435      7.9122      2.5878
   524.7500     86.8237      0.0000    375.3522      7.6199      2.6766
   525.0000     83.2743      0.0000    378.9106      7.2557      2.7930
   525.2500     81.0953      0.0000    378.4832      6.8847      2.9180
   525.5000     82.1081      0.0000    374.0241      6.5562      3.0148
   525.7500     86.1508      0.0000    367.1225      6.2912      3.0526
   526.0000     91.3736      0.0000    359.9241      6.1014      3.0275
   526.2500     95.8620      0.0000    353.8571      5.9957      2.9576
   526.5000     98.6329      0.0000    349.1660      5.9595      2.8607
   526.7500     99.5495      0.0000    345.5001      5.9425      2.7448
   527.0000     98.9416      0.0000    343.0193      5.8825      2.6179
   527.2500     97.2072      0.0000    343.1122      5.7425      2.4970
   527.5000     94.4674      0.0000    347.8347      5.5241      2.4010
   527.7500     90.8098      0.0000    358.0313      5.2528      2.3377
   528.0000     86.8356      0.0000    371.9171      4.9556      2.3018
   528.2500     83.4415      0.0000    386.1664      4.6542      2.2828
   528.5000     80.9469      0.0000    399.4225      4.3735      2.2726
   528.7500     78.8882      0.0000    414.9777      4.1436      2.2678
   529.0000     76.8036      0.0000    438.7391      3.9826      2.2664
   529.2500     74.7719      0.0000    473.0772      3.8807      2.2654
   529.5000     72.9737      0.0000    513.1985      3.8091      2.2622
   529.7500     71.1250      0.0000    550.8032      3.7435      2.2565
   530.0000     68.7409      0.0000    580.6643      3.6740      2.2504
   530.2500     65.8067      0.0000    602.8100      3.6005      2.2458
   530.5000     62.9775      0.0000    619.7701      3.5308      2.2433
   530.7500     61.1981      0.0000    633.5397      3.4919      2.2427
   531.0000     61.1126      0.0000    644.8599      3.5407      2.2474
   531.2500     62.6793      0.0000    653.6514      3.7528      2.2662
   531.5000     65.3471      0.0000    659.0513      4.1898      2.3108
   531.7500     68.5094      0.0000    659.3651      4.8764      2.3905
   532.0000     71.5376      0.0000    652.0825      5.8186      2.5146
   532.2500     73.6441      0.0000    632.9565      7.0477      2.6985
   532.5000     74.2856      0.0000    596.1760      8.6384      2.9646
   532.7500     73.7084      0.0000    539.4054     10.6541      3.3333
   533.0000     72.7602      0.0000    470.0036     13.0415      3.8202
   533.2500     72.2826      0.0000    403.0849     15.5641      4.4401
   533.5000     72.9065      0.0000    351.6800     17.8697      5.2096
   533.7500     75.1502      0.0000    319.6903     19.6673      6.1385
   534.0000     79.2822      0.0000    303.2876     20.8611      7.2144
   534.2500     85.0250      0.0000    296.2675     21.5273      8.3851
   534.5000     91.5555      0.0000    293.7288     21.7992      9.5532
   534.7500     97.8922      0.0000    292.9397     21.7914     10.5982
   535.0000    103.4273      0.0000    292.7490     21.6064     11.4205
   535.2500    108.2888      0.0000    292.7697     21.3686     11.9722
   535.5000    113.1618      0.0000    292.8677     21.2211     12.2627
   535.7500    118.4813      0.0000    292.9959     21.2782     12.3435
   536.0000    123.5731      0.0000    293.1509     21.5826     12.2785
   536.2500    126.7993      0.0000    293.3587     22.0965     12.1034
   536.5000    126.8554      0.0000    293.6646     22.7244     11.8007
   536.7500    123.9081      0.0000    294.1808     23.3502     11.3185
