~Version Information
 VERS.                                  2.0 : CWLS LAS VERSION
 WRAP.                                   NO : WRAPING MODE
 SWARE .                 MController 2.5.0J : SOFTWARE VERSION
~Well Information
 WELL.                        Harlee L 34-9 : WELL
 COMP.    Pioneer natural Resources USA Inc : COMPANY
 FLD.                      Purgatoire River : FIELD
 LOC.                 SW/SE Sec 9 T32S R65W : LOCATION
 DATE.                              1/25/05 : DATE(S) LOGGED
 SRVC.       Blanco Geological Services LLC : SERVICE COMPANY
 STAT.                                   CO : STATE
 CNTY.                           Las Animas : COUNTY
 CTRY.                                  USA : COUNTRY
 API.                       05-071-08009-00 : API NUMBER
 STRT.FT                             404.00 : START DEPTH
 STOP.FT                            1773.00 : STOP DEPTH
 STEP.FT                               1.00 : DEPTH INCREMENT
 NULL.                                -9999 : NULL VALUE
~Curve information
 DEPTH.FT                                   :
 ROP.MIN/FT                                 :
 GAS.UNITS                                  :
~ASCII Log data
# ...
       604.0         0.17          7.7 
       605.0         0.18          7.1 
       606.0         0.13          7.1 
       607.0         0.20          7.8 
       608.0         0.20          7.8 
       609.0         0.17          8.1 
       610.0         0.20          8.2 
       611.0         0.23          7.8 
       612.0         0.27          7.9 
       613.0         0.27          7.7 
       614.0         0.17          8.3 
       615.0         0.37          8.2 
       616.0         0.27          8.2 
       617.0         0.23          7.7 
       618.0         0.33          7.7 
       619.0         0.13          7.7 
       620.0         0.15          8.8 
       621.0         0.10          8.8 
       622.0         0.13          8.8 
       623.0         0.17          8.9 
       624.0         0.17          8.9 
       625.0         0.13          9.6 
       626.0         0.10          8.8 
       627.0         0.30          8.4 
       628.0         0.17          7.8 
       629.0         0.13          7.8 
       630.0         0.23          8.3 
       631.0         0.27          8.5 
       632.0         0.38          7.9 
       633.0         0.27          7.7 
       634.0         0.13          8.0 
       635.0         0.27          7.5 
       636.0         0.30          7.8 
       637.0         0.27          7.6 
       638.0         0.27          8.2 
       639.0         0.10          8.2 
       640.0         0.13          7.8 
       641.0         0.13          7.8 
       642.0         0.10          7.6 
       643.0         0.13          8.5 
       644.0         0.20          8.1 
       645.0         0.17          8.5 
       646.0         0.17          8.5 
       647.0         0.17          8.5 
       648.0         0.17          8.5 
       649.0         0.17          8.6 
       650.0         0.22          8.0 
       651.0         0.20          8.8 
       652.0         0.20          8.3 
       653.0         0.23          8.4 
       654.0         0.30          8.6 
       655.0         0.27          8.1 
       656.0         0.20          8.3 
       657.0         0.30          8.5 
       658.0         0.23          7.8 
       659.0         0.22          8.1 
       660.0         0.30          8.6 
       661.0         0.23          8.3 
       662.0         0.20          8.3 
       663.0         0.17          8.1 
       664.0         0.27          8.6 
       665.0         0.20          8.1 
       666.0         0.20          7.7 
       667.0         0.17          8.4 
       668.0         0.20          8.6 
       669.0         0.17         11.9 
       670.0         0.23          8.6 
       671.0         0.17          9.3 
       672.0         0.30          9.0 
       673.0         0.33          9.5 
       674.0         0.15          9.5 
       675.0         0.30          9.1 
       676.0         0.13          9.7 
       677.0         0.23          9.2 
       678.0         0.33          9.7 
       679.0         0.23         10.2 
       680.0         0.13         10.6 
       681.0         0.13         10.6 
       682.0         0.27         10.6 
       683.0         0.27         10.5 
       684.0         0.27         10.7 
       685.0         0.27         10.5 
       686.0         0.27          9.8 
       687.0         0.17          9.8 
       688.0         0.13         10.4 
       689.0         0.20         10.4 
       690.0         0.27         10.3 
       691.0         0.20         10.6 
       692.0         0.13         10.6 
       693.0         0.37         10.5 
       694.0         0.27          9.8 
       695.0         0.27         10.4 
       696.0         0.27         10.5 
       697.0         0.27         10.4 
       698.0         0.25         10.2 
       699.0         0.23         10.2 
       700.0         0.20         10.2 
       701.0         0.20          9.7 
       702.0         0.13         10.1 
       703.0         0.13         10.1 
       704.0         0.23         10.1 
       705.0         0.17         10.4 
       706.0         0.13         10.3 
       707.0         0.17         10.3 
       708.0         0.23         10.2 
       709.0         0.23         10.7 
       710.0         0.20         10.2 
       711.0         0.23         10.9 
       712.0         0.27         10.6 
       713.0         0.27          9.8 
       714.0         0.28         10.3 
       715.0         0.27         10.7 
       716.0         0.23         10.3 
       717.0         0.23         10.5 
       718.0         0.27         10.5 
       719.0         0.13         10.5 
       720.0         0.20         10.2 
       721.0         0.17          9.6 
       722.0         0.23         10.2 
       723.0         0.23         10.1 
       724.0         0.23          9.9 
       725.0         0.23         10.1 
       726.0         0.27         10.5 
       727.0         0.27         10.0 
       728.0         0.10          9.7 
       729.0         0.22         10.5 
       730.0         0.20         10.3 
       731.0         0.17          9.9 
       732.0         0.17          9.9 
       733.0         0.17         10.7 
       734.0         0.17         10.6 
       735.0         0.20         10.6 
       736.0         0.20         10.2 
       737.0         0.27         10.1 
       738.0         0.10         10.1 
       739.0         0.13         10.2 
       740.0         0.13         10.0 
       741.0         0.17          9.4 
       742.0         0.23         10.0 
       743.0         0.13         10.5 
       744.0         0.20         10.0 
       745.0         0.23          9.8 
       746.0         0.37         10.5 
       747.0         0.10          9.7 
       748.0         0.20          9.9 
       749.0         0.27         10.1 
       750.0         0.17          9.5 
       751.0         0.10          9.5 
       752.0         0.17         10.4 
       753.0         0.17         10.0 
       754.0         0.25         10.5 
       755.0         0.20         10.3 
       756.0         0.17         10.2 
       757.0         0.17         10.0 
       758.0         0.23         10.3 
       759.0         0.20         10.2 
       760.0         0.20         10.3 
       761.0         0.37          9.9 
       762.0         0.37         10.4 
       763.0         0.20          9.8 
       764.0         0.20          9.8 
       765.0         0.23         10.5 
       766.0         0.20         10.5 
       767.0         0.20         10.4 
       768.0         0.32         10.4 
       769.0         0.17         10.1 
       770.0         0.20         10.4 
       771.0         0.13         10.2 
       772.0         0.17         10.2 
       773.0         0.20          9.7 
       774.0         0.23         10.7 
       775.0         0.27         10.0 
       776.0         0.27         10.3 
       777.0         0.13          9.4 
       778.0         0.20         10.2 
       779.0         0.30         10.4 
       780.0         0.27         10.2 
       781.0         0.23          9.9 
       782.0         0.23          9.7 
       783.0         0.33          9.8 
       784.0         0.23         10.3 
       785.0         0.23         10.3 
       786.0         0.20         10.2 
       787.0         0.17         10.0 
       788.0         0.17          9.7 
       789.0         0.23          9.9 
       790.0         0.22          9.9 
       791.0         0.17          9.9 
       792.0         0.23          9.9 
       793.0         0.23          9.9 
       794.0         0.30         10.2 
       795.0         0.30         10.3 
       796.0         0.20         10.2 
       797.0         0.17         10.2 
       798.0         0.20         10.2 
       799.0         0.20         10.5 
       800.0         0.23         10.4 
       801.0         0.20          9.6 
       802.0         0.20          9.3 
       803.0         0.17         10.1 
