~Version Information
VERS.                      2.0: CWLS Log ASCII Standard - VERSION 2.0
WRAP.                       NO: One line per depth step
~Well Information Block
STRT.FT                -3.5000: 
STOP.FT              1745.0000: 
STEP.FT                 0.2500: 
NULL.                -999.2500: 
COMP.          Pioneer Natural Resources: COMPANY
WELL.           Labrador 34-30: WELL
FLD.           Purgatorie River: FIELD
LOC.           926' FSL & 2080' FEL--: LOCATION
PROV.                       CO: PROVINCE
CNTY.               Las Animas: COUNTRY
SRVC.                         : SERVICE COMPANY
DATE.          Fri Dec 10 09:58:23 2004: LOG DATE
UWI.                071-08202 : UNIQUE WELL ID
~Curve Information Block
DEPT.FT            0 000 00 00: Depth
GR.GAPI                       : Gamma Ray
CCL.                          : Casing Collar Locator
TT3.usec                      : CBL 3' Travel Time
AMP3.mV                       : CBL 3' Amplitude
~Parameter Information Block
~A  Depth        GR         CCL         TT3         AMP3    
# ...
   800.5000    124.4485      0.0000    757.8936     11.4665
   800.7500    130.2936      0.0000    757.8220     11.3859
   801.0000    139.0527      0.0000    757.7238     11.3118
   801.2500    148.5119      0.0000    757.6592     11.2550
   801.5000    155.5853      0.0000    757.6534     11.2160
   801.7500    158.5156      0.0000    757.6810     11.1945
   802.0000    157.7351      0.0000    757.6979     11.2013
   802.2500    154.3269      0.0000    757.6686     11.2494
   802.5000    148.6394      0.0000    757.5695     11.3380
   802.7500    141.1565      0.0000    757.4005     11.4494
   803.0000    133.7334      0.0000    757.2082     11.5605
   803.2500    128.6681      0.0000    757.0752     11.6521
   803.5000    126.6819      0.0000    757.0577     11.7132
   803.7500    126.4281      0.0000    757.1412     11.7468
   804.0000    125.7107      0.0000    757.2640     11.7700
   804.2500    122.9113      0.0000    757.3683     11.7999
   804.5000    117.8636      0.0000    757.4112     11.8352
   804.7500    111.8526      0.0000    757.3462     11.8584
   805.0000    106.5161      0.0000    757.1445     11.8578
   805.2500    102.5962      0.0000    756.8499     11.8447
   805.5000     99.8782      0.0000    756.5704     11.8454
   805.7500     98.1212      0.0000    756.3843     11.8767
   806.0000     97.6737      0.0000    756.2717     11.9275
   806.2500     99.4138      0.0000    756.1592     11.9657
   806.5000    104.1568      0.0000    756.0066     11.9659
   806.7500    111.5490      0.0000    755.8290     11.9333
   807.0000    119.3562      0.0000    755.6565     11.8989
   807.2500    124.5393      0.0000    755.5008     11.8949
   807.5000    125.5564      0.0000    755.3628     11.9380
   807.7500    123.3835      0.0000    755.2499     12.0289
   808.0000    120.0185      0.0000    755.1743     12.1570
   808.2500    116.3498      0.0000    755.1461     12.2996
   808.5000    111.7973      0.0000    755.1884     12.4266
   808.7500    105.5755      0.0000    755.3519     12.5233
   809.0000     97.7362      0.0000    755.6868     12.6068
   809.2500     89.1446      0.0000    756.1894     12.7062
   809.5000     80.9500      0.0000    756.7806     12.8259
   809.7500     74.1372      0.0000    757.3270     12.9389
   810.0000     69.1697      0.0000    757.6837     13.0144
   810.2500     65.8883      0.0000    757.7476     13.0440
   810.5000     63.9978      0.0000    757.5147     13.0355
   810.7500     63.7504      0.0000    757.0967     12.9887
   811.0000     65.9720      0.0000    756.6722     12.8884
   811.2500     71.5364      0.0000    756.4124     12.7242
   811.5000     80.9085      0.0000    756.4283     12.5110
   811.7500     93.7836      0.0000    756.7410     12.2873
   812.0000    108.7398      0.0000    757.2502     12.0915
   812.2500    123.4774      0.0000    757.7384     11.9405
   812.5000    135.7176      0.0000    757.9698     11.8269
   812.7500    143.9209      0.0000    757.8518     11.7332
   813.0000    147.5000      0.0000    757.5197     11.6499
   813.2500    147.1204      0.0000    757.3094     11.5823
   813.5000    144.8130      0.0000    757.8270     11.5452
   813.7500    142.9322      0.0000    760.2239     11.5513
   814.0000    142.5433      0.0000    766.2520     11.6019
   814.2500    143.1974      0.0000    777.0891     11.6875
   814.5000    144.2109      0.0000    790.9686     11.7914
   814.7500    145.2436      0.0000    802.2813     11.8899
   815.0000    145.5101      0.0000    805.0531     11.9568
   815.2500    143.7072      0.0000    798.3740     11.9758
   815.5000    139.4364      0.0000    787.2440     11.9486
   815.7500    134.0036      0.0000    777.5208     11.8895
   816.0000    129.3835      0.0000    771.4229     11.8139
   816.2500    126.8128      0.0000    768.1309     11.7330
   816.5000    126.3430      0.0000    766.4866     11.6523
   816.7500    127.1691      0.0000    765.7346     11.5706
   817.0000    128.2310      0.0000    765.0094     11.4750
   817.2500    128.9131      0.0000    763.7283     11.3291
   817.5000    129.3351      0.0000    762.2885     11.0699
   817.7500    129.8436      0.0000    761.5825     10.6479
   818.0000    130.3901      0.0000    762.0249     10.1018
   818.2500    130.7607      0.0000    763.4675      9.5819
   818.5000    131.1209      0.0000    765.7047      9.2607
   818.7500    131.7972      0.0000    768.4047      9.2010
   819.0000    132.6380      0.0000    770.4966      9.3271
   819.2500    133.2222      0.0000    770.1406      9.5166
   819.5000    133.6667     -2.0000    765.9717      9.6963
   819.7500    134.3595     -2.0000    758.7851      9.8505
   820.0000    134.7988      0.0000    751.5861      9.9910
   820.2500    133.7239      0.0000    747.0176     10.1589
   820.5000    130.7499      0.0000    744.9090     10.4295
   820.7500    127.0941      0.0000    743.2943     10.8606
   821.0000    124.3476      0.0000    741.5209     11.4200
   821.2500    123.1718      0.0000    741.0949     11.9886
   821.5000    123.5289      0.0000    743.3890     12.4343
   821.7500    125.5016      0.0000    747.6791     12.6738
   822.0000    129.2641      0.0000    751.9394     12.6943
   822.2500    134.6176      0.0000    754.7900     12.5501
   822.5000    141.0308      0.0000    756.1642     12.3347
   822.7500    147.9536      0.0000    756.6534     12.1346
   823.0000    154.6237      0.0000    756.7831     11.9925
   823.2500    159.7194      0.0000    756.8134     11.9025
   823.5000    161.8352      0.0000    756.8248     11.8366
   823.7500    160.6018      0.0000    756.8210     11.7755
   824.0000    157.1169      0.0000    756.7969     11.7215
   824.2500    153.1054      0.0000    756.7601     11.6867
   824.5000    149.6106      0.0000    756.7332     11.6661
   824.7500    146.6585      0.0000    756.7415     11.6101
   825.0000    144.4685      0.0000    756.8073     11.4297
   825.2500    144.4981      0.0000    756.9431     11.0479
   825.5000    148.1924      0.0000    757.1315     10.4547
   825.7500    154.6332      0.0000    757.3119      9.7144
   826.0000    160.3967      0.0000    757.4071      8.9295
   826.2500    161.9042      0.0000    757.3813      8.1923
   826.5000    157.1681      0.0000    757.2713      7.5477
   826.7500    145.6885      0.0000    757.1919      6.9850
   827.0000    128.2570      0.0000    757.3864      6.4681
   827.2500    107.3352      0.0000    758.3388      5.9718
   827.5000     86.5871      0.0000    760.7263      5.4915
   827.7500     69.3243      0.0000    764.8903      5.0331
   828.0000     57.4822      0.0000    770.0359      4.6114
   828.2500     51.7252      0.0000    774.2350      4.2578
   828.5000     51.6042      0.0000    775.8194      4.0202
   828.7500     55.4225      0.0000    774.7562      3.9504
   829.0000     60.6633      0.0000    772.2043      4.0820
   829.2500     65.1379      0.0000    769.0403      4.4111
   829.5000     68.0143      0.0000    765.5247      4.8962
   829.7500     69.9317      0.0000    762.0583      5.4808
   830.0000     72.1593      0.0000    759.3391      6.1229
   830.2500     75.5874      0.0000    757.7458      6.8142
   830.5000     80.5310      0.0000    757.0769      7.5781
   830.7500     87.4111      0.0000    756.9098      8.4508
   831.0000     97.0757      0.0000    756.9533      9.4645
   831.2500    109.8266      0.0000    757.0766     10.6272
   831.5000    124.0762      0.0000    757.2071     11.8842
   831.7500    136.4521      0.0000    757.2940     13.0851
   832.0000    143.6875      0.0000    757.3223     14.0105
   832.2500    144.6755      0.0000    757.3062     14.4764
   832.5000    141.0423      0.0000    757.2516     14.4459
   832.7500    135.8885      0.0000    757.1538     14.0483
   833.0000    131.7331      0.0000    757.0300     13.4880
   833.2500    129.2884      0.0000    756.9305     12.9318
   833.5000    128.0282      0.0000    756.9041     12.4583
   833.7500    127.6753      0.0000    756.9631     12.0669
