~Version Information
VERS.                      2.0: CWLS Log ASCII Standard - VERSION 2.0
WRAP.                       NO: One line per depth step
~Well Information Block
STRT.FT               802.1000: 
STOP.FT              1915.0000: 
STEP.FT                 0.1000: 
NULL.                -999.2500: 
COMP.          Petrogulf Corporation: COMPANY
WELL.             State 16-32R: WELL
FLD.           Purgatorie River: FIELD
LOC.           1849' FNL & 1677' FEL: LOCATION
CNTY.               Las Animas: COUNTY
SRVC.                         : SERVICE COMPANY
DATE.          Thu May 13 18:17:16 2004: LOG DATE
UWI.           05 071 08033 00: UNIQUE WELL ID
STAT.                 Colorado: STATE
~Curve Information Block
DEPT.FT            0 000 00 00: Depth
DCAL.in                       : CDL Caliper
RHOB.g/cc                     : CDL Bulk Density
RHOC.g/cc                     : CDL Density Correction
DPOR.pu                       : CDL Density Porosity
GR.GAPI                       : Gamma Ray
NPOR.pu                       : Neutron Porosity
~Parameter Information Block
~A  Depth       DCAL        RHOB        RHOC        DPOR         GR         NPOR    
# ...
  1550.9000      7.8898      2.5740      0.1245      4.6079    116.6592     27.8296
  1551.0000      7.8842      2.6009      0.0598      2.9783    119.2605     27.6425
  1551.1000      7.8842      2.6190      0.1336      1.8818    119.9894     27.6740
  1551.2000      7.8842      2.6151      0.0883      2.1145    113.5721     27.7095
  1551.3000      7.8860      2.5961      0.1319      3.2695    103.6245     28.0013
  1551.4000      7.8860      2.5900      0.0265      3.6378     96.8438     28.5513
  1551.5000      7.8766      2.6123      0.0787      2.2857     96.7270     28.7988
  1551.6000      7.8766      2.6329      0.1506      1.0369    100.6332     28.6129
  1551.7000      7.8766      2.6178      0.1710      1.9509    107.6452     28.5003
  1551.8000      7.8960      2.5872      0.0839      3.8035    116.7879     28.7259
  1551.9000      7.8960      2.5737      0.1090      4.6258    125.3629     28.8332
  1552.0000      7.9081      2.5666      0.0772      5.0555    136.7803     28.3889
  1552.1000      7.9081      2.5532      0.0040      5.8666    147.3537     27.7949
  1552.2000      7.9081      2.5467     -0.0176      6.2579    147.7160     27.6608
  1552.3000      7.8991      2.5376      0.0479      6.8096    139.6991     27.8580
  1552.4000      7.8991      2.5107     -0.0242      8.4402    133.2498     27.9704
  1552.5000      7.8975      2.4989     -0.0338      9.1604    132.8289     27.8645
  1552.6000      7.8975      2.5182      0.0070      7.9886    133.0379     27.5263
  1552.7000      7.8975      2.5386      0.0597      6.7505    132.6422     26.9047
  1552.8000      7.8816      2.5502      0.0899      6.0486    134.3130     26.2457
  1552.9000      7.8816      2.5644      0.1113      5.1870    136.5515     26.0504
  1553.0000      7.9239      2.5727      0.1392      4.6821    138.1837     26.3597
  1553.1000      7.9239      2.5691      0.0590      4.9010    139.2783     26.5790
  1553.2000      7.9239      2.5631      0.1487      5.2658    137.5508     26.4011
  1553.3000      7.9183      2.5530      0.1180      5.8817    132.2763     26.3317
  1553.4000      7.9183      2.5409      0.0826      6.6126    132.2586     26.8471
  1553.5000      7.9358      2.5318      0.0955      7.1624    143.3608     27.6201
  1553.6000      7.9358      2.5167      0.0576      8.0773    155.2950     28.1115
  1553.7000      7.9358      2.4915      0.0468      9.6044    156.6320     28.1640
  1553.8000      7.9442      2.4768     -0.0131     10.4942    148.7780     27.9850
  1553.9000      7.9442      2.4954      0.1011      9.3682    139.2150     27.9707
  1554.0000      8.0674      2.5300      0.0753      7.2755    132.3128     28.1322
  1554.1000      8.0674      2.5381      0.0674      6.7847    129.0277     28.1809
  1554.2000      8.0674      2.4973      0.0421      9.2535    127.8654     28.1223
  1554.3000      8.1548      2.4225      0.0399     13.7903    130.9838     28.2667
  1554.4000      8.1548      2.3621     -0.1089     17.4470    139.7201     28.7912
  1554.5000      8.1388      2.3550     -0.0056     17.8764    147.4578     29.0337
  1554.6000      8.1388      2.3825     -0.0117     16.2092    153.7715     28.2616
  1554.7000      8.1388      2.4091     -0.0341     14.5984    163.2662     27.1619
  1554.8000      8.1106      2.4177      0.0059     14.0768    166.6599     26.9662
  1554.9000      8.1106      2.3972     -0.0105     15.3224    158.5230     27.6395
  1555.0000      8.1201      2.3582     -0.0302     17.6866    149.2546     28.2504
  1555.1000      8.1201      2.3312     -0.0058     19.3201    146.2311     28.4476
  1555.2000      8.1201      2.3205      0.1148     19.9697    146.9937     28.5910
  1555.3000      8.1954      2.3113      0.0259     20.5291    149.8077     28.6519
  1555.4000      8.1954      2.3199      0.0014     20.0031    151.9895     28.3878
  1555.5000      8.2090      2.3647      0.0132     17.2898    148.0843     28.2566
  1555.6000      8.2090      2.4291      0.1173     13.3854    138.8059     28.6804
  1555.7000      8.2090      2.4982      0.1622      9.2009    132.9751     29.1575
  1555.8000      8.1760      2.5762      0.2166      4.4708    131.8494     29.3452
  1555.9000      8.1760      2.6515      0.3581     -0.0918    125.6525     29.6777
  1556.0000      8.0787      2.6840      0.3800     -2.0592    111.5160     30.1496
  1556.1000      8.0787      2.6525      0.3549     -0.1490     98.6175     30.3516
  1556.2000      8.0787      2.5885      0.1839      3.7291    100.9345     30.4340
  1556.3000      7.9293      2.5390      0.1388      6.7296    118.5710     30.4611
  1556.4000      7.9293      2.5102      0.1606      8.4708    133.0169     29.9170
  1556.5000      7.8794      2.4890      0.0470      9.7571    137.5218     28.9839
  1556.6000      7.8794      2.4784     -0.0019     10.3976    133.8839     28.4512
  1556.7000      7.8794      2.4758      0.1212     10.5593    122.5016     28.4604
  1556.8000      7.9074      2.4798      0.0449     10.3122    118.0797     28.4962
  1556.9000      7.9074      2.5009      0.0578      9.0382    125.1706     28.1734
  1557.0000      7.8872      2.5164      0.1281      8.0978    127.8565     27.6632
  1557.1000      7.8872      2.4963      0.1228      9.3153    119.1790     27.1571
  1557.2000      7.8872      2.4577      0.0708     11.6573    108.9763     26.6687
  1557.3000      7.8405      2.4435      0.1191     12.5145    109.7145     26.3869
  1557.4000      7.8405      2.4716      0.1363     10.8124    118.1052     26.4304
  1557.5000      7.8689      2.5185      0.1746      7.9700    120.3637     26.7166
  1557.6000      7.8689      2.5551      0.1812      5.7522    116.5584     27.1389
  1557.7000      7.8689      2.5744      0.2137      4.5829    115.1429     27.7002
  1557.8000      8.0008      2.5832      0.2711      4.0455    112.8572     28.4822
  1557.9000      8.0008      2.5958      0.2419      3.2859    107.5454     29.2787
  1558.0000      7.9412      2.6179      0.2442      1.9451    111.6604     29.8513
  1558.1000      7.9412      2.6340      0.2313      0.9685    126.9734     30.3313
  1558.2000      7.9412      2.6444      0.0458      0.3398    137.2407     30.7453
  1558.3000      7.9072      2.6708      0.1140     -1.2592    136.2644     30.7205
  1558.4000      7.9072      2.6929      0.1817     -2.5996    129.2172     30.1623
  1558.5000      7.8748      2.6753      0.1452     -1.5347    121.0235     29.4424
  1558.6000      7.8748      2.6357      0.1470      0.8637    116.9424     28.8609
  1558.7000      7.8748      2.6036      0.0955      2.8100    113.3215     28.3580
  1558.8000      7.8662      2.5801      0.1026      4.2337    105.4661     27.7891
  1558.9000      7.8662      2.5618      0.0919      5.3475    101.3307     27.2162
  1559.0000      7.8367      2.5520      0.0434      5.9408    106.8313     26.7996
  1559.1000      7.8367      2.5394      0.0412      6.7006    119.2981     26.5597
  1559.2000      7.8367      2.5188     -0.0014      7.9536    132.9226     26.4583
  1559.3000      7.8145      2.5091     -0.0042      8.5372    136.9645     26.6092
  1559.4000      7.8145      2.5161      0.0167      8.1171    130.6780     27.0108
  1559.5000      7.8242      2.5330      0.0111      7.0889    128.7836     27.4563
  1559.6000      7.8242      2.5552      0.0220      5.7464    135.0670     27.4651
  1559.7000      7.8242      2.5621      0.1602      5.3286    140.0571     26.8220
  1559.8000      7.8623      2.5320      0.1069      7.1514    136.2315     26.2669
  1559.9000      7.8623      2.4784      0.0623     10.3990    124.3229     26.2822
  1560.0000      7.8914      2.4387      0.0178     12.8067    113.9688     26.6028
  1560.1000      7.8914      2.4296      0.0507     13.3581    113.4484     27.1269
  1560.2000      7.8914      2.4346      0.0608     13.0566    117.4540     27.6385
  1560.3000      7.8855      2.4432      0.0477     12.5347    117.2263     27.8118
  1560.4000      7.8855      2.4671      0.0728     11.0847    113.6789     27.8805
