~Version Information
VERS.                      2.0: CWLS Log ASCII Standard - VERSION 2.0
WRAP.                       NO: One line per depth step
~Well Information Block
STRT.FT              1727.9000: 
STOP.FT              1961.0000: 
STEP.FT                 0.1000: 
NULL.                -999.2500: 
COMP.          Petrogulf Corporation: COMPANY
WELL.              Royal 8-33R: WELL
FLD.           Purgatorie River: FIELD
LOC.           2401' FSL & 2270' FEL: LOCATION
CNTY.               Las Animas: COUNTY
SRVC.                         : SERVICE COMPANY
DATE.          Mon Apr 26 06:57:24 2004: LOG DATE
UWI.           05 071 08041 00: UNIQUE WELL ID
STAT.                 Colorado: STATE
~Curve Information Block
DEPT.FT            0 000 00 00: Depth
DCAL.in                       : CDL Caliper
RHOB.g/cc                     : CDL Bulk Density
RHOC.g/cc                     : CDL Density Correction
DPOR.pu                       : CDL Density Porosity
GR.GAPI                       : Gamma Ray
~Parameter Information Block
~A  Depth       DCAL        RHOB        RHOC        DPOR         GR     
# ...
  1795.1000      7.8569      2.3793      0.0657     16.4087    169.2501
  1795.2000      7.8569      2.3855      0.1104     16.0317    172.7939
  1795.3000      7.8517      2.3936      0.1360     15.5369    179.4507
  1795.4000      7.8517      2.4155      0.1311     14.2102    183.5299
  1795.5000      7.8470      2.4479      0.1985     12.2491    182.6275
  1795.6000      7.8470      2.4612      0.1620     11.4419    168.2370
  1795.7000      7.8470      2.4484      0.1294     12.2205    147.3128
  1795.8000      7.8507      2.4400      0.1869     12.7272    143.0056
  1795.9000      7.8507      2.4645      0.1039     11.2394    152.2381
  1796.0000      7.8550      2.5115      0.1512      8.3965    156.0212
  1796.1000      7.8550      2.5463      0.1443      6.2831    154.9692
  1796.2000      7.8550      2.5512      0.1547      5.9906    160.0376
  1796.3000      7.8739      2.5314      0.1057      7.1855    170.8207
  1796.4000      7.8739      2.5181      0.0704      7.9936    176.3281
  1796.5000      7.9677      2.5233      0.1540      7.6799    171.6507
  1796.6000      7.9677      2.5143      0.1404      8.2224    164.3581
  1796.7000      7.9677      2.4887      0.0450      9.7746    151.5157
  1796.8000      7.9744      2.4951     -0.0113      9.3896    131.4153
  1796.9000      7.9744      2.5544      0.0400      5.7928    119.4937
  1797.0000      7.9159      2.6121      0.1465      2.2980    125.4412
  1797.1000      7.9159      2.6183      0.0752      1.9205    140.3335
  1797.2000      7.9159      2.6079     -0.0560      2.5502    144.8676
  1797.3000      7.8965      2.6112      0.1468      2.3488    139.5763
  1797.4000      7.8965      2.6060     -0.0084      2.6668    140.6601
  1797.5000      7.8908      2.5912      0.1089      3.5662    147.9577
  1797.6000      7.8908      2.5708      0.1312      4.8027    148.4302
  1797.7000      7.8908      2.5367      0.1152      6.8650    142.3713
  1797.8000      7.8538      2.4975     -0.0055      9.2428    141.6856
  1797.9000      7.8538      2.4699      0.0202     10.9155    147.8359
  1798.0000      7.8524      2.4617      0.0132     11.4109    153.9453
  1798.1000      7.8524      2.4754     -0.0231     10.5835    157.1144
  1798.2000      7.8524      2.4923      0.1180      9.5604    156.9440
  1798.3000      7.8601      2.4724      0.1187     10.7645    160.4057
  1798.4000      7.8601      2.4148      0.0396     14.2521    170.9623
  1798.5000      7.8781      2.3614      0.0071     17.4925    172.7514
  1798.6000      7.8781      2.3418      0.0528     18.6813    164.7825
  1798.7000      7.8781      2.3591      0.0266     17.6275    162.8327
  1798.8000      7.8788      2.3794      0.1304     16.4015    165.3307
  1798.9000      7.8788      2.3562      0.0972     17.8080    164.4547
  1799.0000      7.8866      2.3191     -0.0715     20.0530    160.8576
  1799.1000      7.8866      2.3395      0.0726     18.8163    158.4735
  1799.2000      7.8866      2.4183      0.1610     14.0415    157.1294
  1799.3000      7.8964      2.4988      0.2605      9.1628    148.3960
  1799.4000      7.8964      2.5383      0.2663      6.7715    134.5178
  1799.5000      7.9984      2.5395      0.2716      6.6997    128.5203
  1799.6000      7.9984      2.5288      0.2659      7.3435    134.0509
  1799.7000      7.9984      2.5214      0.2511      7.7919    142.7050
  1799.8000      8.0272      2.5225      0.1743      7.7261    146.0435
  1799.9000      8.0272      2.5395      0.1967      6.6957    145.2919
  1800.0000      7.9715      2.5725      0.1442      4.6952    150.3664
  1800.1000      7.9715      2.6145      0.1642      2.1498    158.7665
  1800.2000      7.9715      2.6543      0.2035     -0.2590    155.5530
  1800.3000      7.9280      2.6670      0.2105     -1.0306    140.9335
  1800.4000      7.9280      2.6387      0.1547      0.6877    128.4325
  1800.5000      7.9046      2.5955      0.1385      3.3016    119.6638
  1800.6000      7.9046      2.5740      0.2046      4.6033    104.5148
  1800.7000      7.9046      2.5798      0.1287      4.2563     87.0212
  1800.8000      7.9031      2.5870      0.1748      3.8180     85.0326
  1800.9000      7.9031      2.5752      0.1324      4.5344     96.9990
  1801.0000      7.8603      2.5596      0.0373      5.4785    104.8214
  1801.1000      7.8603      2.5529      0.0702      5.8852    109.4245
  1801.2000      7.8603      2.5278      0.1750      7.4068    125.2351
  1801.3000      7.8464      2.4780      0.0201     10.4217    142.3741
  1801.4000      7.8464      2.4449      0.0360     12.4294    145.4729
  1801.5000      7.8573      2.4368      0.0744     12.9233    139.1017
  1801.6000      7.8573      2.4194      0.1380     13.9739    128.0151
  1801.7000      7.8573      2.3844      0.0594     16.0989    114.6693
  1801.8000      7.8559      2.3550      0.0215     17.8794    106.6200
  1801.9000      7.8559      2.3481     -0.0094     18.2977    108.4848
  1802.0000      7.8636      2.3660     -0.0011     17.2128    119.1798
  1802.1000      7.8636      2.3980      0.0881     15.2722    127.9209
  1802.2000      7.8636      2.4276      0.0977     13.4795    124.1793
  1802.3000      7.8802      2.4523      0.1619     11.9798    115.1257
  1802.4000      7.8802      2.4704      0.1983     10.8854    112.9486
  1802.5000      7.8638      2.4744      0.1623     10.6440    119.9242
  1802.6000      7.8638      2.4680      0.1914     11.0309    134.1692
  1802.7000      7.8638      2.4569      0.2355     11.7031    152.5757
  1802.8000      7.7883      2.4516      0.1651     12.0215    172.2832
  1802.9000      7.7883      2.4714      0.1788     10.8259    185.9960
  1803.0000      7.8754      2.5059      0.1590      8.7341    182.2709
  1803.1000      7.8754      2.5122      0.2369      8.3511    162.4202
  1803.2000      7.8754      2.4838      0.1204     10.0712    138.7134
  1803.3000      7.9583      2.4751      0.0951     10.6014    115.8622
  1803.4000      7.9583      2.5159      0.1560      8.1249     99.6436
  1803.5000      7.9931      2.5698      0.3074      4.8634    100.7776
  1803.6000      7.9931      2.5974      0.2776      3.1884    110.2120
  1803.7000      7.9931      2.6068      0.2764      2.6175    115.5248
  1803.8000      7.9779      2.6122      0.2515      2.2930    125.2210
  1803.9000      7.9779      2.6078      0.2648      2.5583    140.9826
  1804.0000      7.9366      2.5992      0.2432      3.0772    154.0463
  1804.1000      7.9366      2.6132      0.1357      2.2332    160.4724
  1804.2000      7.9366      2.6616      0.1854     -0.7053    155.0885
  1804.3000      7.9224      2.7062      0.2618     -3.4052    139.0401
  1804.4000      7.9224      2.7107      0.2086     -3.6768    123.1558
  1804.5000      7.9126      2.6958      0.1610     -2.7735    116.0433
  1804.6000      7.9126      2.6792      0.1787     -1.7673    116.1867
  1804.7000      7.9126      2.6479      0.0917      0.1253    119.7097
  1804.8000      7.9545      2.6132      0.0414      2.2328    126.1529
  1804.9000      7.9545      2.5995      0.0663      3.0607    136.5334
  1805.0000      7.9074      2.5958      0.0574      3.2847    148.8691
  1805.1000      7.9074      2.5851      0.0765      3.9311    153.3051
  1805.2000      7.9074      2.5778      0.0411      4.3770    145.9146
  1805.3000      7.8949      2.5672      0.2057      5.0209    133.7061
  1805.4000      7.8949      2.5297      0.1188      7.2914    125.1609
  1805.5000      7.8963      2.4797      0.0619     10.3218    126.7415
  1805.6000      7.8963      2.4413      0.1027     12.6475    133.6703
  1805.7000      7.8963      2.4222      0.0624     13.8032    135.2246
  1805.8000      7.8792      2.4316      0.1102     13.2389    137.3575
  1805.9000      7.8792      2.4564      0.1423     11.7324    152.8353
  1806.0000      7.9173      2.4653      0.1228     11.1958    172.5479
  1806.1000      7.9173      2.4576      0.1235     11.6613    181.6471
  1806.2000      7.9173      2.4674      0.0725     11.0677    180.2956
