~Version Information
VERS.                      2.0: CWLS Log ASCII Standard - VERSION 2.0
WRAP.                       NO: One line per depth step
~Well Information Block
STRT.FT               546.2500: 
STOP.FT              2488.5000: 
STEP.FT                 0.2500: 
NULL.                -999.2500: 
COMP.          Petrogulf Corporation: COMPANY
WELL.               Egan 9-11V: WELL
FLD.           Purgatorie River: FIELD
LOC.           724' FNL & 1379' FWL: LOCATION
PROV.                 Colorado: PROVINCE
CNTY.               Las Animas: COUNTRY
SRVC.          Patterson Wireline: SERVICE COMPANY
DATE.          Fri Jul 11 23:16:48 2003: LOG DATE
UWI.           05 071 07875 00: UNIQUE WELL ID
~Curve Information Block
DEPT.FT            0 000 00 00: Depth
DCAL.in                       : CDL Caliper
RHOB.g/cc                     : CDL Bulk Density
RHOC.g/cc                     : CDL Density Correction
DPOR.pu                       : CDL Density Porosity
GR.GAPI                       : Gamma Ray
NPOR.pu                       : Neutron Porosity
~Parameter Information Block
~A  Depth       DCAL        RHOB        RHOC        DPOR         GR         NPOR    
# ...
   570.2500   -999.2500   -999.2500   -999.2500   -999.2500     78.0538     47.2568
   570.5000   -999.2500   -999.2500   -999.2500   -999.2500     78.1222     47.4647
   570.7500   -999.2500   -999.2500   -999.2500   -999.2500     77.6705     47.5977
   571.0000   -999.2500   -999.2500   -999.2500   -999.2500     77.1288     47.7013
   571.2500   -999.2500   -999.2500   -999.2500   -999.2500     77.7205     47.6996
   571.5000   -999.2500   -999.2500   -999.2500   -999.2500     80.5476     47.6162
   571.7500   -999.2500   -999.2500   -999.2500   -999.2500     83.0688     47.5171
   572.0000   -999.2500   -999.2500   -999.2500   -999.2500     86.0870     47.3252
   572.2500   -999.2500   -999.2500   -999.2500   -999.2500     87.0461     47.2017
   572.5000   -999.2500   -999.2500   -999.2500   -999.2500     87.0078     47.1002
   572.7500   -999.2500   -999.2500   -999.2500   -999.2500     86.2364     47.1158
   573.0000   -999.2500   -999.2500   -999.2500   -999.2500     84.1716     47.2387
   573.2500   -999.2500   -999.2500   -999.2500   -999.2500     82.2760     47.3335
   573.5000   -999.2500   -999.2500   -999.2500   -999.2500     78.9841     47.3896
   573.7500   -999.2500   -999.2500   -999.2500   -999.2500     76.8360     47.3380
   574.0000   -999.2500   -999.2500   -999.2500   -999.2500     74.4560     47.1687
   574.2500   -999.2500   -999.2500   -999.2500   -999.2500     73.7489     47.0633
   574.5000   -999.2500   -999.2500   -999.2500   -999.2500     73.7463     47.0295
   574.7500   -999.2500   -999.2500   -999.2500   -999.2500     73.8690     47.1107
   575.0000   -999.2500   -999.2500   -999.2500   -999.2500     73.4206     47.3377
   575.2500   -999.2500   -999.2500   -999.2500   -999.2500     72.7771     47.5093
   575.5000   -999.2500   -999.2500   -999.2500   -999.2500     72.2610     47.7348
   575.7500   -999.2500   -999.2500   -999.2500   -999.2500     72.7984     47.8479
   576.0000   -999.2500   -999.2500   -999.2500   -999.2500     75.1645     47.9495
   576.2500   -999.2500   -999.2500   -999.2500   -999.2500     77.4661     47.9691
   576.5000   -999.2500   -999.2500   -999.2500   -999.2500     81.3886     47.9547
   576.7500   -999.2500   -999.2500   -999.2500   -999.2500     84.1675     47.9579
   577.0000   -999.2500   -999.2500   -999.2500   -999.2500     88.3152     48.0467
   577.2500   -999.2500   -999.2500   -999.2500   -999.2500     90.6548     48.1599
   577.5000   -999.2500   -999.2500   -999.2500   -999.2500     92.8091     48.3483
   577.7500   -999.2500   -999.2500   -999.2500   -999.2500     93.2967     48.4494
   578.0000   -999.2500   -999.2500   -999.2500   -999.2500     93.0554     48.5305
   578.2500   -999.2500   -999.2500   -999.2500   -999.2500     92.5086     48.5337
   578.5000      2.1955   -999.2500   -999.2500   -999.2500     91.4164     48.4834
   578.7500      2.1957   -999.2500   -999.2500   -999.2500     90.7077     48.4436
   579.0000      2.1962   -999.2500   -999.2500   -999.2500     90.0002     48.4393
   579.2500      2.1967   -999.2500   -999.2500   -999.2500     89.7757     48.5005
   579.5000      2.1960   -999.2500   -999.2500   -999.2500     89.4706     48.6781
   579.7500      2.1955   -999.2500      0.1650   -999.2500     89.0494     48.8096
   580.0000      2.1957   -999.2500      0.1677   -999.2500     87.9621     48.9406
   580.2500      2.1963   -999.2500      0.1691   -999.2500     87.0378     48.9740
   580.5000      2.1966   -999.2500      0.1696   -999.2500     85.6442     49.0236
   580.7500      2.1957   -999.2500      0.1686   -999.2500     84.8659     49.1241
   581.0000      2.1956   -999.2500      0.1649   -999.2500     84.1939     49.4340
   581.2500      2.1969   -999.2500      0.1613   -999.2500     84.2590     49.7297
   581.5000      2.1979   -999.2500      0.1560   -999.2500     85.3135     50.2328
   581.7500      2.1981      2.1632      0.1537     29.5021     86.5074     50.5658
   582.0000      2.1990      2.1509      0.1526     30.2462     88.3003     51.0045
   582.2500      2.1997      2.1456      0.1528     30.5676     88.9771     51.2327
   582.5000      2.1990      2.1435      0.1539     30.6988     88.7002     51.4674
   582.7500      2.1990      2.1465      0.1555     30.5137     87.7894     51.5586
   583.0000      2.2004      2.1582      0.1597     29.8037     86.2666     51.5992
   583.2500      2.2016      2.1705      0.1637     29.0621     85.7794     51.5506
   583.5000      2.2015      2.1939      0.1715     27.6415     86.4373     51.3514
   583.7500      2.2003      2.2116      0.1778     26.5686     87.7896     51.1515
   584.0000      2.1989      2.2388      0.1890     24.9234     90.7155     50.8225
   584.2500      2.1979      2.2558      0.1975     23.8906     92.7738     50.6263
   584.5000      2.1978      2.2776      0.2105     22.5716     94.8460     50.3897
   584.7500      2.1983      2.2885      0.2177     21.9062     94.9073     50.2525
   585.0000      2.1981      2.2989      0.2234     21.2808     92.6880     50.0418
   585.2500      2.1971      2.3018      0.2234     21.1034     90.0633     49.8955
   585.5000      2.1965      2.3016      0.2198     21.1154     85.5677     49.6837
   585.7500      2.1960      2.2996      0.2172     21.2366     82.8266     49.5544
   586.0000      2.1957      2.2960      0.2148     21.4545     79.8516     49.3878
   586.2500      2.1969      2.2943      0.2140     21.5548     78.8099     49.3052
   586.5000      2.1976      2.2944      0.2127     21.5498     78.4422     49.2352
   586.7500      2.1973      2.2966      0.2118     21.4166     78.6619     49.2139
   587.0000      2.1977      2.3030      0.2118     21.0312     79.0944     49.1713
   587.2500      2.1977      2.3086      0.2132     20.6890     79.1951     49.1117
   587.5000      2.1977      2.3175      0.2164     20.1505     78.9508     48.9910
   587.7500      2.1977      2.3227      0.2181     19.8341     78.7762     48.9278
   588.0000      2.1967      2.3285      0.2187     19.4839     79.2545     48.8988
   588.2500      2.1953      2.3309      0.2182     19.3365     80.2645     48.8991
   588.5000      2.1960      2.3331      0.2175     19.2086     82.3354     48.8472
   588.7500      2.1978      2.3339      0.2175     19.1560     83.6414     48.7608
   589.0000      2.1981      2.3352      0.2172     19.0806     85.1408     48.6171
   589.2500      2.1968      2.3363      0.2164     19.0142     85.7666     48.5621
   589.5000      2.1958      2.3385      0.2146     18.8798     85.6544     48.5357
   589.7500      2.1959      2.3401      0.2132     18.7805     84.4312     48.4890
   590.0000      2.1964      2.3417      0.2107     18.6828     80.6803     48.2552
   590.2500      2.1953      2.3413      0.2086     18.7115     77.4285     47.9794
   590.5000      2.1938      2.3365      0.2040     19.0010     72.9787     47.4867
   590.7500      2.1938      2.3299      0.1996     19.3987     71.0691     47.1945
   591.0000      2.1947      2.3151      0.1908     20.2997     70.4666     46.9334
   591.2500      2.1951      2.3026      0.1838     21.0558     71.7619     46.9136
   591.5000      2.1948      2.2823      0.1724     22.2839     76.3246     47.1220
   591.7500      2.1948      2.2694      0.1650     23.0693     80.7132     47.3991
   592.0000      2.1955      2.2534      0.1558     24.0368     87.5090     47.9498
   592.2500      2.1955      2.2464      0.1516     24.4585     90.8656     48.3489
   592.5000      2.1953      2.2435      0.1492     24.6390     92.8481     48.8933
   592.7500      2.1966      2.2472      0.1504     24.4104     92.3697     49.1703
   593.0000      2.1979      2.2619      0.1574     23.5226     90.4557     49.3931
   593.2500      2.1975      2.2770      0.1655     22.6052     89.1646     49.3900
   593.5000      2.1962      2.3052      0.1807     20.8995     87.5114     49.1616
   593.7500      2.1951      2.3254      0.1911     19.6752     86.2851     48.8960
   594.0000      2.1951      2.3539      0.2035     17.9482     83.6454     48.4094
