~Version Information
VERS.                      2.0: CWLS Log ASCII Standard - VERSION 2.0
WRAP.                       NO: One line per depth step
~Well Information Block
STRT.FT               806.0000: 
STOP.FT              1812.2000: 
STEP.FT                 0.1000: 
NULL.                -999.2500: 
COMP.          Pioneer Natural Resources: COMPANY
WELL.            Hill 33-22 Tr: WELL
FLD.           Purgatoire River: FIELD
LOC.           1573' FSL & 1585' FEL: LOCATION
PROV.                 Colorado: PROVINCE
CNTY.               Las Animas: COUNTRY
SRVC.                Patterson: SERVICE COMPANY
DATE.          Thu Apr 14 12:25:33 2005: LOG DATE
UWI.           05 071 08316 00: UNIQUE WELL ID
~Curve Information Block
DEPT.FT            0 000 00 00: Depth
DCAL.in                       : CDL Caliper
RHOB.g/cc                     : CDL Bulk Density
RHOC.g/cc                     : CDL Density Correction
DPOR.pu                       : CDL Density Porosity
GR.GAPI                       : Gamma Ray
NPOR.pu                       : Neutron Porosity
~Parameter Information Block
~A  Depth       DCAL        RHOB        RHOC        DPOR         GR         NPOR    
# ...
   940.4000      7.9867      2.6518      0.0850     -0.1077    101.2823     25.6242
   940.5000      8.0045      2.6507      0.0566     -0.0453     98.9216     25.2465
   940.6000      8.0045      2.6787      0.1154     -1.7380     96.1580     24.8982
   940.7000      8.0045      2.6930      0.1121     -2.6065     93.5841     24.5767
   940.8000      8.0173      2.6760      0.0370     -1.5746     91.2828     24.3631
   940.9000      8.0173      2.6568      0.0446     -0.4131     88.9693     24.1517
   941.0000      8.0334      2.6575      0.0266     -0.4559     87.8443     23.6418
   941.1000      8.0334      2.6727      0.0181     -1.3747     89.4467     23.0404
   941.2000      8.0334      2.6813      0.0516     -1.8949     92.0860     22.8449
   941.3000      8.0335      2.6717      0.0952     -1.3160     94.6570     23.0687
   941.4000      8.0335      2.6481      0.0560      0.1159     99.0467     23.4684
   941.5000      8.0223      2.6178      0.0638      1.9494    107.5777     23.8798
   941.6000      8.0223      2.5992     -0.0162      3.0763    118.6114     24.0431
   941.7000      8.0223      2.6038      0.0402      2.7998    127.9925     23.7547
   941.8000      8.0202      2.6156      0.0757      2.0859    134.3994     23.2855
   941.9000      8.0202      2.6188      0.0595      1.8895    137.0540     23.0344
   942.0000      8.0092      2.6107      0.0478      2.3823    136.9867     23.2107
   942.1000      8.0092      2.5960      0.0157      3.2743    138.5626     23.8558
   942.2000      8.0092      2.5888      0.0100      3.7116    143.9911     24.5599
   942.3000      8.0124      2.5942      0.0388      3.3837    150.8410     24.7671
   942.4000      8.0124      2.5967      0.0489      3.2302    153.4750     24.5383
   942.5000      8.0407      2.5897      0.0151      3.6558    149.4317     24.4445
   942.6000      8.0407      2.5846      0.0141      3.9661    145.1872     24.7775
   942.7000      8.0407      2.5741      0.0404      4.6019    144.8839     25.1228
   942.8000      8.0460      2.5343      0.0566      7.0128    145.4285     24.8321
   942.9000      8.0460      2.4704     -0.0435     10.8878    142.9870     23.7735
   943.0000      8.0533      2.4022     -0.0716     15.0208    137.0895     22.2574
   943.1000      8.0533      2.3143     -0.0417     20.3430    131.5122     20.7071
   943.2000      8.0533      2.1967     -0.0925     27.4713    130.1531     19.5014
   943.3000      8.0579      2.0835     -0.1245     34.3356    131.6840     18.7927
   943.4000      8.0579      1.9882     -0.0798     40.1081    129.8820     18.2934
   943.5000      8.0707      1.8916     -0.1296     45.9624    122.6475     17.7335
   943.6000      8.0707      1.7929     -0.1498     51.9449    115.8170     16.9982
   943.7000      8.0707      1.6984     -0.1430     57.6733    113.3000     15.9566
   943.8000      8.0748      1.6032     -0.0649     63.4431    112.1746     14.9675
   943.9000      8.0748      1.5255     -0.1079     68.1539    108.0029     14.4495
   944.0000      8.1017      1.5063     -0.0211     69.3167     99.4745     14.3694
   944.1000      8.1017      1.5428      0.1566     67.1004     89.9079     14.5720
   944.2000      8.1017      1.5811      0.1526     64.7842     83.7298     14.7716
   944.3000      8.1281      1.5784      0.1229     64.9464     82.8097     14.8114
   944.4000      8.1281      1.5359      0.0566     67.5187     83.8116     15.0931
   944.5000      8.2024      1.4913     -0.0434     70.2252     83.7257     15.9774
   944.6000      8.2024      1.4857      0.0027     70.5662     84.5311     17.2546
   944.7000      8.2024      1.5279      0.0340     68.0035     88.8547     18.5844
   944.8000      8.3356      1.6004      0.0785     63.6115     96.9220     20.0536
   944.9000      8.3356      1.6869      0.0624     58.3701    104.5050     21.8725
   945.0000      8.3691      1.7890      0.0375     52.1825    106.9949     23.8889
   945.1000      8.3691      1.9063      0.0718     45.0729    104.6822     25.7256
   945.2000      8.3691      2.0254      0.1289     37.8550    104.0643     27.0205
   945.3000      8.2267      2.1464      0.1598     30.5191    110.0781     27.6617
   945.4000      8.2267      2.2747      0.1899     22.7462    118.8621     27.8674
   945.5000      8.2158      2.3928      0.1981     15.5886    126.4299     27.8698
   945.6000      8.2158      2.4767      0.2195     10.5034    131.5264     27.7389
   945.7000      8.2158      2.5218      0.0982      7.7699    134.4776     27.6103
   945.8000      8.1016      2.5415      0.1354      6.5728    138.7943     27.4818
   945.9000      8.1016      2.5466      0.1018      6.2681    146.3003     27.3483
   946.0000      7.9852      2.5479      0.0126      6.1863    154.3617     27.4266
   946.1000      7.9852      2.5475      0.0679      6.2106    160.0533     27.4162
   946.2000      7.9852      2.5239      0.0589      7.6400    166.9262     27.1163
   946.3000      7.9834      2.4766      0.0071     10.5074    177.5228     26.9286
   946.4000      7.9834      2.4382      0.0635     12.8344    184.8904     27.0020
   946.5000      7.9846      2.4176      0.0203     14.0872    183.8946     27.1087
   946.6000      7.9846      2.3954      0.0205     15.4303    176.1283     27.1048
   946.7000      7.9846      2.3741      0.0045     16.7207    165.9279     26.9941
   946.8000      7.9998      2.3785     -0.0376     16.4548    158.9788     26.8231
   946.9000      7.9998      2.4106      0.0737     14.5088    159.5229     26.5903
   947.0000      7.9891      2.4490      0.1096     12.1805    167.7791     26.5098
   947.1000      7.9891      2.4954      0.1443      9.3685    177.2498     27.0055
   947.2000      7.9891      2.5630      0.2288      5.2698    180.0692     27.9760
   947.3000      7.9830      2.6326      0.3243      1.0548    174.3347     28.8779
   947.4000      7.9830      2.6831      0.2688     -2.0082    163.5084     29.4816
   947.5000      7.9517      2.7322      0.2370     -4.9824    153.9553     29.9709
   947.6000      7.9517      2.7887      0.2933     -8.4067    150.6467     30.2995
   947.7000      7.9517      2.8250      0.2636    -10.6067    150.4011     30.1631
   947.8000      8.0150      2.8302      0.2271    -10.9219    147.1323     29.5755
   947.9000      8.0150      2.8279      0.2063    -10.7843    141.4697     28.8286
   948.0000      8.0972      2.8277      0.1807    -10.7690    137.7486     28.2189
   948.1000      8.0972      2.8032      0.2189     -9.2849    136.8185     28.0198
   948.2000      8.0972      2.7385      0.0871     -5.3627    137.0491     28.2330
   948.3000      8.1222      2.6640     -0.0212     -0.8496    135.6296     28.6277
   948.4000      8.1222      2.6174     -0.0109      1.9756    131.1229     28.9054
   948.5000      8.0057      2.6062     -0.0611      2.6546    127.8554     28.7061
   948.6000      8.0057      2.6214     -0.0217      1.7358    128.0677     28.1795
   948.7000      8.0057      2.6358      0.0598      0.8612    127.8928     27.7990
   948.8000      8.0152      2.6177     -0.0007      1.9570    125.3320     27.4686
   948.9000      8.0152      2.5811     -0.1125      4.1742    123.5074     26.9421
   949.0000      8.0299      2.5724     -0.0570      4.7006    125.8916     26.4852
   949.1000      8.0299      2.5930      0.0306      3.4576    130.4870     26.2391
   949.2000      8.0299      2.6082      0.0159      2.5338    133.8481     25.9523
   949.3000      8.0357      2.6103      0.0181      2.4075    135.6253     25.5782
   949.4000      8.0357      2.6070      0.0351      2.6061    135.8784     25.0647
   949.5000      8.0401      2.5948     -0.0012      3.3461    131.6559     24.4580
   949.6000      8.0401      2.5795     -0.0874      4.2727    123.0241     24.0633
   949.7000      8.0401      2.5707     -0.0101      4.8087    114.6352     23.9091
   949.8000      8.0893      2.5649     -0.0770      5.1586    108.3664     23.8126
   949.9000      8.0893      2.5681     -0.0275      4.9645    106.8703     23.6670
