~Version Information
VERS.                      2.0: CWLS Log ASCII Standard - VERSION 2.0
WRAP.                       NO: One line per depth step
~Well Information Block
STRT.FT               250.0000: 
STOP.FT               894.7000: 
STEP.FT                 0.1000: 
NULL.                -999.2500: 
COMP.          Pioneer Natural Resources: COMPANY
WELL.          Santisteven 13-22: WELL
FLD.           Purgatoire River: FIELD
LOC.           1861' FSL & 992' FWL----: LOCATION
PROV.                 Colorado: PROVINCE
CNTY.               Las Animas: COUNTRY
SRVC.                Patterson: SERVICE COMPANY
DATE.          Mon Apr 04 11:05:36 2005: LOG DATE
UWI.           05 071 08337 00: UNIQUE WELL ID
~Curve Information Block
DEPT.FT            0 000 00 00: Depth
DCAL.in                       : CDL Caliper
RHOB.g/cc                     : CDL Bulk Density
RHOC.g/cc                     : CDL Density Correction
DPOR.pu                       : CDL Density Porosity
NPOR.pu                       : Neutron Porosity
GR.GAPI                       : Gamma Ray
~Parameter Information Block
~A  Depth       DCAL        RHOB        RHOC        DPOR        NPOR         GR     
# ...
   739.6000      7.9265      2.6457      0.0050      0.2619     36.3783    141.8167
   739.7000      7.9265      2.6397      0.0218      0.6224     36.2652    148.2763
   739.8000      7.9264      2.6454     -0.0100      0.2776     36.8379    147.4601
   739.9000      7.9264      2.6587      0.0546     -0.5268     37.5482    150.4210
   740.0000      7.9265      2.6690      0.0580     -1.1541     37.6006    157.8611
   740.1000      7.9265      2.6720      0.0321     -1.3338     37.1348    162.5500
   740.2000      7.9265      2.6691      0.0457     -1.1555     36.6923    160.2493
   740.3000      7.9273      2.6565      0.0314     -0.3967     36.2274    149.2418
   740.4000      7.9273      2.6438      0.0229      0.3743     35.5008    136.8583
   740.5000      7.9284      2.6451      0.0246      0.3000     34.8140    131.6338
   740.6000      7.9284      2.6537      0.0434     -0.2269     34.5163    128.3430
   740.7000      7.9284      2.6571      0.0074     -0.4290     34.5837    122.5782
   740.8000      7.9289      2.6593      0.0208     -0.5663     34.6715    120.6156
   740.9000      7.9289      2.6742      0.0272     -1.4659     34.4776    121.7127
   741.0000      7.9269      2.6973      0.0844     -2.8655     34.1267    117.9137
   741.1000      7.9269      2.7036      0.0641     -3.2502     33.7324    110.0262
   741.2000      7.9269      2.6830      0.0564     -2.0029     33.1487    104.8373
   741.3000      7.9244      2.6509      0.0118     -0.0553     32.6332    105.7238
   741.4000      7.9244      2.6327     -0.0276      1.0496     32.5830    111.8736
   741.5000      7.9229      2.6369      0.0256      0.7938     32.6005    120.6454
   741.6000      7.9229      2.6453      0.0316      0.2862     32.0691    127.8441
   741.7000      7.9229      2.6434      0.0252      0.3983     31.2836    129.5753
   741.8000      7.9228      2.6367      0.0240      0.8083     30.8550    124.9046
   741.9000      7.9228      2.6339      0.0213      0.9748     30.9541    119.0827
   742.0000      7.9250      2.6420      0.0074      0.4874     31.3466    118.4668
   742.1000      7.9250      2.6588      0.0393     -0.5308     31.3793    121.4028
   742.2000      7.9250      2.6671      0.0635     -1.0392     30.8047    120.5702
   742.3000      7.9277      2.6545      0.0575     -0.2706     30.2272    113.2542
   742.4000      7.9277      2.6364     -0.0041      0.8265     30.0030    104.9702
   742.5000      7.9286      2.6359      0.0209      0.8539     29.8672    103.2537
   742.6000      7.9286      2.6453      0.0687      0.2868     29.4157    106.5457
   742.7000      7.9286      2.6423      0.0645      0.4686     28.5313    107.2622
   742.8000      7.9275      2.6261      0.0107      1.4501     27.6797    105.1795
   742.9000      7.9275      2.6080      0.0276      2.5436     27.3104    105.9045
   743.0000      7.9250      2.5974      0.0170      3.1901     27.2563    109.2130
   743.1000      7.9250      2.6027      0.0216      2.8648     27.4153    109.5439
   743.2000      7.9250      2.6132      0.0660      2.2327     27.7256    103.2212
   743.3000      7.9238      2.6039      0.0425      2.7922     27.8020     96.2671
   743.4000      7.9238      2.5798      0.0111      4.2565     27.4177     95.3728
   743.5000      7.9245      2.5719     -0.0047      4.7344     26.9861     96.1989
   743.6000      7.9245      2.5905      0.0688      3.6059     27.0404     94.3251
   743.7000      7.9245      2.6129      0.0369      2.2511     27.3611     91.8991
   743.8000      7.9252      2.6220      0.0358      1.6964     27.4830     90.0391
   743.9000      7.9252      2.6242      0.0499      1.5647     27.3624     89.3550
   744.0000      7.9258      2.6358      0.0080      0.8630     27.3595     93.1395
   744.1000      7.9258      2.6556      0.0964     -0.3386     27.7791     98.6516
   744.2000      7.9258      2.6562      0.1024     -0.3771     28.4314     99.3587
   744.3000      7.9255      2.6317      0.0430      1.1110     28.7546     97.2215
   744.4000      7.9255      2.6101      0.0135      2.4186     28.4460     98.1146
   744.5000      7.9243      2.6095     -0.0044      2.4545     27.9136    101.5953
   744.6000      7.9243      2.6235      0.0333      1.6052     27.6272    103.4079
   744.7000      7.9243      2.6415      0.0347      0.5134     27.6596    101.6839
   744.8000      7.9229      2.6530      0.0820     -0.1833     27.8169     99.0404
   744.9000      7.9229      2.6474      0.0571      0.1597     27.7981     98.0099
   745.0000      7.9214      2.6269      0.0465      1.4004     27.5804     96.4469
   745.1000      7.9214      2.6064      0.0146      2.6397     27.3130     94.2472
   745.2000      7.9214      2.6061     -0.0208      2.6593     26.7760     92.3747
   745.3000      7.9209      2.6263      0.0532      1.4372     25.8807     88.6698
   745.4000      7.9209      2.6371      0.0851      0.7794     25.1107     85.7217
   745.5000      7.9212      2.6222      0.0503      1.6876     24.9219     86.1584
   745.6000      7.9212      2.5989      0.0240      3.0965     25.0429     86.0686
   745.7000      7.9212      2.5907      0.0042      3.5952     24.8205     85.9539
   745.8000      7.9236      2.6046      0.0158      2.7511     24.5102     90.6781
   745.9000      7.9236      2.6283      0.0431      1.3143     24.6247     98.7783
   746.0000      7.9259      2.6451      0.0347      0.2971     24.8524    106.4706
   746.1000      7.9259      2.6517      0.0597     -0.1031     24.8399    112.7055
   746.2000      7.9259      2.6492      0.0629      0.0466     24.7650    116.5634
   746.3000      7.9254      2.6390      0.0118      0.6669     24.7464    115.0477
   746.4000      7.9254      2.6267      0.0288      1.4110     24.7359    105.8092
   746.5000      7.9249      2.6174      0.0061      1.9749     24.8721     96.6424
   746.6000      7.9249      2.6178      0.0068      1.9485     24.9249     96.6285
   746.7000      7.9249      2.6243      0.0499      1.5586     24.4374    100.4819
   746.8000      7.9266      2.6221      0.0452      1.6916     23.6465    100.4570
   746.9000      7.9266      2.6139      0.0098      2.1849     23.1835     98.2206
   747.0000      7.9266      2.6122      0.0304      2.2886     23.0757     95.6715
   747.1000      7.9266      2.6081      0.0501      2.5401     22.8584     92.9372
   747.2000      7.9266      2.5896      0.0214      3.6600     22.6189     90.7404
   747.3000      7.9235      2.5706     -0.0103      4.8093     22.6154     89.5977
   747.4000      7.9235      2.5715      0.0105      4.7593     22.6688     91.9732
   747.5000      7.9217      2.5890      0.0422      3.6991     22.9589     98.4300
   747.6000      7.9217      2.6011      0.0502      2.9645     23.8421    101.5265
   747.7000      7.9217      2.6037     -0.0137      2.8053     24.8219     97.9652
   747.8000      7.9216      2.6142     -0.0000      2.1700     25.2113     96.5454
   747.9000      7.9216      2.6306      0.0805      1.1738     25.1366    104.4139
   748.0000      7.9211      2.6322      0.0645      1.0794     25.1384    116.2522
   748.1000      7.9211      2.6186      0.0170      1.9055     25.3286    122.3036
   748.2000      7.9211      2.6047      0.0098      2.7439     25.4741    118.3422
   748.3000      7.9213      2.5922      0.0102      3.5016     25.4949    108.1380
   748.4000      7.9213      2.5797     -0.0108      4.2624     25.3655     96.4420
   748.5000      7.9217      2.5706      0.0149      4.8102     24.8721     88.0238
   748.6000      7.9217      2.5643     -0.0100      5.1912     24.1679     89.4104
   748.7000      7.9217      2.5614     -0.0010      5.3725     23.6425     96.8156
   748.8000      7.9218      2.5638     -0.0069      5.2224     23.3771     99.6131
   748.9000      7.9218      2.5757     -0.0199      4.5011     23.3879     96.7552
   749.0000      7.9211      2.5993      0.0221      3.0750     23.6958     95.5770
   749.1000      7.9211      2.6249      0.0437      1.5202     24.1788     99.4402
