~Version Information
VERS.                      2.0: CWLS Log ASCII Standard - VERSION 2.0
WRAP.                       NO: One line per depth step
~Well Information Block
STRT.FT               702.7000: 
STOP.FT              2529.2000: 
STEP.FT                 0.1000: 
NULL.                -999.2500: 
COMP.          Pioneer Natural Resources: COMPANY
WELL.          Aztec Federal 41-15: WELL
FLD.           Purgatorie River: FIELD
LOC.           706' FNL & 1253' FEL: LOCATION
CNTY.               Las Animas: COUNTY
SRVC.          Superior Well Services: SERVICE COMPANY
DATE.          Tue Mar 18 09-36-47 2008: LOG DATE
UWI.           05-071-08342-00: UNIQUE WELL ID
STAT.                       CO: STATE
~Curve Information Block
DEPT.FT            0 000 00 00: Depth
DCAL.in                       : CDL Caliper
DPOR.pu                       : CDL Density Porosity
GR.GAPI                       : Gamma Ray
RHOB.g/cc                     : CDL Bulk Density
RHOC.g/cc                     : CDL Density Correction
~Parameter Information Block
~A  Depth       DCAL        DPOR         GR         RHOB        RHOC    
# ...
  2035.5000      7.8433     18.7715    121.7095      2.3403      0.1189
  2035.6000      7.8408     21.5120    119.1048      2.2951      0.1741
  2035.7000      7.8398     25.7294    113.9829      2.2255      0.2130
  2035.8000      7.8423     32.3553    110.7108      2.1161      0.2145
  2035.9000      7.8511     40.1399    109.4153      1.9877      0.1991
  2036.0000      7.8698     48.1667    105.6166      1.8552      0.1860
  2036.1000      7.9023     56.2037     99.2417      1.7226      0.1734
  2036.2000      7.9509     63.1516     93.7834      1.6080      0.1605
  2036.3000      8.0146     67.6418     90.1307      1.5339      0.1452
  2036.4000      8.0883     69.5056     87.2702      1.5032      0.1164
  2036.5000      8.1630     69.5024     84.8884      1.5032      0.0741
  2036.6000      8.2280     68.6895     82.4604      1.5166      0.0319
  2036.7000      8.2726     67.8870     80.6620      1.5299     -0.0053
  2036.8000      8.2888     66.5468     81.9462      1.5520     -0.0423
  2036.9000      8.2730     62.9004     85.0545      1.6121     -0.0718
  2037.0000      8.2279     56.6997     86.5998      1.7145     -0.0840
  2037.1000      8.1622     50.1456     87.9481      1.8226     -0.0835
  2037.2000      8.0892     44.2457     92.0564      1.9199     -0.0689
  2037.3000      8.0221     37.3157     97.1347      2.0343     -0.0298
  2037.4000      7.9699     28.4116     98.4263      2.1812      0.0265
  2037.5000      7.9353     19.1671     95.5361      2.3337      0.0760
  2037.6000      7.9161     12.6034     92.2732      2.4420      0.1006
  2037.7000      7.9072     10.0223     91.5098      2.4846      0.1067
  2037.8000      7.9040      9.7731     95.2962      2.4887      0.1077
  2037.9000      7.9036      9.9476    102.0367      2.4859      0.1018
  2038.0000      7.9043      9.4873    105.8675      2.4935      0.0923
  2038.1000      7.9056      8.5484    106.2570      2.5090      0.0890
  2038.2000      7.9070      8.4200    108.7454      2.5111      0.0897
  2038.3000      7.9084      9.3803    114.2901      2.4952      0.0892
  2038.4000      7.9096     10.0359    116.7859      2.4844      0.0933
  2038.5000      7.9105      9.4077    114.2388      2.4948      0.1098
  2038.6000      7.9110      8.4126    111.7325      2.5112      0.1295
  2038.7000      7.9111      8.3232    112.7573      2.5127      0.1326
  2038.8000      7.9109      8.8469    117.7507      2.5040      0.1199
  2038.9000      7.9103      8.7453    124.0943      2.5057      0.1107
  2039.0000      7.9090      8.0912    125.6738      2.5165      0.1101
  2039.1000      7.9071      7.6530    121.7775      2.5237      0.1118
  2039.2000      7.9045      7.1979    117.7183      2.5312      0.1148
  2039.3000      7.9012      6.9051    116.4609      2.5361      0.1168
  2039.4000      7.8971      7.3621    117.7811      2.5285      0.1112
  2039.5000      7.8920      8.1447    119.6250      2.5156      0.0977
  2039.6000      7.8859      8.6390    119.2033      2.5075      0.0824
  2039.7000      7.8791      9.3819    116.8735      2.4952      0.0611
  2039.8000      7.8721     10.5352    114.2278      2.4762      0.0344
  2039.9000      7.8657     11.0444    111.5743      2.4678      0.0196
  2040.0000      7.8601     11.0122    110.9233      2.4683      0.0209
  2040.1000      7.8554     10.7258    112.2343      2.4730      0.0335
  2040.2000      7.8514      9.5387    113.3174      2.4926      0.0541
  2040.3000      7.8478      7.3652    114.8149      2.5285      0.0752
  2040.4000      7.8446      5.2475    117.7942      2.5634      0.0883
  2040.5000      7.8418      4.4032    120.8165      2.5773      0.0873
  2040.6000      7.8398      4.6338    122.7527      2.5735      0.0774
  2040.7000      7.8386      4.9746    126.3412      2.5679      0.0694
  2040.8000      7.8383      5.2448    131.8038      2.5635      0.0635
  2040.9000      7.8389      5.4637    135.5022      2.5598      0.0583
  2041.0000      7.8403      5.7217    136.9091      2.5556      0.0525
  2041.1000      7.8422      6.6461    135.9715      2.5403      0.0436
  2041.2000      7.8443      8.0124    132.7826      2.5178      0.0404
  2041.3000      7.8465      8.1058    130.5891      2.5163      0.0543
  2041.4000      7.8482      6.3579    131.2831      2.5451      0.0821
  2041.5000      7.8495      3.9995    134.0281      2.5840      0.1107
  2041.6000      7.8501      2.1196    137.1376      2.6150      0.1274
  2041.7000      7.8504      0.9901    142.5946      2.6337      0.1304
  2041.8000      7.8506      0.4083    149.7949      2.6433      0.1309
  2041.9000      7.8506      1.0081    153.7201      2.6334      0.1271
  2042.0000      7.8505      3.2229    156.2052      2.5968      0.1078
  2042.1000      7.8500      5.9789    158.0198      2.5513      0.0785
  2042.2000      7.8496      8.2524    155.7689      2.5138      0.0519
  2042.3000      7.8495      9.4600    149.9314      2.4939      0.0353
  2042.4000      7.8502      8.9757    143.3315      2.5019      0.0368
  2042.5000      7.8521      6.8257    138.3346      2.5374      0.0565
  2042.6000      7.8553      4.8614    136.5896      2.5698      0.0720
  2042.7000      7.8595      4.9156    139.5729      2.5689      0.0639
  2042.8000      7.8642      5.4575    146.5219      2.5600      0.0494
  2042.9000      7.8686      4.3684    152.6273      2.5779      0.0517
  2043.0000      7.8720      2.2612    154.5842      2.6127      0.0699
  2043.1000      7.8739      0.8230    153.6566      2.6364      0.0918
  2043.2000      7.8740      0.9408    152.5565      2.6345      0.1029
  2043.3000      7.8722      2.2405    153.6154      2.6130      0.0999
  2043.4000      7.8687      3.1114    155.5203      2.5987      0.0977
  2043.5000      7.8635      2.9959    154.9838      2.6006      0.1024
  2043.6000      7.8573      3.1759    152.2018      2.5976      0.1014
  2043.7000      7.8506      3.8861    147.2898      2.5859      0.0944
  2043.8000      7.8445      4.4419    140.4082      2.5767      0.0932
  2043.9000      7.8396      5.0666    136.4059      2.5664      0.0944
  2044.0000      7.8361      6.1566    139.2879      2.5484      0.0861
  2044.1000      7.8335      6.7701    145.3807      2.5383      0.0738
  2044.2000      7.8312      6.5697    147.8873      2.5416      0.0653
  2044.3000      7.8290      7.3750    145.8947      2.5283      0.0453
  2044.4000      7.8271      9.2147    142.9653      2.4980      0.0123
  2044.5000      7.8263     10.1503    140.8530      2.4825     -0.0085
  2044.6000      7.8272     10.3661    139.1616      2.4790     -0.0150
  2044.7000      7.8299     10.6071    138.2971      2.4750     -0.0209
  2044.8000      7.8339     10.0190    138.4968      2.4847     -0.0163
  2044.9000      7.8383      8.4026    140.7656      2.5114      0.0047
  2045.0000      7.8422      6.4196    144.7887      2.5441      0.0254
  2045.1000      7.8451      4.3682    146.4485      2.5779      0.0350
  2045.2000      7.8468      2.6723    144.2959      2.6059      0.0348
  2045.3000      7.8479      1.4136    141.5200      2.6267      0.0348
  2045.4000      7.8488      0.2834    138.8299      2.6453      0.0468
  2045.5000      7.8501     -0.5516    135.5925      2.6591      0.0693
  2045.6000      7.8519     -0.7733    133.6142      2.6628      0.0895
  2045.7000      7.8536     -0.5850    133.5099      2.6597      0.0966
  2045.8000      7.8547     -0.1529    132.9663      2.6525      0.0892
  2045.9000      7.8548      0.6658    131.1962      2.6390      0.0744
  2046.0000      7.8541      1.2978    128.7617      2.6286      0.0602
  2046.1000      7.8532      1.7057    128.3828      2.6219      0.0429
  2046.2000      7.8526      3.1021    134.1148      2.5988      0.0161
  2046.3000      7.8526      5.0289    143.1893      2.5670     -0.0083
  2046.4000      7.8534      5.2146    148.0558      2.5640     -0.0142
  2046.5000      7.8545      3.3382    148.5234      2.5949     -0.0029
  2046.6000      7.8559      0.8810    149.5938      2.6355      0.0162
