~Version Information
 VERS.                                  2.0 : CWLS LAS VERSION
 WRAP.                                   NO : WRAPING MODE
 SWARE .                 MController 2.5.0J : SOFTWARE VERSION
~Well Information
 WELL.                       Montoya 01-41V : WELL
 COMP.                Petrogulf Corporation : COMPANY
 FLD.                      Purgatoire River : FIELD
 LOC.                NE/NE Sec 01 T33S R68W : LOCATION
 DATE.                             08/21/05 : DATE(S) LOGGED
 SRVC.       BLANCO Geological Services LLC : SERVICE COMPANY
 STAT.                                   CO : STATE
 CNTY.                           Las Animas : COUNTY
 CTRY.                                  USA : COUNTRY
 API.                       05-071-08144-00 : API NUMBER
 STRT.FT                             719.00 : START DEPTH
 STOP.FT                            2945.00 : STOP DEPTH
 STEP.FT                               1.00 : DEPTH INCREMENT
 NULL.                                -9999 : NULL VALUE
~Curve information
 DEPTH.FT                                   :
 ROP.MIN/FT                                 :
 GAS.UNITS                                  :
~ASCII Log data
# ...
      1919.0         0.38         14.3 
      1920.0         0.40         13.1 
      1921.0         0.47         18.4 
      1922.0         0.53         37.3 
      1923.0         2.68         52.2 
      1924.0         0.40         14.8 
      1925.0         0.27         14.1 
      1926.0         0.40         14.4 
      1927.0         0.77         13.3 
      1928.0         0.33         13.2 
      1929.0         0.45         12.6 
      1930.0         0.43         13.6 
      1931.0         0.27         13.5 
      1932.0         0.40         13.8 
      1933.0         0.33         13.0 
      1934.0         0.33         12.6 
      1935.0         0.33         13.6 
      1936.0         0.33         12.7 
      1937.0         0.27         12.8 
      1938.0         0.23         12.8 
      1939.0         0.38         13.3 
      1940.0         0.37         13.6 
      1941.0         0.33         12.8 
      1942.0         0.30         13.0 
      1943.0         0.20         13.3 
      1944.0         0.23         11.9 
      1945.0         0.23         11.4 
      1946.0         0.27         12.1 
      1947.0         0.23         12.9 
      1948.0         0.23         14.5 
      1949.0         0.20         14.5 
      1950.0         0.23         17.2 
      1951.0         0.20         20.6 
      1952.0         4.20         28.6 
      1953.0         0.57         15.5 
      1954.0         0.33         15.5 
      1955.0         0.40         15.2 
      1956.0         0.40         14.3 
      1957.0         0.27         14.5 
      1958.0         0.23         14.4 
      1959.0         0.30         14.6 
      1960.0         0.25         13.4 
      1961.0         0.23         12.8 
      1962.0         0.37         12.1 
      1963.0         0.33         12.3 
      1964.0         0.30         13.4 
      1965.0         0.27         14.4 
      1966.0         0.37         15.1 
      1967.0         0.30         15.4 
      1968.0         0.17         15.9 
      1969.0         0.20         15.9 
      1970.0         3.28         26.5 
      1971.0         0.20         15.2 
      1972.0         0.33         14.7 
      1973.0         0.35         14.8 
      1974.0         0.40         14.7 
      1975.0         0.33         13.5 
      1976.0         0.30         13.4 
      1977.0         0.30         13.2 
      1978.0         0.30         14.2 
      1979.0         0.20         15.9 
      1980.0         0.30         19.5 
      1981.0         0.23         26.6 
      1982.0         3.25         47.4 
      1983.0         0.27         15.8 
      1984.0         0.27         15.5 
      1985.0         0.42         16.2 
      1986.0         0.33         15.5 
      1987.0         0.43         15.8 
      1988.0         0.50         16.8 
      1989.0         0.37         16.8 
      1990.0         0.30         16.8 
      1991.0         0.30         14.4 
      1992.0         0.30         13.9 
      1993.0         0.27         13.5 
      1994.0         0.27         13.6 
      1995.0         0.28         13.4 
      1996.0         0.30         14.8 
      1997.0         0.23         14.9 
      1998.0         0.27         15.7 
      1999.0         0.30         15.1 
      2000.0         0.33         13.7 
      2001.0         0.30         14.0 
      2002.0         0.23         13.1 
      2003.0         0.27         13.3 
      2004.0         0.23         13.5 
      2005.0         0.23         12.9 
      2006.0         0.27         12.1 
      2007.0         0.35         12.8 
      2008.0         0.30         12.3 
      2009.0         0.33         14.3 
      2010.0         0.33         18.3 
      2011.0         0.27         24.7 
      2012.0         2.55         47.0 
      2013.0         0.53         19.1 
      2014.0         0.37         19.1 
      2015.0         0.50         19.5 
      2016.0         0.33         17.7 
      2017.0         0.20         16.5 
      2018.0         0.17         16.1 
      2019.0         0.30         15.6 
      2020.0         0.30         15.3 
      2021.0         0.28         15.4 
      2022.0         0.30         15.1 
      2023.0         0.33         15.1 
      2024.0         0.23         14.6 
      2025.0         0.23         14.2 
      2026.0         0.20         14.4 
      2027.0         0.30         14.1 
      2028.0         0.30         15.4 
      2029.0         0.50         15.1 
      2030.0         0.40         15.3 
      2031.0         0.55         14.9 
      2032.0         0.57         14.3 
      2033.0         0.27         15.1 
      2034.0         0.23         15.3 
      2035.0         0.23         14.5 
      2036.0         0.27         14.9 
      2037.0         0.27         14.2 
      2038.0         0.23         13.5 
      2039.0         0.33         13.9 
      2040.0         0.47         15.5 
      2041.0         0.38         16.0 
      2042.0       123.75       7000.0 
      2043.0         0.50          9.8 
      2044.0         0.55          8.6 
      2045.0         0.47          8.2 
      2046.0         0.40          8.7 
      2047.0         0.33          8.7 
      2048.0         0.40          7.5 
      2049.0         0.43          7.5 
      2050.0         0.33          8.0 
      2051.0         0.33         10.0 
      2052.0         5.70         13.5 
      2053.0         0.37          8.7 
      2054.0         0.47          9.0 
      2055.0         0.68          8.4 
      2056.0         0.50          8.3 
      2057.0         0.30          8.0 
      2058.0         0.40          7.6 
      2059.0         0.43          8.6 
      2060.0         0.37          8.3 
      2061.0         0.37          8.7 
      2062.0         0.27          7.6 
      2063.0         0.30          8.0 
      2064.0         0.35          9.9 
      2065.0         0.27          9.1 
      2066.0         0.33          8.9 
      2067.0         0.67          7.8 
      2068.0         0.33         15.5 
      2069.0         0.33         25.2 
      2070.0         0.53         41.8 
      2071.0         0.57         49.0 
      2072.0         3.32         43.3 
      2073.0         0.52          9.8 
      2074.0         0.30          9.3 
      2075.0         0.43          9.0 
      2076.0         0.40          8.7 
      2077.0         0.30          9.4 
      2078.0         0.27          9.2 
      2079.0         0.27          8.9 
      2080.0         0.30          8.9 
      2081.0         0.27          8.6 
      2082.0         0.27          8.2 
      2083.0         0.28          8.1 
      2084.0         0.30          7.8 
      2085.0         0.27          7.9 
      2086.0         0.23          8.0 
      2087.0         0.23          7.9 
      2088.0         0.37          8.8 
      2089.0         0.20          8.4 
      2090.0         0.23          7.9 
      2091.0         0.30          7.9 
      2092.0         0.27          6.7 
      2093.0         0.27          6.8 
      2094.0         0.27          7.0 
      2095.0         0.22          6.1 
      2096.0         0.23          6.3 
      2097.0         0.27         10.1 
      2098.0         0.30         18.5 
      2099.0         0.33         29.5 
      2100.0         0.33         33.7 
      2101.0         2.72         31.4 
      2102.0         0.27          9.4 
      2103.0         0.57          8.2 
      2104.0         0.23          7.9 
      2105.0         0.37          8.3 
      2106.0         0.37          8.0 
      2107.0         0.33          8.5 
      2108.0         0.30          7.9 
      2109.0         0.35          7.7 
      2110.0         0.33          8.1 
      2111.0         0.23          8.7 
      2112.0         0.23          8.0 
      2113.0         0.23          7.6 
      2114.0         0.27          7.9 
      2115.0         0.30          8.0 
      2116.0         0.23          7.9 
      2117.0         0.30          7.8 
      2118.0         0.27          8.0 
