~Version Information
VERS.                      2.0: CWLS Log ASCII Standard - VERSION 2.0
WRAP.                       NO: One line per depth step
~Well Information Block
STRT.FT               433.5000: 
STOP.FT              1880.2500: 
STEP.FT                 0.2500: 
NULL.                -999.2500: 
COMP.          Pioneer Natural Resources: COMPANY
WELL.           Buckhorn 12-21: WELL
FLD.           Purgatorie River: FIELD
LOC.           2450' FNL & 608' FWL--: LOCATION
PROV.                       CO: PROVINCE
CNTY.               Las Animas: COUNTRY
SRVC.                         : SERVICE COMPANY
DATE.          Fri Dec 03 14:13:08 2004: LOG DATE
UWI.          005 071 08129 : UNIQUE WELL ID
~Curve Information Block
DEPT.FT            0 000 00 00: Depth
NPOR.pu                       : Neutron Porosity
CCL.                          : Casing Collar Locator
TT3.usec                      : CBL 3' Travel Time
AMP3.mV                       : CBL 3' Amplitude
GR.GAPI                       : Gamma Ray
~Parameter Information Block
~A  Depth       NPOR        CCL         TT3         AMP3         GR     
# ...
   993.5000     30.7776      0.0000    315.4827     13.2028    141.4088
   993.7500     30.4420      0.0000    318.2822     12.8651    141.2889
   994.0000     30.1603      0.0000    321.0360     12.5042    140.5892
   994.2500     29.9217      0.0000    322.3176     12.2074    138.1141
   994.5000     29.6948      0.0000    321.3955     12.0481    134.9628
   994.7500     29.5408      0.0000    318.9656     12.0288    133.3942
   995.0000     29.5812      0.0000    316.5220     12.0833    134.6727
   995.2500     29.8347      0.0000    315.5058     12.1371    138.0809
   995.5000     30.1419      0.0000    317.6023     12.1534    141.9390
   995.7500     30.2933      0.0000    325.8741     12.1224    145.1984
   996.0000     30.2133      0.0000    344.4915     12.0303    147.8704
   996.2500     29.9855      0.0000    375.3916     11.8564    150.1169
   996.5000     29.7221      0.0000    414.9579     11.5946    151.3119
   996.7500     29.4666      0.0000    457.0458     11.2665    150.3849
   997.0000     29.2358      0.0000    500.7561     10.9132    147.0315
   997.2500     29.0884      0.0000    550.9636     10.5821    142.2103
   997.5000     29.0774      0.0000    608.3929     10.3181    137.2860
   997.7500     29.1361      0.0000    663.7302     10.1573    132.8915
   998.0000     29.0873      0.0000    704.8994     10.1216    128.7112
   998.2500     28.8206      0.0000    726.9774     10.2122    124.3005
   998.5000     28.4319      0.0000    733.3713     10.4026    120.1296
   998.7500     28.1407      0.0000    730.9340     10.6398    117.9199
   999.0000     28.0804      0.0000    726.2163     10.8535    119.7033
   999.2500     28.2116      0.0000    724.1163     10.9694    125.9813
   999.5000     28.4300      0.0000    726.8101     10.9310    134.6553
   999.7500     28.7037      0.0000    733.0791     10.7361    142.2598
  1000.0000     29.0641      0.0000    739.6122     10.4584    146.6608
  1000.2500     29.4839      0.0000    743.9675     10.2147    148.3115
  1000.5000     29.8282      0.0000    746.0624     10.0984    148.7824
  1000.7500     29.9651      0.0000    746.5139     10.1370    148.7759
  1001.0000     29.8988      0.0000    744.9008     10.2943    148.1264
  1001.2500     29.7599      0.0000    740.9388     10.4906    147.0448
  1001.5000     29.6803      0.0000    736.4868     10.6322    146.2668
  1001.7500     29.6970      0.0000    734.8235     10.6537    145.9967
  1002.0000     29.7508      0.0000    737.9255     10.5487    145.5378
  1002.2500     29.7446      0.0000    745.0153     10.3622    144.3143
  1002.5000     29.6041      0.0000    753.5035     10.1502    142.6874
  1002.7500     29.3095      0.0000    760.8784      9.9465    141.3529
  1003.0000     28.8816      0.0000    765.4430      9.7610    140.4081
  1003.2500     28.3539      0.0000    764.8958      9.6018    139.6051
  1003.5000     27.7831      0.0000    754.2395      9.4970    139.0919
  1003.7500     27.2973      0.0000    726.4160      9.4853    139.0586
  1004.0000     27.0940      0.0000    678.0852      9.5598    138.9100
  1004.2500     27.3304      0.0000    617.0208      9.6137    137.8042
  1004.5000     27.9822      0.0000    561.5615      9.4762    136.0133
  1004.7500     28.8331      0.0000    528.5399      9.0552    134.7467
  1005.0000     29.6296      0.0000    522.0427      8.4499    134.5224
  1005.2500     30.2403      0.0000    536.1560      7.8980    134.5694
  1005.5000     30.6685      0.0000    564.6493      7.6051    134.0526
  1005.7500     30.9656      0.0000    603.0500      7.6310    133.2304
  1006.0000     31.1819      0.0000    644.7719      7.9106    133.0009
  1006.2500     31.3928      0.0000    681.4153      8.3383    133.5754
  1006.5000     31.6864      0.0000    707.6008      8.8235    133.9978
  1006.7500     32.0444      0.0000    723.1678      9.3051    133.3097
  1007.0000     32.2563      2.0000    729.1697      9.7587    132.0979
  1007.2500     32.0348      0.0000    722.2206     10.2110    132.3408
  1007.5000     31.2480      0.0000    694.8391     10.7277    135.4317
  1007.7500     30.0381      0.0000    643.8730     11.3448    140.5801
  1008.0000     28.7625      0.0000    578.6619     11.9858    145.2689
  1008.2500     27.8320      0.0000    517.1638     12.4776    147.2846
  1008.5000     27.4983      0.0000    471.3432     12.6909    146.3380
  1008.7500     27.7070      0.0000    439.6129     12.6583    143.7843
  1009.0000     28.1609      0.0000    417.3628     12.5235    141.0244
  1009.2500     28.5375      0.0000    410.7812     12.3891    138.5781
  1009.5000     28.6521      0.0000    433.7552     12.2482    136.5676
  1009.7500     28.4848      0.0000    491.5524     12.0529    135.2980
  1010.0000     28.1461      0.0000    571.6277     11.7987    134.8660
  1010.2500     27.8120      0.0000    651.3790     11.5287    134.6863
  1010.5000     27.6313      0.0000    713.3378     11.2866    133.9398
  1010.7500     27.6662      0.0000    752.8839     11.0879    132.3194
  1011.0000     27.9047      0.0000    774.4130     10.9211    130.1455
  1011.2500     28.2888      0.0000    783.2816     10.7577    128.2086
  1011.5000     28.7228      0.0000    780.9377     10.5776    127.7293
  1011.7500     29.1096      0.0000    764.3348     10.4070    129.8939
  1012.0000     29.4132      0.0000    727.7747     10.3260    134.8147
  1012.2500     29.6617      0.0000    667.0389     10.4251    141.0944
  1012.5000     29.8817      0.0000    585.2711     10.7514    146.7639
  1012.7500     30.0680      0.0000    495.9007     11.2976    150.4828
  1013.0000     30.2203      0.0000    417.3080     12.0347    151.8525
  1013.2500     30.3539      0.0000    362.0787     12.9455    151.2201
  1013.5000     30.4553      0.0000    331.0983     14.0343    149.3745
  1013.7500     30.4661      0.0000    317.0457     15.3170    146.9136
  1014.0000     30.3504      0.0000    311.4709     16.8070    144.0580
  1014.2500     30.1800      0.0000    308.6181     18.5118    141.6987
  1014.5000     30.1265      0.0000    305.3717     20.4427    141.8326
  1014.7500     30.3264      0.0000    300.2072     22.6130    145.5177
  1015.0000     30.7452      0.0000    292.9084     25.0010    150.7777
  1015.2500     31.2070      0.0000    284.5847     27.4948    154.0629
  1015.5000     31.5720      0.0000    277.0574     29.8733    153.8097
  1015.7500     31.8498      0.0000    271.6749     31.8584    151.5008
  1016.0000     32.1166      0.0000    268.6531     33.2217    149.4100
  1016.2500     32.3607      0.0000    267.3960     33.8781    148.4657
  1016.5000     32.4650      0.0000    267.2116     33.8917    148.4237
  1016.7500     32.3503      0.0000    267.7740     33.3901    148.9660
  1017.0000     32.0738      0.0000    269.2589     32.4771    150.0253
  1017.2500     31.7452      0.0000    272.2640     31.2204    151.4010
  1017.5000     31.4060      0.0000    277.4085     29.6806    152.3459
  1017.7500     31.0549      0.0000    284.6125     27.9261    151.5143
  1018.0000     30.7476      0.0000    292.6657     26.0470    147.8131
  1018.2500     30.5858      0.0000    299.7699     24.1841    141.6643
  1018.5000     30.6180      0.0000    304.6935     22.5271    135.0191
  1018.7500     30.8001      0.0000    307.3705     21.2529    129.9656
  1019.0000     31.0286      0.0000    308.5062     20.4464    127.6542
  1019.2500     31.1727      0.0000    308.8658     20.0732    128.1501
  1019.5000     31.1191      0.0000    308.9228     20.0162    130.4976
  1019.7500     30.8432      0.0000    308.8839     20.1371    133.1017
  1020.0000     30.4224      0.0000    308.8181     20.3170    134.7645
  1020.2500     29.9676      0.0000    308.7472     20.4653    135.5080
  1020.5000     29.5790      0.0000    308.6897     20.5172    136.1248
  1020.7500     29.3720      0.0000    308.6638     20.4500    136.9212
  1021.0000     29.4545      0.0000    308.6729     20.3068    137.3037
  1021.2500     29.8020      0.0000    308.6965     20.1772    136.7421
