~Version Information
VERS.                      2.0: CWLS Log ASCII Standard - VERSION 2.0
WRAP.                       NO: One line per depth step
~Well Information Block
STRT.FT               250.0000: 
STOP.FT              1687.7000: 
STEP.FT                 0.1000: 
NULL.                -999.2500: 
COMP.          Pioneer Natural Resources: COMPANY
WELL.          Moneypenny 31-36: WELL
FLD.           Purgatoire River: FIELD
LOC.           280' FNL & 1976' FEL: LOCATION
PROV.                 Colorado: PROVINCE
CNTY.               Las Animas: COUNTRY
SRVC.                Patterson: SERVICE COMPANY
DATE.          Fri Oct 01 13:54:40 2004: LOG DATE
UWI.           05 071 08183 00: UNIQUE WELL ID
~Curve Information Block
DEPT.FT            0 000 00 00: Depth
DCAL.in                       : CDL Caliper
RHOB.g/cc                     : CDL Bulk Density
RHOC.g/cc                     : CDL Density Correction
DPOR.pu                       : CDL Density Porosity
NPOR.pu                       : Neutron Porosity
GR.GAPI                       : Gamma Ray
~Parameter Information Block
~A  Depth       DCAL        RHOB        RHOC        DPOR        NPOR         GR     
# ...
   720.4000      8.1346      2.5405      0.0676      6.6359     23.8356     99.0339
   720.5000      8.1394      2.5405      0.0620      6.6381     23.8657    105.5852
   720.6000      8.1394      2.5421      0.0804      6.5366     24.0962    110.1455
   720.7000      8.1394      2.5364      0.0532      6.8839     24.2063    108.8798
   720.8000      8.1420      2.5262      0.0293      7.5049     24.1508    108.1766
   720.9000      8.1420      2.5166      0.0433      8.0875     23.9888    112.2535
   721.0000      8.1422      2.5205     -0.0068      7.8490     23.8889    116.5945
   721.1000      8.1422      2.5504      0.0584      6.0352     24.2896    117.0524
   721.2000      8.1422      2.5849      0.1261      3.9455     25.1315    115.6738
   721.3000      8.1436      2.5913      0.1182      3.5565     25.8173    114.1712
   721.4000      8.1436      2.5683      0.0734      4.9504     26.3021    112.2140
   721.5000      8.1522      2.5406      0.0373      6.6323     26.8372    111.2764
   721.6000      8.1522      2.5252      0.0732      7.5651     27.1826    112.2257
   721.7000      8.1522      2.5193      0.0240      7.9234     27.1961    114.5999
   721.8000      8.1659      2.5098      0.0349      8.4959     27.2282    118.5289
   721.9000      8.1659      2.4832      0.0209     10.1083     27.3128    123.7114
   722.0000      8.1764      2.4452     -0.0225     12.4139     27.2364    129.4544
   722.1000      8.1764      2.4142     -0.0067     14.2915     27.0787    133.9287
   722.2000      8.1764      2.3979      0.0007     15.2783     26.8918    135.2322
   722.3000      8.1817      2.3971     -0.0101     15.3274     26.6131    134.5519
   722.4000      8.1817      2.4024      0.0632     15.0070     26.3123    134.1960
   722.5000      8.1872      2.4008      0.0566     15.1017     26.0198    135.3242
   722.6000      8.1872      2.4034      0.0660     14.9435     25.6749    137.8638
   722.7000      8.1872      2.4206      0.1295     13.9015     25.3654    141.1831
   722.8000      8.1993      2.4367      0.1443     12.9296     25.1651    144.7493
   722.9000      8.1993      2.4466      0.0856     12.3289     25.0033    149.0091
   723.0000      8.2132      2.4625      0.0898     11.3656     24.9216    154.5932
   723.1000      8.2132      2.4721      0.1346     10.7822     24.8733    159.4727
   723.2000      8.2132      2.4596      0.0708     11.5381     24.7972    161.0839
   723.3000      8.2227      2.4473      0.0321     12.2837     24.8565    159.6949
   723.4000      8.2227      2.4591      0.1110     11.5706     25.0226    157.1145
   723.5000      8.2318      2.4868      0.1204      9.8923     25.0201    156.0596
   723.6000      8.2318      2.5129      0.1520      8.3061     24.8131    157.7525
   723.7000      8.2318      2.5229      0.1317      7.7048     24.7247    157.2007
   723.8000      8.2433      2.5142      0.0935      8.2311     24.8227    151.4020
   723.9000      8.2433      2.5064      0.0642      8.7046     24.7541    146.4127
   724.0000      8.2510      2.5105      0.1009      8.4538     24.5271    147.8609
   724.1000      8.2510      2.5118      0.0919      8.3770     24.4627    153.5837
   724.2000      8.2510      2.5014      0.0617      9.0035     24.6939    157.5950
   724.3000      8.2531      2.4943      0.0184      9.4381     25.2323    155.6358
   724.4000      8.2531      2.5082      0.0074      8.5945     26.0689    151.2294
   724.5000      8.2525      2.5331      0.0826      7.0840     26.8865    150.5629
   724.6000      8.2525      2.5444      0.0345      6.4030     27.1367    152.6271
   724.7000      8.2525      2.5419      0.0436      6.5544     26.9100    155.3924
   724.8000      8.2519      2.5391      0.0306      6.7208     26.8305    158.6169
   724.9000      8.2519      2.5367      0.0514      6.8696     27.0877    158.7541
   725.0000      8.2527      2.5249      0.0533      7.5833     27.4900    154.4788
   725.1000      8.2527      2.5060      0.0343      8.7243     27.7125    146.3779
   725.2000      8.2527      2.4907      0.0323      9.6526     27.4299    139.1480
   725.3000      8.2552      2.4785      0.0066     10.3956     26.8580    141.8607
   725.4000      8.2552      2.4601      0.0269     11.5106     26.3337    150.5542
   725.5000      8.2627      2.4293     -0.0098     13.3735     25.6781    152.5957
   725.6000      8.2627      2.3773      0.0173     16.5284     24.5164    146.5044
   725.7000      8.2627      2.2908      0.0022     21.7691     22.9783    140.7446
   725.8000      8.2789      2.1886     -0.0935     27.9660     21.6634    140.3815
   725.9000      8.2789      2.1193     -0.0553     32.1655     20.9282    139.7140
   726.0000      8.2964      2.1085     -0.0251     32.8188     20.6020    136.1110
   726.1000      8.2964      2.1418      0.0011     30.8026     20.2307    137.5544
   726.2000      8.2964      2.1847      0.0729     28.1984     19.3868    142.7960
   726.3000      8.3134      2.2144      0.0796     26.4012     18.0118    140.4006
   726.4000      8.3134      2.2350      0.1370     25.1502     16.4583    128.8065
   726.5000      8.3364      2.2616      0.1526     23.5375     15.1853    116.6154
   726.6000      8.3364      2.3079      0.2007     20.7309     14.4988    109.9005
   726.7000      8.3364      2.3748      0.2527     16.6759     14.2517    106.3910
   726.8000      8.3486      2.4409      0.2772     12.6757     14.2365    102.1864
   726.9000      8.3486      2.4767      0.2243     10.5022     14.5286     96.8070
   727.0000      8.3051      2.4777      0.0621     10.4399     15.1924     91.0694
   727.1000      8.3051      2.4709     -0.0266     10.8544     16.0168     85.4704
   727.2000      8.3051      2.4722      0.0090     10.7750     16.6256     81.5536
   727.3000      8.2140      2.4703      0.0062     10.8927     17.1335     82.2872
   727.4000      8.2140      2.4627     -0.0221     11.3509     17.8444     86.1539
   727.5000      8.1540      2.4637     -0.0034     11.2885     18.4220     85.1188
   727.6000      8.1540      2.4766      0.0705     10.5061     18.4530     77.2884
   727.7000      8.1540      2.4887      0.0583      9.7757     18.1803     70.8078
   727.8000      8.1350      2.4932      0.0276      9.5060     17.9910     70.5987
   727.9000      8.1350      2.4965      0.0563      9.3030     18.0141     76.7540
   728.0000      8.1288      2.5002      0.0425      9.0758     18.1730     87.4440
   728.1000      8.1288      2.4992      0.0421      9.1364     18.2190     95.8803
   728.2000      8.1288      2.4964      0.0054      9.3080     18.1274     98.5808
   728.3000      8.1276      2.4943      0.0435      9.4372     18.1548     99.3938
   728.4000      8.1276      2.4857      0.0438      9.9555     18.2460    101.0803
   728.5000      8.1278      2.4750     -0.0058     10.6059     18.3388    104.9433
   728.6000      8.1278      2.4723      0.0307     10.7719     18.6054    108.7892
   728.7000      8.1278      2.4743     -0.0041     10.6473     19.0810    106.9487
   728.8000      8.1275      2.4819      0.0317     10.1864     19.5635    100.9699
   728.9000      8.1275      2.4985      0.0273      9.1789     19.8451     96.1062
   729.0000      8.1277      2.5210      0.0464      7.8209     19.8950     94.7120
   729.1000      8.1277      2.5434      0.0618      6.4596     19.8245     95.8458
   729.2000      8.1277      2.5583      0.1011      5.5597     19.9918     95.2341
   729.3000      8.1274      2.5624      0.0481      5.3074     20.4716     92.4897
   729.4000      8.1274      2.5618      0.0257      5.3432     20.8046     92.2900
   729.5000      8.1259      2.5550      0.0466      5.7603     20.7139     94.5326
   729.6000      8.1259      2.5354      0.0056      6.9448     20.5620     95.0898
   729.7000      8.1259      2.5097     -0.0070      8.5059     20.7240     94.2592
   729.8000      8.1248      2.4852      0.0140      9.9875     20.9890     96.9052
   729.9000      8.1248      2.4691     -0.0189     10.9658     21.1287    103.1952
