~Version Information
 VERS.                                  2.0 : CWLS LAS VERSION
 WRAP.                                   NO : WRAPING MODE
 SWARE .                 MController 2.5.0J : SOFTWARE VERSION
~Well Information
 WELL.                        Desoto 13-7TR : WELL
 COMP.        Pioneer Natural Resources Inc : COMPANY
 FLD.                      Purgatoire River : FIELD
 LOC.                 NW/SW Sec 7 T32S R66W : LOCATION
 DATE.                           1/13-14/05 : DATE(S) LOGGED
 SRVC.       Blanco Geological Services LLC : SERVICE COMPANY
 STAT.                                   CO : STATE
 CNTY.                           Las Animas : COUNTY
 CTRY.                                  USA : COUNTRY
 API.                          05-071-08216 : API NUMBER
 STRT.FT                             945.00 : START DEPTH
 STOP.FT                            2785.00 : STOP DEPTH
 STEP.FT                               1.00 : DEPTH INCREMENT
 NULL.                                -9999 : NULL VALUE
~Curve information
 DEPTH.FT                                   :
 ROP.MIN/FT                                 :
 GAS.UNITS                                  :
~ASCII Log data
# ...
      1345.0         0.27          3.2 
      1346.0         0.33          3.2 
      1347.0         0.27          3.2 
      1348.0         0.25          3.2 
      1349.0         0.20          2.8 
      1350.0         0.23          2.7 
      1351.0         0.27          3.2 
      1352.0         0.23          3.7 
      1353.0         0.20          3.7 
      1354.0         0.23          3.1 
      1355.0         0.23          3.6 
      1356.0         0.27          3.3 
      1357.0         0.27          3.5 
      1358.0         0.27          3.3 
      1359.0         0.27          2.7 
      1360.0         0.30          3.0 
      1361.0         0.32          3.0 
      1362.0         0.23          3.0 
      1363.0         0.27          4.2 
      1364.0         0.23          3.8 
      1365.0         0.23          4.0 
      1366.0         0.27          4.5 
      1367.0         0.27          5.2 
      1368.0         0.27          4.4 
      1369.0         0.23          4.0 
      1370.0         0.27          4.2 
      1371.0         0.27          3.6 
      1372.0         0.23          3.4 
      1373.0         0.27          3.9 
      1374.0         0.25          3.8 
      1375.0         0.27         14.2 
      1376.0         0.23         42.2 
      1377.0         0.33         65.5 
      1378.0         0.30         66.6 
      1379.0         0.48         66.5 
      1380.0         0.43         58.2 
      1381.0         0.33         50.0 
      1382.0         0.27         38.3 
      1383.0         0.23         33.7 
      1384.0         0.27         29.8 
      1385.0         0.23         26.0 
      1386.0         0.27         26.7 
      1387.0         0.23         26.0 
      1388.0         0.27         25.1 
      1389.0         0.30         24.9 
      1390.0         0.27         23.5 
      1391.0         0.25         24.2 
      1392.0         0.23         23.3 
      1393.0         0.37         23.2 
      1394.0         0.30         53.1 
      1395.0         0.27         58.7 
      1396.0         0.23        102.6 
      1397.0         0.33        117.0 
      1398.0         0.30        105.2 
      1399.0         0.33         62.1 
      1400.0         0.30         59.9 
      1401.0         0.33         38.0 
      1402.0         0.17         28.8 
      1403.0         0.25         27.3 
      1404.0         0.23         22.1 
      1405.0         0.27         22.1 
      1406.0         0.38         12.6 
      1407.0         0.27         14.0 
      1408.0         0.40         16.0 
      1409.0         0.57         25.1 
      1410.0         0.50         56.8 
      1411.0         0.37         62.7 
      1412.0         0.30         65.0 
      1413.0         0.23         65.9 
      1414.0         0.47         65.9 
      1415.0         0.40         65.5 
      1416.0         0.40         64.2 
      1417.0         0.43         65.5 
      1418.0         0.38         66.1 
      1419.0         0.37         67.0 
      1420.0         0.33         63.6 
      1421.0         0.40         62.5 
      1422.0         0.47         56.3 
      1423.0         0.43         58.8 
      1424.0         0.50         61.4 
      1425.0         0.47         60.1 
      1426.0         0.42         56.7 
      1427.0         0.50        182.7 
      1428.0         0.50         76.0 
      1429.0         0.37         72.8 
      1430.0         0.27         71.4 
      1431.0         0.30         69.7 
      1432.0         0.30         67.3 
      1433.0         0.33         64.7 
      1434.0         0.40         64.0 
      1435.0         0.22         57.3 
      1436.0         0.27         54.5 
      1437.0         0.37         52.6 
      1438.0         0.27         52.0 
      1439.0         0.20         52.1 
      1440.0         0.23         52.8 
      1441.0         0.27         52.8 
      1442.0         0.23         52.4 
      1443.0         0.25         52.0 
      1444.0         0.23         52.2 
      1445.0         0.20         52.0 
      1446.0         0.20         52.0 
      1447.0         0.30        104.2 
      1448.0         0.33        136.6 
      1449.0         0.30        163.6 
      1450.0         0.27        195.3 
      1451.0         0.30        231.9 
      1452.0         0.30        238.5 
      1453.0         0.30        225.7 
      1454.0         0.27       2667.8 
      1455.0         0.25       2667.8 
      1456.0         0.27       3244.1 
      1457.0         0.23       3701.2 
      1458.0         0.23       4041.5 
      1459.0         0.27       4242.6 
      1460.0         0.27       4220.6 
      1461.0         0.33       3703.7 
      1462.0         0.23       2662.4 
      1463.0         0.27       2470.8 
      1464.0         0.27       1868.2 
      1465.0         0.30       1546.2 
      1466.0         0.30       1257.1 
      1467.0         0.20       1162.1 
      1468.0         0.27       1127.2 
      1469.0         0.27       1003.1 
      1470.0         0.28        909.7 
      1471.0         0.40        902.4 
      1472.0         0.30        849.9 
      1473.0         0.33        828.8 
      1474.0         0.30        811.9 
      1475.0         0.27        807.4 
      1476.0         0.27        774.4 
      1477.0         0.20        764.9 
      1478.0         0.23        760.7 
      1479.0         0.30        759.1 
      1480.0         0.30        752.7 
      1481.0         0.33        742.1 
      1482.0         0.28        768.4 
      1483.0         0.27        752.1 
      1484.0         0.27       1023.6 
      1485.0         0.27       1304.7 
      1486.0         0.27       1590.0 
      1487.0         0.27       1776.5 
      1488.0         0.20       2161.5 
      1489.0         0.20       2245.3 
      1490.0         0.20       2335.8 
      1491.0         0.20       2327.5 
      1492.0         0.20       2302.2 
      1493.0         0.27       2053.4 
      1494.0         0.27       1740.6 
      1495.0         0.17       1608.9 
      1496.0         0.27       1378.9 
      1497.0         0.20       1231.8 
      1498.0         0.30       1147.4 
      1499.0         0.33       1027.1 
      1500.0         0.30        938.5 
      1501.0         0.32        903.3 
      1502.0         0.27        887.0 
      1503.0         0.33        865.6 
      1504.0         0.33        823.4 
      1505.0         0.43        803.9 
      1506.0         0.27        781.8 
      1507.0         0.23        774.8 
      1508.0         0.23        765.5 
      1509.0         0.23        750.1 
      1510.0         0.30        729.7 
      1511.0         0.23        721.0 
      1512.0         0.27        871.0 
      1513.0         0.28        871.0 
      1514.0         0.23       1072.8 
      1515.0         0.27       1229.6 
      1516.0         0.27       1236.6 
      1517.0         0.23       1214.8 
      1518.0         0.23       1220.6 
      1519.0         0.23       1220.6 
      1520.0         0.20       1216.8 
      1521.0         0.23       1199.2 
      1522.0         0.23       1120.8 
      1523.0         0.27       1034.8 
      1524.0         0.20       1015.9 
      1525.0         0.17        930.2 
      1526.0         0.23        912.6 
      1527.0         0.13        883.2 
      1528.0         0.30        846.1 
      1529.0         0.48        816.0 
      1530.0         0.37        757.5 
      1531.0         0.33        744.7 
      1532.0         0.40        738.9 
      1533.0         0.27        715.9 
      1534.0         0.27        709.8 
      1535.0         0.20        709.8 
      1536.0         0.23        712.7 
      1537.0         0.27        701.5 
      1538.0         0.20        697.7 
      1539.0         0.27        661.9 
      1540.0         0.27        665.1 
      1541.0         0.25        670.2 
      1542.0         0.27        672.1 
      1543.0         0.27        667.3 
      1544.0         0.33        784.0 
