~Version Information
VERS.                      2.0: CWLS Log ASCII Standard - VERSION 2.0
WRAP.                       NO: One line per depth step
~Well Information Block
STRT.FT                 0.0000: 
STOP.FT              2006.5000: 
STEP.FT                 0.2500: 
NULL.                -999.2500: 
COMP.          Petrogulf Corporation: COMPANY
WELL.           Lavedure 7-44R: WELL
FLD.           Purgatorie River: FIELD
LOC.           946' FSL & 521' FEL: LOCATION
STAT.                 Colorado: State
CNTY.               Las Animas: COUNTY
CTRY. USA : Country
SECT. 7 : Section
TOWN. 33S : Township
RANG. 67W : Range
SRVC.                Patterson: SERVICE COMPANY
DATE.          Thu Nov 10 15:49:38 2005: LOG DATE
API. 05-071-08090       : UNIQUE WELL ID
~Curve Information Block
DEPT.FT            0 000 00 00: Depth
CCL.                          : Casing Collar Locator
TT3.usec                      : CBL 3' Travel Time
AMP3.mV                       : CBL 3' Amplitude
GR.GAPI                       : Gamma Ray
~Parameter Information Block
~A  Depth       CCL         TT3         AMP3         GR     
# ...
  1976.5000      0.0000    673.1044      1.8833     51.1768
  1976.7500      0.0000    672.9590      1.8994     54.8963
  1977.0000      0.0000    672.2471      1.8973     58.3430
  1977.2500      0.0000    669.9067      1.8930     59.8174
  1977.5000      0.0000    664.1824      1.9063     58.9279
  1977.7500      0.0000    655.7504      1.9051     56.6088
  1978.0000      0.0000    649.2970      1.8395     54.2816
  1978.2500      0.0000    647.1810      1.7254     53.0487
  1978.5000      0.0000    646.5497      1.6344     53.2039
  1978.7500      0.0000    647.5754      1.6271     54.2083
  1979.0000      0.0000    653.3884      1.7079     55.3311
  1979.2500      0.0000    661.6491      1.8071     56.3886
  1979.5000      0.0000    667.1003      1.8370     57.6581
  1979.7500      0.0000    667.5255      1.7971     59.1312
  1980.0000      0.0000    662.8603      1.7700     60.1775
  1980.2500      0.0000    655.4807      1.7934     59.9539
  1980.5000      0.0000    651.8035      1.8222     58.0506
  1980.7500      0.0000    655.8525      1.8342     54.9254
  1981.0000      0.0000    662.9880      1.8725     51.8166
  1981.2500      0.0000    666.4871      1.9606     49.9867
  1981.5000      0.0000    665.8870      2.0550     49.7647
  1981.7500      0.0000    666.1993      2.1083     50.2980
  1982.0000      0.0000    670.9896      2.1284     50.3888
  1982.2500      0.0000    676.4977      2.1644     49.7026
  1982.5000      0.0000    676.0997      2.2694     49.0811
  1982.7500      0.0000    669.2927      2.4620     49.5464
  1983.0000      0.0000    660.9653      2.7053     51.0820
  1983.2500      0.0000    655.0337      2.9421     52.4805
  1983.5000      0.0000    651.7430      3.1500     52.2758
  1983.7500      0.0000    648.7437      3.3497     49.8274
  1984.0000      0.0000    643.9144      3.5676     45.7190
  1984.2500      0.0000    637.9486      3.8069     41.2852
  1984.5000      0.0000    633.8610      4.0523     37.7559
  1984.7500      0.0000    634.0395      4.2824     35.6422
  1985.0000      0.0000    638.4783      4.4773     34.6695
  1985.2500      0.0000    644.8224      4.6253     34.1777
  1985.5000      0.0000    650.0173      4.7216     33.6510
  1985.7500      0.0000    652.8262      4.7710     33.0423
  1986.0000      0.0000    654.0392      4.8054     32.7126
  1986.2500      0.0000    654.5386      4.8651     33.0098
  1986.5000      0.0000    653.9027      4.9462     33.9106
  1986.7500      0.0000    649.7272      5.0075     35.1738
  1987.0000      0.0000    638.7216      5.0278     36.6654
  1987.2500      0.0000    623.3030      5.0288     38.3421
  1987.5000      0.0000    615.5298      5.0568     40.1914
  1987.7500      0.0000    623.0449      5.1538     42.4027
  1988.0000      0.0000    636.2714      5.3174     45.3519
  1988.2500      0.0000    642.2244      5.5041     49.3038
  1988.5000      0.0000    639.8387      5.6835     54.3090
  1988.7500      0.0000    634.8417      5.8465     60.2432
  1989.0000      0.0000    630.3904      5.9751     66.5023
  1989.2500      0.0000    626.7233      6.0513     71.7570
  1989.5000      0.0000    624.2723      6.0746     74.5423
  1989.7500      0.0000    622.7215      6.0439     74.1173
  1990.0000      0.0000    620.0301      5.9643     70.4174
  1990.2500      0.0000    616.5557      5.8640     63.3634
  1990.5000      0.0000    616.9957      5.7418     52.8312
  1990.7500      0.0000    625.1027      5.5256     39.5632
  1991.0000      0.0000    638.1200      5.1609     25.7550
  1991.2500      0.0000    647.4896      4.7082     14.1650
  1991.5000      0.0000    645.8417      4.2802      6.4365
  1991.7500      0.0000    635.6758      3.9188      2.3769
  1992.0000      0.0000    629.7968      3.6040      0.7047
  1992.2500      0.0000    639.9101      3.3418      0.1660
  1992.5000      0.0000    666.5443      3.1602      0.0306
  1992.7500      0.0000    701.1523      3.0429      0.0040
  1993.0000      0.0000    734.0951      2.9462   -999.2500
  1993.2500      0.0000    754.7051      2.8590   -999.2500
  1993.5000      0.0000    751.0635      2.7950   -999.2500
  1993.7500      0.0000    723.6387      2.7519   -999.2500
  1994.0000      0.0000    691.0396      2.6987   -999.2500
  1994.2500      0.0000    672.6226      2.5975   -999.2500
  1994.5000      0.0000    671.9237      2.4527   -999.2500
  1994.7500      0.0000    678.5737      2.3293   -999.2500
  1995.0000      0.0000    682.0419      2.3073   -999.2500
  1995.2500      0.0000    679.9297      2.4199   -999.2500
  1995.5000      0.0000    668.6003      2.5954   -999.2500
  1995.7500      0.0000    632.2922      2.6477   -999.2500
  1996.0000      0.0000    547.0754      2.3832   -999.2500
  1996.2500      0.0000    402.0151      1.7781   -999.2500
  1996.5000      0.0000    230.7429      1.0588   -999.2500
  1996.7500      0.0000     96.3997      0.5187   -999.2500
  1997.0000      0.0000     27.9238      0.2551   -999.2500
  1997.2500      0.0000      5.4382      0.1713   -999.2500
  1997.5000      0.0000      0.6970      0.1540   -999.2500
  1997.7500      0.0000   -999.2500   -999.2500   -999.2500
  1998.0000      0.0000   -999.2500   -999.2500   -999.2500
  1998.2500      0.0000   -999.2500   -999.2500   -999.2500
  1998.5000      0.0000   -999.2500   -999.2500   -999.2500
  1998.7500      0.0000   -999.2500   -999.2500   -999.2500
  1999.0000      0.0000   -999.2500   -999.2500   -999.2500
  1999.2500      0.0000   -999.2500   -999.2500   -999.2500
  1999.5000      0.0000   -999.2500   -999.2500   -999.2500
  1999.7500      0.0000   -999.2500   -999.2500   -999.2500
  2000.0000      0.0000   -999.2500   -999.2500   -999.2500
  2000.2500      0.0000   -999.2500   -999.2500   -999.2500
  2000.5000      0.0000   -999.2500   -999.2500   -999.2500
  2000.7500      0.0000   -999.2500   -999.2500   -999.2500
  2001.0000      0.0000   -999.2500   -999.2500   -999.2500
  2001.2500      0.0000   -999.2500   -999.2500   -999.2500
  2001.5000      0.0000   -999.2500   -999.2500   -999.2500
  2001.7500      0.0000   -999.2500   -999.2500   -999.2500
  2002.0000      0.0000   -999.2500   -999.2500   -999.2500
  2002.2500      0.0000   -999.2500   -999.2500   -999.2500
  2002.5000      0.0000   -999.2500   -999.2500   -999.2500
  2002.7500      0.0000   -999.2500   -999.2500   -999.2500
  2003.0000      0.0000   -999.2500   -999.2500   -999.2500
  2003.2500      0.0000   -999.2500   -999.2500   -999.2500
  2003.5000      0.0000   -999.2500   -999.2500   -999.2500
  2003.7500      0.0000   -999.2500   -999.2500   -999.2500
  2004.0000   -999.2500   -999.2500   -999.2500   -999.2500
  2004.2500   -999.2500   -999.2500   -999.2500   -999.2500
  2004.5000   -999.2500   -999.2500   -999.2500   -999.2500
  2004.7500   -999.2500   -999.2500   -999.2500   -999.2500
  2005.0000   -999.2500   -999.2500   -999.2500   -999.2500
  2005.2500   -999.2500   -999.2500   -999.2500   -999.2500
  2005.5000   -999.2500   -999.2500   -999.2500   -999.2500
  2005.7500   -999.2500   -999.2500   -999.2500   -999.2500
  2006.0000   -999.2500   -999.2500   -999.2500   -999.2500
  2006.2500   -999.2500   -999.2500   -999.2500   -999.2500
  2006.5000   -999.2500   -999.2500   -999.2500   -999.2500
