~Version Information
 VERS.                      2.0: CWLS Log ASCII Standard - VERSION 2.0
 WRAP.                       NO: One line per depth step
 ~Well Information Block
 STRT.FT               462.4000: 
 STOP.FT              2260.5000: 
 STEP.FT                 0.1000: 
 NULL.                -999.2500: 
 COMP.          Petrogulf Corporation: COMPANY
 WELL.             McLeod 9-42V: WELL
 FLD.           Purgatorie River: FIELD
 LOC.           1658' FNL & 415' FEL: LOCATION
 CNTY.               Las Animas: COUNTY
 SRVC.                         : SERVICE COMPANY
 DATE.          Fri Nov 12 10:12:24 2004: LOG DATE
 UWI.           05 071 08071 00: UNIQUE WELL ID
 STAT.                 Colorado: STATE
 PROV.                         :Province
 ~Curve Information Block
 DEPT.FT            0 000 00 00: Depth
 DCAL.in                       : CDL Caliper
 RHOB.g/cc                     : CDL Bulk Density
 RHOC.g/cc                     : CDL Density Correction
 DPOR.pu                       : CDL Density Porosity
 GR.GAPI                       : Gamma Ray
 NPOR.pu                       : Neutron Porosity
 ~Parameter Information Block
 ~A  Depth       DCAL        RHOB        RHOC        DPOR         GR         NPOR    
# ...
   712.0000      8.1093      1.6106     -0.0289     62.9950     55.3367     -6.2242
   712.1000      8.1093      1.5889      0.0058     64.3108     55.8881     -6.4088
   712.2000      8.1093      1.5801      0.0436     64.8439     56.9104     -5.3629
   712.3000      8.1080      1.5807      0.0151     64.8081     58.0362     -3.0853
   712.4000      8.1080      1.6057     -0.0047     63.2920     57.9302     -0.0185
   712.5000      8.1319      1.6674      0.0571     59.5487     57.8810      3.6517
   712.6000      8.1319      1.7580      0.0991     54.0578     58.7022      7.3737
   712.7000      8.1319      1.8621      0.0882     47.7523     57.8528     10.6606
   712.8000      8.1268      1.9719      0.1199     41.0976     56.8030     13.7612
   712.9000      8.1268      2.0904      0.1375     33.9170     60.0981     16.5929
   713.0000      8.1083      2.2203      0.1312     26.0425     66.4506     18.6309
   713.1000      8.1083      2.3444      0.1849     18.5193     72.4444     20.0299
   713.2000      8.1083      2.4331      0.2060     13.1477     78.0521     21.3366
   713.3000      8.0896      2.4798      0.1220     10.3150     85.5378     22.5774
   713.4000      8.0896      2.4990      0.1162      9.1539     96.1153     23.6023
   713.5000      8.1082      2.4948      0.1743      9.4075    105.9342     24.4716
   713.6000      8.1082      2.4644      0.0961     11.2509    112.4515     25.1236
   713.7000      8.1082      2.4106      0.0379     14.5104    119.7555     25.6029
   713.8000      8.0850      2.3460     -0.0499     18.4229    128.5645     25.9325
   713.9000      8.0850      2.2996     -0.0468     21.2384    136.0545     26.0682
   714.0000      8.1165      2.2904     -0.0335     21.7940    141.6602     26.2965
   714.1000      8.1165      2.3028      0.0258     21.0400    143.5367     26.6936
   714.2000      8.1165      2.3190     -0.0148     20.0595    141.6318     26.8790
   714.3000      8.1561      2.3425     -0.0097     18.6390    140.0017     26.6904
   714.4000      8.1561      2.3659      0.0729     17.2171    140.1523     26.5531
   714.5000      8.1508      2.3667      0.0869     17.1677    140.6516     26.7346
   714.6000      8.1508      2.3416      0.0694     18.6921    142.7254     27.0774
   714.7000      8.1508      2.3070      0.1196     20.7856    149.0131     27.5146
   714.8000      8.1154      2.2792      0.1263     22.4714    156.5681     27.9234
   714.9000      8.1154      2.2713      0.0671     22.9491    159.4468     27.9804
   715.0000      8.1269      2.2901      0.0543     21.8118    158.4287     27.7070
   715.1000      8.1269      2.3316      0.0349     19.2941    157.5512     27.4356
   715.2000      8.1269      2.3872      0.0952     15.9275    156.1673     27.2832
   715.3000      8.1743      2.4468      0.1433     12.3129    153.1446     27.3017
   715.4000      8.1743      2.4999      0.2140      9.0953    151.0623     27.6771
   715.5000      8.2112      2.5333      0.2797      7.0715    153.0002     28.4703
   715.6000      8.2112      2.5265      0.3802      7.4865    156.8391     29.2955
   715.7000      8.2112      2.4451      0.3221     12.4200    158.6983     29.5074
   715.8000      8.2587      2.2734      0.1415     22.8243    158.3383     29.0347
   715.9000      8.2587      2.0371     -0.0068     37.1440    156.9337     28.3830
   716.0000      8.2740      1.7754     -0.0856     53.0089    156.6337     27.9797
   716.1000      8.2740      1.5260     -0.2347     68.1206    158.1513     27.5526
   716.2000      8.2740      1.3235     -0.2298     80.3950    159.7236     26.4212
   716.3000      8.2041      1.1844     -0.2716     88.8255    161.6530     24.6542
   716.4000      8.2041      1.1271     -0.2638     92.2996    162.7012     23.1106
   716.5000      8.1711      1.2049     -0.3237     87.5798    160.7850     22.1803
   716.6000      8.1711      1.4601     -0.1117     72.1137    158.3357     21.7096
   716.7000      8.1711      1.8265      0.3552     49.9116    155.8876     21.5695
   716.8000      8.2315      2.1728      0.4764     28.9195    151.2626     21.7266
   716.9000      8.2315      2.4250      0.6077     13.6374    147.2484     22.1079
   717.0000      8.5793      2.5728      0.6091      4.6807    145.4155     22.8437
   717.1000      8.5793      2.6435      0.5041      0.3947    142.8976     24.2676
   717.2000      8.5793      2.6866      0.4243     -2.2159    141.7479     26.1356
   717.3000      8.3585      2.7190      0.3974     -4.1835    144.5823     28.1339
   717.4000      8.3585      2.7137      0.2851     -3.8612    147.7971     30.2719
   717.5000      8.0747      2.6706      0.1447     -1.2507    147.1328     32.0841
   717.6000      8.0747      2.6369      0.0694      0.7933    141.5932     32.9777
   717.7000      8.0747      2.6388      0.1460      0.6759    134.3589     33.0161
   717.8000      8.0340      2.6490      0.1750      0.0619    131.7101     32.5490
   717.9000      8.0340      2.6334      0.1109      1.0039    135.7591     31.8579
   718.0000      8.0303      2.5968      0.0070      3.2256    140.3777     31.0640
   718.1000      8.0303      2.5635     -0.0270      5.2444    140.8434     30.2003
   718.2000      8.0303      2.5411     -0.0510      6.6011    138.0081     29.4320
   718.3000      8.0246      2.5249     -0.0054      7.5835    133.0063     28.9751
   718.4000      8.0246      2.5130      0.0332      8.3016    129.8140     28.7809
   718.5000      8.0245      2.5076      0.0055      8.6324    131.9819     28.7049
   718.6000      8.0245      2.5089      0.0589      8.5541    136.3614     28.6763
   718.7000      8.0245      2.5088      0.0585      8.5568    138.0301     28.6193
   718.8000      8.0285      2.5088     -0.0079      8.5584    136.0646     28.6260
   718.9000      8.0285      2.5158      0.0135      8.1335    133.8579     28.7068
   719.0000      8.0298      2.5204      0.0530      7.8542    135.8033     28.7515
   719.1000      8.0298      2.5098      0.0474      8.4965    141.8153     28.8780
   719.2000      8.0298      2.4906      0.0046      9.6598    146.6889     29.1483
   719.3000      8.0526      2.4838     -0.0309     10.0711    147.3094     29.3160
   719.4000      8.0526      2.4920      0.0491      9.5787    144.5139     29.1842
   719.5000      8.0644      2.4975     -0.0032      9.2418    141.0532     28.8005
   719.6000      8.0644      2.4953      0.0167      9.3745    140.2563     28.4634
   719.7000      8.0644      2.4953      0.0006      9.3781    141.8316     28.4947
   719.8000      8.0306      2.5045      0.0018      8.8165    142.7473     28.7513
   719.9000      8.0306      2.5182      0.0204      7.9866    142.6420     28.8224
   720.0000      8.0293      2.5244      0.0203      7.6118    141.9541     28.6173
   720.1000      8.0293      2.5174      0.0581      8.0384    138.5695     28.4154
   720.2000      8.0293      2.5004      0.0383      9.0648    133.0923     28.4533
   720.3000      8.0332      2.4817      0.0092     10.2023    130.2400     28.5067
   720.4000      8.0332      2.4676      0.0355     11.0568    131.2301     28.2204
   720.5000      8.0358      2.4631      0.0087     11.3262    132.0031     27.7059
   720.6000      8.0358      2.4690     -0.0193     10.9699    130.5538     27.4098
   720.7000      8.0358      2.4787      0.0147     10.3793    130.3136     27.5013
   720.8000      8.0362      2.4852      0.0430      9.9893    134.5615     27.7163
   720.9000      8.0362      2.4886      0.0125      9.7837    140.5759     27.6959
   721.0000      8.0395      2.4998      0.0022      9.1017    142.3986     27.4891
   721.1000      8.0395      2.5190      0.0852      7.9422    139.9525     27.5623
   721.2000      8.0395      2.5282      0.1138      7.3824    137.7861     28.1084
   721.3000      8.0649      2.5248      0.0678      7.5882    137.3810     28.8027
   721.4000      8.0649      2.5277      0.0730      7.4092    139.0122     29.1657
   721.5000      8.1245      2.5446      0.1217      6.3887    142.1973     29.0898
