~Version Information
VERS.                      2.0: CWLS Log ASCII Standard - VERSION 2.0
WRAP.                       NO: One line per depth step
~Well Information Block
STRT.FT               830.0000: 
STOP.FT              3122.7500: 
STEP.FT                 0.2500: 
NULL.                -999.2500: 
COMP.          Pioneer Natural Resources: COMPANY
WELL.              Stones 24-8: WELL
FLD.           Purgatoire River: FIELD
LOC.           648' FSL & 2264' FWL: LOCATION
PROV.                 Colorado: PROVINCE
CNTY.               Las Animas: COUNTRY
SRVC.                Patterson: SERVICE COMPANY
DATE.          Wed Jan 19 12:44:32 2005: LOG DATE
UWI.           05 071 07945 00: UNIQUE WELL ID
~Curve Information Block
DEPT.FT            0 000 00 00: Depth
SN.Ohm-m                      : IEL Short Normal
SP.mV                         : IEL Spontaneous Potential
DIR.Ohm-m                     : IEL Induction Resistivity
GR.GAPI                       : Gamma Ray
~Parameter Information Block
~A  Depth        SN          SP         DIR          GR     
# ...
  1265.5000   2000.0000   2000.0000     28.6800     66.2453
  1265.7500   2000.0000   2000.0000     29.4285     66.3942
  1266.0000   2000.0000   2000.0000     30.0455     65.9991
  1266.2500   2000.0000   2000.0000     30.4251     65.5747
  1266.5000   2000.0000   2000.0000     30.4401     65.0747
  1266.7500   2000.0000   2000.0000     30.0089     65.0121
  1267.0000   2000.0000   2000.0000     29.1516     65.9806
  1267.2500   2000.0000   2000.0000     27.9885     68.0883
  1267.5000   2000.0000   2000.0000     26.6820     74.7654
  1267.7500   2000.0000   2000.0000     25.3711     81.6285
  1268.0000   2000.0000   2000.0000     24.1369     93.6710
  1268.2500   2000.0000   2000.0000     23.0019    100.9903
  1268.5000   2000.0000   2000.0000     21.9496    108.1696
  1268.7500   2000.0000   2000.0000     20.9486    109.9608
  1269.0000   2000.0000   2000.0000     19.9765    109.4649
  1269.2500   2000.0000   2000.0000     19.0382    108.3489
  1269.5000   2000.0000   2000.0000     18.1691    107.3286
  1269.7500   2000.0000   2000.0000     17.4194    107.4850
  1270.0000   2000.0000   2000.0000     16.8302    108.6109
  1270.2500   2000.0000   2000.0000     16.4148    109.4631
  1270.5000   2000.0000   2000.0000     16.1522    110.2589
  1270.7500   2000.0000   2000.0000     15.9922    110.4617
  1271.0000   2000.0000   2000.0000     15.8693    110.8825
  1271.2500   2000.0000   2000.0000     15.7264    111.6939
  1271.5000   2000.0000   2000.0000     15.5396    113.9429
  1271.7500   2000.0000   2000.0000     15.3266    115.7832
  1272.0000   2000.0000   2000.0000     15.1302    118.0438
  1272.2500   2000.0000   2000.0000     14.9909    118.7276
  1272.5000   2000.0000   2000.0000     14.9301    118.1154
  1272.7500   2000.0000   2000.0000     14.9509    116.6212
  1273.0000   2000.0000   2000.0000     15.0470    113.1349
  1273.2500   2000.0000   2000.0000     15.2108    110.3899
  1273.5000   2000.0000   2000.0000     15.4367    106.3536
  1273.7500   2000.0000   2000.0000     15.7204    103.9352
  1274.0000   2000.0000   2000.0000     16.0564    100.7890
  1274.2500   2000.0000   2000.0000     16.4331     99.1097
  1274.5000   2000.0000   2000.0000     16.8293     97.5226
  1274.7500   2000.0000   2000.0000     17.2182     97.1179
  1275.0000   2000.0000   2000.0000     17.5811     97.3040
  1275.2500   2000.0000   2000.0000     17.9227     98.0322
  1275.5000   2000.0000   2000.0000     18.2769    100.6099
  1275.7500   2000.0000   2000.0000     18.6927    103.4727
  1276.0000   2000.0000   2000.0000     19.2031    108.6026
  1276.2500   2000.0000   2000.0000     19.7921    111.5188
  1276.5000   2000.0000   2000.0000     20.3813    113.4465
  1276.7500   2000.0000   2000.0000     20.8639    112.7203
  1277.0000   2000.0000   2000.0000     21.1782    109.2354
  1277.2500   2000.0000   2000.0000     21.3602    106.1534
  1277.5000   2000.0000   2000.0000     21.5212    101.8051
  1277.7500   2000.0000   2000.0000     21.7787     99.4925
  1278.0000   2000.0000   2000.0000     22.2045     96.6637
  1278.2500   2000.0000   2000.0000     22.8095     94.7920
  1278.5000   2000.0000   2000.0000     23.5462     91.6923
  1278.7500   2000.0000   2000.0000     24.3199     89.6975
  1279.0000   2000.0000   2000.0000     25.0183     87.5367
  1279.2500   2000.0000   2000.0000     25.5565     86.8151
  1279.5000   2000.0000   2000.0000     25.9034     86.6373
  1279.7500   2000.0000   2000.0000     26.0637     87.0517
  1280.0000   2000.0000   2000.0000     26.0375     88.4666
  1280.2500   2000.0000   2000.0000     25.8123     89.7435
  1280.5000   2000.0000   2000.0000     25.3923     91.5883
  1280.7500   2000.0000   2000.0000     24.8282     92.7363
  1281.0000   2000.0000   2000.0000     24.2102     95.1692
  1281.2500   2000.0000   2000.0000     23.6317     97.8560
  1281.5000   2000.0000   2000.0000     23.1517    103.4997
  1281.7500   2000.0000   2000.0000     22.7779    107.5492
  1282.0000   2000.0000   2000.0000     22.4689    112.1210
  1282.2500   2000.0000   2000.0000     22.1572    113.3936
  1282.5000   2000.0000   2000.0000     21.7854    112.6767
  1282.7500   2000.0000   2000.0000     21.3404    111.1915
  1283.0000   2000.0000   2000.0000     20.8595    109.1547
  1283.2500   2000.0000   2000.0000     20.4040    108.5455
  1283.5000   2000.0000   2000.0000     20.0237    108.3381
  1283.7500   2000.0000   2000.0000     19.7352    107.7547
  1284.0000   2000.0000   2000.0000     19.5217    105.1402
  1284.2500   2000.0000   2000.0000     19.3450    102.7005
  1284.5000   2000.0000   2000.0000     19.1626    100.2918
  1284.7500   2000.0000   2000.0000     18.9428    100.6891
  1285.0000   2000.0000   2000.0000     18.6724    104.3259
  1285.2500   2000.0000   2000.0000     18.3564    107.7031
  1285.5000   2000.0000   2000.0000     18.0124    112.1522
  1285.7500   2000.0000   2000.0000     17.6618    114.2842
  1286.0000   2000.0000   2000.0000     17.3235    116.7763
  1286.2500   2000.0000   2000.0000     17.0103    118.2881
  1286.5000   2000.0000   2000.0000     16.7297    120.1138
  1286.7500   2000.0000   2000.0000     16.4850    120.7429
  1287.0000   2000.0000   2000.0000     16.2744    120.6810
  1287.2500   2000.0000   2000.0000     16.0911    120.0922
  1287.5000   2000.0000   2000.0000     15.9280    118.6251
  1287.7500   2000.0000   2000.0000     15.7836    117.4417
  1288.0000   2000.0000   2000.0000     15.6619    115.7805
  1288.2500   2000.0000   2000.0000     15.5660    114.8112
  1288.5000   2000.0000   2000.0000     15.4912    112.9551
  1288.7500   2000.0000   2000.0000     15.4264    111.0159
  1289.0000   2000.0000   2000.0000     15.3624    107.3675
  1289.2500   2000.0000   2000.0000     15.2995    105.3490
  1289.5000   2000.0000   2000.0000     15.2450    104.6110
  1289.7500   2000.0000   2000.0000     15.2013    106.0006
  1290.0000   2000.0000   2000.0000     15.1551    110.1628
  1290.2500   2000.0000   2000.0000     15.0771    113.4386
  1290.5000   2000.0000   2000.0000     14.9351    117.6891
  1290.7500   2000.0000   2000.0000     14.7117    119.6800
  1291.0000   2000.0000   2000.0000     14.4163    121.6898
  1291.2500   2000.0000   2000.0000     14.0808    122.9341
  1291.5000   2000.0000   2000.0000     13.7437    125.4289
  1291.7500   2000.0000   2000.0000     13.4348    127.4496
  1292.0000   2000.0000   2000.0000     13.1695    130.0930
  1292.2500   2000.0000   2000.0000     12.9551    131.0009
  1292.5000   2000.0000   2000.0000     12.7973    130.7168
  1292.7500   2000.0000   2000.0000     12.7035    129.6393
  1293.0000   2000.0000   2000.0000     12.6779    127.1917
  1293.2500   2000.0000   2000.0000     12.7178    125.0829
  1293.5000   2000.0000   2000.0000     12.8144    121.1425
  1293.7500   2000.0000   2000.0000     12.9586    118.2237
  1294.0000   2000.0000   2000.0000     13.1462    114.5635
  1294.2500   2000.0000   2000.0000     13.3769    113.4007
  1294.5000   2000.0000   2000.0000     13.6503    114.0805
  1294.7500   2000.0000   2000.0000     13.9610    115.6594
  1295.0000   2000.0000   2000.0000     14.3007    118.0587
  1295.2500   2000.0000   2000.0000     14.6656    118.8061
  1295.5000   2000.0000   2000.0000     15.0618    117.9510
  1295.7500   2000.0000   2000.0000     15.5039    116.0788
  1296.0000   2000.0000   2000.0000     16.0079    111.6910
  1296.2500   2000.0000   2000.0000     16.5841    107.9986
  1296.5000   2000.0000   2000.0000     17.2394    101.8531
  1296.7500   2000.0000   2000.0000     17.9849     97.6124
  1297.0000   2000.0000   2000.0000     18.8419     91.1107
  1297.2500   2000.0000   2000.0000     19.8391     86.5851
  1297.5000   2000.0000   2000.0000     20.9992     79.7206
  1297.7500   2000.0000   2000.0000     22.3264     75.6009
  1298.0000   2000.0000   2000.0000     23.7975     71.0582
  1298.2500   2000.0000   2000.0000     25.3585     69.2909
  1298.5000   2000.0000   2000.0000     26.9262     68.0163
  1298.7500   2000.0000   2000.0000     28.3970     67.5647
