~Version Information
VERS.                      2.0: CWLS Log ASCII Standard - VERSION 2.0
WRAP.                       NO: One line per depth step
~Well Information Block
STRT.FT               825.0000: 
STOP.FT              2446.5000: 
STEP.FT                 0.2500: 
NULL.                -999.2500: 
COMP.          Petrogulf Corporation: COMPANY
WELL.            Kraft 17-23 V: WELL
FLD.           Purgatorie River: FIELD
LOC.           1500' FSL & 1773' FWL: LOCATION
CNTY.               Las Animas: COUNTY
SRVC.                         : SERVICE COMPANY
DATE.          Thu Nov 20 06:35:41 2003: LOG DATE
UWI.                          : UNIQUE WELL ID
STAT.                 Colorado: STATE
~Curve Information Block
DEPT.FT            0 000 00 00: Depth
SN.Ohm-m                      : IEL Short Normal
SP.mV                         : IEL Spontaneous Potential
DIR.Ohm-m                     : IEL Induction Resistivity
GR.GAPI                       : Gamma Ray
~Parameter Information Block
~A  Depth        SN          SP         DIR          GR     
# ...
  1461.5000     30.4787    -13.4328     19.1164     87.1484
  1461.7500     30.6673    -13.3718     20.3429     90.0658
  1462.0000     31.1895    -13.0636     21.6274     93.7992
  1462.2500     31.8869    -12.5602     22.7421     94.9993
  1462.5000     32.7132    -12.0011     23.4377     94.5307
  1462.7500     33.6463    -11.5469     23.6019     93.0029
  1463.0000     34.4632    -11.2834     23.3514     89.2930
  1463.2500     35.1152    -11.1891     22.9623     85.7977
  1463.5000     35.9347    -11.1956     22.7108     78.9096
  1463.7500     37.0889    -11.2570     22.7663     73.5825
  1464.0000     38.4731    -11.3526     23.1653     65.7595
  1464.2500     39.9660    -11.4477     23.8199     61.3567
  1464.5000     41.1996    -11.4858     24.5370     56.5180
  1464.7500     41.6100    -11.4275     25.0679     54.3764
  1465.0000     41.1481    -11.2869     25.2093     52.2861
  1465.2500     40.4321    -11.1135     24.9109     51.4604
  1465.5000     39.9600    -10.9324     24.3046     51.2303
  1465.7500     39.5716    -10.7200     23.6173     51.8722
  1466.0000     38.9298    -10.4593     23.0567     53.7286
  1466.2500     38.2966    -10.2198     22.7398     55.1300
  1466.5000     38.2680    -10.1566     22.6859     56.8615
  1466.7500     38.7636    -10.4270     22.8373     57.6743
  1467.0000     39.0483    -11.0943     23.0918     58.5750
  1467.2500     38.8371    -12.0550     23.3326     59.1134
  1467.5000     38.5961    -13.0100     23.4598     59.9701
  1467.7500     38.6573    -13.5760     23.4174     60.6309
  1468.0000     38.6741    -13.5452     23.2213     61.9187
  1468.2500     38.0832    -13.0218     22.9579     63.1183
  1468.5000     36.7908    -12.2443     22.7611     65.5809
  1468.7500     35.4241    -11.3467     22.7569     67.5076
  1469.0000     34.8191    -10.3606     23.0180     69.9289
  1469.2500     35.0306     -9.3484     23.5373     70.5957
  1469.5000     35.3431     -8.4369     24.2369     69.9610
  1469.7500     35.3188     -7.7672     25.0056     69.2096
  1470.0000     35.0460     -7.4408     25.7466     69.6958
  1470.2500     34.5910     -7.4524     26.3943     71.7815
  1470.5000     33.9651     -7.6670     26.8810     76.6553
  1470.7500     33.3552     -7.9308     27.1009     79.8488
  1471.0000     32.9547     -8.2143     26.9450     83.3277
  1471.2500     32.7552     -8.6101     26.3975     85.0829
  1471.5000     32.6262     -9.1881     25.5977     88.1987
  1471.7500     32.4811     -9.8825     24.7737     90.8652
  1472.0000     32.3600    -10.5292     24.1223     94.5217
  1472.2500     32.3567    -11.0028     23.7291     95.6427
  1472.5000     32.4765    -11.3057     23.5643     94.7949
  1472.7500     32.6541    -11.5582     23.5243     93.2028
  1473.0000     32.8729    -11.9350     23.4858     90.5834
  1473.2500     33.1223    -12.5822     23.3537     88.8566
  1473.5000     33.2294    -13.5295     23.0857     85.8984
  1473.7500     32.8854    -14.6703     22.6828     83.5896
  1474.0000     31.9795    -15.8511     22.1640     80.1058
  1474.2500     30.8417    -16.9750     21.5395     78.2485
  1474.5000     29.9248    -18.0082     20.8000     76.7549
  1474.7500     29.2086    -18.9351     19.9107     76.6687
  1475.0000     28.1220    -19.7438     18.8341     77.5956
  1475.2500     26.2273    -20.4073     17.5634     78.7024
  1475.5000     23.8296    -20.8645     16.1507     81.0206
  1475.7500     21.5763    -21.0815     14.7005     83.2230
  1476.0000     19.7117    -21.1478     13.3276     88.0505
  1476.2500     18.0614    -21.2412     12.1163     92.3592
  1476.5000     16.4658    -21.4421     11.1074     99.9626
  1476.7500     14.9414    -21.6315     10.3069    105.4427
  1477.0000     13.5285    -21.6337      9.7018    114.1017
  1477.2500     12.1274    -21.4284      9.2672    120.0559
  1477.5000     10.7232    -21.1815      8.9692    128.0121
  1477.7500      9.7651    -21.0806      8.7654    131.3644
  1478.0000      9.6745    -21.1678      8.6103    132.1299
  1478.2500     10.0884    -21.3327      8.4643    130.4943
  1478.5000     10.2713    -21.4433      8.3041    127.8517
  1478.7500      9.9456    -21.4175      8.1259    127.4301
  1479.0000      9.3979    -21.1785      7.9400    129.1750
  1479.2500      9.0711    -20.6788      7.7621    131.2173
  1479.5000      9.0759    -20.0397      7.6075    134.4469
  1479.7500      9.0976    -19.5647      7.4896    136.5454
  1480.0000      8.8411    -19.5333      7.4202    139.8345
  1480.2500      8.3266    -20.0168      7.4097    142.0981
  1480.5000      7.8110    -20.8999      7.4638    145.0451
  1480.7500      7.5966    -22.0059      7.5803    146.2452
  1481.0000      7.8675    -23.1843      7.7465    146.2150
  1481.2500      8.6205    -24.3493      7.9386    144.8141
  1481.5000      9.6411    -25.4874      8.1276    141.1374
  1481.7500     10.6371    -26.6153      8.2879    138.3837
  1482.0000     11.3241    -27.7074      8.4062    135.2194
  1482.2500     11.4617    -28.6698      8.4850    134.1813
  1482.5000     11.1903    -29.4215      8.5404    133.8538
  1482.7500     11.2574    -30.0139      8.5950    133.6424
  1483.0000     12.2282    -30.6225      8.6727    131.6632
  1483.2500     13.4714    -31.3516      8.7927    128.8194
  1483.5000     14.0589    -32.0808      8.9671    123.6448
  1483.7500     14.2285    -32.5778      9.2002    121.4170
  1484.0000     14.6465    -32.7629      9.4896    122.5215
  1484.2500     15.3431    -32.8027      9.8277    126.1159
  1484.5000     16.0225    -32.9472     10.2018    132.5283
  1484.7500     16.4902    -33.3172     10.5919    135.0425
  1485.0000     16.8113    -33.8458     10.9723    133.8828
  1485.2500     17.2871    -34.3680     11.3179    130.1469
  1485.5000     17.9332    -34.7264     11.6164    122.3517
  1485.7500     18.2943    -34.8212     11.8740    116.9261
  1486.0000     18.2281    -34.6319     12.1094    109.2850
  1486.2500     18.2770    -34.2482     12.3399    104.5501
  1486.5000     18.8119    -33.8723     12.5681     98.4905
  1486.7500     19.3224    -33.7400     12.7808     95.8545
  1487.0000     19.0161    -33.9791     12.9589     94.7415
  1487.2500     17.8198    -34.4974     13.0921     95.5187
  1487.5000     16.5479    -35.0088     13.1864     97.7301
  1487.7500     16.0639    -35.2304     13.2600     99.6602
  1488.0000     16.3614    -35.0924     13.3319    103.6881
  1488.2500     16.8195    -34.7274     13.4074    107.1191
  1488.5000     17.0473    -34.2849     13.4730    112.1105
  1488.7500     17.0784    -33.8357     13.5002    114.4004
  1489.0000     17.0924    -33.4234     13.4628    115.8213
  1489.2500     17.0694    -33.0918     13.3570    115.7787
  1489.5000     16.8328    -32.8401     13.2102    114.3604
  1489.7500     16.4942    -32.6232     13.0695    111.9544
  1490.0000     16.4608    -32.4223     12.9761    105.6412
  1490.2500     17.1061    -32.2930     12.9420    100.5185
  1490.5000     18.4275    -32.3283     12.9418     94.3690
  1490.7500     19.6049    -32.5784     12.9230     92.4759
  1491.0000     19.5568    -33.0098     12.8319     92.7461
  1491.2500     18.2503    -33.5362     12.6409     94.1031
  1491.5000     16.5380    -34.0655     12.3578     96.8174
  1491.7500     14.9821    -34.4970     12.0138     99.0328
  1492.0000     13.6188    -34.7010     11.6444    103.1966
  1492.2500     12.4693    -34.5574     11.2772    106.5633
  1492.5000     11.6714    -34.0425     10.9292    112.5562
  1492.7500     11.1993    -33.2749     10.6060    117.1927
  1493.0000     10.8766    -32.4577     10.3013    124.5152
  1493.2500     10.6393    -31.7430      9.9979    128.8332
  1493.5000     10.5497    -31.1387      9.6755    133.1413
  1493.7500     10.5795    -30.5658      9.3216    134.3876
  1494.0000     10.5763    -29.9981      8.9397    134.4777
  1494.2500     10.5116    -29.4872      8.5480    133.8130
  1494.5000     10.4705    -29.0349      8.1712    132.1326
  1494.7500     10.3980    -28.5173      7.8301    130.6692
