~Version Information
VERS.                      2.0: CWLS Log ASCII Standard - VERSION 2.0
WRAP.                       NO: One line per depth step
~Well Information Block
STRT.FT               483.0000: 
STOP.FT              1702.5000: 
STEP.FT                 0.2500: 
NULL.                -999.2500: 
COMP.          Pioneer Natural Resources: COMPANY
WELL.            Mad Dog 42-31: WELL
FLD.           Purgatorie River: FIELD
LOC.           2064' FNL & 479' FEL: LOCATION
PROV.                 Colorado: PROVINCE
CNTY.               Las Animas: COUNTRY
SRVC.                         : SERVICE COMPANY
DATE.          Sun Oct 10 04:26:24 2004: LOG DATE
UWI.           05 071 08195 00: UNIQUE WELL ID
~Curve Information Block
DEPT.FT            0 000 00 00: Depth
LTEN.lb                       : Surface Line Tension
SN.Ohm-m                      : IEL Short Normal
SP.mV                         : IEL Spontaneous Potential
DIR.Ohm-m                     : IEL Induction Resistivity
GR.GAPI                       : Gamma Ray
~Parameter Information Block
~A  Depth       LTEN         SN          SP         DIR          GR     
# ...
   567.0000    648.6411   2000.0000   2000.0000 100000.0000     48.5518
   567.2500    649.1349   2000.0000   2000.0000 100000.0000     49.7123
   567.5000    651.9709   2000.0000   2000.0000 100000.0000     52.5427
   567.7500    658.3179   2000.0000   2000.0000 100000.0000     54.8431
   568.0000    666.0515   2000.0000   2000.0000 100000.0000     57.7141
   568.2500    671.2137   2000.0000   2000.0000 100000.0000     58.6603
   568.5000    671.1035   2000.0000   2000.0000 100000.0000     58.4779
   568.7500    666.0654   2000.0000   2000.0000 100000.0000     57.5083
   569.0000    658.6533   2000.0000   2000.0000 100000.0000     55.1743
   569.2500    651.5287   2000.0000   2000.0000 100000.0000     53.2918
   569.5000    646.3928   2000.0000   2000.0000 100000.0000     50.6870
   569.7500    644.3958   2000.0000   2000.0000 100000.0000     49.5792
   570.0000    646.4722   2000.0000   2000.0000 100000.0000     49.3539
   570.2500    652.6570   2000.0000   2000.0000 100000.0000     50.0844
   570.5000    661.2586   2000.0000   2000.0000 100000.0000     52.0378
   570.7500    669.1221   2000.0000   2000.0000 100000.0000     53.8622
   571.0000    673.2472   2000.0000   2000.0000 100000.0000     58.1141
   571.2500    672.5462   2000.0000   2000.0000 100000.0000     62.6972
   571.5000    668.2281   2000.0000   2000.0000 100000.0000     73.2324
   571.7500    662.8320   2000.0000   2000.0000 100000.0000     82.6909
   572.0000    658.9179   2000.0000   2000.0000 100000.0000     98.8717
   572.2500    657.8699   2000.0000   2000.0000 100000.0000    109.2924
   572.5000    659.2936   2000.0000   2000.0000 100000.0000    121.7574
   572.7500    661.7720   2000.0000   2000.0000 100000.0000    127.3500
   573.0000    664.3279   2000.0000   2000.0000      6.7352    132.3137
   573.2500    666.7402   2000.0000   2000.0000      1.6672    134.1405
   573.5000    668.5276   2000.0000   2000.0000      0.8803    135.5745
   573.7500    668.6988   2000.0000   2000.0000      0.6200    135.7656
   574.0000    667.0541   2000.0000   2000.0000      0.5450    134.8722
   574.2500    664.8910   2000.0000   2000.0000      0.5928    133.4320
   574.5000    663.6448   2000.0000   2000.0000      0.7955    129.1592
   574.7500    663.2419   2000.0000   2000.0000      1.3527    123.9144
   575.0000    662.3809   2000.0000   2000.0000      3.5214    111.4315
   575.2500    660.0823   2000.0000   2000.0000 100000.0000    100.7893
   575.5000    656.5984   2000.0000   2000.0000 100000.0000     84.8570
   575.7500    653.1934   2000.0000   2000.0000 100000.0000     76.4313
   576.0000    651.2172   2000.0000   2000.0000 100000.0000     68.7874
   576.2500    651.1147   2000.0000   2000.0000 100000.0000     66.5528
   576.5000    652.3397   2000.0000   2000.0000 100000.0000     65.4181
   576.7500    654.1902   2000.0000   2000.0000 100000.0000     65.0218
   577.0000    656.3393   2000.0000   2000.0000 100000.0000     63.9034
   577.2500    658.5305   2000.0000   2000.0000 100000.0000     62.6632
   577.5000    660.3005   2000.0000   2000.0000 100000.0000     60.4454
   577.7500    661.4732   2000.0000   2000.0000 100000.0000     59.2933
   578.0000    662.7538   2000.0000   2000.0000 100000.0000     59.4737
   578.2500    665.2648   2000.0000   2000.0000     58.3577     61.5558
   578.5000    669.2259   2000.0000   2000.0000      2.8027     67.2707
   578.7500    673.3896   2000.0000   2000.0000      1.1709     71.4214
   579.0000    676.0983   2000.0000   2000.0000      0.6816     75.2284
   579.2500    676.7498   2000.0000   2000.0000      0.4758     75.3987
   579.5000    676.0869   2000.0000   2000.0000      0.3891     73.0691
   579.7500    675.2784   2000.0000   2000.0000      0.3779     70.8850
   580.0000    674.9185   2000.0000   2000.0000      0.4416     68.0029
   580.2500    674.7918   2000.0000   2000.0000      0.6235     66.7246
   580.5000    674.3505   2000.0000   2000.0000      1.0952     65.9692
   580.7500    673.2137   2000.0000   2000.0000      2.9000     65.9808
   581.0000    671.3207   2000.0000   2000.0000 100000.0000     65.7178
   581.2500    668.9722   2000.0000   2000.0000 100000.0000     64.8652
   581.5000    666.9691   2000.0000   2000.0000 100000.0000     62.9134
   581.7500    666.4677   2000.0000   2000.0000 100000.0000     62.0571
   582.0000    668.1662   2000.0000   2000.0000 100000.0000     63.2259
   582.2500    671.4963   2000.0000   2000.0000 100000.0000     66.2338
   582.5000    675.0022   2000.0000   2000.0000 100000.0000     73.6849
   582.7500    677.7113   2000.0000   2000.0000 100000.0000     79.6257
   583.0000    679.7294   2000.0000   2000.0000 100000.0000     88.0015
   583.2500    681.3543   2000.0000   2000.0000 100000.0000     92.5097
   583.5000    682.3233   2000.0000   2000.0000 100000.0000     97.6308
   583.7500    682.4465   2000.0000   2000.0000 100000.0000    100.4201
   584.0000    682.3698   2000.0000   2000.0000 100000.0000    104.6481
   584.2500    682.8552   2000.0000   2000.0000    122.5528    107.8802
   584.5000    683.4436   2000.0000   2000.0000     32.0132    113.3854
   584.7500    682.7812   2000.0000   2000.0000     23.5903    117.1904
   585.0000    680.6011   2000.0000   2000.0000     23.2992    122.4053
   585.2500    678.4424   2000.0000   2000.0000     27.8393    125.2640
   585.5000    677.6818   2000.0000   2000.0000     39.0644    128.4662
   585.7500    677.3967   2000.0000   2000.0000     61.2302    129.8766
   586.0000    675.0608   2000.0000   2000.0000     84.6801    130.8869
   586.2500    669.2743   2000.0000   2000.0000     68.7675    130.9142
   586.5000    661.2861   2000.0000   2000.0000     39.0708    130.5271
   586.7500    653.9561   2000.0000   2000.0000     22.6156    130.3367
   587.0000    649.6004   2000.0000   2000.0000     14.7787    130.1631
   587.2500    648.7514   2000.0000   2000.0000     10.8865    129.7477
   587.5000    650.6560   2000.0000   2000.0000      8.8634    128.0959
   587.7500    654.5912   2000.0000   2000.0000      7.8051    126.3497
   588.0000    660.3820   2000.0000   2000.0000      7.2801    123.2920
   588.2500    667.8181   2000.0000   2000.0000      7.0591    121.1936
   588.5000    675.8002   2000.0000   2000.0000      7.0103    118.0126
   588.7500    682.0460   2000.0000   2000.0000      7.0634    115.8338
   589.0000    683.9758   2000.0000   2000.0000      7.1946    112.5505
   589.2500    680.5790   2000.0000   2000.0000      7.4138    110.5617
   589.5000    673.6199   2000.0000   2000.0000      7.7423    108.6131
   589.7500    666.7602   2000.0000   2000.0000      8.1899    108.5244
   590.0000    663.2202   2000.0000   2000.0000      8.7362    110.7149
   590.2500    663.7254   2000.0000   2000.0000      9.3294    113.5428
   590.5000    666.2285   2000.0000   2000.0000      9.9033    118.7386
   590.7500    667.8285   2000.0000   2000.0000     10.3991    122.0040
   591.0000    667.2756   2000.0000   2000.0000     10.7749    125.3981
   591.2500    665.5898   2000.0000   2000.0000     11.0030    126.2223
   591.5000    664.4827   2000.0000   2000.0000     11.0759    125.0737
   591.7500    664.7727   2000.0000   2000.0000     11.0168    122.9770
   592.0000    666.4090   2000.0000   2000.0000     10.8758    119.1514
   592.2500    669.3159   2000.0000   2000.0000     10.7070    117.2209
   592.5000    673.4700   2000.0000   2000.0000     10.5463    116.5177
   592.7500    678.3012   2000.0000   2000.0000     10.4067    117.4320
   593.0000    682.6021   2000.0000   2000.0000     10.2893    119.7340
   593.2500    685.2103   2000.0000   2000.0000     10.1966    121.3318
   593.5000    685.6506   2000.0000   2000.0000     10.1336    123.7050
   593.7500    684.2445   2000.0000   2000.0000     10.0965    125.3871
   594.0000    681.9083   2000.0000   2000.0000     10.0624    127.8805
   594.2500    679.8683   2000.0000   2000.0000      9.9945    129.2756
   594.5000    679.3080   2000.0000   2000.0000      9.8651    130.9417
   594.7500    680.9922   2000.0000   2000.0000      9.6770    132.0472
