~Version Information
VERS.                      2.0: CWLS Log ASCII Standard - VERSION 2.0
WRAP.                       NO: One line per depth step
~Well Information Block
STRT.FT               954.0000: 
STOP.FT              2517.0000: 
STEP.FT                 0.2500: 
NULL.                -999.2500: 
COMP.          Petrogulf Corporation: COMPANY
WELL.             Royal 8-33 V: WELL
FLD.           Purgatoire River: FIELD
LOC.           2365' FSL & 2336' FEL: LOCATION
PROV.                 Colorado: PROVINCE
CNTY.               Las Animas: COUNTRY
SRVC.                Patterson: SERVICE COMPANY
DATE.          Fri Dec 05 04:39:41 2003: LOG DATE
UWI.                          : UNIQUE WELL ID
~Curve Information Block
DEPT.FT            0 000 00 00: Depth
SP.mV                         : DIL Spontaneous Potential
RILD.Ohm-m                    : DIL Deep Resistivity
RILM.Ohm-m                    : DIL Medium Resistivity
RLL3.Ohm-m                    : DIL Shallow Resistivity
GR.GAPI                       : Gamma Ray
~Parameter Information Block
~A  Depth        SP         RILD        RILM        RLL3         GR     
# ...
  1598.0000   -185.1644     11.0622     12.1640     11.7081    124.3591
  1598.2500   -184.6307     10.9055     11.7874     11.1678    128.1520
  1598.5000   -183.7999     10.7358     11.5108     11.0465    132.2002
  1598.7500   -182.7530     10.5641     11.3220     11.0523    134.3904
  1599.0000   -181.6498     10.4094     11.2187     11.0273    137.3986
  1599.2500   -180.6700     10.2949     11.2047     11.0069    139.1756
  1599.5000   -179.9236     10.2435     11.2845     11.1712    140.9301
  1599.7500   -179.3886     10.2748     11.4592     11.6736    140.9830
  1600.0000   -178.9289     10.4033     11.7253     12.4770    138.8016
  1600.2500   -178.3772     10.6388     12.0786     13.3651    136.0375
  1600.5000   -177.6175     10.9870     12.5194     14.1111    131.0965
  1600.7500   -176.6240     11.4515     13.0572     14.6307    127.8229
  1601.0000   -175.4632     12.0352     13.7114     15.0222    122.8497
  1601.2500   -174.2782     12.7375     14.5078     15.5297    119.1955
  1601.5000   -173.2419     13.5479     15.4733     16.4841    113.4695
  1601.7500   -172.4834     14.4388     16.6303     18.2187    110.0165
  1602.0000   -172.0420     15.3652     17.9904     20.9098    105.7014
  1602.2500   -171.8938     16.2799     19.5480     24.3409    102.9648
  1602.5000   -172.0197     17.1574     21.2749     27.8079     98.1680
  1602.7500   -172.4452     18.0077     23.1183     30.4579     94.5100
  1603.0000   -173.2252     18.8648     25.0081     31.9346     89.3214
  1603.2500   -174.3838     19.7566     26.8723     32.6860     86.7118
  1603.5000   -175.8470     20.6769     28.6525     33.4784     84.4269
  1603.7500   -177.4169     21.5773     30.3057     34.5542     83.6909
  1604.0000   -178.8166     22.3778     31.7917     35.3725     82.9149
  1604.2500   -179.7865     22.9853     33.0612     35.2480     82.1961
  1604.5000   -180.1775     23.3123     34.0598     34.1338     80.3887
  1604.7500   -179.9941     23.2943     34.7423     32.6523     78.7032
  1605.0000   -179.3808     22.9047     35.0759     31.4725     76.1103
  1605.2500   -178.5592     22.1609     35.0196     30.8815     74.9812
  1605.5000   -177.7342     21.1186     34.4941     30.9614     74.8976
  1605.7500   -177.0145     19.8644     33.3802     31.9050     75.6952
  1606.0000   -176.4027     18.5078     31.5808     33.9024     76.8527
  1606.2500   -175.8601     17.1643     29.1317     36.6620     76.8735
  1606.5000   -175.3687     15.9304     26.2617     39.1034     75.9251
  1606.7500   -174.9301     14.8644     23.3164     39.6667     75.7021
  1607.0000   -174.5364     13.9819     20.6031     37.2121     78.2677
  1607.2500   -174.1707     13.2633     18.2946     31.8979     82.6142
  1607.5000   -173.8304     12.6660     16.4354     25.2170     92.5512
  1607.7500   -173.5314     12.1390     14.9939     19.0476    100.4142
  1608.0000   -173.2886     11.6395     13.9102     14.5807    111.8455
  1608.2500   -173.0928     11.1475     13.1204     12.0062    117.9976
  1608.5000   -172.9025     10.6683     12.5635     10.9114    123.5553
  1608.7500   -172.6565     10.2238     12.1813     10.7704    124.5674
  1609.0000   -172.2991      9.8386     11.9157     11.1758    122.8036
  1609.2500   -171.8029      9.5314     11.7123     11.8649    120.3793
  1609.5000   -171.1782      9.3119     11.5305     12.6490    116.6290
  1609.7500   -170.4671      9.1819     11.3557     13.3256    114.8149
  1610.0000   -169.7272      9.1380     11.2022     13.6835    113.7859
  1610.2500   -169.0218      9.1757     11.1019     13.6285    114.2764
  1610.5000   -168.4240      9.2919     11.0884     13.2782    116.1678
  1610.7500   -168.0218      9.4862     11.1872     12.8962    117.4806
  1611.0000   -167.9037      9.7585     11.4147     12.7474    118.3441
  1611.2500   -168.1204     10.1069     11.7805     13.0232    117.8626
  1611.5000   -168.6500     10.5265     12.2893     13.8241    115.5151
  1611.7500   -169.4033     11.0103     12.9412     15.1089    112.9337
  1612.0000   -170.2713     11.5508     13.7322     16.6598    107.9412
  1612.2500   -171.1754     12.1425     14.6570     18.1934    104.4188
  1612.5000   -172.0772     12.7854     15.7150     19.5731     99.9686
  1612.7500   -172.9502     13.4877     16.9143     20.9124     97.8164
  1613.0000   -173.7495     14.2650     18.2711     22.4604     95.0580
  1613.2500   -174.4134     15.1344     19.8032     24.3737     92.7036
  1613.5000   -174.8936     16.1050     21.5214     26.5839     87.4591
  1613.7500   -175.1833     17.1708     23.4250     28.8615     82.9471
  1614.0000   -175.3173     18.3113     25.5000     30.9811     75.8743
  1614.2500   -175.3446     19.4978     27.7188     32.8085     71.8717
  1614.5000   -175.2915     20.6983     30.0423     34.2694     68.0117
  1614.7500   -175.1442     21.8760     32.4224     35.3285     66.9495
  1615.0000   -174.8615     22.9811     34.8020     36.0521     67.0464
  1615.2500   -174.4064     23.9391     37.1053     36.6547     67.7954
  1615.5000   -173.7705     24.6418     39.2122     37.4026     69.2602
  1615.7500   -172.9790     24.9568     40.9282     38.3940     70.1229
  1616.0000   -172.0843     24.7759     41.9698     39.3947     70.9481
  1616.2500   -171.1579     24.0887     42.0100     39.9578     71.2987
  1616.5000   -170.2831     23.0124     40.8040     39.8181     72.1320
  1616.7500   -169.5459     21.7348     38.3507     39.1484     73.3296
  1617.0000   -169.0194     20.4232     34.9663     38.2746     76.6942
  1617.2500   -168.7343     19.1759     31.1763     37.1051     80.0893
  1617.5000   -168.6544     18.0294     27.4966     35.0379     86.5031
  1617.7500   -168.6778     16.9883     24.2656     31.6020     91.2073
  1618.0000   -168.6709     16.0492     21.6111     27.1094     98.4491
  1618.2500   -168.5216     15.2090     19.5111     22.5192    103.5716
  1618.5000   -168.1863     14.4635     17.8755     18.7151    112.4196
  1618.7500   -167.7029     13.8035     16.6059     16.0229    119.1624
  1619.0000   -167.1628     13.2141     15.6233     14.3115    129.1409
  1619.2500   -166.6631     12.6782     14.8711     13.3231    134.2663
  1619.5000   -166.2728     12.1830     14.3051     12.8572    137.9088
  1619.7500   -166.0270     11.7240     13.8842     12.7788    137.7380
  1620.0000   -165.9375     11.3046     13.5666     12.9814    135.1598
  1620.2500   -166.0053     10.9319     13.3131     13.3605    132.8218
  1620.5000   -166.2330     10.6124     13.0914     13.7901    129.2508
  1620.7500   -166.6321     10.3499     12.8806     14.1177    127.1040
  1621.0000   -167.2228     10.1459     12.6723     14.2137    124.6698
  1621.2500   -168.0183     10.0009     12.4686     14.0500    123.7187
  1621.5000   -168.9908      9.9157     12.2784     13.7181    123.2683
  1621.7500   -170.0338      9.8911     12.1140     13.3561    123.6507
  1622.0000   -170.9662      9.9273     11.9892     13.0616    125.5920
  1622.2500   -171.6015     10.0218     11.9179     12.8691    127.9227
  1622.5000   -171.8466     10.1698     11.9123     12.7717    132.3650
  1622.7500   -171.7582     10.3647     11.9818     12.7394    135.0775
  1623.0000   -171.5131     10.6000     12.1349     12.7337    137.1942
  1623.2500   -171.3070     10.8700     12.3841     12.7352    136.9092
  1623.5000   -171.2590     11.1665     12.7523     12.7937    134.3426
  1623.7500   -171.3877     11.4743     13.2727     13.1177    131.6140
  1624.0000   -171.6425     11.7689     13.9811     14.2363    126.2883
  1624.2500   -171.9401     12.0201     14.8997     17.1649    121.8825
  1624.5000   -172.1939     12.2010     16.0163     23.3022    113.8160
  1624.7500   -172.3411     12.2968     17.2584     33.7180    107.3145
  1625.0000   -172.3635     12.3079     18.4682     47.9327     95.9149
  1625.2500   -172.2926     12.2484     19.4044     63.0535     87.8217
  1625.5000   -172.1973     12.1445     19.8128     74.3554     77.1234
  1625.7500   -172.1588     12.0316     19.5627     77.4858     72.4203
