~Version Information
VERS.                      2.0: CWLS Log ASCII Standard - VERSION 2.0
WRAP.                       NO: One line per depth step
~Well Information Block
STRT.FT               745.0000: 
STOP.FT              2945.7000: 
STEP.FT                 0.1000: 
NULL.                -999.2500: 
COMP.          Pioneer Natural Resources: COMPANY
WELL.          Old Yeller 31-32: WELL
FLD.           Purgatoire River: FIELD
LOC.           1832' FEL & 793' FNL--: LOCATION
STAT.                 Colorado: State
CNTY.               Las Animas: COUNTY
CTRY. USA : Country
SECT. 32 : Section
TOWN. 32S : Township
RANG. 67W : Range
SRVC.                Patterson: SERVICE COMPANY
DATE.          Mon Aug 29 11:12:35 2005: LOG DATE
API.           05 071 08356 00: UNIQUE WELL ID
~Curve Information Block
DEPT.FT            0 000 00 00: Depth
DCAL.in                       : CDL Caliper
RHOB.g/cc                     : CDL Bulk Density
RHOC.g/cc                     : CDL Density Correction
DPOR.pu                       : CDL Density Porosity
NPOR.pu                       : Neutron Porosity
GR.GAPI                       : Gamma Ray
~Parameter Information Block
~A  Depth       DCAL        RHOB        RHOC        DPOR        NPOR         GR     
# ...
  1906.6000      8.0899      2.5511     -0.0071      5.9951     26.5146    151.7518
  1906.7000      8.0899      2.5685      0.0681      4.9365     26.4928    160.2419
  1906.8000      8.0930      2.5883      0.0749      3.7385     26.5215    166.5402
  1906.9000      8.0930      2.5963      0.0991      3.2541     26.9025    168.7046
  1907.0000      8.0937      2.5899      0.1228      3.6434     27.1868    165.9117
  1907.1000      8.0937      2.5692      0.0765      4.8996     27.1106    161.0244
  1907.2000      8.0937      2.5447      0.0665      6.3818     26.9203    157.0616
  1907.3000      8.0923      2.5307      0.0678      7.2312     26.6699    154.9024
  1907.4000      8.0923      2.5298      0.0918      7.2861     26.4040    153.7081
  1907.5000      8.0913      2.5365      0.0685      6.8774     26.2809    153.2666
  1907.6000      8.0913      2.5444      0.0522      6.3975     26.0871    155.7595
  1907.7000      8.0913      2.5505      0.0258      6.0294     25.4381    162.8722
  1907.8000      8.0927      2.5627      0.0404      5.2920     24.5962    169.2315
  1907.9000      8.0927      2.5853      0.0626      3.9192     24.1236    168.2431
  1908.0000      8.0949      2.6085      0.0634      2.5137     24.0264    163.3859
  1908.1000      8.0949      2.6228      0.0749      1.6492     24.3377    160.0058
  1908.2000      8.0949      2.6294      0.0679      1.2459     24.9327    157.5265
  1908.3000      8.0954      2.6315      0.0690      1.1229     25.2119    154.4467
  1908.4000      8.0954      2.6242      0.0467      1.5662     25.0319    149.0789
  1908.5000      8.0952      2.6104      0.0357      2.4010     24.7481    141.0491
  1908.6000      8.0952      2.5987      0.0549      3.1097     24.6068    134.0710
  1908.7000      8.0952      2.5851      0.0218      3.9342     24.5747    130.2402
  1908.8000      8.0954      2.5681     -0.0067      4.9634     24.9411    129.6071
  1908.9000      8.0954      2.5480      0.0236      6.1839     25.9276    132.0013
  1909.0000      8.0945      2.5184      0.0101      7.9762     27.0458    135.7835
  1909.1000      8.0945      2.4901     -0.0440      9.6922     27.6222    141.5615
  1909.2000      8.0945      2.4763     -0.0047     10.5297     27.4087    150.4297
  1909.3000      8.0933      2.4695     -0.0046     10.9410     26.9485    157.6462
  1909.4000      8.0933      2.4747     -0.0415     10.6227     26.9106    161.0777
  1909.5000      8.0942      2.5005      0.0311      9.0614     27.3430    165.0919
  1909.6000      8.0942      2.5272      0.0392      7.4441     27.7598    168.9918
  1909.7000      8.0942      2.5375      0.0694      6.8176     27.7781    169.9872
  1909.8000      8.0958      2.5298      0.0765      7.2820     27.6243    169.5486
  1909.9000      8.0958      2.5113      0.0290      8.4066     27.5842    167.3284
  1910.0000      8.0962      2.4996      0.0672      9.1149     27.5723    165.0142
  1910.1000      8.0962      2.5047      0.0710      8.8055     27.5571    167.9840
  1910.2000      8.0962      2.5151      0.1044      8.1772     27.5161    175.2477
  1910.3000      8.0950      2.5195      0.0906      7.9097     27.3697    178.8795
  1910.4000      8.0950      2.5259      0.0507      7.5213     27.3982    174.6712
  1910.5000      8.0932      2.5345      0.0877      6.9982     27.6927    169.4992
  1910.6000      8.0932      2.5266      0.0376      7.4787     27.8378    168.8345
  1910.7000      8.0932      2.5016     -0.0203      8.9953     27.6590    171.1577
  1910.8000      8.0933      2.4809     -0.0020     10.2515     27.4884    174.9853
  1910.9000      8.0933      2.4775      0.0009     10.4539     27.5385    177.0322
  1911.0000      8.0952      2.4897      0.0573      9.7147     27.7409    176.3973
  1911.1000      8.0952      2.5106      0.0455      8.4479     27.8898    173.4687
  1911.2000      8.0952      2.5294      0.0941      7.3121     27.8055    165.5578
  1911.3000      8.0979      2.5332      0.0545      7.0772     27.5657    156.9409
  1911.4000      8.0979      2.5226      0.0463      7.7213     27.1897    154.1632
  1911.5000      8.1007      2.5039      0.0306      8.8520     26.8270    156.3864
  1911.6000      8.1007      2.4856      0.0054      9.9656     27.0631    158.5137
  1911.7000      8.1007      2.4780      0.0242     10.4254     27.9524    156.8813
  1911.8000      8.1024      2.4755      0.0160     10.5783     28.5689    154.9566
  1911.9000      8.1024      2.4617      0.0299     11.4117     28.4193    156.3226
  1912.0000      8.1042      2.4345     -0.0067     13.0584     28.0944    157.5204
  1912.1000      8.1042      2.4028     -0.0454     14.9834     28.2520    157.0091
  1912.2000      8.1042      2.3687     -0.0238     17.0480     28.9602    154.8598
  1912.3000      8.1072      2.3355     -0.0338     19.0586     29.9127    151.0005
  1912.4000      8.1072      2.3125     -0.0467     20.4517     30.4272    150.7046
  1912.5000      8.1123      2.2955     -0.0082     21.4864     29.9957    155.4646
  1912.6000      8.1123      2.2750     -0.0146     22.7265     29.3727    161.9059
  1912.7000      8.1123      2.2587     -0.0090     23.7175     29.5095    166.6190
  1912.8000      8.1167      2.2552     -0.0450     23.9293     30.2638    165.3790
  1912.9000      8.1167      2.2492      0.0418     24.2930     31.2382    158.7661
  1913.0000      8.1169      2.2140      0.0335     26.4267     32.3431    151.6168
  1913.1000      8.1169      2.1424      0.0673     30.7606     33.3188    143.2352
  1913.2000      8.1169      2.0415      0.0281     36.8815     33.9445    130.0527
  1913.3000      8.1166      1.9276     -0.0394     43.7811     34.1685    119.4825
  1913.4000      8.1166      1.8261     -0.1073     49.9317     34.0701    117.2881
  1913.5000      8.1185      1.7483     -0.0880     54.6483     34.0179    116.8287
  1913.6000      8.1185      1.6863     -0.1124     58.4088     34.3427    113.9563
  1913.7000      8.1185      1.6379     -0.0912     61.3393     34.8785    110.1197
  1913.8000      8.1191      1.6183     -0.1326     62.5300     35.0871    107.0986
  1913.9000      8.1191      1.6421     -0.0639     61.0843     34.6266    106.0034
  1914.0000      8.1184      1.7020      0.0223     57.4555     33.7269    104.9173
  1914.1000      8.1184      1.7780      0.0799     52.8500     33.1362    101.4239
  1914.2000      8.1184      1.8543      0.1698     48.2214     33.4290     96.2243
  1914.3000      8.1209      1.9215      0.1928     44.1530     33.9710     93.2577
  1914.4000      8.1209      1.9824      0.2006     40.4631     33.6791     95.4297
  1914.5000      8.1242      2.0445      0.2082     36.6963     32.6501    100.6994
  1914.6000      8.1242      2.1042      0.1975     33.0793     31.5199    103.1485
  1914.7000      8.1242      2.1492      0.1499     30.3507     30.3236     98.3500
  1914.8000      8.1175      2.1790      0.0650     28.5426     28.9894     89.0470
  1914.9000      8.1175      2.2123      0.0537     26.5256     27.7943     81.8183
  1915.0000      8.1020      2.2642      0.0823     23.3813     27.0376     82.2809
  1915.1000      8.1020      2.3313      0.1268     19.3137     26.5269     89.9557
  1915.2000      8.1020      2.4008      0.1656     15.1017     25.9753     99.2410
  1915.3000      8.0929      2.4670      0.1877     11.0935     25.4207    107.9750
  1915.4000      8.0929      2.5226      0.2052      7.7208     24.8936    114.8740
  1915.5000      8.0906      2.5440      0.1819      6.4243     24.2391    116.0076
  1915.6000      8.0906      2.5244      0.0588      7.6141     23.4896    110.9671
  1915.7000      8.0906      2.4966      0.0020      9.2969     23.0129    104.3917
  1915.8000      8.0897      2.4894      0.0203      9.7327     22.7660    101.5260
  1915.9000      8.0897      2.5038      0.0089      8.8597     22.4119    101.7590
  1916.0000      8.0910      2.5285      0.0656      7.3626     22.0093    102.7308
  1916.1000      8.0910      2.5452      0.0797      6.3544     21.7451    105.0821
