~Version Information
VERS.                      2.0: CWLS Log ASCII Standard - VERSION 2.0
WRAP.                       NO: One line per depth step
~Well Information Block
STRT.FT               423.0000: 
STOP.FT              2308.2500: 
STEP.FT                 0.2500: 
NULL.                -999.2500: 
COMP.          Pioneer Natural Resources: COMPANY
WELL.             Culver 14-12: WELL
FLD.           Purgatoire River: FIELD
LOC.           913' FSL & 1140' FWL: LOCATION
PROV.                 Colorado: PROVINCE
CNTY.               Las Animas: COUNTRY
SRVC.                Patterson: SERVICE COMPANY
DATE.          Tue Jun 07 00:21:41 2005: LOG DATE
UWI.           05 071 08386 00: UNIQUE WELL ID
~Curve Information Block
DEPT.FT            0 000 00 00: Depth
SN.Ohm-m                      : IEL Short Normal
SP.mV                         : IEL Spontaneous Potential
DIR.Ohm-m                     : IEL Induction Resistivity
GR.GAPI                       : Gamma Ray
~Parameter Information Block
~A  Depth        SN          SP         DIR          GR     
# ...
   925.5000   2000.0000   2000.0000     22.4353    142.0388
   925.7500   2000.0000   2000.0000     23.0563    138.3635
   926.0000   2000.0000   2000.0000     23.7065    131.1510
   926.2500   2000.0000   2000.0000     24.3866    126.1730
   926.5000   2000.0000   2000.0000     25.0832    119.3833
   926.7500   2000.0000   2000.0000     25.7697    115.5030
   927.0000   2000.0000   2000.0000     26.4179    110.9241
   927.2500   2000.0000   2000.0000     27.0118    108.9753
   927.5000   2000.0000   2000.0000     27.5507    108.1973
   927.7500   2000.0000   2000.0000     28.0408    109.1532
   928.0000   2000.0000   2000.0000     28.4851    112.2507
   928.2500   2000.0000   2000.0000     28.8848    114.9091
   928.5000   2000.0000   2000.0000     29.2515    118.9495
   928.7500   2000.0000   2000.0000     29.6182    121.2465
   929.0000   2000.0000   2000.0000     30.0315    123.5463
   929.2500   2000.0000   2000.0000     30.5241    124.1882
   929.5000   2000.0000   2000.0000     31.0892    123.6581
   929.7500   2000.0000   2000.0000     31.6783    122.0976
   930.0000   2000.0000   2000.0000     32.2186    117.9751
   930.2500   2000.0000   2000.0000     32.6385    114.7637
   930.5000   2000.0000   2000.0000     32.8941    111.2863
   930.7500   2000.0000   2000.0000     32.9878    110.5930
   931.0000   2000.0000   2000.0000     32.9680    111.3707
   931.2500   2000.0000   2000.0000     32.9072    111.9966
   931.5000   2000.0000   2000.0000     32.8767    111.4875
   931.7500   2000.0000   2000.0000     32.9287    109.9363
   932.0000   2000.0000   2000.0000     33.0785    106.4368
   932.2500   2000.0000   2000.0000     33.2803    103.9978
   932.5000   2000.0000   2000.0000     33.4179    101.4140
   932.7500   2000.0000   2000.0000     33.3492    100.9469
   933.0000   2000.0000   2000.0000     32.9964    102.2030
   933.2500   2000.0000   2000.0000     32.4056    103.8124
   933.5000   2000.0000   2000.0000     31.7040    106.1238
   933.7500   2000.0000   2000.0000     30.9969    107.1535
   934.0000   2000.0000   2000.0000     30.3025    108.1543
   934.2500   2000.0000   2000.0000     29.5749    109.1070
   934.5000   2000.0000   2000.0000     28.7790    112.3655
   934.7500   2000.0000   2000.0000     27.9432    116.2463
   935.0000   2000.0000   2000.0000     27.1434    124.2330
   935.2500   2000.0000   2000.0000     26.4442    130.0938
   935.5000   2000.0000   2000.0000     25.8539    137.6264
   935.7500   2000.0000   2000.0000     25.3205    140.6848
   936.0000   2000.0000   2000.0000     24.7667    141.1224
   936.2500   2000.0000   2000.0000     24.1425    138.6455
   936.5000   2000.0000   2000.0000     23.4624    131.9747
   936.7500   2000.0000   2000.0000     22.7954    126.5809
   937.0000   2000.0000   2000.0000     22.2129    118.7163
   937.2500   2000.0000   2000.0000     21.7353    114.4296
   937.5000   2000.0000   2000.0000     21.3166    110.3165
   937.7500   2000.0000   2000.0000     20.8725    109.0290
   938.0000   2000.0000   2000.0000     20.3248    108.0638
   938.2500   2000.0000   2000.0000     19.6337    107.2907
   938.5000   2000.0000   2000.0000     18.8079    105.7021
   938.7500   2000.0000   2000.0000     17.8962    104.9903
   939.0000   2000.0000   2000.0000     16.9676    105.9487
   939.2500   2000.0000   2000.0000     16.0827    108.3922
   939.5000   2000.0000   2000.0000     15.2715    114.2803
   939.7500   2000.0000   2000.0000     14.5327    118.9567
   940.0000   2000.0000   2000.0000     13.8486    126.0259
   940.2500   2000.0000   2000.0000     13.2030    130.4467
   940.5000   2000.0000   2000.0000     12.5887    136.1694
   940.7500   2000.0000   2000.0000     12.0071    138.9166
   941.0000   2000.0000   2000.0000     11.4636    140.5477
   941.2500   2000.0000   2000.0000     10.9644    139.7781
   941.5000   2000.0000   2000.0000     10.5135    136.6130
   941.7500   2000.0000   2000.0000     10.1109    134.2327
   942.0000   2000.0000   2000.0000      9.7528    132.2445
   942.2500   2000.0000   2000.0000      9.4325    132.5368
   942.5000   2000.0000   2000.0000      9.1443    134.7649
   942.7500   2000.0000   2000.0000      8.8850    136.5226
   943.0000   2000.0000   2000.0000      8.6539    138.2957
   943.2500   2000.0000   2000.0000      8.4514    138.7701
   943.5000   2000.0000   2000.0000      8.2768    139.2458
   943.7500   2000.0000   2000.0000      8.1264    140.1698
   944.0000   2000.0000   2000.0000      7.9946    143.1655
   944.2500   2000.0000   2000.0000      7.8764    145.7765
   944.5000   2000.0000   2000.0000      7.7725    148.6998
   944.7500   2000.0000   2000.0000      7.6895    149.1601
   945.0000   2000.0000   2000.0000      7.6364    147.9616
   945.2500   2000.0000   2000.0000      7.6186    146.7432
   945.5000   2000.0000   2000.0000      7.6333    145.2230
   945.7500   2000.0000   2000.0000      7.6713    144.3945
   946.0000   2000.0000   2000.0000      7.7228    143.0101
   946.2500   2000.0000   2000.0000      7.7842    141.7535
   946.5000   2000.0000   2000.0000      7.8595    138.9923
   946.7500   2000.0000   2000.0000      7.9567    136.5020
   947.0000   2000.0000   2000.0000      8.0811    132.2392
   947.2500   2000.0000   2000.0000      8.2328    129.5167
   947.5000   2000.0000   2000.0000      8.4097    126.3448
   947.7500   2000.0000   2000.0000      8.6130    125.0869
   948.0000   2000.0000   2000.0000      8.8499    124.4257
   948.2500   2000.0000   2000.0000      9.1305    124.4011
   948.5000   2000.0000   2000.0000      9.4638    124.0099
   948.7500   2000.0000   2000.0000      9.8549    123.1650
   949.0000   2000.0000   2000.0000     10.3065    121.1961
   949.2500   2000.0000   2000.0000     10.8216    119.8117
   949.5000   2000.0000   2000.0000     11.4044    118.3196
   949.7500   2000.0000   2000.0000     12.0566    117.9396
   950.0000   2000.0000   2000.0000     12.7703    118.1307
   950.2500   2000.0000   2000.0000     13.5194    118.3301
   950.5000   2000.0000   2000.0000     14.2595    117.8677
   950.7500   2000.0000   2000.0000     14.9386    116.8165
   951.0000   2000.0000   2000.0000     15.5116    114.2148
   951.2500   2000.0000   2000.0000     15.9468    111.8621
   951.5000   2000.0000   2000.0000     16.2215    107.5667
   951.7500   2000.0000   2000.0000     16.3186    104.6538
   952.0000   2000.0000   2000.0000     16.2344    101.5745
   952.2500   2000.0000   2000.0000     15.9919    100.9597
   952.5000   2000.0000   2000.0000     15.6441    102.1631
   952.7500   2000.0000   2000.0000     15.2575    104.1312
   953.0000   2000.0000   2000.0000     14.8871    108.8870
   953.2500   2000.0000   2000.0000     14.5605    113.3946
   953.5000   2000.0000   2000.0000     14.2774    121.3489
   953.7500   2000.0000   2000.0000     14.0200    126.1772
   954.0000   2000.0000   2000.0000     13.7641    130.6412
   954.2500   2000.0000   2000.0000     13.4852    131.5174
   954.5000   2000.0000   2000.0000     13.1643    130.6900
   954.7500   2000.0000   2000.0000     12.7938    129.2924
   955.0000   2000.0000   2000.0000     12.3806    126.2287
   955.2500   2000.0000   2000.0000     11.9428    123.7106
   955.5000   2000.0000   2000.0000     11.5028    120.2989
   955.7500   2000.0000   2000.0000     11.0814    119.2473
   956.0000   2000.0000   2000.0000     10.6958    120.7898
   956.2500   2000.0000   2000.0000     10.3598    123.8682
   956.5000   2000.0000   2000.0000     10.0837    129.9855
   956.7500   2000.0000   2000.0000      9.8751    133.8073
   957.0000   2000.0000   2000.0000      9.7398    137.9139
   957.2500   2000.0000   2000.0000      9.6831    139.6376
   957.5000   2000.0000   2000.0000      9.7095    141.2175
   957.7500   2000.0000   2000.0000      9.8199    141.5603
   958.0000   2000.0000   2000.0000     10.0081    140.4374
   958.2500   2000.0000   2000.0000     10.2582    138.3512
   958.5000   2000.0000   2000.0000     10.5475    133.1769
   958.7500   2000.0000   2000.0000     10.8547    128.5027
