~Version Information
VERS.                      2.0: CWLS Log ASCII Standard - VERSION 2.0
WRAP.                       NO: One line per depth step
~Well Information Block
STRT.FT                -7.0000: 
STOP.FT              1863.5000: 
STEP.FT                 0.2500: 
NULL.                -999.2500: 
COMP.          Pioneer Natural Resources: COMPANY
WELL.            Formula 23-11: WELL
FLD.           Purgatorie River: FIELD
LOC.           1976' FSL & 1935' FWL--: LOCATION
PROV.                       CO: PROVINCE
CNTY.               Las Animas: COUNTRY
SRVC.          Patterson Wireline: SERVICE COMPANY
DATE.          Wed Jun 15 14:44:40 2005: LOG DATE
UWI.           05 071 08399 00: UNIQUE WELL ID
~Curve Information Block
DEPT.FT            0 000 00 00: Depth
CCL.                          : Casing Collar Locator
TT3.usec                      : CBL 3' Travel Time
AMP3.mV                       : CBL 3' Amplitude
GR.GAPI                       : Gamma Ray
~Parameter Information Block
~A  Depth       CCL         TT3         AMP3         GR     
# ...
   964.5000      0.0000    786.3868      4.5942     83.2269
   964.7500      0.0000    795.8242      4.6687     89.7446
   965.0000      0.0000    806.0753      4.8511     95.9441
   965.2500      0.0000    814.7182      5.0683    100.5429
   965.5000      0.0000    819.4247      5.2561    103.0623
   965.7500      0.0000    819.6524      5.3993    103.7684
   966.0000      0.0000    816.9207      5.5232    103.2558
   966.2500      0.0000    813.3717      5.6387    101.9999
   966.5000      0.0000    810.1542      5.7070    100.4003
   966.7500      0.0000    807.1607      5.6682     98.8666
   967.0000      0.0000    803.9996      5.4970     97.3670
   967.2500      0.0000    800.9489      5.2315     95.2742
   967.5000      0.0000    798.8467      4.9593     92.1159
   967.7500      0.0000    798.1700      4.7745     88.2241
   968.0000      0.0000    798.7233      4.7229     84.5062
   968.2500      0.0000    800.3398      4.7778     81.8452
   968.5000      0.0000    803.0706      4.8816     80.5852
   968.7500      0.0000    806.0769      5.0118     80.2019
   969.0000      0.0000    807.1629      5.1892     79.4896
   969.2500      0.0000    804.5820      5.4255     77.2446
   969.5000      0.0000    799.2720      5.6873     72.9344
   969.7500      0.0000    794.5244      5.9096     66.9888
   970.0000      0.0000    793.0944      6.0234     60.6292
   970.2500      0.0000    794.7199      5.9711     55.2974
   970.5000      0.0000    796.4559      5.7298     52.0886
   970.7500      0.0000    795.2626      5.3474     51.5643
   971.0000      0.0000    790.3157      4.9495     53.8181
   971.2500      0.0000    783.2739      4.6867     58.5977
   971.5000      0.0000    776.7491      4.6527     65.3598
   971.7500      0.0000    772.5590      4.8384     73.1663
   972.0000      0.0000    771.1476      5.1526     80.6636
   972.2500      0.0000    772.0746      5.4789     86.3856
   972.5000      0.0000    774.4525      5.7246     89.0593
   972.7500      0.0000    776.9172      5.8405     87.7786
   973.0000      0.0000    777.9368      5.8204     82.5343
   973.2500      0.0000    776.8198      5.6887     74.8328
   973.5000      0.0000    774.3279      5.4821     67.3056
   973.7500      0.0000    771.9974      5.2425     62.2838
   974.0000      0.0000    771.0100      5.0267     60.6322
   974.2500      0.0000    771.7321      4.9120     61.6583
   974.5000      0.0000    773.7673      4.9686     63.9232
   974.7500      0.0000    776.0294      5.2132     66.2942
   975.0000      0.0000    777.2090      5.5798     68.4087
   975.2500      0.0000    776.8110      5.9361     70.2847
   975.5000      0.0000    775.7838      6.1344     71.7796
   975.7500      0.0000    775.8958      6.0691     72.6575
   976.0000      0.0000    778.5818      5.7209     73.0603
   976.2500      0.0000    784.5037      5.1844     73.7538
   976.5000      0.0000    793.9293      4.6496     75.7300
   976.7500      0.0000    806.8714      4.3185     79.3414
   977.0000      0.0000    822.2985      4.2957     83.8906
   977.2500      0.0000    837.4370      4.5372     88.3375
   977.5000      0.0000    848.6124      4.8920     92.3315
   977.7500      0.0000    853.1183      5.1914     96.3452
   978.0000      0.0000    850.4156      5.3279    100.8991
   978.2500      0.0000    842.3308      5.2918    105.7709
   978.5000      0.0000    832.7704      5.1608    109.9643
   978.7500      0.0000    826.8659      5.0465    112.4529
   979.0000      0.0000    829.1134      5.0274    112.7639
   979.2500      0.0000    840.6177      5.1053    110.5758
   979.5000      0.0000    856.8842      5.2068    105.2612
   979.7500      0.0000    868.9692      5.2210     96.7649
   980.0000      0.0000    868.9144      5.0567     86.7809
   980.2500      0.0000    855.2587      4.6906     78.1120
   980.5000      0.0000    833.8907      4.1753     72.4969
   980.7500      0.0000    814.5415      3.6047     69.4002
   981.0000      0.0000    805.7596      3.0741     67.0388
   981.2500      0.0000    810.4764      2.6711     64.3559
   981.5000      0.0000    824.6855      2.4764     62.0518
   981.7500      0.0000    840.8184      2.5412     62.1755
   982.0000      0.0000    853.0393      2.8483     66.8093
   982.2500      0.0000    859.7942      3.3030     76.5477
   982.5000      0.0000    862.4792      3.7757     89.7530
   982.7500      0.0000    862.8741      4.1690    103.4384
   983.0000      0.0000    861.5355      4.4621    115.0394
   983.2500      0.0000    857.4716      4.7078    123.3918
   983.5000      0.0000    848.9064      4.9865    128.5396
   983.7500      0.0000    834.9758      5.3388    131.2923
   984.0000      0.0000    817.3222      5.7200    132.9048
   984.2500      0.0000    799.8851      6.0145    134.3795
   984.5000      0.0000    786.7867      6.1141    135.6416
   984.7500      0.0000    780.2877      6.0023    135.7766
   985.0000      0.0000    780.3276      5.7644    134.1868
   985.2500      0.0000    785.1188      5.5158    130.8837
   985.5000      0.0000    791.9139      5.3264    125.5830
   985.7500      0.0000    797.9671      5.2111    117.5679
   986.0000      0.0000    801.5505      5.1655    107.1942
   986.2500      0.0000    802.2276      5.1834     96.9935
   986.5000      0.0000    800.2548      5.2348     90.4340
   986.7500      0.0000    796.0944      5.2509     89.5349
   987.0000      0.0000    790.7484      5.1687     93.7469
   987.2500      0.0000    786.2153      5.0046    100.5362
   987.5000      0.0000    784.8253      4.8586    106.5865
   987.7500      0.0000    787.5677      4.8254    109.3378
   988.0000      0.0000    793.1687      4.9108    108.6845
   988.2500      0.0000    799.0511      5.0425    107.2958
   988.5000      0.0000    803.1419      5.1345    108.5591
   988.7500      0.0000    804.7311      5.1274    113.8747
   989.0000      0.0000    804.1355      5.0066    121.7661
   989.2500      0.0000    802.2360      4.8233    129.2486
   989.5000      0.0000    800.3475      4.6825    134.0811
   989.7500      0.0000    799.8012      4.6748    136.0560
   990.0000      0.0000    801.0447      4.8143    136.2933
   990.2500      0.0000    803.2724      5.0406    135.5689
   990.5000      0.0000    805.2471      5.2675    133.7295
   990.7500      0.0000    806.3591      5.4306    130.4763
   991.0000      0.0000    806.7788      5.5057    125.8841
   991.2500      0.0000    806.8954      5.5026    119.9486
   991.5000      0.0000    806.8987      5.4582    112.2433
   991.7500      0.0000    806.7867      5.4336    102.4958
   992.0000      0.0000    806.5492      5.4864     91.3950
   992.2500      0.0000    806.2777      5.6227     80.6422
   992.5000      0.0000    806.1368      5.7776     72.2315
   992.7500      0.0000    806.2737      5.8560     67.5925
   993.0000      0.0000    806.7723      5.7957     66.8928
   993.2500      0.0000    807.6254      5.6044     68.7448
   993.5000      0.0000    808.4778      5.3439     70.8006
   993.7500      0.0000    808.1065      5.0803     71.1441
   994.0000      0.0000    804.4360      4.8485     69.3576
   994.2500      0.0000    796.2258      4.6669     66.4384
   994.5000      0.0000    785.4939      4.5601     63.9899
   994.7500      0.0000    777.4753      4.5359     63.2858
   995.0000      0.0000    776.9659      4.5504     64.3559
   995.2500      0.0000    784.5939      4.5294     65.6943
   995.5000      0.0000    796.8189      4.4367     65.3522
   995.7500      0.0000    808.9597      4.3122     62.7018
   996.0000      0.0000    817.9814      4.2463     59.0210
   996.2500     -2.0000    823.2797      4.3116     56.3860
   996.5000      0.0000    826.0007      4.5073     56.1914
   996.7500      0.0000    827.9850      4.7673     58.4683
   997.0000      0.0000    830.6258      5.0211     61.9454
   997.2500      0.0000    833.9653      5.2375     64.6421
   997.5000      0.0000    836.8702      5.4160     65.0704
   997.7500      0.0000    838.2542      5.5637     63.3786
