~Version Information
VERS.                      2.0: CWLS Log ASCII Standard - VERSION 2.0
WRAP.                       NO: One line per depth step
~Well Information Block
STRT.FT               819.0000: 
STOP.FT              2499.5000: 
STEP.FT                 0.2500: 
NULL.                -999.2500: 
COMP.          Petrogulf Corporation: COMPANY
WELL.             State 16-21V: WELL
FLD.           Purgatorie River: FIELD
LOC.           1738' FWL & 332' FWL: LOCATION
PROV.                 Colorado: PROVINCE
CNTY.               Las Animas: COUNTRY
SRVC.          Patterson Wireline: SERVICE COMPANY
DATE.          Sun Jul 13 13:34:36 2003: LOG DATE
UWI.           05 071 08829 00: UNIQUE WELL ID
~Curve Information Block
DEPT.FT            0 000 00 00: Depth
SP.mV                         : DIL Spontaneous Potential
RILD.Ohm-m                    : DIL Deep Resistivity
RILM.Ohm-m                    : DIL Medium Resistivity
RLL3.Ohm-m                    : DIL Shallow Resistivity
GR.GAPI                       : Gamma Ray
~Parameter Information Block
~A  Depth        SP         RILD        RILM        RLL3         GR     
# ...
  1715.0000    -75.3304     23.7560     28.1807     33.5911     44.1780
  1715.2500    -75.4617     23.7823     28.2543     34.0288     43.7672
  1715.5000    -75.6795     23.8236     28.3411     34.1297     43.9322
  1715.7500    -75.9788     23.8665     28.4441     34.0286     44.8467
  1716.0000    -76.3309     23.9031     28.5672     33.9189     47.1014
  1716.2500    -76.6895     23.9358     28.7151     33.8931     48.5665
  1716.5000    -77.0050     23.9762     28.8924     33.9076     49.5761
  1716.7500    -77.2429     24.0401     29.1040     33.9097     49.1640
  1717.0000    -77.3955     24.1436     29.3536     33.9794     47.3145
  1717.2500    -77.4817     24.3014     29.6448     34.3226     45.8291
  1717.5000    -77.5342     24.5251     29.9799     35.1248     44.0625
  1717.7500    -77.5840     24.8204     30.3604     36.4097     43.3212
  1718.0000    -77.6485     25.1840     30.7875     38.0022     42.4829
  1718.2500    -77.7259     25.6041     31.2617     39.5802     41.8028
  1718.5000    -77.7935     26.0645     31.7831     40.7763     40.5317
  1718.7500    -77.8165     26.5491     32.3514     41.3253     39.8441
  1719.0000    -77.7653     27.0433     32.9651     41.2272     39.7850
  1719.2500    -77.6317     27.5341     33.6216     40.8121     40.5400
  1719.5000    -77.4323     28.0115     34.3155     40.6103     42.3825
  1719.7500    -77.1989     28.4709     35.0386     41.0773     43.5953
  1720.0000    -76.9662     28.9130     35.7787     42.3601     44.7991
  1720.2500    -76.7618     29.3361     36.5196     44.2766     45.1457
  1720.5000    -76.5994     29.7260     37.2413     46.5120     45.2399
  1720.7500    -76.4734     30.0544     37.9210     48.8350     45.1388
  1721.0000    -76.3578     30.2968     38.5334     51.1106     44.7131
  1721.2500    -76.2163     30.4570     39.0526     53.1131     44.2427
  1721.5000    -76.0225     30.5719     39.4518     54.3928     43.5872
  1721.7500    -75.7762     30.6807     39.7032     54.4254     43.4660
  1722.0000    -75.5048     30.7807     39.7764     52.9757     43.8684
  1722.2500    -75.2507     30.8103     39.6368     50.3482     44.2592
  1722.5000    -75.0540     30.6756     39.2453     47.2618     44.3976
  1722.7500    -74.9359     30.2980     38.5610     44.4588     44.0150
  1723.0000    -74.8903     29.6410     37.5481     42.4265     42.8437
  1723.2500    -74.8876     28.6969     36.1868     41.4331     41.8039
  1723.5000    -74.8919     27.4631     34.4854     41.6875     40.0881
  1723.7500    -74.8813     25.9506     32.4884     43.3354     39.0785
  1724.0000    -74.8558     24.2194     30.2756     46.2476     38.2957
  1724.2500    -74.8285     22.3912     27.9504     49.7964     38.4227
  1724.5000    -74.8041     20.6118     25.6219     52.8108     39.5808
  1724.7500    -74.7635     18.9962     23.3866     53.8006     41.1962
  1725.0000    -74.6704     17.6008     21.3168     51.4851     46.0400
  1725.2500    -74.4937     16.4316     19.4565     45.5363     51.7716
  1725.5000    -74.2290     15.4645     17.8248     37.0640     64.8387
  1725.7500    -73.9030     14.6618     16.4211     28.2270     76.0013
  1726.0000    -73.5612     13.9819     15.2325     21.0508     94.1012
  1726.2500    -73.2477     13.3853     14.2392     16.4155    105.5604
  1726.5000    -72.9898     12.8429     13.4191     14.0115    120.0142
  1726.7500    -72.7928     12.3403     12.7500     13.0305    127.1790
  1727.0000    -72.6423     11.8787     12.2118     12.8142    133.2522
  1727.2500    -72.5113     11.4694     11.7869     13.0430    133.7281
  1727.5000    -72.3705     11.1277     11.4611     13.5832    129.3068
  1727.7500    -72.1988     10.8679     11.2233     14.2856    124.0031
  1728.0000    -71.9898     10.6998     11.0656     14.9178    115.4984
  1728.2500    -71.7542     10.6272     10.9828     15.2434    111.1607
  1728.5000    -71.5145     10.6488     10.9719     15.1459    108.2447
  1728.7500    -71.2970     10.7606     11.0315     14.6944    108.5114
  1729.0000    -71.1249     10.9564     11.1613     14.1196    110.2911
  1729.2500    -71.0159     11.2256     11.3607     13.7468    111.0297
  1729.5000    -70.9790     11.5495     11.6283     13.9451    110.1693
  1729.7500    -71.0073     11.8989     11.9608     15.0999    108.2954
  1730.0000    -71.0725     12.2401     12.3522     17.5455    104.0779
  1730.2500    -71.1326     12.5472     12.7931     21.3821    100.6166
  1730.5000    -71.1487     12.8129     13.2702     26.2125     94.9518
  1730.7500    -71.1012     13.0488     13.7674     31.0208     91.2934
  1731.0000    -70.9935     13.2768     14.2664     34.4454     86.9327
  1731.2500    -70.8444     13.5176     14.7487     35.4280     85.3403
  1731.5000    -70.6778     13.7844     15.1974     33.8279     85.6989
  1731.7500    -70.5155     14.0809     15.5989     30.4875     87.9451
  1732.0000    -70.3731     14.3990     15.9430     26.6570     93.7128
  1732.2500    -70.2586     14.7162     16.2230     23.2873     98.2174
  1732.5000    -70.1777     14.9948     16.4336     20.7903    104.0774
  1732.7500    -70.1399     15.1893     16.5699     19.3030    106.7549
  1733.0000    -70.1616     15.2588     16.6265     18.9961    109.0383
  1733.2500    -70.2566     15.1808     16.5974     20.0607    109.7309
  1733.5000    -70.4235     14.9588     16.4779     22.4013    109.5509
  1733.7500    -70.6380     14.6210     16.2660     25.3481    108.4076
  1734.0000    -70.8594     14.2109     15.9650     27.7358    105.3695
  1734.2500    -71.0487     13.7730     15.5839     28.4498    103.1189
  1734.5000    -71.1854     13.3405     15.1378     27.0894    100.8248
  1734.7500    -71.2732     12.9308     14.6453     24.1808    100.5878
  1735.0000    -71.3321     12.5479     14.1265     20.7609    102.4625
  1735.2500    -71.3861     12.1884     13.6002     17.7391    105.0346
  1735.5000    -71.4548     11.8457     13.0819     15.5473    110.2945
  1735.7500    -71.5486     11.5130     12.5833     14.1918    114.3767
  1736.0000    -71.6641     11.1849     12.1121     13.4828    120.8211
  1736.2500    -71.7790     10.8584     11.6722     13.2064    124.9566
  1736.5000    -71.8522     10.5346     11.2652     13.1759    129.9435
  1736.7500    -71.8342     10.2182     10.8909     13.2275    131.8298
  1737.0000    -71.6887      9.9163     10.5482     13.2310    132.2544
  1737.2500    -71.4131      9.6363     10.2356     13.1138    131.6225
  1737.5000    -71.0443      9.3839      9.9517     12.8623    131.1489
  1737.7500    -70.6460      9.1613      9.6950     12.5021    131.7109
  1738.0000    -70.2853      8.9675      9.4640     12.0894    133.3534
  1738.2500    -70.0104      8.7988      9.2575     11.7049    134.3817
  1738.5000    -69.8367      8.6508      9.0740     11.4257    135.3542
  1738.7500    -69.7441      8.5192      8.9122     11.2887    135.7015
  1739.0000    -69.6904      8.4009      8.7711     11.2848    136.1667
  1739.2500    -69.6329      8.2946      8.6497     11.3805    136.6952
  1739.5000    -69.5490      8.2007      8.5477     11.5377    137.8390
  1739.7500    -69.4412      8.1225      8.4655     11.7207    138.3944
  1740.0000    -69.3298      8.0657      8.4041     11.8883    137.8918
  1740.2500    -69.2399      8.0378      8.3652     11.9735    136.5738
  1740.5000    -69.1911      8.0459      8.3507     11.8869    134.3458
  1740.7500    -69.1914      8.0941      8.3629     11.5731    133.6678
  1741.0000    -69.2362      8.1816      8.4035     11.0874    134.4349
  1741.2500    -69.3154      8.3018      8.4736     10.6168    135.5607
  1741.5000    -69.4246      8.4424      8.5728     10.4238    136.6674
  1741.7500    -69.5732      8.5868      8.6992     10.7476    136.5426
  1742.0000    -69.7811      8.7173      8.8492     11.6994    135.0479
  1742.2500    -70.0631      8.8205      9.0173     13.1833    133.1859
  1742.5000    -70.4097      8.8926      9.1964     14.8804    128.9195
  1742.7500    -70.7810      8.9416      9.3783     16.3327    125.3037
