~Version Information
VERS.                      2.0: CWLS Log ASCII Standard - VERSION 2.0
WRAP.                       NO: One line per depth step
~Well Information Block
STRT.FT               430.0000: 
STOP.FT              2417.0000: 
STEP.FT                 0.2500: 
NULL.                -999.2500: 
COMP.          Evergreen Operating Corporation: COMPANY
WELL.          McCullough 34-32: WELL
FLD.           Purgatorie River: FIELD
LOC.           261' FSL & 2098' FEL: LOCATION
PROV.                 Colorado: PROVINCE
CNTY.               Las Animas: COUNTRY
SRVC.                Patterson: SERVICE COMPANY
DATE.          Sun May 16 02:33:07 2004: LOG DATE
UWI.           05 071 07953 00: UNIQUE WELL ID
~Curve Information Block
DEPT.FT            0 000 00 00: Depth
SN.Ohm-m                      : IEL Short Normal
SP.mV                         : IEL Spontaneous Potential
DIR.Ohm-m                     : IEL Induction Resistivity
GR.GAPI                       : Gamma Ray
~Parameter Information Block
~A  Depth        SN          SP         DIR          GR     
# ...
  2239.0000     15.9431    138.0870     14.5137     98.6845
  2239.2500     16.2918    138.1499     14.9618     98.9612
  2239.5000     16.6271    138.2159     15.3744     98.2237
  2239.7500     17.0106    138.2425     15.7319     96.8948
  2240.0000     17.4848    138.1975     16.0244     93.7210
  2240.2500     18.0660    138.0721     16.2567     91.0292
  2240.5000     18.7407    137.8760     16.4512     86.5124
  2240.7500     19.4710    137.6258     16.6431     83.2456
  2241.0000     20.2223    137.3402     16.8707     78.0873
  2241.2500     20.9633    137.0417     17.1634     74.8478
  2241.5000     21.6412    136.7545     17.5325     71.3287
  2241.7500     22.1808    136.4998     17.9680     70.2929
  2242.0000     22.5248    136.2938     18.4408     70.5473
  2242.2500     22.6856    136.1486     18.9075     71.4458
  2242.5000     22.7413    136.0748     19.3161     73.1781
  2242.7500     22.7831    136.0828     19.6181     74.5321
  2243.0000     22.9007    136.1738     19.7844     77.1830
  2243.2500     23.1664    136.3187     19.8178     79.4622
  2243.5000     23.5780    136.4479     19.7551     83.2066
  2243.7500     24.0444    136.4741     19.6546     85.2354
  2244.0000     24.4331    136.3414     19.5762     86.0837
  2244.2500     24.6249    136.0552     19.5543     84.7109
  2244.5000     24.5725    135.6681     19.5820     80.6538
  2244.7500     24.3394    135.2443     19.6248     78.0332
  2245.0000     24.0587    134.8330     19.6627     76.5615
  2245.2500     23.8455    134.4610     19.7225     77.5383
  2245.5000     23.7649    134.1321     19.8651     80.1584
  2245.7500     23.8516    133.8335     20.1339     81.0122
  2246.0000     24.1067    133.5468     20.5143     79.3181
  2246.2500     24.5113    133.2533     20.9293     76.5966
  2246.5000     25.0860    132.9308     21.2752     72.1133
  2246.7500     25.8564    132.5538     21.4779     69.7364
  2247.0000     26.7221    132.1098     21.5386     67.1892
  2247.2500     27.4906    131.6138     21.5367     65.7113
  2247.5000     28.0717    131.1049     21.5878     63.2912
  2247.7500     28.5439    130.6268     21.7863     61.7479
  2248.0000     29.0512    130.2095     22.1660     60.4236
  2248.2500     29.6939    129.8589     22.6919     60.4637
  2248.5000     30.4931    129.5560     23.2825     61.2854
  2248.7500     31.4149    129.2650     23.8458     61.6298
  2249.0000     32.3815    128.9521     24.3096     61.0375
  2249.2500     33.2633    128.6026     24.6301     59.9419
  2249.5000     33.9461    128.2258     24.7903     57.8315
  2249.7500     34.4393    127.8446     24.7991     56.3949
  2250.0000     34.8662    127.4813     24.6924     54.2282
  2250.2500     35.3381    127.1469     24.5193     52.6851
  2250.5000     35.8918    126.8388     24.3150     50.3538
  2250.7500     36.5253    126.5436     24.0769     48.9899
  2251.0000     37.2178    126.2461     23.7600     47.3226
  2251.2500     37.9164    125.9340     23.2850     46.3339
  2251.5000     38.5460    125.5975     22.5509     45.0156
  2251.7500     39.0464    125.2251     21.4596     44.5462
  2252.0000     39.4065    124.8061     19.9747     45.0717
  2252.2500     39.6888    124.3359     18.1896     46.1842
  2252.5000     40.0268    123.8195     16.3205     47.9065
  2252.7500     40.5543    123.2665     14.6024     48.3196
  2253.0000     41.2570    122.6835     13.1838     47.4592
  2253.2500     41.8486    122.0674     12.0978     46.3617
  2253.5000     41.8736    121.4052     11.2974     44.9314
  2253.7500     41.0147    120.6865     10.7119     44.2844
  2254.0000     39.2681    119.9224     10.3011     43.5005
  2254.2500     36.8808    119.1526     10.1017     43.0986
  2254.5000     34.2598    118.4318     10.2701     43.1464
  2254.7500     31.7968    117.8034     11.1805     43.8438
  2255.0000     29.5861    117.2849     13.8470     45.9401
  2255.2500     27.4114    116.8695     22.6406     48.1194
  2255.5000     25.0813    116.5399    138.4330     53.1942
  2255.7500     22.6979    116.2844 100000.0000     58.2676
  2256.0000     20.5469    116.0994 100000.0000     68.6691
  2256.2500     18.8245    115.9744 100000.0000     76.9559
  2256.5000     17.5632    115.8703 100000.0000     89.5409
  2256.7500     16.7043    115.7201 100000.0000     96.8263
  2257.0000     16.1577    115.4562 100000.0000    104.7810
  2257.2500     15.8445    115.0396 100000.0000    107.9448
  2257.5000     15.7140    114.4671 100000.0000    110.0070
  2257.7500     15.7307    113.7594 100000.0000    110.1818
  2258.0000     15.8580    112.9428 100000.0000    109.6331
  2258.2500     16.0599    112.0311 100000.0000    108.8993
  2258.5000     16.3229    111.0165 100000.0000    106.7903
  2258.7500     16.6615    109.8710 100000.0000    104.6261
  2259.0000     17.0819    108.5553 100000.0000    101.4709
  2259.2500     17.5495    107.0268 100000.0000    100.5149
  2259.5000     18.0087    105.2362 100000.0000    101.2665
  2259.7500     18.3921    103.1108 100000.0000    102.3219
  2260.0000     18.5813    100.5303 100000.0000    102.8918
  2260.2500     18.4366     97.3054 100000.0000    102.3706
  2260.5000     17.9214     93.1767 100000.0000    101.2526
  2260.7500     17.1364     87.8577 100000.0000    100.9771
  2261.0000     16.2434     81.1215 100000.0000    101.8330
  2261.2500     15.4231     72.8769 100000.0000    103.2692
  2261.5000     14.8223     63.1536      5.3867    106.5059
  2261.7500     14.4196     51.9654      1.1048    109.1317
  2262.0000     13.9315     39.1130      0.4404    112.9991
  2262.2500     12.9251     24.0101      0.2010    115.0159
  2262.5000     11.1168      5.5887      0.1010    116.8391
  2262.7500      8.6193    -17.6231      0.0618    117.3937
  2263.0000      5.9254    -47.0530      0.0487    117.0390
  2263.2500      3.6471    -83.0744      0.0490    115.1801
  2263.5000      2.1723   -123.6810      0.0596    108.1931
  2263.7500      1.4607   -163.9256      0.0820    100.5438
  2264.0000      1.2130   -197.2963      0.1196     86.3734
  2264.2500      1.2176   -218.6640      0.1741     76.8682
  2264.5000      1.5506   -226.7156      0.2422     65.3029
  2264.7500      2.8645   -224.2203      0.3149     60.3858
  2265.0000      6.9785   -216.3443      0.3846     57.4512
  2265.2500     16.8770   -208.1620      0.4545     57.8802
  2265.5000     34.6784   -202.5681      0.5393     60.5368
  2265.7500     58.6968   -199.6999      0.6528     62.6912
  2266.0000     83.4606   -198.0771      0.7850     65.1248
  2266.2500    103.0579   -196.2668      0.8785     65.8502
  2266.5000    113.7175   -193.7074      0.8658     66.1520
  2266.7500    113.9132   -190.5079      0.7627     66.5655
  2267.0000    103.6901   -186.9542      0.6422     68.2718
  2267.2500     84.6024   -183.2547      0.5443     69.9287
  2267.5000     60.2489   -179.5044      0.4690     72.3181
  2267.7500     36.2338   -175.6154      0.4008     73.6723
  2268.0000     17.9849   -170.9955      0.3269     76.3310
  2268.2500      7.5393   -163.9509      0.2466     79.6275
  2268.5000      3.0836   -151.2296      0.1703     88.2056
  2268.7500      1.6068   -128.6848      0.1104     96.0685
  2269.0000      1.1802    -93.6629      0.0723    109.0561
  2269.2500      1.2418    -47.8405      0.0532    117.3893
  2269.5000      1.8838      2.2878      0.0488    128.5000
  2269.7500      3.2293     48.4699      0.0597    134.5514
  2270.0000      5.1913     84.9147      0.0988    140.3351
  2270.2500      7.4350    110.2155      0.2038    141.5341
  2270.5000      9.5067    126.2302      0.4653    140.0781
  2270.7500     11.0793    135.8654      1.2486    137.8722
  2271.0000     12.0545    141.6121      9.0661    133.9722
  2271.2500     12.4663    145.1462 100000.0000    131.4986
  2271.5000     12.3957    147.4629 100000.0000    129.1040
  2271.7500     11.9883    149.1087 100000.0000    129.1596
  2272.0000     11.4643    150.3650 100000.0000    132.4290
  2272.2500     11.0412    151.3730 100000.0000    136.3463
