~Version Information
VERS.                      2.0: CWLS Log ASCII Standard - VERSION 2.0
WRAP.                       NO: One line per depth step
~Well Information Block
STRT.FT               460.5000: 
STOP.FT              2197.0000: 
STEP.FT                 0.2500: 
NULL.                -999.2500: 
COMP.          Petrogulf Corporation: COMPANY
WELL.              Silva 1-43R: WELL
FLD.           Purgatorie River: FIELD
LOC.           1971' FSL & 526' FEL: LOCATION
CNTY.               Las Animas: COUNTY
SRVC.                Patterson: SERVICE COMPANY
DATE.          Sun Jun 18 03:37:26 2006: LOG DATE
UWI.           05 071 08372 00: UNIQUE WELL ID
STAT.                 Colorado: STATE
~Curve Information Block
DEPT.FT            0 000 00 00: Depth
SN.Ohm-m                      : IEL Short Normal
SP.mV                         : IEL Spontaneous Potential
DIR.Ohm-m                     : IEL Induction Resistivity
GR.GAPI                       : Gamma Ray
~Parameter Information Block
~A  Depth        SN          SP         DIR          GR     
# ...
  1499.0000     24.7580     30.4670     16.5526     94.8751
  1499.2500     21.3003     30.4204     16.0765    101.0508
  1499.5000     18.5618     30.4046     15.5926    108.1374
  1499.7500     16.5947     30.4224     15.1189    111.8610
  1500.0000     15.4283     30.4715     14.6758    116.2894
  1500.2500     14.9984     30.5449     14.2863    118.3678
  1500.5000     15.1312     30.6297     13.9723    120.1017
  1500.7500     15.6048     30.7076     13.7505    120.5343
  1501.0000     16.2056     30.7621     13.6313    120.5360
  1501.2500     16.7705     30.7882     13.6185    120.2111
  1501.5000     17.2271     30.7970     13.7085    119.1930
  1501.7500     17.5930     30.8107     13.8874    118.1431
  1502.0000     17.9176     30.8527     14.1274    116.1113
  1502.2500     18.2247     30.9378     14.3873    114.6342
  1502.5000     18.4933     31.0678     14.6212    112.8746
  1502.7500     18.6756     31.2309     14.7908    112.4480
  1503.0000     18.7307     31.4041     14.8772    113.1538
  1503.2500     18.6529     31.5593     14.8836    114.1564
  1503.5000     18.4854     31.6715     14.8296    115.4488
  1503.7500     18.3054     31.7284     14.7403    115.8396
  1504.0000     18.1753     31.7368     14.6350    116.1077
  1504.2500     18.1027     31.7196     14.5208    116.6059
  1504.5000     18.0456     31.7045     14.3939    118.1993
  1504.7500     17.9591     31.7103     14.2452    119.4594
  1505.0000     17.8102     31.7416     14.0666    120.7094
  1505.2500     17.5535     31.7932     13.8525    120.9369
  1505.5000     17.1684     31.8555     13.5994    120.8337
  1505.7500     16.7031     31.9161     13.3060    120.7637
  1506.0000     16.2031     31.9615     12.9760    120.4546
  1506.2500     15.6263     31.9842     12.6198    119.6266
  1506.5000     14.8696     31.9865     12.2551    116.7705
  1506.7500     13.8794     31.9745     11.9046    113.8732
  1507.0000     12.7514     31.9499     11.5917    109.0979
  1507.2500     11.7239     31.9106     11.3361    106.4947
  1507.5000     11.0599     31.8567     11.1504    104.6438
  1507.7500     10.8972     31.7939     11.0379    105.0222
  1508.0000     11.1757     31.7300     10.9922    107.4987
  1508.2500     11.6827     31.6718     10.9970    109.7235
  1508.5000     12.1799     31.6254     11.0270    112.7038
  1508.7500     12.5240     31.5954     11.0521    114.0510
  1509.0000     12.7031     31.5790     11.0453    114.8461
  1509.2500     12.7839     31.5630     10.9912    114.4245
  1509.5000     12.8318     31.5304     10.8896    112.2566
  1509.7500     12.8730     31.4734     10.7537    110.0841
  1510.0000     12.9159     31.4003     10.6044    106.9781
  1510.2500     12.9770     31.3333     10.4657    105.8190
  1510.5000     13.0601     31.2974     10.3612    106.0932
  1510.7500     13.1226     31.3074     10.3108    107.3551
  1511.0000     13.1037     31.3604     10.3280    109.6963
  1511.2500     12.9926     31.4381     10.4166    110.8661
  1511.5000     12.8324     31.5164     10.5705    111.4915
  1511.7500     12.6575     31.5729     10.7722    111.3399
  1512.0000     12.4666     31.5919     10.9924    111.1439
  1512.2500     12.2583     31.5677     11.1917    111.4792
  1512.5000     12.0697     31.5080     11.3296    112.5434
  1512.7500     11.9650     31.4305     11.3793    112.8311
  1513.0000     11.9940     31.3535     11.3390    110.4077
  1513.2500     12.1815     31.2887     11.2299    105.7673
  1513.5000     12.5399     31.2421     11.0825     94.1862
  1513.7500     13.0582     31.2156     10.9243     84.7630
  1514.0000     13.6824     31.2077     10.7744     72.1441
  1514.2500     14.3205     31.2121     10.6448     67.3430
  1514.5000     14.8540     31.2195     10.5421     68.8589
  1514.7500     15.1668     31.2198     10.4685     76.0433
  1515.0000     15.2089     31.2027     10.4213     93.1166
  1515.2500     14.9976     31.1587     10.3925    105.5277
  1515.5000     14.5392     31.0822     10.3695    120.7569
  1515.7500     13.8359     30.9757     10.3360    127.3999
  1516.0000     12.9743     30.8508     10.2742    132.8761
  1516.2500     12.1219     30.7257     10.1691    134.7717
  1516.5000     11.4336     30.6180     10.0143    136.7077
  1516.7500     10.9779     30.5415      9.8163    137.8614
  1517.0000     10.7308     30.5032      9.5939    139.6088
  1517.2500     10.6226     30.5030      9.3719    140.7041
  1517.5000     10.5860     30.5306      9.1731    141.6071
  1517.7500     10.5769     30.5670      9.0133    141.1166
  1518.0000     10.5780     30.5921      8.9005    137.8782
  1518.2500     10.5832     30.5947      8.8363    133.9094
  1518.5000     10.5778     30.5786      8.8175    125.8344
  1518.7500     10.5378     30.5613      8.8375    119.8440
  1519.0000     10.4350     30.5667      8.8871    111.5976
  1519.2500     10.2382     30.6136      8.9563    107.2771
  1519.5000      9.9367     30.7073      9.0368    103.0460
  1519.7500      9.5755     30.8378      9.1250    101.8739
  1520.0000      9.2495     30.9863      9.2238    102.7829
  1520.2500      9.0610     31.1292      9.3404    104.9666
  1520.5000      9.0724     31.2415      9.4809    109.4103
  1520.7500      9.2775     31.3023      9.6457    112.3139
  1521.0000      9.6003     31.3042      9.8279    116.0114
  1521.2500      9.9474     31.2585     10.0149    118.3568
  1521.5000     10.3041     31.1898     10.1916    122.2671
  1521.7500     10.7514     31.1252     10.3421    124.8031
  1522.0000     11.3660     31.0840     10.4522    126.9562
  1522.2500     12.1210     31.0735     10.5117    126.6438
  1522.5000     12.8767     31.0910     10.5165    124.0416
  1522.7500     13.4429     31.1277     10.4702    121.9154
  1523.0000     13.6795     31.1722     10.3817    119.8317
  1523.2500     13.5758     31.2131     10.2620    119.5885
  1523.5000     13.2357     31.2426     10.1227    120.6838
  1523.7500     12.7955     31.2578      9.9755    122.0220
  1524.0000     12.3526     31.2553      9.8337    124.3988
  1524.2500     11.9501     31.2288      9.7105    126.0043
  1524.5000     11.5995     31.1735      9.6161    128.3146
  1524.7500     11.3050     31.0944      9.5547    129.9318
  1525.0000     11.0640     31.0082      9.5249    132.7054
  1525.2500     10.8532     30.9351      9.5219    134.4476
  1525.5000     10.6400     30.8895      9.5412    135.2881
  1525.7500     10.4438     30.8747      9.5795    133.6315
  1526.0000     10.3640     30.8825      9.6360    127.2962
  1526.2500     10.4842     30.8977      9.7125    121.3754
  1526.5000     10.7870     30.9049      9.8144    113.1052
  1526.7500     11.2159     30.8970      9.9497    109.9782
  1527.0000     11.7288     30.8790     10.1267    110.6149
  1527.2500     12.2582     30.8675     10.3499    114.1592
  1527.5000     12.7072     30.8855     10.6159    121.6309
  1527.7500     13.0147     30.9533     10.9120    126.3633
  1528.0000     13.1884     31.0818     11.2193    131.0258
  1528.2500     13.2779     31.2640     11.5199    132.0216
  1528.5000     13.3491     31.4703     11.8028    130.8329
  1528.7500     13.4713     31.6558     12.0667    129.2024
  1529.0000     13.6970     31.7818     12.3189    127.3598
  1529.2500     14.0408     31.8358     12.5707    126.9090
  1529.5000     14.4746     31.8329     12.8343    126.0423
  1529.7500     14.9525     31.8009     13.1192    124.0044
  1530.0000     15.4452     31.7649     13.4313    117.6098
  1530.2500     15.9508     31.7387     13.7693    111.5293
  1530.5000     16.4750     31.7255     14.1209    101.1587
  1530.7500     17.0032     31.7223     14.4606     94.0627
  1531.0000     17.5008     31.7239     14.7566     83.9163
  1531.2500     17.9584     31.7228     14.9851     78.0788
  1531.5000     18.4227     31.7099     15.1426     72.0262
  1531.7500     18.9760     31.6761     15.2470     70.4072
  1532.0000     19.6767     31.6150     15.3287     71.8582
  1532.2500     20.4604     31.5219     15.4178     75.0606
