~Version Information
VERS.                      2.0: CWLS Log ASCII Standard - VERSION 2.0
WRAP.                       NO: One line per depth step
~Well Information Block
STRT.FT               750.3000: 
STOP.FT              1254.0000: 
STEP.FT                 0.1000: 
NULL.                -999.2500: 
COMP.          Petrogulf Corporation: COMPANY
WELL.           Montoya 13-41V: WELL
FLD.           Purgatorie River: FIELD
LOC.           449' FNL & 891' FEL: LOCATION
CNTY.               Las Animas: COUNTY
SRVC.                         : SERVICE COMPANY
DATE.          Tue Aug 17 15:47:43 2004: LOG DATE
UWI.           05 071 08021 00: UNIQUE WELL ID
STAT.                 Colorado: STATE
~Curve Information Block
DEPT.FT            0 000 00 00: Depth
DCAL.in                       : CDL Caliper
RHOB.g/cc                     : CDL Bulk Density
RHOC.g/cc                     : CDL Density Correction
DPOR.pu                       : CDL Density Porosity
GR.GAPI                       : Gamma Ray
NPOR.pu                       : Neutron Porosity
~Parameter Information Block
~A  Depth       DCAL        RHOB        RHOC        DPOR         GR         NPOR    
# ...
   836.7000      8.5682      1.3109      0.0290     81.1568     28.8295     14.3105
   836.8000      8.5766      1.2986      0.0204     81.9024     30.7168     14.9124
   836.9000      8.5766      1.3009      0.0059     81.7632     35.0636     15.8987
   837.0000      8.6171      1.3364      0.0304     79.6112     38.5095     17.5068
   837.1000      8.6171      1.4134      0.0724     74.9458     41.8432     19.1378
   837.2000      8.6171      1.5232      0.0648     68.2920     46.4983     20.2264
   837.3000      8.6231      1.6492      0.1525     60.6550     49.2913     20.8477
   837.4000      8.6231      1.7845      0.1562     52.4563     50.6664     21.1168
   837.5000      8.6105      1.9266      0.2294     43.8417     57.9524     21.1356
   837.6000      8.6105      2.0588      0.2660     35.8322     73.6563     20.9659
   837.7000      8.6105      2.1706      0.2814     29.0556     88.2090     20.6249
   837.8000      8.5920      2.2612      0.2857     23.5647     94.8399     20.2480
   837.9000      8.5920      2.3029      0.2310     21.0350     99.7157     19.8515
   838.0000      8.5131      2.2609      0.1249     23.5816    107.5804     19.2985
   838.1000      8.5131      2.1457     -0.0112     30.5659    114.4695     18.7050
   838.2000      8.5131      1.9988     -0.0477     39.4672    115.9093     18.2663
   838.3000      8.5708      1.8560     -0.1374     48.1205    113.7004     17.7910
   838.4000      8.5708      1.7379     -0.1714     55.2784    115.3605     17.0268
   838.5000      8.6315      1.6452     -0.0813     60.8987    121.4399     16.2172
   838.6000      8.6315      1.5758     -0.1191     65.1035    123.2520     15.8331
   838.7000      8.6315      1.5323     -0.0725     67.7412    122.0359     16.2080
   838.8000      8.5242      1.5040     -0.0021     69.4533    125.7272     17.2677
   838.9000      8.5242      1.4913     -0.0070     70.2251    128.1201     18.5837
   839.0000      8.5032      1.5220      0.0381     68.3608    121.5239     19.8769
   839.1000      8.5032      1.6094      0.1567     63.0683    112.9928     21.2227
   839.2000      8.5032      1.7268      0.2822     55.9537    110.2962     22.6441
   839.3000      8.5195      1.8403      0.2951     49.0744    113.1535     23.8144
   839.4000      8.5195      1.9469      0.2424     42.6117    118.1325     24.6952
   839.5000      8.4920      2.0629      0.2302     35.5800    121.2995     25.5772
   839.6000      8.4920      2.1814      0.2153     28.4029    122.1498     26.5139
   839.7000      8.4920      2.2797      0.2207     22.4441    124.0204     27.3535
   839.8000      8.4416      2.3574      0.1598     17.7364    130.0954     27.9101
   839.9000      8.4416      2.4271      0.1385     13.5119    139.5276     28.2028
   840.0000      8.4327      2.4799      0.1451     10.3116    147.2885     28.4209
   840.1000      8.4327      2.4997      0.0616      9.1071    151.0304     28.6563
   840.2000      8.4327      2.5026     -0.0143      8.9321    153.8687     28.7877
   840.3000      8.4461      2.5141      0.0075      8.2384    156.0865     28.5915
   840.4000      8.4461      2.5299      0.0067      7.2809    153.5678     28.0172
   840.5000      8.4531      2.5404     -0.0137      6.6430    147.8575     27.4752
   840.6000      8.4531      2.5519      0.0033      5.9440    140.7712     27.2924
   840.7000      8.4531      2.5654      0.0126      5.1273    130.9827     27.0664
   840.8000      8.4330      2.5814     -0.0108      4.1578    123.4713     26.5993
   840.9000      8.4330      2.6044      0.0169      2.7642    124.3292     26.4468
   841.0000      8.4260      2.6231      0.0248      1.6283    132.3081     26.6872
   841.1000      8.4260      2.6260     -0.0218      1.4527    140.5977     26.7595
   841.2000      8.4260      2.6180     -0.0284      1.9406    146.3522     26.6661
   841.3000      8.4234      2.6059      0.0041      2.6749    151.5456     26.8379
   841.4000      8.4234      2.5909     -0.0444      3.5818    154.7575     27.0627
   841.5000      8.4184      2.5723      0.0143      4.7071    152.0591     26.8388
   841.6000      8.4184      2.5503     -0.0548      6.0397    147.9959     26.3071
   841.7000      8.4184      2.5348     -0.0352      6.9806    151.3681     25.7992
   841.8000      8.4093      2.5307     -0.0366      7.2302    155.5857     25.3373
   841.9000      8.4093      2.5333     -0.0506      7.0711    152.2894     25.0611
   842.0000      8.4077      2.5358      0.0014      6.9195    146.7438     25.0359
   842.1000      8.4077      2.5351     -0.0639      6.9653    144.7040     25.0593
   842.2000      8.4077      2.5364     -0.0164      6.8874    146.7249     25.0353
   842.3000      8.4067      2.5433     -0.0149      6.4693    151.2303     25.0542
   842.4000      8.4067      2.5587     -0.0094      5.5334    153.7766     25.1531
   842.5000      8.4067      2.5782      0.0477      4.3515    152.5788     25.1943
   842.6000      8.4067      2.5896      0.0268      3.6585    151.1826     25.2566
   842.7000      8.4067      2.5936      0.0268      3.4196    153.1929     25.5092
   842.8000      8.4018      2.6004      0.0455      3.0087    159.4418     25.7342
   842.9000      8.4018      2.6135      0.0412      2.2146    164.6395     25.5919
   843.0000      8.4145      2.6268      0.0168      1.4050    163.9012     25.2288
   843.1000      8.4145      2.6270      0.0310      1.3916    161.3814     25.1177
   843.2000      8.4145      2.6127     -0.0423      2.2622    160.0360     25.3195
   843.3000      8.4106      2.5970     -0.0345      3.2151    158.7690     25.4769
   843.4000      8.4106      2.5784     -0.0246      4.3408    156.7394     25.3973
   843.5000      8.4071      2.5532     -0.0820      5.8681    154.2613     24.9375
   843.6000      8.4071      2.5337     -0.0819      7.0497    157.9063     24.0757
   843.7000      8.4071      2.5243     -0.0396      7.6206    169.1262     23.3543
   843.8000      8.4184      2.5229     -0.0401      7.7033    177.2529     23.2439
   843.9000      8.4184      2.5313      0.0091      7.1968    177.6844     23.4499
   844.0000      8.4045      2.5350      0.0159      6.9724    173.8028     23.5115
   844.1000      8.4045      2.5207     -0.0254      7.8358    169.9214     23.3582
   844.2000      8.4045      2.4899      0.0273      9.7053    167.4357     23.1530
   844.3000      8.4193      2.4416      0.0809     12.6281    162.6706     23.1998
   844.4000      8.4193      2.3787      0.0986     16.4401    157.8904     23.6470
   844.5000      8.4238      2.3041      0.0851     20.9655    159.0935     24.3369
   844.6000      8.4238      2.2176      0.0320     26.2048    163.5008     24.9871
   844.7000      8.4238      2.1329     -0.0839     31.3367    166.2943     25.3666
   844.8000      8.4264      2.0668     -0.0674     35.3455    166.9942     25.4453
   844.9000      8.4264      2.0223     -0.0625     38.0454    166.0809     25.3565
   845.0000      8.4286      2.0080      0.0087     38.9100    164.0783     25.4114
   845.1000      8.4286      2.0385      0.1416     37.0595    162.4104     25.8224
   845.2000      8.4286      2.1017      0.2606     33.2284    164.0273     26.4442
   845.3000      8.4312      2.1738      0.2332     28.8589    167.4516     26.9414
   845.4000      8.4312      2.2594      0.2737     23.6707    167.0524     27.0856
   845.5000      8.4296      2.3685      0.3671     17.0596    163.5885     26.9885
   845.6000      8.4296      2.4897      0.3506      9.7128    158.5239     26.9694
   845.7000      8.4296      2.6023      0.3955      2.8923    150.2973     27.0613
   845.8000      8.4239      2.6858      0.4072     -2.1690    142.3815     27.1727
   845.9000      8.4239      2.7358      0.3704     -5.2023    140.3529     27.1636
   846.0000      8.4261      2.7657      0.3127     -7.0128    144.8650     26.9068
   846.1000      8.4261      2.7869      0.2696     -8.2961    151.2471     26.5478
   846.2000      8.4261      2.7991      0.2639     -9.0343    156.5540     26.2656
