~Version Information
VERS.                      2.0: CWLS Log ASCII Standard - VERSION 2.0
WRAP.                       NO: One line per depth step
~Well Information Block
STRT.FT                -4.5000: 
STOP.FT              1680.2500: 
STEP.FT                 0.2500: 
NULL.                -999.2500: 
COMP.          Pioneer Natural Resources: COMPANY
WELL.            Salty 42-6 Tr: WELL
FLD.           Purgatorie River: FIELD
LOC.           2409' FNL & 599' FEL--: LOCATION
PROV.                       CO: PROVINCE
CNTY.               Las Animas: COUNTRY
SRVC.                         : SERVICE COMPANY
DATE.          Mon Dec 20 13:36:48 2004: LOG DATE
UWI.           071-08238      : UNIQUE WELL ID
~Curve Information Block
DEPT.FT            0 000 00 00: Depth
HVOLTA.V                      : Head Voltage Apparent
GR.GAPI                       : Gamma Ray
CCL.                          : Casing Collar Locator
TT3.usec                      : CBL 3' Travel Time
AMP3.mV                       : CBL 3' Amplitude
~Parameter Information Block
~A  Depth      HVOLTA        GR         CCL         TT3         AMP3    
# ...
   331.5000     97.2315    109.7266      0.0000    771.6898     10.8406
   331.7500     97.0296    111.9902      0.0000    772.1242     10.7690
   332.0000     97.2076    112.5191      0.0000    772.3333     10.7270
   332.2500     97.2076    111.2347      0.0000    772.3115     10.7019
   332.5000     97.2112    108.2217      0.0000    772.1424     10.6776
   332.7500     97.2625    104.0246      0.0000    771.9579     10.6259
   333.0000     97.0952    100.0130      0.0000    771.8292     10.5163
   333.2500     97.1837     97.9548      0.0000    771.6936     10.3437
   333.5000     97.1908     98.7394      0.0000    771.4106     10.1435
   333.7500     97.0606    101.7277      0.0000    770.9002      9.9703
   334.0000     97.0200    105.5398      0.0000    770.2242      9.8590
   334.2500     97.1741    109.0858      0.0000    769.5395      9.8065
   334.5000     97.0225    111.7449      0.0000    768.9858      9.7878
   334.7500     97.2076    113.3603      0.0000    768.6113      9.7825
   335.0000     97.1562    114.4121      0.0000    768.3791      9.7872
   335.2500     97.1873    115.3377      0.0000    768.2238      9.8145
   335.5000     97.0988    115.2710      0.0000    768.0959      9.8826
   335.7500     97.1252    112.3526      0.0000    767.9731     10.0000
   336.0000     97.0952    105.8493      0.0000    767.8516     10.1552
   336.2500     96.9758     97.4547      0.0000    767.7351     10.3221
   336.5000     97.2076     90.1554      0.0000    767.6258     10.4732
   336.7500     97.1430     86.0067      0.0000    767.5200     10.5904
   337.0000     97.0952     84.9454      0.0000    767.4153     10.6653
   337.2500     97.0917     85.3172      0.0000    767.3212     10.6919
   337.5000     97.0714     85.3217      0.0000    767.2549     10.6616
   337.7500     97.1323     84.2596      0.0000    767.2231     10.5707
   338.0000     97.3139     82.7552      0.0000    767.2097     10.4364
   338.2500     97.0714     81.8178      0.0000    767.1858     10.2990
   338.5000     97.0164     81.6501      0.0000    767.1260     10.2035
   338.7500     97.3282     81.5166      0.0000    767.0168     10.1706
   339.0000     97.2076     80.6136      0.0000    766.8614     10.1851
   339.2500     97.0988     78.7573      0.0000    766.6813     10.2096
   339.5000     96.9340     76.3018      0.0000    766.5057     10.2142
   339.7500     97.0546     73.8077      0.0000    766.3537     10.1902
   340.0000     97.2112     71.8620      0.0000    766.2322     10.1416
   340.2500     96.9651     70.8391      0.0000    766.1492     10.0692
   340.5000     97.2518     70.4804      0.0000    766.1135      9.9695
   340.7500     97.0988     69.7681      0.0000    766.1202      9.8444
   341.0000     97.0952     67.6632      0.0000    766.1513      9.7064
   341.2500     97.2254     64.2173      0.0000    766.1983      9.5791
   341.5000     96.9793     60.7188      0.0000    766.2747      9.4912
   341.7500     97.1776     58.5736      0.0000    766.3969      9.4628
   342.0000     97.2015     58.3977      0.0000    766.5629      9.4901
   342.2500     97.2422     60.4040      0.0000    766.7584      9.5453
   342.5000     97.0236     65.0810      0.0000    766.9728      9.5918
   342.7500     97.1359     72.7928      0.0000    767.2008      9.5962
   343.0000     97.0307     82.6544      0.0000    767.4413      9.5308
   343.2500     97.1323     92.3817      0.0000    767.7063      9.3818
   343.5000     97.0403     99.8042      0.0000    768.0159      9.1668
   343.7500     97.1466    104.4599      0.0000    768.3691      8.9354
   344.0000     97.1908    107.3472      0.0000    768.7224      8.7442
   344.2500     97.2864    109.3207      0.0000    769.0108      8.6233
   344.5000     97.2828    110.1838      0.0000    769.1973      8.5683
   344.7500     97.1120    109.3165      0.0000    769.2936      8.5590
   345.0000     97.0403    106.7985      0.0000    769.3290      8.5808
   345.2500     97.1120    103.7958      0.0000    769.3121      8.6269
   345.5000     97.1013    101.9228      0.0000    769.2401      8.6902
   345.7500     97.0917    102.0544      0.0000    769.1282      8.7616
   346.0000     96.9722    103.4983      0.0000    769.0021      8.8373
   346.2500     97.0774    104.4585      0.0000    768.8659      8.9286
   346.5000     97.1741    103.5886      0.0000    768.7092      9.0569
   346.7500     97.2147    101.1661      0.0000    768.5425      9.2331
   347.0000     97.3306     98.6667      0.0000    768.4035      9.4395
   347.2500     97.1191     97.2607      0.0000    768.2938      9.6386
   347.5000     97.1227     96.8785      0.0000    768.0833      9.8024
   347.7500     97.0642     96.8204      0.0000    767.4449      9.9313
   348.0000     97.1395     97.1535      0.0000    765.9854     10.0394
   348.2500     97.0032     98.9436      0.0000    763.6920     10.1298
   348.5000     96.9818    102.4768      0.0000    761.3570     10.1929
   348.7500     97.1120    105.5901      0.0000    760.2587     10.2285
   349.0000     97.0952    104.9180      0.0000    761.0787     10.2578
   349.2500     97.2757     99.3167      0.0000    763.2415     10.3054
   349.5000     97.1730     91.4532      0.0000    765.5224     10.3765
   349.7500     97.0128     85.7033      0.0000    767.1149     10.4577
   350.0000     97.1049     84.7787      0.0000    767.9695     10.5380
   350.2500     97.1120     88.3441      0.0000    768.4048     10.6206
   350.5000     97.1741     94.2366      0.0000    768.6979     10.7128
   350.7500     97.1562    100.4868      0.0000    768.9733     10.8141
   351.0000     97.2158    106.2687      0.0000    769.2517     10.9176
   351.2500     97.1969    111.5139      0.0000    769.5070     11.0204
   351.5000     97.2040    116.1532      0.0000    769.7147     11.1289
   351.7500     97.2411    119.9151      0.0000    769.8828     11.2479
   352.0000     97.1120    122.5881      0.0000    770.0518     11.3646
   352.2500     97.2589    123.9729      0.0000    770.2623     11.4481
   352.5000     97.2482    123.6220      0.0000    770.5278     11.4719
   352.7500     97.3748    121.1810      0.0000    770.8381     11.4350
   353.0000     97.1623    117.0781      0.0000    771.1696     11.3639
   353.2500     97.0332    112.5859      0.0000    771.4793     11.2961
   353.5000     97.1837    109.2485      0.0000    771.7006     11.2584
   353.7500     96.9519    108.4336      0.0000    771.7781     11.2561
   354.0000     97.0296    111.0182      0.0000    771.7267     11.2785
   354.2500     97.1084    116.7585      0.0000    771.6367     11.3061
   354.5000     97.0606    123.9507      0.0000    771.5937     11.3088
   354.7500     97.2458    130.1080      0.0000    771.6071     11.2474
   355.0000     97.0952    132.9857      0.0000    771.6321     11.0950
   355.2500     97.0093    131.1585      0.0000    771.6401     10.8646
   355.5000     97.0571    124.4996      0.0000    771.6322     10.6083
   355.7500     97.1873    114.5795      0.0000    771.6071     10.3924
   356.0000     97.1013    104.1388      0.0000    771.5544     10.2686
   356.2500     97.2040     95.7445      0.0000    771.4747     10.2513
   356.5000     97.1455     90.8854      0.0000    771.3918     10.3075
   356.7500     97.1252     89.7671      0.0000    771.3428     10.3751
   357.0000     97.1120     91.2374      0.0000    771.3639     10.4007
   357.2500     97.0128     93.2645      0.0000    771.4781     10.3613
   357.5000     97.1024     94.4031      0.0000    771.6869     10.2594
   357.7500     97.3139     95.0371      0.0000    771.9470     10.1075
   358.0000     97.2458     96.7680      0.0000    772.1027      9.9236
   358.2500     97.0164    100.3872      0.0000    771.7897      9.7312
   358.5000     97.1873    104.7757      0.0000    770.4594      9.5546
   358.7500     97.0606    108.0040      0.0000    767.7934      9.4105
   359.0000     97.2661    109.2230      0.0000    764.4117      9.3029
   359.2500     97.2386    109.1004      0.0000    762.0062      9.2274
