~Version Information
VERS.                      2.0: CWLS Log ASCII Standard - VERSION 2.0
WRAP.                       NO: One line per depth step
~Well Information Block
STRT.FT               456.0000: 
STOP.FT              1700.7000: 
STEP.FT                 0.1000: 
NULL.                -999.2500: 
COMP.          Pioneer Natural Resources: COMPANY
WELL.                Mead 11-9: WELL
FLD.           Purgatoire River: FIELD
LOC.           1127' FNL & 668' FWL: LOCATION
PROV.                 Colorado: PROVINCE
CNTY.               Las Animas: COUNTRY
SRVC.                Patterson: SERVICE COMPANY
DATE.          Sat Feb 19 09:18:18 2005: LOG DATE
UWI.           05 071 08160 00: UNIQUE WELL ID
~Curve Information Block
DEPT.FT            0 000 00 00: Depth
DCAL.in                       : CDL Caliper
RHOB.g/cc                     : CDL Bulk Density
RHOC.g/cc                     : CDL Density Correction
DPOR.pu                       : CDL Density Porosity
GR.GAPI                       : Gamma Ray
NPOR.pu                       : Neutron Porosity
~Parameter Information Block
~A  Depth       DCAL        RHOB        RHOC        DPOR         GR         NPOR    
# ...
   782.4000      8.0572      2.5541      0.0528      5.8093    130.2971     24.2657
   782.5000      8.0596      2.5530      0.0299      5.8764    138.3513     23.0250
   782.6000      8.0596      2.5681      0.0004      4.9642    140.0879     24.5359
   782.7000      8.0596      2.5893      0.0645      3.6786    133.3509     28.3176
   782.8000      8.0554      2.5930      0.0602      3.4561    127.5518     29.5793
   782.9000      8.0554      2.5789      0.0316      4.3084    127.3629     25.6560
   783.0000      8.0483      2.5665      0.0613      5.0606    126.6283     21.9707
   783.1000      8.0483      2.5634      0.0294      5.2496    121.2266     21.7657
   783.2000      8.0483      2.5596      0.0988      5.4762    118.7021     24.7275
   783.3000      8.0446      2.5467      0.0180      6.2604    123.4304     27.9281
   783.4000      8.0446      2.5382      0.0138      6.7736    128.8944     27.2824
   783.5000      8.0475      2.5406      0.0456      6.6331    131.0901     23.5783
   783.6000      8.0475      2.5420      0.0393      6.5455    132.1535     20.7100
   783.7000      8.0475      2.5372      0.0127      6.8372    134.7463     21.1000
   783.8000      8.0517      2.5292      0.0375      7.3214    139.0767     25.7319
   783.9000      8.0517      2.5262      0.0241      7.5037    142.4233     31.8981
   784.0000      8.0537      2.5289      0.0573      7.3387    140.0713     31.5194
   784.1000      8.0537      2.5305      0.0610      7.2427    131.9144     26.1453
   784.2000      8.0537      2.5336      0.0246      7.0576    123.2434     22.7977
   784.3000      8.0538      2.5495      0.0455      6.0880    119.1544     23.4321
   784.4000      8.0538      2.5816      0.0731      4.1442    121.0610     28.0849
   784.5000      8.0525      2.6101      0.0694      2.4183    126.2886     33.3939
   784.6000      8.0525      2.6102      0.0953      2.4124    132.8806     32.4319
   784.7000      8.0525      2.5830      0.0730      4.0601    137.3718     27.1151
   784.8000      8.0516      2.5604      0.0196      5.4326    134.8822     24.1968
   784.9000      8.0516      2.5620      0.0670      5.3341    128.4133     25.1518
   785.0000      8.0515      2.5692      0.0767      4.8964    125.5407     28.6862
   785.1000      8.0515      2.5671      0.0395      5.0233    126.5324     31.7546
   785.2000      8.0515      2.5603      0.0730      5.4358    128.0230     33.2981
   785.3000      8.0517      2.5538      0.0538      5.8299    128.7001     35.0072
   785.4000      8.0517      2.5548      0.0206      5.7708    129.2089     35.3445
   785.5000      8.0523      2.5633      0.0579      5.2536    129.7454     32.3270
   785.6000      8.0523      2.5668      0.0726      5.0450    129.4492     29.3705
   785.7000      8.0523      2.5618      0.0798      5.3471    129.8684     29.7094
   785.8000      8.0528      2.5538      0.0643      5.8277    129.9868     31.1988
   785.9000      8.0528      2.5468      0.0448      6.2515    127.5657     28.7483
   786.0000      8.0528      2.5481      0.0656      6.1755    125.2875     24.2692
   786.1000      8.0528      2.5582      0.0796      5.5614    124.4405     23.0516
   786.2000      8.0528      2.5648      0.0702      5.1633    125.6346     25.9083
   786.3000      8.0521      2.5596      0.0732      5.4777    129.0395     29.1765
   786.4000      8.0521      2.5505      0.0501      6.0299    132.0415     25.8098
   786.5000      8.0511      2.5454      0.0609      6.3366    133.7142     19.5736
   786.6000      8.0511      2.5429      0.0612      6.4892    135.8255     16.4387
   786.7000      8.0511      2.5434      0.0010      6.4605    137.1798     17.0146
   786.8000      8.0506      2.5332      0.0947      7.0787    132.4145     20.9698
   786.9000      8.0506      2.4855      0.0447      9.9678    120.2207     27.6809
   787.0000      8.0503      2.4104     -0.0243     14.5235    106.8833     31.2942
   787.1000      8.0503      2.3543     -0.0585     17.9204     98.5402     28.5406
   787.2000      8.0503      2.3484     -0.0536     18.2816     94.1948     25.2113
   787.3000      8.0504      2.3751      0.0399     16.6629     90.4433     24.8092
   787.4000      8.0504      2.3959      0.0703     15.3974     86.0881     25.2892
   787.5000      8.0512      2.4066     -0.0109     14.7506     81.9111     24.2696
   787.6000      8.0512      2.4344      0.0110     13.0638     80.5295     23.5225
   787.7000      8.0512      2.4903      0.1152      9.6818     84.2333     24.5736
   787.8000      8.0509      2.5603      0.1334      5.4384     93.3187     26.9692
   787.9000      8.0509      2.6324      0.1910      1.0689    103.5427     29.6323
   788.0000      8.0486      2.6907      0.2005     -2.4694    109.8536     30.9862
   788.1000      8.0486      2.7201      0.1650     -4.2515    113.3685     29.2902
   788.2000      8.0486      2.7312      0.1376     -4.9195    115.1457     24.3015
   788.3000      8.0479      2.7315      0.1716     -4.9364    113.0295     19.2214
   788.4000      8.0479      2.7122      0.1069     -3.7688    108.3849     16.2022
   788.5000      8.0492      2.6824      0.1136     -1.9647    106.0332     15.8770
   788.6000      8.0492      2.6597      0.0413     -0.5860    107.4940     18.8051
   788.7000      8.0492      2.6507      0.0618     -0.0442    109.2099     24.8954
   788.8000      8.0493      2.6549      0.0526     -0.2966    108.3950     32.0197
   788.9000      8.0493      2.6602      0.0819     -0.6197    109.0927     35.4420
   789.0000      8.0493      2.6506      0.1342     -0.0381    114.6331     35.0763
   789.1000      8.0493      2.6308      0.0978      1.1641    121.5967     32.9065
   789.2000      8.0493      2.6259      0.1353      1.4621    127.8875     31.8809
   789.3000      8.0492      2.6445      0.1936      0.3363    133.1740     32.0801
   789.4000      8.0492      2.6599      0.2576     -0.6030    136.6369     31.1028
   789.5000      8.0489      2.6511      0.2004     -0.0691    137.5430     29.3180
   789.6000      8.0489      2.6322      0.1699      1.0799    136.5212     28.9369
   789.7000      8.0489      2.6141      0.1404      2.1783    135.1504     30.6688
   789.8000      8.0486      2.5923      0.1172      3.4970    134.4391     33.5243
   789.9000      8.0486      2.5716      0.1124      4.7493    134.4920     34.6495
   790.0000      8.0481      2.5624      0.0628      5.3103    132.4469     31.8269
   790.1000      8.0481      2.5610      0.0953      5.3932    127.1567     26.0612
   790.2000      8.0481      2.5503      0.1343      6.0443    123.0733     21.9332
   790.3000      8.0472      2.5328      0.0943      7.1025    124.1352     21.4391
   790.4000      8.0472      2.5322      0.0848      7.1379    126.2460     23.1653
   790.5000      8.0464      2.5522      0.0964      5.9283    126.4984     23.1121
   790.6000      8.0464      2.5732      0.1176      4.6556    126.8649     20.8467
   790.7000      8.0464      2.5819      0.0878      4.1300    127.2828     20.2354
   790.8000      8.0457      2.5813      0.0585      4.1639    125.6672     22.5133
   790.9000      8.0457      2.5829      0.0836      4.0695    120.1811     26.9367
   791.0000      8.0449      2.5947      0.1205      3.3491    113.6997     29.9784
   791.1000      8.0449      2.6085      0.1557      2.5132    110.0970     27.8021
   791.2000      8.0449      2.6140      0.0879      2.1845    105.7844     22.4188
   791.3000      8.0441      2.6172      0.1143      1.9887     99.3477     19.1511
   791.4000      8.0441      2.6208      0.1288      1.7687     94.8541     19.0954
   791.5000      8.0432      2.6186      0.1003      1.9012     92.0983     21.0503
   791.6000      8.0432      2.6116      0.0911      2.3274     87.8833     21.7133
   791.7000      8.0432      2.6157      0.0357      2.0770     83.2281     20.7234
   791.8000      8.0411      2.6404      0.1027      0.5833     82.1740     21.5292
   791.9000      8.0411      2.6726      0.1101     -1.3689     85.2238     25.1536
