~Version Information
VERS.                      2.0: CWLS Log ASCII Standard - VERSION 2.0
WRAP.                       NO: One line per depth step
~Well Information Block
STRT.FT                -4.2500: 
STOP.FT              2500.7500: 
STEP.FT                 0.2500: 
NULL.                -999.2500: 
COMP.          Pioneer Natural Resources: COMPANY
WELL.          Cock-a-doodle-doo 44-27: WELL
FLD.           Purgatoire River: FIELD
LOC.           163' FSL & 54' FEL--: LOCATION
PROV.                 Colorado: PROVINCE
CNTY.               Las Animas: COUNTRY
SRVC.                Patterson: SERVICE COMPANY
DATE.          Wed Jul 06 10:56:34 2005: LOG DATE
UWI.                071 08429 : UNIQUE WELL ID
~Curve Information Block
DEPT.FT            0 000 00 00: Depth
CCL.                          : Casing Collar Locator
TT3.usec                      : CBL 3' Travel Time
AMP3.mV                       : CBL 3' Amplitude
GR.GAPI                       : Gamma Ray
~Parameter Information Block
~A  Depth       CCL         TT3         AMP3         GR     
# ...
  1637.2500      0.0000    525.5739      7.6438     80.9873
  1637.5000      0.0000    510.9507      7.2757     79.7521
  1637.7500      0.0000    504.0625      6.9323     77.7325
  1638.0000      0.0000    503.7332      6.6638     75.6329
  1638.2500      0.0000    506.7910      6.5010     73.9311
  1638.5000      0.0000    510.2436      6.4341     72.8355
  1638.7500      0.0000    512.9539      6.4315     72.2845
  1639.0000      0.0000    515.4456      6.4686     72.1086
  1639.2500      0.0000    518.6372      6.5375     72.1859
  1639.5000      0.0000    522.7843      6.6382     72.1890
  1639.7500      0.0000    527.2324      6.7656     71.3334
  1640.0000      0.0000    530.8287      6.8991     68.9138
  1640.2500      0.0000    532.7204      7.0061     65.1971
  1640.5000      0.0000    533.4831      7.0598     61.4517
  1640.7500      0.0000    536.0045      7.0570     59.0625
  1641.0000      0.0000    544.5914      7.0185     58.7116
  1641.2500      0.0000    561.9859      6.9724     60.2290
  1641.5000      0.0000    586.3676      6.9383     62.9104
  1641.7500      0.0000    611.1557      6.9227     65.9212
  1642.0000      0.0000    628.3801      6.9250     68.6750
  1642.2500      0.0000    633.5660      6.9424     71.0164
  1642.5000      0.0000    628.3242      6.9705     73.0133
  1642.7500      0.0000    618.5030      6.9999     74.5540
  1643.0000      0.0000    609.3255      7.0168     75.3274
  1643.2500      0.0000    601.3607      7.0104     75.2348
  1643.5000      0.0000    590.8102      6.9821     74.6348
  1643.7500      0.0000    574.1091      6.9447     74.1217
  1644.0000      0.0000    552.3000      6.9097     74.1316
  1644.2500      0.0000    530.4886      6.8763     74.7657
  1644.5000      0.0000    513.4095      6.8373     75.9482
  1644.7500      0.0000    502.4764      6.7888     77.7248
  1645.0000      0.0000    496.7258      6.7359     80.3082
  1645.2500      0.0000    494.9419      6.6885     83.6484
  1645.5000      0.0000    496.0645      6.6546     86.8700
  1645.7500      0.0000    498.5655      6.6335     88.4930
  1646.0000      0.0000    500.4602      6.6164     87.5184
  1646.2500      0.0000    500.0596      6.5941     84.1540
  1646.5000      0.0000    496.6257      6.5640     79.3924
  1646.7500      0.0000    490.7961      6.5323     74.1976
  1647.0000      0.0000    484.4723      6.5129     69.3697
  1647.2500      0.0000    479.6579      6.5172     65.8961
  1647.5000      0.0000    476.8876      6.5408     64.8869
  1647.7500      0.0000    475.0144      6.5616     66.8562
  1648.0000      0.0000    472.7297      6.5621     71.1222
  1648.2500      0.0000    469.8705      6.5486     76.0770
  1648.5000      0.0000    467.0109      6.5437     80.1903
  1648.7500      0.0000    464.2013      6.5638     82.8354
  1649.0000      0.0000    460.5508      6.6114     84.1452
  1649.2500      0.0000    455.1396      6.6829     84.2166
  1649.5000      0.0000    448.4668      6.7692     82.8270
  1649.7500      0.0000    443.0296      6.8450     79.9954
  1650.0000      0.0000    441.9390      6.8770     76.4288
  1650.2500      0.0000    446.2393      6.8630     73.2234
  1650.5000      0.0000    453.6142      6.8458     71.2499
  1650.7500      0.0000    460.4009      6.8721     70.7415
  1651.0000      0.0000    465.0612      6.9425     71.1502
  1651.2500      0.0000    469.1245      7.0149     71.4618
  1651.5000      0.0000    474.7363      7.0460     71.0380
  1651.7500      0.0000    482.1594      7.0225     70.3387
  1652.0000      0.0000    489.8123      6.9632     70.5998
  1652.2500      0.0000    495.8466      6.8985     72.4839
  1652.5000      0.0000    499.2775      6.8432     75.1863
  1652.7500      0.0000    500.0130      6.7924     77.2439
  1653.0000      0.0000    498.1403      6.7454     77.9526
  1653.2500      0.0000    493.2302      6.7167     77.3631
  1653.5000      0.0000    484.4091      6.7175     75.3649
  1653.7500      0.0000    471.2920      6.7373     71.8832
  1654.0000      0.0000    454.9283      6.7501     67.7185
  1654.2500      0.0000    437.7554      6.7366     64.1237
  1654.5000      0.0000    422.5262      6.6995     61.7452
  1654.7500      0.0000    411.0607      6.6645     60.6782
  1655.0000      0.0000    403.6955      6.6633     61.1142
  1655.2500      0.0000    399.5872      6.7108     63.2302
  1655.5000      0.0000    397.4290      6.7952     66.7648
  1655.7500      0.0000    396.0116      6.8896     71.1637
  1656.0000      0.0000    394.5180      6.9694     75.6999
  1656.2500      0.0000    392.7843      7.0217     79.1562
  1656.5000      0.0000    391.4442      7.0444     80.2013
  1656.7500      0.0000    391.4815      7.0396     78.7993
  1657.0000      0.0000    393.2507      7.0087     76.6513
  1657.2500      0.0000    396.0497      6.9528     75.5563
  1657.5000      0.0000    398.8499      6.8748     75.7682
  1657.7500      0.0000    401.2983      6.7774     76.4187
  1658.0000      0.0000    403.8251      6.6633     77.0655
  1658.2500      0.0000    406.9171      6.5392     78.2692
  1658.5000      0.0000    410.5623      6.4209     80.8190
  1658.7500      0.0000    414.7171      6.3302     84.7206
  1659.0000      0.0000    420.4001      6.2832     88.7396
  1659.2500      0.0000    430.0600      6.2812     90.7616
  1659.5000      0.0000    446.5129      6.3103     89.1240
  1659.7500      0.0000    471.0495      6.3481     84.1061
  1660.0000      0.0000    501.7489      6.3723     77.9630
  1660.2500      0.0000    533.5428      6.3688     73.3144
  1660.5000      0.0000    561.0469      6.3353     71.5983
  1660.7500      0.0000    581.8306      6.2786     72.8717
  1661.0000      0.0000    596.4911      6.2116     76.4232
  1661.2500      0.0000    606.3757      6.1488     81.3870
  1661.5000      0.0000    612.9483      6.1005     87.3054
  1661.7500      0.0000    618.8896      6.0672     94.5456
  1662.0000      0.0000    627.3121      6.0453    104.1617
  1662.2500      0.0000    638.3544      6.0371    117.0645
  1662.5000      0.0000    647.6912      6.0545    132.8392
  1662.7500      0.0000    650.5167      6.1127    149.0428
  1663.0000      0.0000    647.3051      6.2186    161.9822
  1663.2500      0.0000    643.7134      6.3655    168.7754
  1663.5000      0.0000    643.7782      6.5437    169.0624
  1663.7500      0.0000    645.3369      6.7523    165.0904
  1664.0000      0.0000    643.9515      6.9808    160.2389
  1664.2500      0.0000    639.5818      7.1787    156.8585
  1664.5000      0.0000    636.9625      7.2684    154.7960
  1664.7500      0.0000    640.2054      7.2109    151.8863
  1665.0000      0.0000    649.0247      7.0450    146.0777
  1665.2500      0.0000    659.7822      6.8524    137.1977
  1665.5000      0.0000    668.1475      6.6974    126.8385
  1665.7500     -2.0000    670.6841      6.6098    116.8835
  1666.0000      2.0000    665.4875      6.5997    108.3556
  1666.2500     -2.0000    652.1994      6.6673    101.4613
  1666.5000      0.0000    632.4242      6.8086     96.3004
  1666.7500      0.0000    611.0982      7.0282     93.2729
  1667.0000      0.0000    595.6533      7.3297     92.8852
  1667.2500      0.0000    590.3752      7.6742     95.3019
  1667.5000      0.0000    591.8499      7.9680    100.0850
  1667.7500      0.0000    592.4896      8.1247    106.3222
  1668.0000      0.0000    587.7312      8.1366    113.1050
  1668.2500      0.0000    577.4730      8.0727    119.7980
  1668.5000      0.0000    561.8615      8.0146    125.6232
  1668.7500      0.0000    539.3872      7.9992    129.3742
  1669.0000      0.0000    510.5375      8.0118    130.3804
  1669.2500      0.0000    481.3072      8.0206    129.7019
  1669.5000      0.0000    460.3288      8.0122    129.4317
  1669.7500      0.0000    452.1761      7.9973    130.5450
  1670.0000      0.0000    454.5488      7.9953    132.2524
  1670.2500      0.0000    461.8905      8.0229    133.7249
  1670.5000      0.0000    470.6304      8.0891    135.4527
