~Version Information
 VERS.                      2.0: CWLS Log ASCII Standard - VERSION 2.0
 WRAP.                       NO: One line per depth step
 ~Well Information Block
 STRT.FT              1969.0000: 
 STOP.FT              2129.7500: 
 STEP.FT                 0.2500: 
 NULL.                -999.2500: 
 COMP.          Petrogulf Corporation: COMPANY
 WELL.             State 16-43V: WELL
 FLD.           Purgatorie River: FIELD
 LOC.           2437' FSL & 734' FEL----: LOCATION
 CNTY.               Las Animas: COUNTY
 SRVC.                         : SERVICE COMPANY
 DATE.          Thu Dec 09 15:38:16 2004: LOG DATE
 UWI.                          : UNIQUE WELL ID
 STAT.                       CO: STATE
 PROV.                         :Province
 ~Curve Information Block
 DEPT.FT            0 000 00 00: Depth
 GR.GAPI                       : Gamma Ray
 CCL.                          : Casing Collar Locator
 TT3.usec                      : CBL 3' Travel Time
 AMP3.mV                       : CBL 3' Amplitude
 ~Parameter Information Block
 ~A  Depth        GR         CCL         TT3         AMP3    
# ...
  2036.0000     75.5834      0.0000    723.6468      6.0453
  2036.2500     79.7304      0.0000    711.6776      5.5247
  2036.5000     87.1357      0.0000    697.1850      5.0418
  2036.7500     96.2134      0.0000    686.7107      4.6440
  2037.0000    103.7907      0.0000    682.0103      4.3445
  2037.2500    106.9882      0.0000    681.2842      4.1300
  2037.5000    104.7659      0.0000    683.3632      3.9692
  2037.7500     98.1245      0.0000    689.2695      3.8254
  2038.0000     89.5420      0.0000    699.2996      3.6781
  2038.2500     82.1494      0.0000    710.3881      3.5389
  2038.5000     78.5466      0.0000    717.8665      3.4401
  2038.7500     79.5447      0.0000    718.9531      3.4066
  2039.0000     83.7773      0.0000    713.7390      3.4429
  2039.2500     88.9061      0.0000    704.2813      3.5397
  2039.5000     93.5174      0.0000    694.2060      3.6868
  2039.7500     97.7275      0.0000    687.9012      3.8764
  2040.0000    101.9255      0.0000    687.7229      4.0956
  2040.2500    105.4648      0.0000    691.6414      4.3211
  2040.5000    107.1577      0.0000    695.2889      4.5304
  2040.7500    106.7474      0.0000    696.9594      4.7173
  2041.0000    105.2239      0.0000    699.3441      4.8849
  2041.2500    103.7338      0.0000    705.8514      5.0184
  2041.5000    102.6662      0.0000    716.5238      5.0824
  2041.7500    101.7078      0.0000    727.8780      5.0538
  2042.0000    100.3441      0.0000    735.2783      4.9501
  2042.2500     98.2547      0.0000    735.3914      4.8125
  2042.5000     95.5038      0.0000    728.1960      4.6692
  2042.7500     92.4568      0.0000    717.3087      4.5227
  2043.0000     89.5815      0.0000    707.4073      4.3631
  2043.2500     87.3271      0.0000    700.8242      4.1898
  2043.5000     86.0128      0.0000    696.7753      4.0259
  2043.7500     85.8321      0.0000    693.4027      3.9098
  2044.0000     86.9963      0.0000    689.7451      3.8654
  2044.2500     89.5168      0.0000    685.6971      3.8821
  2044.5000     92.5679      0.0000    681.0635      3.9299
  2044.7500     94.4169      0.0000    675.4607      3.9883
  2045.0000     93.3289      0.0000    669.2537      4.0554
  2045.2500     88.6470      0.0000    664.1663      4.1340
  2045.5000     81.5053      0.0000    662.5904      4.2096
  2045.7500     74.7247      0.0000    666.2468      4.2452
  2046.0000     71.2428      0.0000    675.6527      4.2032
  2046.2500     71.9490      0.0000    690.4270      4.0755
  2046.5000     75.2787      0.0000    709.1245      3.8882
  2046.7500     79.0553      0.0000    728.2739      3.6779
  2047.0000     82.3824      0.0000    742.0768      3.4698
  2047.2500     85.6084      0.0000    744.2806      3.2751
  2047.5000     88.9726      0.0000    731.8643      3.0977
  2047.7500     91.8710      0.0000    707.7751      2.9417
  2048.0000     93.6237      0.0000    679.8365      2.8138
  2048.2500     94.5630      0.0000    656.6461      2.7206
  2048.5000     95.8482      0.0000    644.2240      2.6652
  2048.7500     98.2863      0.0000    645.0736      2.6466
  2049.0000    101.7123      0.0000    658.6790      2.6584
  2049.2500    105.3194      0.0000    682.5496      2.6899
  2049.5000    108.0715      0.0000    713.3181      2.7367
  2049.7500    108.9413      0.0000    746.6475      2.8102
  2050.0000    107.3579      0.0000    776.6439      2.9311
  2050.2500    103.7603      0.0000    797.0774      3.1141
  2050.5000     99.5975      0.0000    803.9462      3.3581
  2050.7500     96.4830      0.0000    796.9109      3.6435
  2051.0000     95.1526      0.0000    779.1646      3.9365
  2051.2500     95.1360      0.0000    756.3462      4.2068
  2051.5000     95.3796      0.0000    734.4501      4.4530
  2051.7500     95.1546      0.0000    717.7149      4.7060
  2052.0000     94.4644      0.0000    708.0203      5.0114
  2052.2500     93.8273      0.0000    705.4075      5.4096
  2052.5000     93.8782      0.0000    708.3055      5.9193
  2052.7500     94.8875      0.0000    713.8573      6.5240
  2053.0000     96.3020      0.0000    719.4362      7.1741
  2053.2500     97.0226      0.0000    724.0425      7.8094
  2053.5000     96.5015      0.0000    727.2969      8.3850
  2053.7500     95.4139      0.0000    726.6146      8.8824
  2054.0000     95.0020      0.0000    716.0256      9.3093
  2054.2500     95.7819      0.0000    688.8445      9.6903
  2054.5000     96.8558      0.0000    643.2103     10.0414
  2054.7500     96.4454      0.0000    587.6215     10.3241
  2055.0000     93.3282      0.0000    541.7229     10.4221
  2055.2500     88.0655      0.0000    527.2869     10.2127
  2055.5000     82.7318      0.0000    552.3080      9.7418
  2055.7500     79.1259      0.0000    601.8366      9.3371
  2056.0000     77.1836      0.0000    646.8517      9.4396
  2056.2500     75.2784      0.0000    664.7541     10.2270
  2056.5000     71.9999      0.0000    653.5432     11.4506
  2056.7500     67.3443      0.0000    629.2800     12.7162
  2057.0000     62.2300      0.0000    612.1373     13.8599
  2057.2500     57.4215      0.0000    613.5900     14.9678
  2057.5000     53.2304      0.0000    632.5962     16.1005
  2057.7500     49.9835     -2.0000    660.6736     17.1178
  2058.0000     48.4250     -2.0000    690.4249     17.7613
  2058.2500     49.5424      0.0000    720.1127     17.8754
  2058.5000     53.9135      0.0000    751.2469     17.5858
  2058.7500     61.1331      0.0000    783.6507     17.2548
  2059.0000     69.9719      0.0000    813.0894     17.1667
  2059.2500     79.1747      0.0000    832.7437     17.2499
  2059.5000     87.9924      0.0000    837.7991     17.2002
  2059.7500     95.8696      0.0000    829.6199     16.8487
  2060.0000    101.9678      0.0000    814.7955     16.2950
  2060.2500    105.4304      0.0000    799.5846     15.7210
  2060.5000    106.0757      0.0000    786.1782     15.2137
  2060.7500    104.4710      0.0000    773.9991     14.7795
  2061.0000    101.3723      0.0000    762.7458     14.4330
  2061.2500     97.4696      0.0000    753.1844     14.2162
  2061.5000     93.4896      0.0000    745.7628     14.1536
  2061.7500     89.9146      0.0000    739.5408     14.2176
  2062.0000     86.6385      0.0000    732.8216     14.3396
  2062.2500     83.4287      0.0000    724.7220     14.4518
  2062.5000     80.5523      0.0000    716.0631     14.5205
  2062.7500     78.4920      0.0000    708.6975     14.5498
  2063.0000     77.2974      0.0000    704.0259     14.5618
  2063.2500     76.5328      0.0000    702.1118     14.5760
  2063.5000     75.7228      0.0000    701.7526     14.6029
  2063.7500     74.7141      0.0000    700.6799     14.6435
  2064.0000     73.6729      0.0000    696.0583     14.6796
  2064.2500     72.8240      0.0000    686.5824     14.6658
  2064.5000     72.4053      0.0000    675.2008     14.5385
  2064.7500     72.8180      0.0000    668.2811     14.2413
  2065.0000     74.4347      0.0000    670.2125     13.7486
  2065.2500     77.1338      0.0000    679.3602     13.0786
  2065.5000     80.3447      0.0000    690.2378     12.2893
  2065.7500     83.6673      0.0000    698.7111     11.4543
  2066.0000     87.1563      0.0000    704.7507     10.6346
  2066.2500     90.7900      0.0000    711.5232      9.8656
  2066.5000     93.9049      0.0000    722.2876      9.1645
  2066.7500     95.4628      0.0000    737.3806      8.5349
  2067.0000     94.9807      0.0000    754.0325      7.9678
  2067.2500     93.1733      0.0000    769.4828      7.4484
  2067.5000     91.5497      0.0000    783.9070      6.9658
  2067.7500     91.0988      0.0000    799.6445      6.5113
  2068.0000     91.3328      0.0000    817.4555      6.0693
  2068.2500     90.9828      0.0000    834.1113      5.6231
  2068.5000     89.7944      0.0000    844.2509      5.1730
  2068.7500     89.2194      0.0000    844.2693      4.7415
  2069.0000     90.9599      0.0000    834.0514      4.3578
  2069.2500     94.9802      0.0000    816.1718      4.0433
