~Version Information
 VERS.                                  2.0 : CWLS LAS VERSION
 WRAP.                                   NO : WRAPING MODE
 SWARE .                 MController 2.5.0I : SOFTWARE VERSION
~Well Information
 WELL.                      Anderson 18-43v : WELL
 COMP.                       Petrogulf Corp : COMPANY
 FLD.                      Purgatorie River : FIELD
 LOC.                NE/SE Sec 18 T33S R67W : LOCATION
 DATE.                              9/01/04 : DATE(S) LOGGED
 SRVC.       Blanco geological services LLC : SERVICE COMPANY
 STAT.                                   CO : STATE
 CNTY.                           Las Animas : COUNTY
 CTRY.                                  USA : COUNTRY
 API.                       05-071-08156-00 : API NUMBER
 STRT.FT                             158.00 : START DEPTH
 STOP.FT                            2300.00 : STOP DEPTH
 STEP.FT                               1.00 : DEPTH INCREMENT
 NULL.                                -9999 : NULL VALUE
~Curve information
 DEPTH.FT                                   :
 ROP.MIN/FT                                 :
 GAS.UNITS                                  :
~ASCII Log data
# ...
      1758.0          0.4         32.6 
      1759.0          0.4         32.1 
      1760.0          0.4         30.1 
      1761.0          0.4         24.3 
      1762.0          0.4         20.0 
      1763.0          0.4         22.6 
      1764.0          0.4         26.2 
      1765.0          0.4         28.1 
      1766.0          0.4         27.2 
      1767.0          0.4         26.5 
      1768.0          0.4         27.3 
      1769.0          0.4         28.1 
      1770.0          0.4         27.8 
      1771.0          0.4         22.3 
      1772.0          1.7        100.8 
      1773.0          0.4        108.7 
      1774.0          0.3        104.0 
      1775.0          0.3         85.9 
      1776.0          0.4         64.8 
      1777.0          0.3         48.3 
      1778.0          0.3         41.2 
      1779.0          0.3         37.1 
      1780.0          0.3         34.7 
      1781.0          0.3         34.2 
      1782.0          0.3         33.8 
      1783.0          0.3         31.5 
      1784.0          0.3         29.7 
      1785.0          0.3         26.9 
      1786.0          0.3         25.6 
      1787.0          0.3         24.5 
      1788.0          0.3         28.2 
      1789.0          0.4         28.8 
      1790.0          0.3         27.7 
      1791.0          0.2         26.0 
      1792.0          0.3         24.0 
      1793.0          0.2         23.8 
      1794.0          0.3         23.2 
      1795.0          0.2         20.5 
      1796.0          0.3         17.7 
      1797.0          0.3         16.1 
      1798.0          0.3         16.1 
      1799.0          0.3         16.7 
      1800.0          0.3         15.7 
      1801.0          0.3         11.4 
      1802.0          2.0         98.9 
      1803.0          0.2        102.5 
      1804.0          0.3        102.2 
      1805.0          0.2         97.2 
      1806.0          0.2         86.5 
      1807.0          0.2         71.8 
      1808.0          0.2         63.7 
      1809.0          0.2         57.3 
      1810.0          0.2         51.2 
      1811.0          0.3         46.0 
      1812.0          0.3         40.9 
      1813.0          0.2         36.3 
      1814.0          0.2         33.3 
      1815.0          0.2         33.0 
      1816.0          0.3         32.2 
      1817.0          0.2         31.3 
      1818.0          0.3         30.8 
      1819.0          0.3         31.1 
      1820.0          0.2         30.3 
      1821.0          0.2         29.1 
      1822.0          0.2         27.5 
      1823.0          0.2         27.6 
      1824.0          0.3         28.4 
      1825.0          0.2         27.0 
      1826.0          0.2         27.2 
      1827.0          0.2         27.2 
      1828.0          0.2         25.6 
      1829.0          0.2         23.0 
      1830.0          0.2         21.6 
      1831.0          0.1         15.9 
      1832.0          1.8         84.4 
      1833.0          0.4        103.0 
      1834.0          0.3        102.1 
      1835.0          0.3         86.8 
      1836.0          0.3         69.4 
      1837.0          0.3         53.0 
      1838.0          0.4         42.4 
      1839.0          0.3         33.6 
      1840.0          0.3         27.3 
      1841.0          0.3         22.3 
      1842.0          0.2         26.3 
      1843.0          0.2         30.6 
      1844.0          0.3         32.1 
      1845.0          0.3         32.2 
      1846.0          0.3         30.2 
      1847.0          0.3         23.4 
      1848.0          0.3         23.3 
      1849.0          0.3         24.9 
      1850.0          0.3         25.6 
      1851.0          0.3         26.1 
      1852.0          0.3         25.9 
      1853.0          0.3         25.0 
      1854.0          0.3         23.0 
      1855.0          0.3         20.0 
      1856.0          0.4         18.9 
      1857.0          0.4         16.6 
      1858.0          0.4         15.1 
      1859.0          0.4         16.6 
      1860.0          0.4         18.0 
      1861.0          0.4         12.4 
      1862.0          1.6         93.3 
      1863.0          0.6        103.1 
      1864.0          0.6         80.3 
      1865.0          0.6         43.7 
      1866.0          0.6         31.6 
      1867.0          0.4         26.7 
      1868.0          0.2         29.2 
      1869.0          0.2         29.7 
      1870.0          0.2         29.5 
      1871.0          0.2         28.2 
      1872.0          0.2         27.8 
      1873.0          0.2         27.4 
      1874.0          0.2         26.4 
      1875.0          0.2         25.0 
      1876.0          0.2         24.7 
      1877.0          0.2         24.3 
      1878.0          0.2         22.9 
      1879.0          0.2         22.6 
      1880.0          0.2         28.3 
      1881.0          0.1         32.9 
      1882.0          0.2         35.9 
      1883.0          0.2         35.9 
      1884.0          0.2         34.1 
      1885.0          0.2         31.1 
      1886.0          0.2         30.1 
      1887.0          0.2         29.3 
      1888.0          0.3         27.4 
      1889.0          0.2         24.8 
      1890.0          0.2         23.0 
      1891.0          0.3         16.2 
      1892.0          2.3         90.2 
      1893.0          0.5         88.0 
      1894.0          0.5         59.7 
      1895.0          0.6         34.5 
      1896.0          0.6         27.7 
      1897.0          0.4         28.3 
      1898.0          0.4         27.4 
      1899.0          0.4         24.4 
      1900.0          0.6         21.0 
      1901.0          0.4         15.7 
      1902.0          0.1         15.0 
      1903.0          0.4         17.0 
      1904.0          0.4         21.2 
      1905.0          0.4         23.1 
      1906.0          0.5         22.9 
      1907.0          0.5         19.4 
      1908.0          0.4         16.9 
      1909.0          0.4         16.1 
      1910.0          0.4         15.1 
      1911.0          0.4         13.6 
      1912.0          0.4         17.8 
      1913.0          0.4         22.7 
      1914.0          0.3         22.9 
      1915.0          0.4         23.4 
      1916.0          0.4         26.7 
      1917.0          0.4         26.8 
      1918.0          0.4         23.0 
      1919.0          0.5         19.6 
      1920.0          0.4         20.3 
      1921.0          0.4         15.3 
      1922.0          1.9         95.2 
      1923.0          0.7        100.5 
      1924.0          0.6         67.2 
      1925.0          0.6         36.6 
      1926.0          0.6         23.4 
      1927.0          0.8         22.2 
      1928.0          0.5         22.3 
      1929.0          0.5         22.2 
      1930.0          0.4         19.8 
      1931.0          0.5         18.5 
      1932.0          0.5         20.8 
      1933.0          0.6         21.8 
      1934.0          0.5         20.4 
      1935.0          0.5         16.6 
      1936.0          0.5         16.4 
      1937.0          0.4         20.4 
      1938.0          0.4         23.3 
      1939.0          0.4         23.1 
      1940.0          0.5         22.9 
      1941.0          0.5         20.7 
      1942.0          0.4         19.2 
      1943.0          0.4         16.2 
      1944.0          0.4         16.8 
      1945.0          0.5         18.3 
      1946.0          0.4         20.1 
      1947.0          0.5         19.0 
      1948.0          0.4         18.2 
      1949.0          0.4         35.1 
      1950.0          0.3         36.3 
      1951.0          0.4         30.6 
      1952.0          1.6         92.8 
      1953.0          0.7        108.3 
      1954.0          0.4         86.5 
      1955.0          0.5         46.4 
      1956.0          0.7         31.3 
      1957.0          0.7         31.7 
