~Version Information
VERS.                      2.0: CWLS Log ASCII Standard - VERSION 2.0
WRAP.                       NO: One line per depth step
~Well Information Block
STRT.FT               418.4000: 
STOP.FT              1170.0000: 
STEP.FT                 0.1000: 
NULL.                -999.2500: 
COMP.          Evergreen Operating Corporation: COMPANY
WELL.             Bernice 21-3: WELL
FLD.           Purgatoire River: FIELD
LOC.           201' FNL & 2575' FWL: LOCATION
PROV.                 Colorado: PROVINCE
CNTY.               Las Animas: COUNTRY
SRVC.                Patterson: SERVICE COMPANY
DATE.          Mon Jan 26 14:55:16 2004: LOG DATE
UWI.             05 071 07912 : UNIQUE WELL ID
~Curve Information Block
DEPT.FT            0 000 00 00: Depth
DCAL.in                       : CDL Caliper
RHOB.g/cc                     : CDL Bulk Density
RHOC.g/cc                     : CDL Density Correction
DPOR.pu                       : CDL Density Porosity
NPOR.pu                       : Neutron Porosity
GR.GAPI                       : Gamma Ray
~Parameter Information Block
~A  Depth       DCAL        RHOB        RHOC        DPOR        NPOR         GR     
# ...
   524.0000      8.2477      2.5475     -0.0580      6.2127     29.7022    122.0273
   524.1000      8.2477      2.5546     -0.0049      5.7834     30.1100    114.4625
   524.2000      8.2477      2.5679     -0.0349      4.9779     30.4698    109.9335
   524.3000      8.2524      2.5801     -0.0278      4.2338     30.4255    108.9703
   524.4000      8.2524      2.5894     -0.0246      3.6704     29.6929    114.2132
   524.5000      8.2554      2.5976     -0.0113      3.1788     28.7667    125.2732
   524.6000      8.2554      2.6003      0.0416      3.0129     28.6185    134.2647
   524.7000      8.2554      2.5880      0.0105      3.7555     29.4728    133.1938
   524.8000      8.2661      2.5687     -0.0157      4.9294     30.4733    123.7868
   524.9000      8.2661      2.5560      0.0088      5.6976     30.8713    114.9390
   525.0000      8.2863      2.5490     -0.0186      6.1216     30.8264    116.3949
   525.1000      8.2863      2.5422      0.0092      6.5332     30.6807    127.2823
   525.2000      8.2863      2.5344      0.0156      7.0076     30.5052    137.0242
   525.3000      8.2954      2.5333     -0.0549      7.0736     30.4050    140.0300
   525.4000      8.2954      2.5429     -0.0185      6.4933     30.4356    139.2261
   525.5000      8.3073      2.5526      0.0023      5.9003     30.3559    139.4700
   525.6000      8.3073      2.5563     -0.0086      5.6788     29.9831    139.1846
   525.7000      8.3073      2.5563      0.0068      5.6770     29.4653    136.4734
   525.8000      8.3098      2.5602     -0.0089      5.4419     28.9974    137.3237
   525.9000      8.3098      2.5735     -0.0085      4.6347     28.5737    142.5215
   526.0000      8.3058      2.5945     -0.0085      3.3645     28.2360    144.3362
   526.1000      8.3058      2.6220      0.0135      1.6990     28.0189    141.5664
   526.2000      8.3058      2.6464      0.0569      0.2157     28.0185    137.5861
   526.3000      8.2976      2.6490      0.0285      0.0635     28.5644    132.8237
   526.4000      8.2976      2.6279      0.0207      1.3385     29.5126    128.2548
   526.5000      8.2999      2.6001      0.0292      3.0257     30.2592    123.9320
   526.6000      8.2999      2.5752     -0.0149      4.5343     30.7363    120.5697
   526.7000      8.2999      2.5538     -0.0171      5.8312     31.2842    120.9008
   526.8000      8.2274      2.5390     -0.0622      6.7273     32.0325    121.9440
   526.9000      8.2274      2.5295     -0.0555      7.3053     32.9134    120.3061
   527.0000      8.1943      2.5127     -0.0458      8.3205     33.6560    119.2627
   527.1000      8.1943      2.4853     -0.0662      9.9828     33.8067    119.9619
   527.2000      8.1943      2.4627     -0.0737     11.3531     33.1996    120.7025
   527.3000      8.1901      2.4569     -0.0456     11.7060     32.3052    124.9859
   527.4000      8.1901      2.4596     -0.0049     11.5386     31.5204    133.8549
   527.5000      8.1892      2.4632      0.0075     11.3201     30.8319    142.7833
   527.6000      8.1892      2.4795      0.0467     10.3337     30.1717    147.6690
   527.7000      8.1892      2.5169      0.0556      8.0655     29.2859    146.5048
   527.8000      8.1937      2.5572      0.1061      5.6229     28.2641    143.5965
   527.9000      8.1937      2.5774      0.0847      4.3978     27.7085    143.5583
   528.0000      8.1901      2.5790      0.1040      4.3030     27.8283    146.6654
   528.1000      8.1901      2.5771      0.0514      4.4197     28.3731    149.6463
   528.2000      8.1901      2.5799      0.0543      4.2511     28.8751    144.3770
   528.3000      8.1858      2.5799      0.0509      4.2471     28.9894    132.2779
   528.4000      8.1858      2.5672      0.0471      5.0196     29.1064    124.2658
   528.5000      8.1894      2.5464      0.0015      6.2792     29.4898    120.8084
   528.6000      8.1894      2.5350     -0.0457      6.9671     29.6267    118.2608
   528.7000      8.1894      2.5413      0.0022      6.5864     29.4402    119.9830
   528.8000      8.1886      2.5546      0.0127      5.7835     29.5342    126.3159
   528.9000      8.1886      2.5621      0.0256      5.3274     30.0187    130.9135
   529.0000      8.1893      2.5677     -0.0136      4.9870     30.4621    130.3349
   529.1000      8.1893      2.5810     -0.0130      4.1791     30.7317    127.2223
   529.2000      8.1893      2.5923      0.0334      3.4985     30.7887    125.4155
   529.3000      8.1903      2.5903      0.0262      3.6158     30.7302    127.5898
   529.4000      8.1903      2.5844      0.0055      3.9758     30.8925    130.6336
   529.5000      8.1919      2.5804      0.0240      4.2196     31.1524    128.0813
   529.6000      8.1919      2.5710      0.0217      4.7888     31.3254    119.4810
   529.7000      8.1919      2.5548     -0.0318      5.7702     31.4694    113.8945
   529.8000      8.1913      2.5406     -0.0296      6.6312     31.4115    118.1913
   529.9000      8.1913      2.5374     -0.0377      6.8232     31.1017    126.9391
   530.0000      8.1849      2.5464     -0.0212      6.2783     30.7781    131.4113
   530.1000      8.1849      2.5567     -0.0190      5.6556     30.3446    129.8391
   530.2000      8.1849      2.5534      0.0011      5.8562     29.6323    127.1809
   530.3000      8.1805      2.5348     -0.0228      6.9807     28.9790    126.6535
   530.4000      8.1805      2.5238     -0.0642      7.6463     28.9119    129.5354
   530.5000      8.1813      2.5365      0.0232      6.8809     29.2714    134.4861
   530.6000      8.1813      2.5552      0.0240      5.7433     29.4170    137.9741
   530.7000      8.1813      2.5609      0.0158      5.3996     29.3537    138.2762
   530.8000      8.1910      2.5492      0.0037      6.1061     29.4194    136.7170
   530.9000      8.1910      2.5277     -0.0154      7.4115     29.5422    137.2914
   531.0000      8.1932      2.5127     -0.0460      8.3209     29.6154    140.3291
   531.1000      8.1932      2.5091     -0.0207      8.5403     29.6488    142.3961
   531.2000      8.1932      2.5077     -0.0533      8.6216     29.7307    142.7017
   531.3000      8.1899      2.5073     -0.0544      8.6473     29.9456    142.4275
   531.4000      8.1899      2.5112     -0.0145      8.4146     29.9459    141.1244
   531.5000      8.1895      2.5149     -0.0166      8.1897     29.5793    141.6317
   531.6000      8.1895      2.5161     -0.0243      8.1143     29.2302    147.5499
   531.7000      8.1895      2.5218     -0.0403      7.7696     29.1217    155.8004
   531.8000      8.1863      2.5338     -0.0114      7.0439     29.4162    159.9738
   531.9000      8.1863      2.5377      0.0313      6.8054     30.0734    155.1968
   532.0000      8.1935      2.5251     -0.0005      7.5714     30.3938    147.0224
   532.1000      8.1935      2.5082     -0.0235      8.5926     30.0843    147.5334
   532.2000      8.1935      2.4975      0.0051      9.2451     29.9221    153.5806
   532.3000      8.1925      2.4941     -0.0491      9.4464     30.2683    152.0220
   532.4000      8.1925      2.5012     -0.0094      9.0163     30.4909    145.3336
   532.5000      8.1927      2.5112      0.0373      8.4132     30.2421    145.2977
   532.6000      8.1927      2.5118     -0.0058      8.3733     29.9589    153.1102
   532.7000      8.1927      2.5057     -0.0072      8.7469     30.1651    161.8279
   532.8000      8.1915      2.4989     -0.0073      9.1551     30.6807    169.2502
   532.9000      8.1915      2.4902     -0.0150      9.6870     30.8775    176.5435
   533.0000      8.1924      2.4793     -0.0198     10.3441     30.6401    180.2975
   533.1000      8.1924      2.4735     -0.0022     10.6998     30.3980    176.8110
   533.2000      8.1924      2.4800     -0.0005     10.3044     30.3468    171.0984
   533.3000      8.1936      2.4924      0.0566      9.5538     30.1419    168.3908
   533.4000      8.1936      2.4920      0.0608      9.5774     29.6093    169.2210
   533.5000      8.2196      2.4773      0.0451     10.4679     29.0238    172.1602
