~Version Information
VERS.                      2.0: CWLS Log ASCII Standard - VERSION 2.0
WRAP.                       NO: One line per depth step
~Well Information Block
STRT.FT                -6.2500: 
STOP.FT              2316.0000: 
STEP.FT                 0.2500: 
NULL.                -999.2500: 
COMP.          Pioneer Natural Resources: COMPANY
WELL.             Trimax 44-23: WELL
FLD.           Purgatorie River: FIELD
LOC.           527' FSL & 1064' FEL------: LOCATION
PROV.                       CO: PROVINCE
CNTY.               Las Animas: COUNTRY
SRVC.          Patterson Wireline: SERVICE COMPANY
DATE.          Sat Mar 19 11:18:53 2005: LOG DATE
UWI.           05 071 08326 00: UNIQUE WELL ID
~Curve Information Block
DEPT.FT            0 000 00 00: Depth
CCL.                          : Casing Collar Locator
TT3.usec                      : CBL 3' Travel Time
AMP3.mV                       : CBL 3' Amplitude
GR.GAPI                       : Gamma Ray
~Parameter Information Block
~A  Depth       CCL         TT3         AMP3         GR     
    -6.2500   -999.2500   -999.2500   -999.2500   -999.2500
    -6.0000   -999.2500   -999.2500   -999.2500     52.5047
    -5.7500   -999.2500   -999.2500   -999.2500     50.8332
    -5.5000   -999.2500   -999.2500   -999.2500     49.3274
    -5.2500   -999.2500   -999.2500   -999.2500     48.3308
    -5.0000   -999.2500   -999.2500   -999.2500     48.1300
    -4.7500   -999.2500   -999.2500   -999.2500     48.9075
    -4.5000   -999.2500   -999.2500   -999.2500     50.4906
    -4.2500   -999.2500   -999.2500   -999.2500     52.3663
    -4.0000   -999.2500   -999.2500   -999.2500     54.0649
    -3.7500   -999.2500   -999.2500   -999.2500     55.4203
    -3.5000   -999.2500   -999.2500   -999.2500     56.3969
    -3.2500   -999.2500   -999.2500   -999.2500     56.8803
    -3.0000   -999.2500   -999.2500   -999.2500     56.8758
    -2.7500   -999.2500   -999.2500   -999.2500     56.7600
    -2.5000   -999.2500   -999.2500   -999.2500     57.0543
    -2.2500   -999.2500   -999.2500   -999.2500     57.9874
    -2.0000   -999.2500   -999.2500   -999.2500     59.4074
    -1.7500   -999.2500   -999.2500   -999.2500     60.9541
    -1.5000   -999.2500   -999.2500   -999.2500     62.1208
    -1.2500   -999.2500   -999.2500   -999.2500     62.2818
    -1.0000   -999.2500   -999.2500   -999.2500     60.9312
    -0.7500   -999.2500   1167.0000      1.8154     58.0357
    -0.5000   -999.2500   1167.0000      1.8095     54.2515
    -0.2500   -999.2500   1167.0000      1.8178     50.7028
     0.0000   -999.2500   1167.0000      1.8258     48.1560
     0.2500   -999.2500   1167.0000      1.8247     46.2061
     0.5000   -999.2500   1167.0000      1.8189     43.6286
     0.7500   -999.2500   1167.0000      1.8188     39.8020
     1.0000   -999.2500   1167.0000      1.8293     35.4766
     1.2500   -999.2500   1167.0000      1.8446     31.9268
     1.5000   -999.2500   1167.0000      1.8537     29.6800
     1.7500   -999.2500   1167.0000      1.8524     28.2946
     2.0000   -999.2500   1167.0000      1.8496     27.0616
     2.2500   -999.2500   1167.0000      1.8581     25.5708
     2.5000   -999.2500   1167.0000      1.8801     23.8275
     2.7500   -999.2500   1167.0000      1.9053     22.3205
     3.0000   -999.2500   1167.0000      1.9226     21.9396
     3.2500   -999.2500   1167.0000      1.9297     23.3729
     3.5000   -999.2500   1167.0000      1.9308     26.4785
     3.7500   -999.2500   1167.0000      1.9308     30.4403
     4.0000   -999.2500   1167.0000      1.9334     34.4255
     4.2500   -999.2500   1167.0000      1.9413     37.9143
     4.5000   -999.2500   1167.0000      1.9517     40.7112
     4.7500   -999.2500   1167.0000      1.9566     43.0028
     5.0000      0.0000   1167.0000      1.9523     45.2145
     5.2500      0.0000   1167.0000      1.9442     47.6254
     5.5000      0.0000   1167.0000      1.9394     50.2833
     5.7500      0.0000   1167.0000      1.9380     53.3168
     6.0000      0.0000   1167.0000      1.9359     57.0261
     6.2500      0.0000   1167.0000      1.9312     61.4690
     6.5000      0.0000   1167.0000      1.9251     66.0669
     6.7500      0.0000   1167.0000      1.9167     69.8714
     7.0000      0.0000   1167.0000      1.9014     72.3122
     7.2500      1.0000   1167.0000      1.8736     73.5056
     7.5000      1.0000   1167.0000      1.8327     73.7056
     7.7500      1.0000   1167.0000      1.7859     72.7212
     8.0000      0.0000   1167.0000      1.7444     70.2484
     8.2500      0.0000   1167.0000      1.7157     66.6542
     8.5000      0.0000   1167.0000      1.7023     62.9702
     8.7500      0.0000   1167.0000      1.7045     60.0856
     9.0000      0.0000   1167.0000      1.7227     58.3747
     9.2500      0.0000   1167.0000      1.7560     58.0929
     9.5000      0.0000   1167.0000      1.7982     59.4930
     9.7500      0.0000   1167.0000      1.8384     62.1834
    10.0000      0.0000   1167.0000      1.8683     64.7964
    10.2500      0.0000   1167.0000      1.8877     65.8362
    10.5000      0.0000   1167.0000      1.8975     64.9232
    10.7500      0.0000   1167.0000      1.8913     63.0608
    11.0000      0.0000   1166.9426      1.8633     61.6632
    11.2500      0.0000   1166.5656      1.8300     61.3714
    11.5000      0.0000   1164.6465      1.8625     61.8092
    11.7500      0.0000   1157.0369      2.1641     62.2525
    12.0000      0.0000   1133.5187      3.2239     62.2394
    12.2500      0.0000   1076.8583      5.9321     61.6420
    12.5000      0.0000    970.4185     11.3381     60.7270
    12.7500      0.0000    814.4576     19.8711     60.3021
    13.0000      0.0000    636.1400     30.5560     61.2279
    13.2500      0.0000    476.9710     41.1951     63.4190
    13.5000      0.0000    365.9836     49.6452     65.6431
    13.7500      0.0000    305.4903     55.0104     66.4629
    14.0000      0.0000    279.7229     57.6820     65.2444
    14.2500      0.0000    271.2412     58.4911     62.4914
    14.5000      0.0000    269.4555     57.9402     59.5596
    14.7500      0.0000    270.4312     56.0115     57.9518
    15.0000      0.0000    274.0994     52.4372     58.5250
    15.2500      0.0000    282.7278     47.1380     61.0292
    15.5000      0.0000    301.3220     40.5303     64.1918
    15.7500      0.0000    339.5167     33.4647     66.4481
    16.0000      0.0000    411.4796     26.8353     66.9819
    16.2500      0.0000    528.3773     21.2114     66.0281
    16.5000      0.0000    684.6027     16.7764     64.2262
    16.7500      0.0000    851.9615     13.4669     62.2220
    17.0000      0.0000    993.7972     11.0746     60.9515
    17.2500      1.0000   1087.9155      9.3037     61.4845
    17.5000      1.0000   1135.1680      7.8771     64.1435
    17.7500      0.0000   1148.5328      6.6386     68.0304
    18.0000      0.0000   1138.8657      5.5682     71.5670
    18.2500      0.0000   1111.2087      4.7280     73.4332
    18.5000      0.0000   1070.3231      4.1935     73.2414
    18.7500      0.0000   1025.5120      3.9914     71.7546
    19.0000      0.0000    988.5037      4.0664     70.3700
    19.2500      0.0000    967.2643      4.3022     70.0458
    19.5000      0.0000    962.0411      4.5719     70.6917
    19.7500      0.0000    965.8210      4.7811     71.5966
    20.0000      0.0000    967.9456      4.8903     72.0984
    20.2500      0.0000    960.0260      4.9153     71.6873
    20.5000      0.0000    942.1958      4.9055     69.8611
    20.7500      0.0000    924.0507      4.9107     66.3455
    21.0000      0.0000    916.6764      4.9549     61.5650
    21.2500      0.0000    922.1545      5.0307     56.6740
    21.5000      0.0000    932.5757      5.1090     52.8886
    21.7500      0.0000    939.6445      5.1601     50.6952
    22.0000      0.0000    941.9281      5.1731     49.6897
    22.2500      0.0000    941.5132      5.1607     49.1230
    22.5000      0.0000    938.2139      5.1452     48.6390
    22.7500      0.0000    930.7101      5.1389     48.5559
    23.0000      0.0000    921.1976      5.1417     49.3273
    23.2500      0.0000    915.7711      5.1509     50.6942
    23.5000      0.0000    919.7152      5.1716     51.7198
    23.7500      0.0000    932.3591      5.2133     51.8154
    24.0000      0.0000    946.1661      5.2768     51.3523
    24.2500      0.0000    951.9919      5.3461     51.0370
    24.5000      0.0000    946.7501      5.3949     51.0569
    24.7500      0.0000    935.3218      5.4018     51.1675
    25.0000      0.0000    924.9062      5.3618     51.3147
    25.2500      0.0000    919.4089      5.2868     51.6534
    25.5000      0.0000    919.7755      5.1992     51.9342
    25.7500      0.0000    926.5641      5.1227     51.4003
    26.0000      0.0000    938.8950      5.0767     49.6761
    26.2500      0.0000    951.0773      5.0728     47.5370
    26.5000      0.0000    953.9437      5.1087     46.3286
    26.7500      0.0000    942.5283      5.1637     46.6263
    27.0000      0.0000    921.2872      5.2047     47.8376
