~Version Information
VERS.                      2.0: CWLS Log ASCII Standard - VERSION 2.0
WRAP.                       NO: One line per depth step
~Well Information Block
STRT.FT               -12.0000: 
STOP.FT              2137.5000: 
STEP.FT                 0.2500: 
NULL.                -999.2500: 
COMP.          Pioneer Natural Resources: COMPANY
WELL.           Ogallela 44-12: WELL
FLD.           Purgatorie River: FIELD
LOC.           610' FSL & 671' FEL------------: LOCATION
PROV.                       CO: PROVINCE
CNTY.               Las Animas: COUNTRY
SRVC.          Patterson Wireline: SERVICE COMPANY
DATE.          Thu Apr 07 14:25:46 2005: LOG DATE
UWI.           05 071 08283 00: UNIQUE WELL ID
~Curve Information Block
DEPT.FT            0 000 00 00: Depth
CCL.                          : Casing Collar Locator
TT3.usec                      : CBL 3' Travel Time
AMP3.mV                       : CBL 3' Amplitude
ATT3.db/ft                    : CBL 3' Attenuation
GR.GAPI                       : Gamma Ray
~Parameter Information Block
~A  Depth       CCL         TT3         AMP3        ATT3         GR     
# ...
  1556.0000      0.0000    719.3660      4.1391     -9.0664     95.8056
  1556.2500      0.0000    731.1281      4.0413     -9.1356     93.8253
  1556.5000      0.0000    721.7712      4.0068     -9.1604     94.4825
  1556.7500      0.0000    690.4418      4.0493     -9.1298     97.2316
  1557.0000      0.0000    644.6762      4.0981     -9.0951    100.3675
  1557.2500      0.0000    598.5032      4.0664     -9.1177    102.6010
  1557.5000      0.0000    566.3044      3.9320     -9.2150    103.9099
  1557.7500      0.0000    556.5798      3.7575     -9.3464    105.1772
  1558.0000      0.0000    571.5121      3.6245     -9.4507    107.2328
  1558.2500      0.0000    607.7457      3.5475     -9.5129    110.2422
  1558.5000      0.0000    654.0140      3.4616     -9.5839    113.8981
  1558.7500      0.0000    693.5182      3.3035     -9.7192    118.0494
  1559.0000      0.0000    714.5400      3.0895     -9.9132    122.8924
  1559.2500      0.0000    718.2195      2.9010    -10.0954    128.3614
  1559.5000      0.0000    714.8561      2.8031    -10.1948    133.6161
  1559.7500      0.0000    714.1511      2.7883    -10.2101    137.5181
  1560.0000      0.0000    719.4304      2.7911    -10.2072    139.4876
  1560.2500      0.0000    728.8199      2.7465    -10.2539    139.7589
  1560.5000      0.0000    738.7603      2.6479    -10.3597    139.1532
  1560.7500      0.0000    745.5593      2.5581    -10.4595    138.8621
  1561.0000      0.0000    746.1700      2.5502    -10.4686    140.1320
  1561.2500      0.0000    740.1980      2.6283    -10.3813    143.6853
  1561.5000     -2.0000    730.6277      2.7176    -10.2845    149.1127
  1561.7500     -2.0000    720.8396      2.7375    -10.2633    154.6830
  1562.0000      0.0000    711.3785      2.6778    -10.3272    158.0628
  1562.2500      0.0000    700.8461      2.5942    -10.4190    157.7421
  1562.5000      0.0000    689.5630      2.5352    -10.4857    153.9152
  1562.7500      0.0000    680.7802      2.4918    -10.5356    147.9594
  1563.0000      0.0000    677.6790      2.4317    -10.6063    141.2367
  1563.2500      0.0000    680.2622      2.3633    -10.6889    134.4919
  1563.5000      0.0000    686.3975      2.3357    -10.7229    127.9642
  1563.7500      0.0000    695.6273      2.3722    -10.6781    121.5080
  1564.0000      0.0000    710.5880      2.4281    -10.6105    114.7327
  1564.2500      0.0000    733.8597      2.4313    -10.6068    107.6752
  1564.5000      0.0000    763.5328      2.3577    -10.6957    101.4864
  1564.7500      0.0000    791.9385      2.2658    -10.8109     97.8612
  1565.0000      0.0000    808.9559      2.2544    -10.8255     97.3984
  1565.2500      0.0000    807.6972      2.3851    -10.6624     98.8330
  1565.5000      0.0000    788.8340      2.6397    -10.3686    100.1813
  1565.7500      0.0000    760.6094      2.9543    -10.0427    100.5276
  1566.0000      0.0000    734.4357      3.2898     -9.7312    100.7307
  1566.2500      0.0000    719.1953      3.6572     -9.4247    102.7073
  1566.5000      0.0000    717.7654      4.0624     -9.1205    107.9865
  1566.7500      0.0000    726.6478      4.4426     -8.8614    116.4567
  1567.0000      0.0000    738.1437      4.6881     -8.7057    126.1419
  1567.2500      0.0000    744.9625      4.7389     -8.6745    134.2888
  1567.5000      0.0000    744.9037      4.6495     -8.7296    139.2277
  1567.7500      0.0000    741.0801      4.5438     -8.7962    141.6761
  1568.0000      0.0000    737.3714      4.5034     -8.8221    144.1610
  1568.2500      0.0000    735.0418      4.5052     -8.8209    148.7771
  1568.5000      0.0000    734.0995      4.4664     -8.8460    155.4171
  1568.7500      0.0000    735.6819      4.3441     -8.9264    162.1834
  1569.0000      0.0000    741.3392      4.1845     -9.0347    167.2890
  1569.2500      0.0000    750.9862      4.0695     -9.1154    170.3406
  1569.5000      0.0000    762.7076      4.0247     -9.1475    171.9533
  1569.7500      0.0000    773.8899      3.9949     -9.1690    172.5890
  1570.0000      0.0000    782.1775      3.9130     -9.2290    171.9658
  1570.2500      0.0000    786.1942      3.7830     -9.3268    169.4588
  1570.5000      0.0000    785.6962      3.6843     -9.4033    164.8784
  1570.7500      0.0000    780.8684      3.6924     -9.3970    158.6948
  1571.0000      0.0000    772.2396      3.8006     -9.3134    151.5372
  1571.2500      0.0000    761.8513      3.9321     -9.2149    143.7189
  1571.5000      0.0000    753.1993      4.0238     -9.1481    135.4526
  1571.7500      0.0000    748.5855      4.0749     -9.1116    127.4464
  1572.0000      0.0000    747.2248      4.1096     -9.0870    121.0818
  1572.2500      0.0000    747.2725      4.1237     -9.0772    117.8757
  1572.5000      0.0000    748.6735      4.0935     -9.0984    118.7454
  1572.7500      0.0000    752.0358      4.0272     -9.1457    123.5400
  1573.0000      0.0000    755.2895      3.9755     -9.1831    130.8710
  1573.2500      0.0000    753.9534      3.9794     -9.1802    138.3147
  1573.5000      0.0000    745.2769      4.0172     -9.1529    143.3599
  1573.7500      0.0000    730.7173      4.0180     -9.1523    144.6732
  1574.0000      0.0000    714.1004      3.9348     -9.2129    142.3902
  1574.2500      0.0000    698.7188      3.7993     -9.3144    137.4725
  1574.5000      0.0000    686.6077      3.6994     -9.3915    131.4617
  1574.7500      0.0000    679.3201      3.6949     -9.3950    126.5994
  1575.0000      0.0000    678.3533      3.7610     -9.3436    125.0385
  1575.2500      0.0000    684.8507      3.8294     -9.2915    127.3911
  1575.5000      0.0000    698.8076      3.8728     -9.2588    132.3839
  1575.7500      0.0000    718.0704      3.9167     -9.2263    138.1360
  1576.0000      0.0000    738.3905      3.9658     -9.1901    143.5470
  1576.2500      0.0000    755.4715      3.9730     -9.1849    148.3591
  1576.5000      0.0000    767.3560      3.9069     -9.2335    152.3237
  1576.7500      0.0000    774.3504      3.8174     -9.3006    155.0507
  1577.0000      0.0000    776.8506      3.7891     -9.3222    156.8270
  1577.2500      0.0000    774.6851      3.8358     -9.2867    158.8369
  1577.5000      0.0000    769.2209      3.8843     -9.2503    161.9319
  1577.7500      0.0000    764.6036      3.8707     -9.2604    165.3055
  1578.0000      0.0000    764.9022      3.8155     -9.3020    166.8397
  1578.2500      0.0000    770.1642      3.7767     -9.3316    165.0317
  1578.5000      0.0000    776.8608      3.7574     -9.3465    160.5509
  1578.7500      0.0000    782.1628      3.7047     -9.3874    155.8696
  1579.0000      0.0000    786.1170      3.6009     -9.4696    153.4388
  1579.2500      0.0000    789.6987      3.5055     -9.5474    153.9506
  1579.5000      0.0000    792.8755      3.4777     -9.5704    156.0633
  1579.7500      0.0000    795.2589      3.4905     -9.5598    158.0069
  1580.0000      0.0000    797.0327      3.4640     -9.5818    159.5204
  1580.2500      0.0000    798.4108      3.3719     -9.6598    161.8390
  1580.5000      0.0000    798.9428      3.2700     -9.7487    165.7879
  1580.7500      0.0000    797.7742      3.2140     -9.7987    170.3703
  1581.0000      0.0000    794.3103      3.1916     -9.8190    173.2947
  1581.2500      0.0000    788.5415      3.1590     -9.8487    172.6465
  1581.5000      0.0000    780.7291      3.1152     -9.8892    168.1047
  1581.7500      0.0000    770.8629      3.0960     -9.9070    160.7609
  1582.0000      0.0000    758.7968      3.1062     -9.8975    152.0538
  1582.2500      0.0000    745.1550      3.1054     -9.8982    143.3240
  1582.5000      0.0000    731.6392      3.0763     -9.9255    136.3568
  1582.7500      0.0000    719.9166      3.0648     -9.9363    133.2633
  1583.0000      0.0000    710.2690      3.1249     -9.8801    134.7070
  1583.2500      0.0000    701.7137      3.2445     -9.7714    138.4271
  1583.5000      0.0000    693.5063      3.3518     -9.6772    140.4997
  1583.7500      0.0000    686.1714      3.3902     -9.6442    138.4657
