~Version Information
VERS.                      2.0: CWLS Log ASCII Standard - VERSION 2.0
WRAP.                       NO: One line per depth step
~Well Information Block
STRT.FT               899.1000: 
STOP.FT              2501.5000: 
STEP.FT                 0.1000: 
NULL.                -999.2500: 
COMP.          Petrogulf Corporation: COMPANY
WELL.           Deremer 17-21V: WELL
FLD.           Purgatorie River: FIELD
LOC.           851' FNL & 963' FWL: LOCATION
CNTY.               Las Animas: COUNTY
SRVC.                         : SERVICE COMPANY
DATE.          Tue Nov 18 09:12:06 2003: LOG DATE
UWI.                          : UNIQUE WELL ID
STAT.                 Colorado: STATE
~Curve Information Block
DEPT.FT            0 000 00 00: Depth
DPOR.pu                       : CDL Density Porosity
NEU.NAPI                      : Neutron
NPOR.pu                       : Neutron Porosity
RHOB.g/cc                     : CDL Bulk Density
RHOC.g/cc                     : CDL Density Correction
GR.GAPI                       : Gamma Ray
DCAL.in                       : CDL Caliper
~Parameter Information Block
~A  Depth       DPOR        NEU         NPOR        RHOB        RHOC         GR         DCAL    
# ...
  1974.3000     15.5384   1421.2485     11.9396      2.3936      0.1518     59.4824      7.9412
  1974.4000     17.0554   1427.0344     11.6590      2.3686      0.0949     53.2458      7.9412
  1974.5000     17.3409   1427.1490     11.6534      2.3639      0.1385     49.5363      7.9224
  1974.6000     16.8587   1420.3414     11.9835      2.3718      0.1656     47.5968      7.9224
  1974.7000     15.6308   1411.9304     12.3898      2.3921      0.1497     46.0921      7.9224
  1974.8000     13.6106   1418.0288     12.0954      2.4254      0.2179     46.6590      7.8847
  1974.9000     11.8618   1436.9709     11.1753      2.4543      0.1687     49.7295      7.8847
  1975.0000     11.0815   1443.3153     10.8653      2.4672      0.2179     50.8674      7.8500
  1975.1000     10.9815   1433.0206     11.3678      2.4688      0.2178     49.8267      7.8500
  1975.2000     11.1184   1429.2013     11.5537      2.4665      0.1758     50.4761      7.8500
  1975.3000     11.6034   1439.7124     11.0414      2.4585      0.2129     52.0155      7.8435
  1975.4000     12.3565   1449.9629     10.5396      2.4461      0.0956     50.7694      7.8435
  1975.5000     12.8466   1450.7430     10.5013      2.4380      0.1336     45.8033      7.8551
  1975.6000     13.5165   1449.1268     10.5806      2.4270      0.1250     41.8799      7.8551
  1975.7000     14.6406   1451.2445     10.4767      2.4084      0.0187     42.9530      7.8551
  1975.8000     14.9533   1452.9485     10.3930      2.4033      0.0382     47.2167      7.8713
  1975.9000     14.1724   1451.3601     10.4710      2.4162      0.1908     50.0404      7.8713
  1976.0000     13.8247   1447.8104     10.6451      2.4219      0.1277     48.4711      7.8824
  1976.1000     14.8429   1446.9208     10.6887      2.4051      0.1405     45.0429      7.8824
  1976.2000     16.8244   1454.4186     10.3208      2.3724      0.0653     43.7200      7.8824
  1976.3000     18.5059   1465.2709      9.7862      2.3447      0.0853     44.2176      7.8912
  1976.4000     18.9705   1464.9124      9.8039      2.3370      0.0387     46.1263      7.8912
  1976.5000     18.1496   1448.3479     10.6188      2.3505      0.0702     48.2615      7.8972
  1976.6000     16.0834   1426.9670     11.6622      2.3846      0.0107     47.8056      7.8972
  1976.7000     12.9599   1415.7648     12.2048      2.4362      0.1311     47.6157      7.8972
  1976.8000     10.2722   1415.1907     12.2325      2.4805      0.1795     50.8541      7.9006
  1976.9000      9.1542   1410.7056     12.4488      2.4990      0.1405     52.9452      7.9006
  1977.0000      9.0100   1389.0215     13.4880      2.5013      0.2031     49.0786      7.9011
  1977.1000      8.9469   1350.4033     15.3127      2.5024      0.1666     42.7756      7.9011
  1977.2000      8.4612   1305.8115     17.3810      2.5104      0.2005     41.0407      7.9011
  1977.3000      8.4679   1266.7158     19.1632      2.5103      0.2550     44.2385      7.8996
  1977.4000     10.1562   1243.9838     20.1871      2.4824      0.1702     48.8548      7.8996
  1977.5000     12.6661   1236.9897     20.5004      2.4410      0.0960     54.1527      7.9071
  1977.6000     14.7148   1232.0459     20.7214      2.4072      0.1000     59.5937      7.9071
  1977.7000     16.1695   1222.1183     21.1641      2.3832     -0.0068     65.2770      7.9071
  1977.8000     17.1728   1212.5277     21.5902      2.3666      0.0131     73.7332      7.9165
  1977.9000     17.7620   1209.8270     21.7100      2.3569      0.0102     85.1588      7.9165
  1978.0000     17.3464   1215.0673     21.4775      2.3638     -0.0050     93.2515      7.9118
  1978.1000     15.2848   1230.2749     20.8005      2.3978      0.0802     93.8873      7.9118
  1978.2000     12.4317   1252.9038     19.7863      2.4449      0.1461     94.1079      7.9118
  1978.3000     10.2223   1271.2714     18.9569      2.4813      0.1586    100.2784      7.9074
  1978.4000      9.0338   1275.7852     18.7522      2.5009      0.1320    105.5081      7.9074
  1978.5000      8.4402   1264.6257     19.2577      2.5107      0.2263     99.0893      7.9059
  1978.6000      7.5707   1248.6724     19.9766      2.5251      0.1859     83.6796      7.9059
  1978.7000      5.6932   1246.8918     20.0566      2.5561      0.2120     72.4517      7.9059
  1978.8000      3.7313   1266.4497     19.1752      2.5884      0.2387     70.5517      7.8829
  1978.9000      3.4848   1293.0465     17.9659      2.5925      0.2408     73.4939      7.8829
  1979.0000      4.9777   1304.9049     17.4226      2.5679      0.1571     78.1090      7.8521
  1979.1000      6.5407   1297.7485     17.7508      2.5421      0.0867     84.3172      7.8521
  1979.2000      7.6357   1284.6273     18.3501      2.5240      0.0473     88.1051      7.8521
  1979.3000      8.9301   1275.7384     18.7543      2.5027      0.0504     85.8322      7.8558
  1979.4000     10.1593   1269.8810     19.0199      2.4824      0.0000     82.5517      7.8558
  1979.5000     11.2417   1265.0219     19.2398      2.4645      0.0779     81.2354      7.8748
  1979.6000     13.1536   1271.0120     18.9687      2.4330      0.0123     80.3580      7.8748
  1979.7000     15.3323   1291.3226     18.0447      2.3970     -0.0626     82.4039      7.8748
  1979.8000     16.7364   1312.2618     17.0842      2.3739      0.0239     89.1096      7.8884
  1979.9000     17.3482   1318.5880     16.7924      2.3638     -0.0771     97.7430      7.8884
  1980.0000     16.3807   1310.0103     17.1879      2.3797     -0.0986    102.8428      7.8958
  1980.1000     13.7888   1307.8683     17.2865      2.4225      0.0123    101.3366      7.8958
  1980.2000     11.5411   1326.3879     16.4316      2.4596      0.0437     98.3553      7.8958
  1980.3000     10.9651   1346.3337     15.5032      2.4691      0.0717     96.6262      7.8980
  1980.4000     11.8242   1348.0615     15.4224      2.4549      0.1029     92.8972      7.8980
  1980.5000     13.4101   1341.7505     15.7172      2.4287      0.0438     86.4238      7.8976
  1980.6000     14.7266   1340.1593     15.7914      2.4070      0.0352     80.6829      7.8976
  1980.7000     14.9344   1341.5253     15.7277      2.4036      0.0996     77.4965      7.8976
  1980.8000     14.1991   1339.2506     15.8338      2.4157      0.1016     75.6109      7.8939
  1980.9000     12.9243   1334.1582     16.0708      2.4367      0.0523     76.8610      7.8939
  1981.0000     11.4992   1333.4962     16.1016      2.4603      0.1094     84.4792      7.8874
  1981.1000     10.3751   1336.1934     15.9762      2.4788      0.1228     93.5575      7.8874
  1981.2000      9.0927   1337.6899     15.9065      2.5000      0.0587     94.2973      7.8874
  1981.3000      7.5850   1339.0687     15.8423      2.5248      0.1635     85.5286      7.8822
  1981.4000      7.2769   1343.7163     15.6255      2.5299      0.1962     75.6793      7.8822
  1981.5000      8.7879   1352.0221     15.2369      2.5050      0.1532     70.9153      7.8796
  1981.6000     10.8594   1359.9504     14.8646      2.4708      0.1164     70.8054      7.8796
  1981.7000     11.6232   1361.7728     14.7789      2.4582      0.1332     73.7545      7.8796
  1981.8000     10.1678   1357.5745     14.9763      2.4822      0.1627     76.8702      7.8760
  1981.9000      7.6391   1357.6063     14.9748      2.5240      0.1658     76.2654      7.8760
  1982.0000      5.8010   1365.3585     14.6099      2.5543      0.1590     74.1168      7.8706
  1982.1000      5.2068   1372.3457     14.2800      2.5641      0.2235     74.7161      7.8706
  1982.2000      5.1517   1378.7020     13.9788      2.5650      0.2192     75.3759      7.8706
  1982.3000      4.8545   1395.0610     13.1997      2.5699      0.2396     72.5223      7.8678
  1982.4000      4.7067   1418.5670     12.0693      2.5723      0.2279     68.8780      7.8678
  1982.5000      5.8529   1435.6714     11.2387      2.5534      0.2737     67.5670      7.8659
  1982.6000      8.6086   1439.3257     11.0603      2.5080      0.1876     65.6370      7.8659
