~Version Information
VERS.                      2.0: CWLS Log ASCII Standard - VERSION 2.0
WRAP.                       NO: One line per depth step
~Well Information Block
STRT.FT               647.0000: 
STOP.FT              1167.5000: 
STEP.FT                 0.2500: 
NULL.                -999.2500: 
COMP.          Pioneer Natural Resources: COMPANY
WELL.             Linda T 32-3: WELL
FLD.           Purgatoire River: FIELD
LOC.           1350' FNL & 2290' FEL: LOCATION
PROV.                 Colorado: PROVINCE
CNTY.               Las Animas: COUNTRY
SRVC.                Patterson: SERVICE COMPANY
DATE.          Sat Feb 05 06:41:02 2005: LOG DATE
UWI.           05 071 08215 00: UNIQUE WELL ID
~Curve Information Block
DEPT.FT            0 000 00 00: Depth
SN.Ohm-m                      : IEL Short Normal
SP.mV                         : IEL Spontaneous Potential
DIR.Ohm-m                     : IEL Induction Resistivity
GR.GAPI                       : Gamma Ray
~Parameter Information Block
~A  Depth        SN          SP         DIR          GR     
# ...
  1082.5000     16.8226     61.1005     15.3052    120.6833
  1082.7500     16.9141     60.6881     15.4847    119.3392
  1083.0000     17.0186     60.2706     15.5973    115.0490
  1083.2500     17.1378     59.8803     15.6441    111.7685
  1083.5000     17.2793     59.5323     15.6313    108.8293
  1083.7500     17.4560     59.2342     15.5568    108.9394
  1084.0000     17.6772     58.9924     15.4116    111.0896
  1084.2500     17.9227     58.8094     15.1915    112.4708
  1084.5000     18.1220     58.6825     14.9096    112.9784
  1084.7500     18.1745     58.6085     14.5974    112.4135
  1085.0000     18.0123     58.5920     14.2958    111.5664
  1085.2500     17.6520     58.6440     14.0388    111.8070
  1085.5000     17.1778     58.7748     13.8412    113.9432
  1085.7500     16.6789     58.9869     13.6958    116.2662
  1086.0000     16.2041     59.2714     13.5814    119.8196
  1086.2500     15.7501     59.6039     13.4748    121.4096
  1086.5000     15.2783     59.9447     13.3587    121.9645
  1086.7500     14.7705     60.2472     13.2212    121.4368
  1087.0000     14.2893     60.4693     13.0540    120.6746
  1087.2500     13.9615     60.5845     12.8552    120.8491
  1087.5000     13.8739     60.5895     12.6375    121.8778
  1087.7500     13.9861     60.5080     12.4287    122.0577
  1088.0000     14.1598     60.3846     12.2594    119.7720
  1088.2500     14.2817     60.2652     12.1492    116.5011
  1088.5000     14.3346     60.1771     12.1018    111.1081
  1088.7500     14.3560     60.1238     12.1114    108.8397
  1089.0000     14.3902     60.0953     12.1708    108.6166
  1089.2500     14.4676     60.0789     12.2765    109.9401
  1089.5000     14.5632     60.0647     12.4265    112.3232
  1089.7500     14.6001     60.0454     12.6165    113.7747
  1090.0000     14.5273     60.0136     12.8347    116.2865
  1090.2500     14.3619     59.9563     13.0569    118.4526
  1090.5000     14.1572     59.8554     13.2473    121.8871
  1090.7500     13.9710     59.6986     13.3693    123.6256
  1091.0000     13.8608     59.4934     13.4032    124.7044
  1091.2500     13.8802     59.2705     13.3563    124.5438
  1091.5000     14.0470     59.0709     13.2573    123.6676
  1091.7500     14.3112     58.9232     13.1408    122.8757
  1092.0000     14.5881     58.8274     13.0360    121.3497
  1092.2500     14.8312     58.7561     12.9631    120.1965
  1092.5000     15.0403     58.6706     12.9368    118.8682
  1092.7500     15.2147     58.5379     12.9680    118.6181
  1093.0000     15.3418     58.3455     13.0660    119.3960
  1093.2500     15.4157     58.1064     13.2374    120.5340
  1093.5000     15.4202     57.8525     13.4820    122.4205
  1093.7500     15.3250     57.6160     13.7862    123.0405
  1094.0000     15.1617     57.4108     14.1194    121.5772
  1094.2500     15.0609     57.2230     14.4425    118.4727
  1094.5000     15.1519     57.0173     14.7270    110.6207
  1094.7500     15.4643     56.7559     14.9673    103.7991
  1095.0000     15.9350     56.4222     15.1727     92.8824
  1095.2500     16.4933     56.0318     15.3486     86.2871
  1095.5000     17.1343     55.6274     15.4877     78.8109
  1095.7500     17.8733     55.2634     15.5813     75.7385
  1096.0000     18.6440     54.9904     15.6366     74.0357
  1096.2500     19.2898     54.8446     15.6795     74.8747
  1096.5000     19.6632     54.8441     15.7400     79.0654
  1096.7500     19.7182     54.9897     15.8327     83.4356
  1097.0000     19.5127     55.2682     15.9467     91.0708
  1097.2500     19.1397     55.6503     16.0493     96.1701
  1097.5000     18.6596     56.0874     16.0990    103.2480
  1097.7500     18.0935     56.5153     16.0604    107.3871
  1098.0000     17.4630     56.8690     15.9138    112.0093
  1098.2500     16.8195     57.0984     15.6589    113.5970
  1098.5000     16.2304     57.1796     15.3132    113.9238
  1098.7500     15.7446     57.1182     14.9077    113.4328
  1099.0000     15.3687     56.9473     14.4807    112.6104
  1099.2500     15.0735     56.7168     14.0684    112.0985
  1099.5000     14.8141     56.4778     13.6968    111.1649
  1099.7500     14.5501     56.2667     13.3793    110.4495
  1100.0000     14.2729     56.0962     13.1178    109.6711
  1100.2500     14.0035     55.9565     12.9078    109.6812
  1100.5000     13.7567     55.8256     12.7412    110.8110
  1100.7500     13.5319     55.6851     12.6084    112.2401
  1101.0000     13.3302     55.5306     12.5008    115.0540
  1101.2500     13.1580     55.3704     12.4122    117.1723
  1101.5000     13.0171     55.2150     12.3386    120.1474
  1101.7500     12.9011     55.0692     12.2748    121.4729
  1102.0000     12.8023     54.9342     12.2116    121.9599
  1102.2500     12.7193     54.8144     12.1376    121.6191
  1102.5000     12.6625     54.7186     12.0438    121.3440
  1102.7500     12.6438     54.6508     11.9284    121.8648
  1103.0000     12.6501     54.6024     11.7967    124.1633
  1103.2500     12.6424     54.5512     11.6580    126.9337
  1103.5000     12.5992     54.4704     11.5219    132.9823
  1103.7500     12.5344     54.3388     11.3970    137.6382
  1104.0000     12.4577     54.1499     11.2913    143.4999
  1104.2500     12.3597     53.9156     11.2111    145.7160
  1104.5000     12.2363     53.6615     11.1601    146.5583
  1104.7500     12.0892     53.4141     11.1371    146.2541
  1105.0000     11.9237     53.1882     11.1370    145.7513
  1105.2500     11.7718     52.9831     11.1543    145.5654
  1105.5000     11.6814     52.7853     11.1884    145.0658
  1105.7500     11.6710     52.5728     11.2460    144.2482
  1106.0000     11.7207     52.3242     11.3379    141.8678
  1106.2500     11.8130     52.0280     11.4716    139.3373
  1106.5000     11.9616     51.6834     11.6442    134.2093
  1106.7500     12.1911     51.2944     11.8408    130.3785
  1107.0000     12.5108     50.8657     12.0397    125.2035
  1107.2500     12.9177     50.4079     12.2231    122.5064
  1107.5000     13.4038     49.9442     12.3849    119.1996
  1107.7500     13.9447     49.5097     12.5319    117.0051
  1108.0000     14.4832     49.1414     12.6778    113.5357
  1108.2500     14.9479     48.8611     12.8366    111.5794
  1108.5000     15.2994     48.6629     13.0180    110.3201
  1108.7500     15.5415     48.5168     13.2265    110.9221
  1109.0000     15.6847     48.3860     13.4638    113.6583
  1109.2500     15.7233     48.2459     13.7288    116.1774
  1109.5000     15.6623     48.0923     14.0144    119.7885
  1109.7500     15.5407     47.9370     14.2970    121.2334
  1110.0000     15.4034     47.7979     14.5330    120.8463
  1110.2500     15.2719     47.6884     14.6725    119.0342
  1110.5000     15.1636     47.6096     14.6870    115.7345
  1110.7500     15.1214     47.5475     14.5893    114.1986
  1111.0000     15.1976     47.4761     14.4258    113.2644
  1111.2500     15.4037     47.3692     14.2540    113.0765
  1111.5000     15.6767     47.2138     14.1234    112.5251
  1111.7500     15.9071     47.0165     14.0654    111.7146
  1112.0000     16.0141     46.7991     14.0856    110.1527
  1112.2500     16.0108     46.5867     14.1614    109.5324
  1112.5000     15.9957     46.3921     14.2517    110.2533
  1112.7500     16.0347     46.2098     14.3172    111.7135
  1113.0000     16.0663     46.0229     14.3381    114.0430
  1113.2500     15.9866     45.8181     14.3165    115.0530
  1113.5000     15.7672     45.5933     14.2654    115.9556
  1113.7500     15.4509     45.3567     14.1949    116.7587
  1114.0000     15.1025     45.1185     14.1034    118.8277
  1114.2500     14.7770     44.8821     13.9788    120.4980
  1114.5000     14.4915     44.6383     13.8076    122.5595
  1114.7500     14.2312     44.3680     13.5871    123.3650
  1115.0000     13.9873     44.0533     13.3329    123.7470
  1115.2500     13.7679     43.6906     13.0737    123.5735
  1115.5000     13.5839     43.2964     12.8392    122.9025
  1115.7500     13.4495     42.9030     12.6479    122.3265
