~Version Information
VERS.                      2.0: CWLS Log ASCII Standard - VERSION 2.0
WRAP.                       NO: One line per depth step
~Well Information Block
STRT.FT                 3.5000: 
STOP.FT              1971.5000: 
STEP.FT                 0.2500: 
NULL.                -999.2500: 
COMP.          Evergreen Operating Corporation: COMPANY
WELL.          McCullough 34-32 Tr: WELL
FLD.           Purgatorie River: FIELD
LOC.           394' FSL & 2077' FEL: LOCATION
PROV.                 Colorado: PROVINCE
CNTY.               Las Animas: COUNTRY
SRVC.                         : SERVICE COMPANY
DATE.          Fri Sep 24 11:00:22 2004: LOG DATE
UWI.           05 071 08157 00: UNIQUE WELL ID
~Curve Information Block
DEPT.FT            0 000 00 00: Depth
GR.GAPI                       : Gamma Ray
CCL.                          : Casing Collar Locator
TT3.usec                      : CBL 3' Travel Time
AMP3.mV                       : CBL 3' Amplitude
~Parameter Information Block
~A  Depth        GR         CCL         TT3         AMP3    
# ...
   271.5000     74.1372      0.0000    767.0075     10.3328
   271.7500     72.5230      0.0000    766.0637     10.1485
   272.0000     72.3793      0.0000    763.5505     10.0186
   272.2500     73.4685      0.0000    759.7139      9.9614
   272.5000     74.9523      0.0000    755.9462      9.9934
   272.7500     76.3469      0.0000    754.3412     10.1242
   273.0000     77.8567      0.0000    755.9462     10.3444
   273.2500     79.9695      0.0000    759.7155     10.6126
   273.5000     82.7846      0.0000    763.5656     10.8664
   273.7500     85.6273      0.0000    766.1515     11.0618
   274.0000     87.4571      0.0000    767.3999     11.2023
   274.2500     87.8987      0.0000    767.8483     11.3234
   274.5000     87.8028      0.0000    767.9701     11.4516
   274.7500     88.5490      0.0000    767.9954     11.5839
   275.0000     90.6699      0.0000    768.0000     11.7028
   275.2500     93.3492      0.0000    768.0000     11.8069
   275.5000     95.4341      0.0000    768.0000     11.9209
   275.7500     96.5673      0.0000    768.0000     12.0701
   276.0000     96.9312      0.0000    768.0000     12.2447
   276.2500     96.4793      0.0000    768.0000     12.3966
   276.5000     95.3698      0.0000    768.0000     12.4818
   276.7500     94.6903      0.0000    768.0000     12.5092
   277.0000     95.4692      0.0000    768.0000     12.5436
   277.2500     97.0291      0.0000    768.0000     12.6447
   277.5000     97.3901      0.0000    768.0000     12.8033
   277.7500     95.3988      0.0000    767.9986     12.9461
   278.0000     91.8322      0.0000    767.9897     13.0013
   278.2500     88.5507      0.0000    767.9456     12.9451
   278.5000     87.0031      0.0000    767.7749     12.7888
   278.7500     87.3175      0.0000    767.2675     12.5515
   279.0000     88.4803      0.0000    766.1222     12.2626
   279.2500     89.4798      0.0000    764.2028     11.9753
   279.5000     90.1788      0.0000    761.9350     11.7534
   279.7500     90.8267      0.0000    760.3403     11.6416
   280.0000     91.1383      0.0000    760.3423     11.6558
   280.2500     90.4159      0.0000    761.9122     11.7984
   280.5000     88.4053      0.0000    764.0474     12.0685
   280.7500     85.6560      0.0000    765.5889     12.4451
   281.0000     83.1497      0.0000    765.9589     12.8601
   281.2500     81.6538      0.0000    765.3191     13.1898
   281.5000     81.2363      0.0000    764.3693     13.2896
   281.7500     81.4076      0.0000    763.9365     13.0770
   282.0000     81.8899      0.0000    764.4216     12.6101
   282.2500     82.9809      0.0000    765.5415     12.0731
   282.5000     84.8506      0.0000    766.6841     11.6664
   282.7500     86.8520      0.0000    767.4514     11.5099
   283.0000     88.0730      0.0000    767.8219     11.6391
   283.2500     88.4473      0.0000    767.9550     12.0352
   283.5000     88.9169      0.0000    767.9911     12.6147
   283.7500     90.4012      0.0000    767.9987     13.2219
   284.0000     92.8108      0.0000    768.0000     13.6813
   284.2500     95.1497      0.0000    768.0000     13.8677
   284.5000     96.5058      0.0000    768.0000     13.7322
   284.7500     96.8511      0.0000    768.0000     13.3000
   285.0000     96.7982      0.0000    768.0000     12.6753
   285.2500     96.5659      0.0000    768.0000     12.0347
   285.5000     95.4461      0.0000    768.0000     11.5683
   285.7500     92.5993      0.0000    768.0000     11.3822
   286.0000     88.1805      0.0000    768.0000     11.4429
   286.2500     83.1582      0.0000    768.0000     11.6182
   286.5000     78.1405      0.0000    768.0000     11.7739
   286.7500     73.1043      0.0000    768.0000     11.8410
   287.0000     68.2673      0.0000    768.0000     11.8096
   287.2500     64.4417      0.0000    768.0000     11.6938
   287.5000     62.3472      0.0000    768.0000     11.5150
   287.7500     62.1146      0.0000    768.0000     11.3101
   288.0000     63.6201      0.0000    768.0000     11.1361
   288.2500     66.7303      0.0000    768.0000     11.0535
   288.5000     70.9198      0.0000    768.0000     11.0939
   288.7500     75.2192      0.0000    768.0000     11.2383
   289.0000     79.0822      0.0000    768.0000     11.4307
   289.2500     82.9622      0.0000    768.0000     11.6123
   289.5000     87.5227      0.0000    768.0000     11.7352
   289.7500     92.4370      0.0000    768.0000     11.7601
   290.0000     96.2996      0.0000    768.0000     11.6734
   290.2500     97.6280      0.0000    768.0000     11.5115
   290.5000     95.7619      0.0000    768.0000     11.3467
   290.7500     91.1474      0.0000    768.0000     11.2317
   291.0000     85.2903      0.0000    768.0000     11.1558
   291.2500     80.2993      0.0000    768.0000     11.0615
   291.5000     77.8538      0.0000    768.0000     10.9003
   291.7500     78.2098      0.0000    768.0000     10.6696
   292.0000     80.0630      0.0000    768.0000     10.4052
   292.2500     81.3908      0.0000    768.0000     10.1517
   292.5000     80.8361      0.0000    768.0000      9.9393
   292.7500     78.5777      0.0000    768.0000      9.7738
   293.0000     75.7774      0.0000    768.0000      9.6399
   293.2500     73.2884      0.0000    768.0000      9.5154
   293.5000     71.1773      0.0000    768.0000      9.3842
   293.7500     69.3440      0.0000    768.0000      9.2420
   294.0000     68.2279      0.0000    768.0000      9.0996
   294.2500     68.7152      0.0000    768.0000      8.9831
   294.5000     71.2221      0.0000    768.0000      8.9230
   294.7500     74.9409      0.0000    768.0000      8.9315
   295.0000     78.3936      0.0000    768.0000      8.9898
   295.2500     80.8424      0.0000    768.0000      9.0575
   295.5000     82.8341      0.0000    768.0000      9.0910
   295.7500     85.2274      0.0000    768.0000      9.0565
   296.0000     87.9085      0.0000    768.0000      8.9445
   296.2500     89.5948      0.0000    768.0000      8.7912
   296.5000     88.8663      0.0000    768.0000      8.6783
   296.7500     85.3467      0.0000    768.0000      8.6834
   297.0000     79.9248      0.0000    768.0000      8.8205
   297.2500     73.9558      0.0000    768.0000      9.0407
   297.5000     68.5032      0.0000    768.0000      9.2855
   297.7500     64.4042      0.0000    768.0000      9.5206
   298.0000     62.4655      0.0000    768.0000      9.7270
   298.2500     62.9416      0.0000    768.0000      9.8885
   298.5000     64.9898      0.0000    768.0000      9.9976
   298.7500     67.1286      0.0000    768.0000     10.0700
   299.0000     68.2768      0.0000    768.0000     10.1513
   299.2500     68.3877      0.0000    768.0000     10.3003
   299.5000     68.3885      0.0000    767.9902     10.5380
   299.7500     69.4816      0.0000    767.9362     10.8048
   300.0000     72.1051      0.0000    767.6757     10.9780
   300.2500     75.4439      0.0000    766.7173     10.9378
   300.5000     77.9972      0.0000    764.0491     10.6226
   300.7500     78.6076      0.0000    758.5224     10.0563
   301.0000     77.1105      0.0000    750.2935      9.3580
   301.2500     74.4489      0.0000    742.2372      8.7072
   301.5000     72.2546      0.0000    738.8069      8.2508
   301.7500     71.8192      0.0000    742.2372      8.0302
   302.0000     73.0791      0.0000    750.2917      7.9942
   302.2500     74.8368      0.0000    758.5107      8.0597
   302.5000     76.1151      0.0000    763.9896      8.1683
   302.7500     76.9526      0.0000    766.4816      8.3103
   303.0000     77.8324      3.0000    766.9495      8.5044
   303.2500     78.9292      0.0000    766.1942      8.7610
   303.5000     80.1721      0.0000    764.7358      9.0717
   303.7500     81.5941      0.0000    763.2650      9.4242
   304.0000     83.1599      0.0000    762.6345      9.7925
   304.2500     84.4451      0.0000    763.2650     10.1237
   304.5000     84.8614      0.0000    764.7457     10.3830
   304.7500     84.1845      0.0000    766.2581     10.6027
