~Version Information
 VERS.                                  2.0 : CWLS LAS VERSION
 WRAP.                                   NO : WRAPING MODE
 SWARE .                 MController 2.5.0J : SOFTWARE VERSION
~Well Information
 WELL.                        Montoya 6-14R : WELL
 COMP.                       Petrogulf Corp : COMPANY
 FLD.                      Purgatoire River : FIELD
 LOC.                 SW/SW Sec 6 T33S R67W : LOCATION
 DATE.                             11/13/04 : DATE(S) LOGGED
 SRVC.       Blanco Geological Services LLC : SERVICE COMPANY
 STAT.                                   CO : STATE
 CNTY.                           Las Animas : COUNTY
 CTRY.                                  USA : COUNTRY
 API.                       05-071-08242-00 : API NUMBER
 STRT.FT                             484.00 : START DEPTH
 STOP.FT                            2180.00 : STOP DEPTH
 STEP.FT                               1.00 : DEPTH INCREMENT
 NULL.                                -9999 : NULL VALUE
~Curve information
 DEPTH.FT                                   :
 ROP.MIN/FT                                 :
 GAS.UNITS                                  :
~ASCII Log data
# ...
      1284.0         0.20         11.8 
      1285.0         0.27         49.1 
      1286.0         0.27         49.1 
      1287.0         0.33        153.9 
      1288.0         0.27        177.4 
      1289.0         0.23        177.4 
      1290.0         0.32        160.5 
      1291.0         0.30        117.0 
      1292.0         0.30         80.2 
      1293.0         0.23         53.0 
      1294.0         0.17         36.4 
      1295.0         0.23         29.7 
      1296.0         0.27         22.2 
      1297.0         0.23         17.6 
      1298.0         0.23         15.0 
      1299.0         0.30         14.2 
      1300.0         0.20         11.5 
      1301.0         0.20         10.7 
      1302.0         0.23         11.5 
      1303.0         0.27         11.6 
      1304.0         0.32         11.7 
      1305.0         0.43         10.5 
      1306.0         0.37         10.4 
      1307.0         0.30         10.4 
      1308.0         0.23         10.5 
      1309.0         0.20         11.0 
      1310.0         0.20         11.2 
      1311.0         0.20         10.7 
      1312.0         0.20         11.2 
      1313.0         0.17         10.3 
      1314.0         0.13         10.1 
      1315.0         0.17         61.4 
      1316.0         0.40         61.4 
      1317.0         0.33        132.6 
      1318.0         0.33        245.1 
      1319.0         0.35        269.9 
      1320.0         0.30        242.2 
      1321.0         0.33        179.5 
      1322.0         0.33        118.4 
      1323.0         0.30         51.6 
      1324.0         0.23         33.6 
      1325.0         0.23         27.0 
      1326.0         0.23         20.5 
      1327.0         0.23         16.9 
      1328.0         0.17         12.8 
      1329.0         0.23         12.7 
      1330.0         0.23         12.2 
      1331.0         0.25         11.8 
      1332.0         0.23         11.3 
      1333.0         0.20         11.2 
      1334.0         0.27         10.5 
      1335.0         0.23         11.5 
      1336.0         0.27         11.4 
      1337.0         0.33         11.1 
      1338.0         0.40         10.8 
      1339.0         0.43         11.3 
      1340.0         0.43         11.3 
      1341.0         0.43         11.5 
      1342.0         0.32         11.1 
      1343.0         0.23         10.9 
      1344.0         0.27         10.7 
      1345.0         0.30         16.6 
      1346.0         0.23         30.6 
      1347.0         0.40         63.6 
      1348.0         0.43         97.4 
      1349.0         0.30        101.0 
      1350.0         0.33         89.3 
      1351.0         0.37         67.9 
      1352.0         0.33         48.3 
      1353.0         0.38         25.3 
      1354.0         0.40         18.7 
      1355.0         0.43         15.4 
      1356.0         0.30         13.7 
      1357.0         0.40         11.7 
      1358.0         0.40         11.4 
      1359.0         0.40         11.2 
      1360.0         0.37         11.4 
      1361.0         0.32         11.7 
      1362.0         0.33         11.0 
      1363.0         0.37         11.6 
      1364.0         0.37         11.2 
      1365.0         0.37         11.1 
      1366.0         0.40         12.0 
      1367.0         0.40         12.4 
      1368.0         0.33         12.5 
      1369.0         0.37         12.3 
      1370.0         0.30         12.1 
      1371.0         0.35         11.3 
      1372.0         0.27         11.1 
      1373.0         0.40         12.0 
      1374.0         0.27         11.7 
      1375.0         0.33         32.0 
      1376.0         0.27         28.6 
      1377.0         0.57         25.2 
      1378.0         0.47         20.0 
      1379.0         0.48         16.1 
      1380.0         0.73         14.9 
      1381.0         0.53         13.9 
      1382.0         0.63         13.2 
      1383.0         0.80         13.0 
      1384.0         0.55         12.6 
      1385.0         0.53         13.6 
      1386.0         0.53         13.3 
      1387.0         0.43         12.8 
      1388.0         0.63         13.7 
      1389.0         0.53         14.2 
      1390.0         0.55         14.1 
      1391.0         0.63         14.4 
      1392.0         0.67         14.6 
      1393.0         0.53         13.5 
      1394.0         0.33         14.6 
      1395.0         0.53         13.5 
      1396.0         0.30         13.6 
      1397.0         0.55         13.8 
      1398.0         0.50         13.9 
      1399.0         0.50         14.1 
      1400.0         0.43         15.2 
      1401.0         0.37         13.4 
      1402.0         0.33         12.9 
      1403.0         0.27         12.9 
      1404.0         0.33         12.9 
      1405.0         0.35       1093.2 
      1406.0         0.20         16.1 
      1407.0         0.17         15.1 
      1408.0         0.20         14.6 
      1409.0         0.45         14.4 
      1410.0         0.43         14.5 
      1411.0         0.37         14.6 
      1412.0         0.27         16.2 
      1413.0         0.57         18.2 
      1414.0         0.30         18.9 
      1415.0         0.30         20.1 
      1416.0         0.37         20.1 
      1417.0         0.27         20.2 
      1418.0         0.35         20.0 
      1419.0         0.47         18.3 
      1420.0         0.40         16.8 
      1421.0         0.33         15.4 
      1422.0         0.30         15.4 
      1423.0         0.30         15.3 
      1424.0         0.23         15.7 
      1425.0         0.30         15.6 
      1426.0         0.30         15.4 
      1427.0         0.33         14.8 
      1428.0         0.35         15.7 
      1429.0         0.37         14.9 
      1430.0         0.13         15.2 
      1431.0         0.20         14.2 
      1432.0         0.20         14.1 
      1433.0         0.17         15.3 
      1434.0         0.20         15.4 
      1435.0         0.27        104.1 
      1436.0         0.27         47.6 
      1437.0         0.47         33.3 
      1438.0         0.58         25.6 
      1439.0         0.57         20.4 
      1440.0         0.30         20.6 
      1441.0         0.30         20.3 
      1442.0         0.43         20.0 
      1443.0         0.47         19.8 
      1444.0         0.27         16.6 
      1445.0         0.33         15.9 
      1446.0         0.38         16.8 
      1447.0         0.43         17.1 
      1448.0         0.33         16.5 
      1449.0         0.40         16.5 
      1450.0         0.33         16.5 
      1451.0         0.33         15.8 
      1452.0         0.33         15.5 
      1453.0         0.37         15.7 
      1454.0         0.33         15.7 
      1455.0         0.38         15.5 
      1456.0         0.30         15.4 
      1457.0         0.17         15.6 
      1458.0         0.23         15.2 
      1459.0         0.20         16.0 
      1460.0         0.20         16.1 
      1461.0         0.27         15.8 
      1462.0         0.27         15.2 
      1463.0         0.37         15.6 
      1464.0         0.27         15.8 
      1465.0         0.27        122.1 
      1466.0         0.30        122.1 
      1467.0         0.50        100.7 
      1468.0         0.55         68.2 
      1469.0         0.60         33.2 
      1470.0         0.67         20.3 
      1471.0         0.57         20.1 
      1472.0         0.40         19.2 
      1473.0         0.33         18.9 
      1474.0         0.33         18.1 
      1475.0         0.25         17.1 
      1476.0         0.27         16.2 
      1477.0         0.23         16.2 
      1478.0         0.27         16.0 
      1479.0         0.20         15.6 
      1480.0         0.20         15.3 
      1481.0         0.30         15.1 
      1482.0         0.30         14.8 
      1483.0         0.30         15.3 
