~Version Information
VERS.                      2.0: CWLS Log ASCII Standard - VERSION 2.0
WRAP.                       NO: One line per depth step
~Well Information Block
STRT.FT               671.6000: 
STOP.FT              1890.7000: 
STEP.FT                 0.1000: 
NULL.                -999.2500: 
COMP.          Petrogulf Corporation: COMPANY
WELL.             State 16-14R: WELL
FLD.           Purgatorie River: FIELD
LOC.           598' FSL & 682' FWL: LOCATION
CNTY.               Las Animas: COUNTY
SRVC.                         : SERVICE COMPANY
DATE.          Fri Nov 05 07:21:30 2004: LOG DATE
UWI.           05 071 08034 00: UNIQUE WELL ID
STAT.                 Colorado: STATE
~Curve Information Block
DEPT.FT            0 000 00 00: Depth
DCAL.in                       : CDL Caliper
RHOB.g/cc                     : CDL Bulk Density
RHOC.g/cc                     : CDL Density Correction
DPOR.pu                       : CDL Density Porosity
GR.GAPI                       : Gamma Ray
NPOR.pu                       : Neutron Porosity
~Parameter Information Block
~A  Depth       DCAL        RHOB        RHOC        DPOR         GR         NPOR    
# ...
  1324.4000      7.9081      2.6095      0.0519      2.4572     64.4454     15.9639
  1324.5000      7.9051      2.6038      0.1187      2.7993     68.7571     15.6171
  1324.6000      7.9051      2.5837      0.0274      4.0184     70.9367     15.5752
  1324.7000      7.9051      2.5665      0.0058      5.0598     69.4190     15.5465
  1324.8000      7.9005      2.5658      0.0218      5.1006     66.8607     15.3580
  1324.9000      7.9005      2.5739      0.0533      4.6136     64.1289     14.9733
  1325.0000      7.9294      2.5797      0.0535      4.2601     62.6573     14.7578
  1325.1000      7.9294      2.5768      0.0717      4.4364     64.2330     14.8206
  1325.2000      7.9294      2.5626      0.0668      5.2965     67.3693     14.8117
  1325.3000      7.9235      2.5451     -0.0020      6.3597     70.9070     14.4787
  1325.4000      7.9235      2.5367      0.0136      6.8640     73.7963     13.8972
  1325.5000      7.9147      2.5418      0.0491      6.5599     72.1996     13.3962
  1325.6000      7.9147      2.5541      0.0608      5.8149     64.7249     13.1497
  1325.7000      7.9147      2.5622      0.0866      5.3184     57.4020     13.3532
  1325.8000      7.9343      2.5593      0.0191      5.4951     56.0615     14.0170
  1325.9000      7.9343      2.5481      0.0440      6.1775     57.6945     14.5245
  1326.0000      7.9304      2.5322      0.0401      7.1405     58.3781     14.5761
  1326.1000      7.9304      2.5231      0.0346      7.6925     59.4720     14.6022
  1326.2000      7.9304      2.5340      0.0325      7.0318     60.7366     14.6798
  1326.3000      7.9105      2.5525      0.0498      5.9066     60.0091     14.5700
  1326.4000      7.9105      2.5546      0.0462      5.7839     58.9236     14.4166
  1326.5000      7.8994      2.5450      0.0146      6.3654     59.2047     14.4915
  1326.6000      7.8994      2.5487      0.0052      6.1376     59.7324     14.8071
  1326.7000      7.8994      2.5682      0.0434      4.9560     59.6898     15.1173
  1326.8000      7.8959      2.5832      0.0317      4.0473     60.8365     15.1945
  1326.9000      7.8959      2.5829      0.0877      4.0672     64.7349     15.1551
  1327.0000      7.9074      2.5722      0.0812      4.7172     67.8272     15.1967
  1327.1000      7.9074      2.5589      0.0557      5.5186     66.6246     15.1013
  1327.2000      7.9074      2.5463      0.0214      6.2831     64.5238     14.7965
  1327.3000      7.9238      2.5359      0.0642      6.9151     65.2868     14.6933
  1327.4000      7.9238      2.5309      0.0254      7.2199     67.4892     14.9020
  1327.5000      7.9488      2.5353      0.0288      6.9495     68.3031     15.0463
  1327.6000      7.9488      2.5446      0.0240      6.3878     68.5844     14.8499
  1327.7000      7.9488      2.5412      0.0736      6.5927     68.3357     14.6091
  1327.8000      7.9095      2.5224      0.0257      7.7337     66.0830     14.7210
  1327.9000      7.9095      2.5074      0.0081      8.6402     63.5499     15.0585
  1328.0000      7.8986      2.5054      0.0305      8.7643     63.0694     15.2045
  1328.1000      7.8986      2.5089      0.0308      8.5519     64.4326     14.9609
  1328.2000      7.8986      2.5151      0.0081      8.1735     65.0663     14.5813
  1328.3000      7.8835      2.5277      0.0523      7.4116     63.1306     14.4329
  1328.4000      7.8835      2.5386      0.0459      6.7497     59.8660     14.6074
  1328.5000      7.8502      2.5361      0.0407      6.9025     58.6797     15.0198
  1328.6000      7.8502      2.5198      0.0376      7.8886     61.5882     15.3564
  1328.7000      7.8502      2.5040     -0.0070      8.8471     66.4566     15.4444
  1328.8000      7.8787      2.5073      0.0118      8.6476     71.0193     15.5420
  1328.9000      7.8787      2.5306      0.0290      7.2394     73.4638     15.6020
  1329.0000      7.8610      2.5560      0.0540      5.6985     71.9863     15.3739
  1329.1000      7.8610      2.5648      0.0235      5.1638     70.9881     15.0819
  1329.2000      7.8610      2.5549      0.0648      5.7651     73.9155     14.9317
  1329.3000      7.8542      2.5426      0.0442      6.5084     74.8928     14.7618
  1329.4000      7.8542      2.5456      0.0093      6.3286     71.5549     14.5609
  1329.5000      7.8590      2.5616      0.0479      5.3555     70.0632     14.5783
  1329.6000      7.8590      2.5737      0.0444      4.6254     73.1489     14.9004
  1329.7000      7.8590      2.5753      0.0537      4.5296     76.9850     15.2179
  1329.8000      7.8923      2.5703      0.0639      4.8314     76.7678     15.1915
  1329.9000      7.8923      2.5664      0.0347      5.0683     72.8648     14.9576
  1330.0000      7.8776      2.5733      0.0738      4.6485     68.9309     14.8541
  1330.1000      7.8776      2.5875      0.0541      3.7906     64.1588     14.7600
  1330.2000      7.8776      2.5952      0.0810      3.3212     57.0006     14.5196
  1330.3000      7.8562      2.5939      0.0370      3.4010     51.4849     14.4457
  1330.4000      7.8562      2.5923      0.0596      3.4955     51.7004     14.6019
  1330.5000      7.8567      2.5909      0.0646      3.5825     55.0344     14.4731
  1330.6000      7.8567      2.5891      0.0705      3.6906     56.1974     14.0904
  1330.7000      7.8567      2.5904      0.0616      3.6117     53.2186     14.0656
  1330.8000      7.8569      2.5878      0.1127      3.7681     49.2035     14.4000
  1330.9000      7.8569      2.5735      0.0464      4.6380     48.5949     14.4843
  1331.0000      7.8667      2.5574      0.0305      5.6128     49.9986     14.2009
  1331.1000      7.8667      2.5567      0.0289      5.6567     49.4335     13.9898
  1331.2000      7.8667      2.5692      0.0775      4.8982     47.9586     13.9896
  1331.3000      7.8728      2.5752      0.0797      4.5355     49.1441     14.0627
  1331.4000      7.8728      2.5733      0.0601      4.6477     52.0994     14.1988
  1331.5000      7.8636      2.5802      0.0545      4.2281     53.5002     14.3315
  1331.6000      7.8636      2.5917      0.1071      3.5358     53.6218     14.4718
  1331.7000      7.8636      2.5925      0.0787      3.4852     55.4681     15.0038
  1331.8000      7.8884      2.5812      0.0997      4.1708     60.0794     15.7289
  1331.9000      7.8884      2.5627      0.0736      5.2894     64.7397     16.0008
  1332.0000      7.8727      2.5458      0.0447      6.3172     65.7949     16.2283
  1332.1000      7.8727      2.5342      0.0111      7.0154     62.0863     16.8885
  1332.2000      7.8727      2.5258      0.0831      7.5270     57.2684     17.6174
  1332.3000      7.8223      2.5188      0.0832      7.9515     56.4052     18.2538
  1332.4000      7.8223      2.5207      0.0287      7.8388     58.8236     19.0030
  1332.5000      7.8386      2.5427      0.0372      6.5043     62.0555     19.6930
  1332.6000      7.8386      2.5763      0.1135      4.4691     65.5397     20.0746
  1332.7000      7.8386      2.5966      0.1120      3.2369     67.4589     20.2610
  1332.8000      7.8451      2.5931      0.0748      3.4510     67.1854     20.6012
  1332.9000      7.8451      2.5811      0.0367      4.1765     68.5802     21.2661
  1333.0000      7.8314      2.5788      0.1132      4.3144     75.3764     21.8877
  1333.1000      7.8314      2.5856      0.0816      3.9005     83.3552     22.0491
  1333.2000      7.8314      2.5892      0.1336      3.6869     85.1647     22.0356
  1333.3000      7.8782      2.5945      0.0430      3.3607     81.4931     22.3182
  1333.4000      7.8782      2.6281      0.0704      1.3271     79.8038     22.7416
  1333.5000      7.8861      2.6835      0.1840     -2.0318     83.3742     23.0372
  1333.6000      7.8861      2.7308      0.1909     -4.8965     88.6954     23.2187
  1333.7000      7.8861      2.7654      0.1825     -6.9936     93.0320     23.3871
  1333.8000      7.8577      2.7842      0.2507     -8.1333     95.9686     23.4941
  1333.9000      7.8577      2.7694      0.1904     -7.2347     97.9287     23.3566
