~Version Information
VERS.                      2.0: CWLS Log ASCII Standard - VERSION 2.0
WRAP.                       NO: One line per depth step
~Well Information Block
STRT.FT                -3.7500: 
STOP.FT               930.7500: 
STEP.FT                 0.2500: 
NULL.                -999.2500: 
COMP.          Pioneer Natural Resources: COMPANY
WELL.                Pug 33-19: WELL
FLD.           Purgatorie River: FIELD
LOC.           1381' FSL & 2140' FEL--: LOCATION
PROV.                       CO: PROVINCE
CNTY.               Las Animas: COUNTRY
SRVC.                         : SERVICE COMPANY
DATE.          Mon Dec 20 15:44:45 2004: LOG DATE
UWI.                          : UNIQUE WELL ID
~Curve Information Block
DEPT.FT            0 000 00 00: Depth
GR.GAPI                       : Gamma Ray
CCL.                          : Casing Collar Locator
TT3.usec                      : CBL 3' Travel Time
AMP3.mV                       : CBL 3' Amplitude
~Parameter Information Block
~A  Depth        GR         CCL         TT3         AMP3    
# ...
   833.7500     76.8313      0.0000    411.2778      8.6755
   834.0000     78.4302      0.0000    446.2025      8.6036
   834.2500     78.0853      0.0000    482.3395      8.4828
   834.5000     74.9304      0.0000    514.2696      8.3318
   834.7500     68.6223      0.0000    541.8302      8.1785
   835.0000     60.5782      0.0000    570.1096      8.0374
   835.2500     53.7419      0.0000    603.5109      7.9133
   835.5000     50.4110      0.0000    639.7429      7.8188
   835.7500     50.5625      0.0000    670.0675      7.7729
   836.0000     52.4317      0.0000    684.4203      7.7861
   836.2500     54.2071      0.0000    675.3877      7.8571
   836.5000     55.0343      0.0000    639.9865      7.9742
   836.7500     54.9150      0.0000    582.4105      8.1081
   837.0000     54.1811      0.0000    515.7125      8.2144
   837.2500     53.3467      0.0000    456.7122      8.2582
   837.5000     53.2769      0.0000    416.3285      8.2378
   837.7500     54.9265      0.0000    394.9128      8.1796
   838.0000     58.5793      0.0000    386.1395      8.1186
   838.2500     63.3803      0.0000    383.4674      8.0883
   838.5000     67.7549      0.0000    383.5513      8.1172
   838.7500     70.4768      0.0000    386.4671      8.2143
   839.0000     71.5419      0.0000    394.6227      8.3546
   839.2500     71.8793      0.0000    410.2541      8.4845
   839.5000     72.0496      0.0000    431.2892      8.5551
   839.7500     71.5975      0.0000    449.1754      8.5543
   840.0000     70.0558      0.0000    453.5864      8.5077
   840.2500     68.2308      0.0000    441.4742      8.4502
   840.5000     67.8422      0.0000    420.1363      8.4036
   840.7500     69.8675      0.0000    400.3279      8.3786
   841.0000     73.6532      0.0000    388.2676      8.3826
   841.2500     77.5824      0.0000    385.1003      8.4081
   841.5000     80.2825      0.0000    391.8964      8.4256
   841.7500     81.3656      0.0000    413.0515      8.4032
   842.0000     81.4679      0.0000    453.7567      8.3341
   842.2500     81.5258      0.0000    513.0222      8.2333
   842.5000     81.7772      0.0000    579.5123      8.1073
   842.7500     81.4743      0.0000    636.7040      7.9254
   843.0000     79.8045      0.0000    673.7868      7.6164
   843.2500     77.0765      0.0000    691.5118      7.1119
   843.5000     74.6838      0.0000    698.5060      6.4279
   843.7500     73.7171      0.0000    703.4868      5.7073
   844.0000     73.9695      0.0000    710.4510      5.1395
   844.2500     74.4536      0.0000    719.1616      4.8038
   844.5000     74.3317      0.0000    728.3943      4.6091
   844.7500     73.1212      0.0000    737.9658      4.4106
   845.0000     70.7452      0.0000    748.2706      4.1550
   845.2500     67.8658      0.0000    759.3797      3.8795
   845.5000     65.6966      0.0000    771.1065      3.6117
   845.7500     65.0375      0.0000    782.4965      3.3317
   846.0000     65.6005     -2.0000    790.0980      3.0228
   846.2500     66.4067      0.0000    788.5461      2.7173
   846.5000     66.8516      0.0000    775.4841      2.4781
   846.7500     67.3692      0.0000    755.1927      2.3466
   847.0000     69.0378      0.0000    734.9626      2.3120
   847.2500     72.4388      0.0000    719.0643      2.3323
   847.5000     76.8288      0.0000    708.7014      2.3842
   847.7500     80.4757      0.0000    705.5585      2.4866
   848.0000     82.0159      0.0000    711.0277      2.6755
   848.2500     81.4823      0.0000    722.7059      2.9658
   848.5000     79.8508      0.0000    735.3967      3.3356
   848.7500     77.7879      0.0000    745.7385      3.7407
   849.0000     75.2792      0.0000    753.5565      4.1486
   849.2500     72.3887      0.0000    759.1433      4.5691
   849.5000     69.8652      0.0000    761.6105      5.0459
   849.7500     68.7002      0.0000    760.2281      5.6114
   850.0000     69.1757      0.0000    755.8930      6.2500
   850.2500     70.5258      0.0000    750.8593      6.9028
   850.5000     71.5886      0.0000    747.3864      7.4951
   850.7500     71.7591      0.0000    746.4688      7.9631
   851.0000     71.3276      0.0000    747.4901      8.2696
   851.2500     70.9090      0.0000    749.0984      8.4105
   851.5000     70.5488      0.0000    750.3555      8.4102
   851.7500     69.4983      0.0000    751.0978      8.3099
   852.0000     67.0708      0.0000    751.5387      8.1580
   852.2500     63.7531      0.0000    751.8538      8.0010
   852.5000     61.2844      0.0000    752.0834      7.8775
   852.7500     61.4602      0.0000    752.2288      7.8139
   853.0000     64.7932      0.0000    752.3241      7.8221
   853.2500     70.1901      0.0000    752.4180      7.8942
   853.5000     75.7393      0.0000    752.5228      8.0016
   853.7500     79.8856      0.0000    752.6138      8.1023
   854.0000     82.2324      0.0000    752.6685      8.1560
   854.2500     83.4184      0.0000    752.6944      8.1380
   854.5000     84.1022      0.0000    752.7170      8.0522
   854.7500     84.0709      0.0000    752.7571      7.9365
   855.0000     82.4560      0.0000    752.8213      7.8460
   855.2500     78.7598      0.0000    752.8925      7.8158
   855.5000     73.6216      0.0000    752.9293      7.8349
   855.7500     68.8311      0.0000    752.9133      7.8629
   856.0000     66.5584      0.0000    752.9087      7.8721
   856.2500     67.9577      0.0000    753.0540      7.8670
   856.5000     72.2560      0.0000    753.4707      7.8680
   856.7500     77.4592      0.0000    754.1579      7.8878
   857.0000     81.9283      0.0000    754.9510      7.9232
   857.2500     84.9769      0.0000    755.5997      7.9596
   857.5000     86.2258      0.0000    755.9377      7.9838
   857.7500     85.1816      0.0000    755.9924      7.9937
   858.0000     81.7802      0.0000    755.9134      7.9952
   858.2500     76.9719      0.0000    755.8155      7.9920
   858.5000     72.4672      0.0000    755.7136      7.9857
   858.7500     69.8440      0.0000    755.5783      7.9795
   859.0000     69.7227      0.0000    755.4025      7.9757
   859.2500     71.5050      0.0000    755.2068      7.9719
   859.5000     73.8444      0.0000    755.0117      7.9645
   859.7500     75.5802      0.0000    754.8271      7.9533
   860.0000     76.4515      0.0000    754.6624      7.9355
   860.2500     76.9932      0.0000    754.5319      7.9030
   860.5000     77.7540      0.0000    754.4460      7.8494
   860.7500     78.6927      0.0000    754.4094      7.7772
   861.0000     79.3692      0.0000    754.4259      7.6987
   861.2500     79.5351      0.0000    754.4940      7.6373
   861.5000     79.3116      0.0000    754.5823      7.6200
   861.7500     78.8692      0.0000    754.6145      7.6504
   862.0000     78.2926      0.0000    754.4990      7.6970
   862.2500     77.8495      0.0000    754.2004      7.7238
   862.5000     77.9210      0.0000    753.7809      7.7241
   862.7500     78.3083      0.0000    753.3315      7.7111
   863.0000     78.0134      0.0000    752.8019      7.6901
   863.2500     76.1774      0.0000    751.8441      7.6548
   863.5000     73.0891      0.0000    749.8719      7.6040
   863.7500     69.9610      0.0000    746.5693      7.5522
   864.0000     68.0034      0.0000    742.6567      7.5243
   864.2500     67.8904      0.0000    739.9845      7.5389
   864.5000     69.5978      0.0000    740.2599      7.5953
   864.7500     72.2873      0.0000    743.4609      7.6836
   865.0000     74.7112      0.0000    747.8308      7.8096
   865.2500     76.3204      0.0000    751.4915      7.9944
   865.5000     77.9126      0.0000    753.7990      8.2407
   865.7500     80.8406      0.0000    755.3249      8.5074
   866.0000     85.5067      0.0000    757.1545      8.7315
   866.2500     90.5974      0.0000    760.3821      8.8751
   866.5000     93.7325      0.0000    765.8444      8.9451
   866.7500     93.1548      0.0000    773.8099      8.9750
   867.0000     89.1143      0.0000    783.8644      8.9965
