~Version Information
VERS.                      2.0: CWLS Log ASCII Standard - VERSION 2.0
WRAP.                       NO: One line per depth step
~Well Information Block
STRT.FT                -7.2500: 
STOP.FT               862.2500: 
STEP.FT                 0.2500: 
NULL.                -999.2500: 
COMP.          Pioneer Natural Resources: COMPANY
WELL.          Santisteven 13-22: WELL
FLD.           Purgatorie River: FIELD
LOC.           1861' FSL & 992' FWL--: LOCATION
PROV.                       CO: PROVINCE
CNTY.               Las Animas: COUNTRY
SRVC.          Patterson Wireline: SERVICE COMPANY
DATE.          Thu Apr 07 09:08:11 2005: LOG DATE
UWI.           05 071 08337 00: UNIQUE WELL ID
~Curve Information Block
DEPT.FT            0 000 00 00: Depth
CCL.                          : Casing Collar Locator
TT3.usec                      : CBL 3' Travel Time
AMP3.mV                       : CBL 3' Amplitude
GR.GAPI                       : Gamma Ray
~Parameter Information Block
~A  Depth       CCL         TT3         AMP3         GR     
# ...
    93.2500      0.0000    791.6580      6.4243     71.6338
    93.5000      0.0000    791.6790      6.4000     68.6256
    93.7500      0.0000    791.6398      6.3708     65.0748
    94.0000      0.0000    791.8226      6.3566     62.3514
    94.2500      0.0000    792.6919      6.3423     61.5585
    94.5000      0.0000    794.6439      6.2859     63.1623
    94.7500      0.0000    797.5417      6.1697     67.0050
    95.0000      0.0000    800.3801      6.0332     72.5432
    95.2500      0.0000    801.6902      5.9489     79.1581
    95.5000      0.0000    800.6364      5.9685     86.4048
    95.7500      0.0000    797.6542      6.0897     94.0391
    96.0000      0.0000    793.9871      6.2656    101.7411
    96.2500      0.0000    791.0925      6.4379    108.6681
    96.5000      0.0000    790.8145      6.5715    113.1053
    96.7500      0.0000    795.3815      6.6725    112.9058
    97.0000      0.0000    806.3185      6.7732    107.2233
    97.2500      0.0000    823.0436      6.8912     98.1438
    97.5000      0.0000    842.1940      7.0064     89.9693
    97.7500      0.0000    857.9868      7.0786     86.4630
    98.0000      0.0000    864.3837      7.0860     88.7156
    98.2500      0.0000    858.8679      7.0451     95.1565
    98.5000      0.0000    844.2941      7.0033    103.0251
    98.7500      0.0000    826.4293      7.0109    109.9334
    99.0000      0.0000    810.2907      7.0876    114.7117
    99.2500      0.0000    798.9332      7.1995    117.4081
    99.5000      0.0000    793.7350      7.2724    118.6850
    99.7500      0.0000    794.0713      7.2431    119.1218
   100.0000      0.0000    797.1568      7.1089    118.9793
   100.2500      0.0000    799.5784      6.9300    118.4276
   100.5000      0.0000    799.5610      6.7848    117.6579
   100.7500      0.0000    797.6290      6.7158    116.6827
   101.0000      0.0000    795.2988      6.7067    115.1794
   101.2500      0.0000    793.5674      6.7023    112.5695
   101.5000      0.0000    792.6366      6.6555    108.2911
   101.7500      0.0000    792.4971      6.5641    102.2136
   102.0000      0.0000    793.4459      6.4705     94.9170
   102.2500      0.0000    796.1417      6.4247     87.4190
   102.5000      0.0000    801.1190      6.4446     80.6881
   102.7500      0.0000    807.9459      6.5053     75.5865
   103.0000      0.0000    814.8864      6.5622     73.0048
   103.2500      0.0000    819.9232      6.5849     73.5287
   103.5000      0.0000    822.3452      6.5751     76.9481
   103.7500      0.0000    822.9040      6.5557     82.3615
   104.0000      0.0000    822.2443      6.5469     88.7731
   104.2500      0.0000    819.8450      6.5543     95.4980
   104.5000      0.0000    815.0063      6.5762    102.0294
   104.7500      0.0000    808.3656      6.6118    107.7006
   105.0000      0.0000    801.7783      6.6575    111.7069
   105.2500      0.0000    796.8541      6.7021    113.4940
   105.5000      0.0000    794.0019      6.7298    112.9414
   105.7500      0.0000    792.6961      6.7260    110.2080
   106.0000      0.0000    792.2057      6.6785    105.6943
   106.2500      0.0000    792.0108      6.5817    100.2190
   106.5000      0.0000    791.8519      6.4448     94.8724
   106.7500      0.0000    791.6508      6.2937     90.3540
   107.0000      0.0000    791.4486      6.1614     86.5880
   107.2500      0.0000    791.3415      6.0750     83.1685
   107.5000      0.0000    791.3951      6.0465     79.9456
   107.7500      0.0000    791.5839      6.0705     76.9551
   108.0000      0.0000    791.8305      6.1285     74.1000
   108.2500      0.0000    792.1345      6.1986     71.2455
   108.5000      0.0000    792.7094      6.2648     68.5467
   108.7500      0.0000    793.9554      6.3244     66.4182
   109.0000      0.0000    796.0966      6.3916     65.0889
   109.2500      0.0000    798.7287      6.4857     64.3043
   109.5000      0.0000    800.8848      6.6063     63.5940
   109.7500      0.0000    801.6119      6.7224     62.7058
   110.0000      0.0000    800.3376      6.7909     61.5749
   110.2500      0.0000    796.9987      6.7879     60.1067
   110.5000      0.0000    792.4700      6.7235     58.3480
   110.7500      0.0000    788.5911      6.6341     56.7490
   111.0000      0.0000    786.9047      6.5619     55.9385
   111.2500      0.0000    787.3827      6.5371     56.1570
   111.5000      0.0000    788.8065      6.5696     56.9200
   111.7500      0.0000    790.0862      6.6486     57.3424
   112.0000      0.0000    790.8687      6.7457     56.9644
   112.2500      0.0000    791.2518      6.8245     56.2229
   112.5000      0.0000    791.4072      6.8583     56.1051
   112.7500      0.0000    791.4592      6.8431     57.4519
   113.0000      0.0000    791.4844      6.7946     60.4149
   113.2500      0.0000    791.5118      6.7288     64.1973
   113.5000      0.0000    791.5231      6.6507     67.3422
   113.7500      0.0000    791.4771      6.5630     68.5961
   114.0000      0.0000    791.3558      6.4804     67.6940
   114.2500      0.0000    791.1866      6.4271     65.3881
   114.5000      0.0000    791.0274      6.4184     62.7915
   114.7500      0.0000    790.9380      6.4469     60.7611
   115.0000      0.0000    790.9528      6.4851     59.7007
   115.2500      0.0000    791.0680      6.5025     59.5136
   115.5000      0.0000    791.2471      6.4836     59.5640
   115.7500      0.0000    791.4445      6.4375     59.0056
   116.0000      0.0000    791.6260      6.3876     57.5427
   116.2500      0.0000    791.7620      6.3521     55.8932
   116.5000      0.0000    791.8090      6.3317     55.2461
   116.7500      0.0000    791.7490      6.3191     56.1282
   117.0000      0.0000    791.6566      6.3158     57.9609
   117.2500      0.0000    791.6765      6.3310     59.7871
   117.5000      0.0000    791.8951      6.3657     61.1445
   117.7500      0.0000    792.2790      6.4054     61.9363
   118.0000      0.0000    792.7881      6.4303     61.7611
   118.2500      0.0000    793.5690      6.4294     60.0765
   118.5000      0.0000    794.9786      6.4020     57.2117
   118.7500      0.0000    797.2708      6.3508     54.7171
   119.0000      0.0000    800.2449      6.2808     54.3513
   119.2500      0.0000    803.4839      6.2045     56.8714
   119.5000      0.0000    807.0591      6.1429     61.7409
   119.7500      0.0000    811.5703      6.1159     67.5235
   120.0000      0.0000    817.3713      6.1247     72.5443
   120.2500      0.0000    824.5933      6.1444     75.7573
   120.5000      0.0000    834.8780      6.1331     77.3166
   120.7500      0.0000    852.8399      6.0471     78.1339
   121.0000      0.0000    884.2276      5.8577     78.7522
   121.2500      0.0000    930.2329      5.5761     78.7841
   121.5000      0.0000    982.9798      5.2694     77.4613
   121.7500      0.0000   1029.0715      5.0285     74.4958
   122.0000      0.0000   1059.5602      4.9060     70.4087
   122.2500      0.0000   1074.2855      4.8895     66.3339
   122.5000      2.0000   1075.1206      4.9330     63.5921
   122.7500      2.0000   1059.9330      4.9991     63.0613
   123.0000      0.0000   1027.8759      5.0794     64.5459
   123.2500      0.0000    986.7264      5.2020     66.7383
   123.5000      0.0000    948.6107      5.4192     68.0401
   123.7500      0.0000    919.2956      5.7515     67.6675
   124.0000      0.0000    896.0325      6.1346     66.1618
   124.2500      0.0000    874.9968      6.4514     64.9352
   124.5000      0.0000    856.6002      6.6286     65.2283
   124.7500      0.0000    843.3400      6.6801     67.2231
   125.0000      0.0000    835.9184      6.6617     69.9214
   125.2500      0.0000    832.7468      6.6217     71.8513
   125.5000      0.0000    831.7564      6.5900     72.0681
   125.7500      0.0000    831.5861      6.5785     70.7150
   126.0000      0.0000    831.6154      6.5799     68.7806
   126.2500      0.0000    831.6426      6.5800     67.3826
   126.5000      0.0000    831.6930      6.5757     67.1255
