~Version Information
VERS.                      2.0: CWLS Log ASCII Standard - VERSION 2.0
WRAP.                       NO: One line per depth step
~Well Information Block
STRT.FT                 0.0000: 
STOP.FT              1390.5000: 
STEP.FT                 0.2500: 
NULL.                -999.2500: 
COMP.          Petrogulf Corporation: COMPANY
WELL.             Leier 17-42R: WELL
FLD.           Purgatorie River: FIELD
LOC.           2398' FNL & 1109' FEL: LOCATION
PROV.                 Colorado: PROVINCE
CNTY.               Las Animas: COUNTRY
SRVC.                Patterson: SERVICE COMPANY
DATE.          Thu Nov 10 14:34:29 2005: LOG DATE
UWI.                          : UNIQUE WELL ID
~Curve Information Block
DEPT.FT            0 000 00 00: Depth
CCL.                          : Casing Collar Locator
TT3.usec                      : CBL 3' Travel Time
AMP3.mV                       : CBL 3' Amplitude
GR.GAPI                       : Gamma Ray
~Parameter Information Block
~A  Depth       CCL         TT3         AMP3         GR     
# ...
   368.5000      0.0000    502.1802     14.0930     96.1566
   368.7500      0.0000    472.9535     15.8746     93.1894
   369.0000      0.0000    441.8459     17.2769     91.5922
   369.2500      0.0000    399.8286     18.2054     91.8663
   369.5000      0.0000    363.4354     18.9925     93.4204
   369.7500      0.0000    344.5930     19.8531     94.6759
   370.0000      0.0000    334.2040     20.8718     93.9366
   370.2500      0.0000    322.2458     22.1115     90.7319
   370.5000      0.0000    310.4988     23.4822     86.2798
   370.7500      0.0000    303.4060     24.7897     82.4759
   371.0000      0.0000    300.6375     25.8566     80.5243
   371.2500      0.0000    299.8067     26.5054     80.3272
   371.5000      0.0000    299.5493     26.6577     80.7242
   371.7500      0.0000    299.4400     26.5101     80.3438
   372.0000      0.0000    299.3448     26.4716     78.6720
   372.2500      0.0000    299.2007     26.8657     76.4915
   372.5000      0.0000    298.9955     27.6603     75.1707
   372.7500      0.0000    298.7792     28.5005     75.3821
   373.0000      0.0000    298.6302     29.0247     76.4582
   373.2500      0.0000    298.5936     29.1127     77.0934
   373.5000      0.0000    298.6625     28.8583     76.7553
   373.7500      0.0000    298.7984     28.4254     76.1712
   374.0000      0.0000    298.9548     27.9643     76.1809
   374.2500      0.0000    299.0977     27.5641     76.4690
   374.5000      0.0000    299.2255     27.1846     75.8973
   374.7500      0.0000    299.3861     26.6707     73.9754
   375.0000      0.0000    299.7053     25.8751     71.7040
   375.2500      0.0000    300.6614     24.7444     70.8988
   375.5000      0.0000    303.9485     23.3375     72.6709
   375.7500      0.0000    313.1421     21.8054     76.3743
   376.0000      0.0000    331.8510     20.3075     79.9257
   376.2500      0.0000    361.5367     18.9429     81.3073
   376.5000      0.0000    405.0584     17.7788     79.9006
   376.7500      0.0000    465.7553     16.8668     76.4806
   377.0000      0.0000    533.3947     16.2112     72.3415
   377.2500      0.0000    585.6346     15.7865     68.7022
   377.5000      0.0000    612.1295     15.5791     66.4527
   377.7500      0.0000    620.8773     15.5759     65.7948
   378.0000      0.0000    621.9168     15.7654     66.0922
   378.2500      0.0000    616.1838     16.1597     66.4579
   378.5000      0.0000    595.0251     16.7594     66.6607
   378.7500      0.0000    547.4309     17.5120     67.3300
   379.0000      0.0000    475.1785     18.3509     69.1699
   379.2500      0.0000    399.3883     19.2480     72.0761
   379.5000      0.0000    343.6798     20.1978     75.1864
   379.7500      0.0000    314.6605     21.1757     77.7581
   380.0000      0.0000    303.7574     22.1709     79.6808
   380.2500      0.0000    300.5870     23.2417     80.9313
   380.5000      0.0000    299.6363     24.4837     80.9517
   380.7500      0.0000    299.1601     25.9566     79.3582
   381.0000      0.0000    298.7774     27.6598     77.3027
   381.2500      0.0000    298.4094     29.4820     77.1981
   381.5000      0.0000    298.0744     31.1374     80.4279
   381.7500      0.0000    297.8504     32.2841     85.7268
   382.0000      0.0000    297.8109     32.7097     90.5523
   382.2500      0.0000    297.9628     32.3631     93.9110
   382.5000      0.0000    298.2694     31.3388     96.8939
   382.7500      0.0000    298.9794     29.8280    100.2455
   383.0000      0.0000    302.1556     27.9595    102.6092
   383.2500      0.0000    315.6924     25.7538    102.0745
   383.5000      0.0000    355.6469     23.2681     98.7568
   383.7500      0.0000    432.8220     20.6576     94.8840
   384.0000      0.0000    529.3845     18.0733     92.6175
   384.2500      0.0000    608.3848     15.5983     92.4371
   384.5000      0.0000    652.2181     13.3058     93.4052
   384.7500      0.0000    668.1848     11.3041     94.3225
   385.0000      0.0000    667.2481      9.7010     94.5586
   385.2500      0.0000    658.3897      8.5610     94.2272
   385.5000      0.0000    648.2614      7.9104     93.8351
   385.7500      0.0000    638.8394      7.7584     93.7025
   386.0000      0.0000    631.1758      8.0726     93.7990
   386.2500      0.0000    626.7447      8.7616     94.2593
   386.5000      0.0000    625.2856      9.7176     95.8011
   386.7500      0.0000    625.2859     10.8514     99.1651
   387.0000      0.0000    625.2609     12.0801    104.1008
   387.2500      0.0000    622.8194     13.3645    109.2878
   387.5000      0.0000    610.7874     14.8078    113.3742
   387.7500      0.0000    574.8358     16.6332    115.8082
   388.0000      0.0000    505.4520     19.0096    116.6723
   388.2500      0.0000    418.9790     21.8810    116.2104
   388.5000      0.0000    349.5015     24.9046    114.8692
   388.7500      0.0000    313.4608     27.5767    113.6060
   389.0000      0.0000    301.3027     29.4693    113.7077
   389.2500      0.0000    298.6124     30.3731    116.0513
   389.5000      0.0000    298.2891     30.3814    120.4699
   389.7500      0.0000    298.3660     29.8944    125.6591
   390.0000      0.0000    298.4263     29.3847    129.9323
   390.2500      0.0000    298.4101     29.0597    132.6136
   390.5000      0.0000    298.4151     28.7697    134.4995
   390.7500      0.0000    298.8154     28.1933    136.4373
   391.0000      0.0000    301.5434     27.0372    138.1010
   391.2500      0.0000    313.7318     25.1968    138.8694
   391.5000      0.0000    349.7766     22.8789    139.0891
   391.7500      0.0000    419.1249     20.5084    139.4479
   392.0000      0.0000    505.2820     18.4662    139.6158
   392.2500      0.0000    574.1922     16.9264    138.4726
   392.5000      0.0000    609.3885     15.9086    135.5827
   392.7500      0.0000    619.0870     15.4207    131.6689
   393.0000      0.0000    612.3277     15.4498    127.3928
   393.2500      0.0000    584.8861     15.8714    122.3718
   393.5000      0.0000    529.6158     16.5887    116.1001
   393.7500      0.0000    455.7278     17.7220    109.4091
   394.0000      0.0000    386.8651     19.4201    104.1945
   394.2500      0.0000    339.3401     21.4743    101.6759
   394.5000      0.0000    313.9539     23.2655    101.4575
   394.7500      0.0000    303.7515     24.2139    102.3385
   395.0000      0.0000    301.5289     24.2534    103.5437
   395.2500      0.0000    304.2008     23.7221    104.9743
   395.5000      0.0000    314.6161     22.8780    106.5985
   395.7500      0.0000    340.4741     21.7000    107.9685
   396.0000      0.0000    390.2344     20.1018    108.4219
   396.2500      0.0000    464.4167     18.1704    107.6081
   396.5000      0.0000    546.4137     16.1476    105.7819
   396.7500      0.0000    610.8927     14.2686    103.7279
   397.0000      0.0000    645.6731     12.6663    102.5005
   397.2500      0.0000    656.2547     11.4074    103.0553
   397.5000      0.0000    653.9395     10.5903    105.8003
   397.7500      0.0000    645.2212     10.3829    110.3035
   398.0000      0.0000    627.3952     10.9520    115.4587
   398.2500      0.0000    590.2840     12.3703    119.8781
   398.5000      0.0000    525.1487     14.6174    122.1635
   398.7500      0.0000    441.5115     17.6628    121.2732
   399.0000      0.0000    367.3412     21.4873    117.1223
   399.2500      0.0000    321.6106     25.9865    110.8853
   399.5000      0.0000    299.1691     30.9459    104.6324
   399.7500      0.0000    285.6413     36.1863    100.5125
   400.0000      0.0000    274.0219     41.6029     99.8069
   400.2500      0.0000    265.1476     46.9309    102.2556
   400.5000      0.0000    260.3796     51.5949    106.0870
   400.7500      0.0000    258.6458     54.9389    108.8170
   401.0000      0.0000    258.2767     56.5040    108.6544
   401.2500      0.0000    258.3795     56.1695    105.7793
   401.5000      0.0000    258.6532     54.3674    102.1363
   401.7500      0.0000    258.9781     52.0023     99.4288
