~Version Information
 VERS.                                  2.0 : CWLS LAS VERSION
 WRAP.                                   NO : WRAPING MODE
 SWARE .                 MController 2.5.0N : SOFTWARE VERSION
~Well Information
 WELL.                      EASTON 12-30 TR : WELL
 COMP.    PIONEER NATURAL RESOURCES USA INC : COMPANY
 FLD.                      PURGATOIRE RIVER : FIELD
 LOC.                SW/NW SEC 30 T32S R66W : LOCATION
 DATE.                             06/01/05 : DATE(S) LOGGED
 SRVC.       BLANCO GEOLOGICAL SERVICES LLC : SERVICE COMPANY
 STAT.                             COLORADO : STATE
 CNTY.                           LAS ANIMAS : COUNTY
 CTRY.                                  USA : COUNTRY
 API.                       05-071-08379-00 : API NUMBER
 STRT.FT                             307.00 : START DEPTH
 STOP.FT                            2000.00 : STOP DEPTH
 STEP.FT                               1.00 : DEPTH INCREMENT
 NULL.                                -9999 : NULL VALUE
~Curve information
 DEPTH.FT                                   :
 ROP.MIN/FT                                 :
 GAS.UNITS                                  :
~ASCII Log data
# ...
      1707.0         0.07        810.5 
      1708.0         0.10        827.2 
      1709.0         0.12        832.1 
      1710.0         0.17        835.4 
      1711.0         0.37        833.7 
      1712.0         0.50        800.0 
      1713.0         0.37        731.0 
      1714.0         0.33        709.1 
      1715.0         0.20        687.2 
      1716.0         0.13        674.7 
      1717.0         0.20        664.9 
      1718.0         0.13        656.7 
      1719.0         0.10        646.6 
      1720.0         0.27        642.3 
      1721.0         0.43        628.6 
      1722.0         0.42        617.5 
      1723.0         0.27        608.0 
      1724.0         0.23        600.5 
      1725.0         0.17        587.1 
      1726.0         0.27        633.8 
      1727.0         0.23        660.3 
      1728.0         0.27        670.5 
      1729.0         0.37        668.5 
      1730.0         0.37        638.4 
      1731.0         0.37        549.1 
      1732.0         0.40        481.1 
      1733.0         0.45        440.0 
      1734.0         0.17        440.0 
      1735.0         9.95       2226.7 
      1736.0         0.23        855.0 
      1737.0         0.33        834.1 
      1738.0         0.37        805.3 
      1739.0         0.27        764.4 
      1740.0         0.30        738.2 
      1741.0         0.40        702.9 
      1742.0         0.37        651.5 
      1743.0         0.27        632.9 
      1744.0         0.37        619.1 
      1745.0         0.25        604.1 
      1746.0         0.23        590.0 
      1747.0         0.27        586.7 
      1748.0         0.23        578.9 
      1749.0         0.20        572.0 
      1750.0         0.20        569.1 
      1751.0         0.20        571.4 
      1752.0         0.23        573.3 
      1753.0         0.27        589.0 
      1754.0         0.30        657.4 
      1755.0         0.37        661.7 
      1756.0         0.33        634.8 
      1757.0         0.27        576.6 
      1758.0         0.32        534.1 
      1759.0         0.20        474.2 
      1760.0         0.20        493.5 
      1761.0         0.23        464.4 
      1762.0         0.10        458.2 
      1763.0         0.20        480.7 
      1764.0         0.13        499.4 
      1765.0         0.17        521.6 
      1766.0         7.40       1058.8 
      1767.0         0.27        695.3 
      1768.0         0.33        661.3 
      1769.0         0.33        626.3 
      1770.0         0.35        622.1 
      1771.0         0.30        588.0 
      1772.0         0.47        596.9 
      1773.0         0.43        601.1 
      1774.0         0.33        567.1 
      1775.0         0.30        558.3 
      1776.0         0.23        555.0 
      1777.0         0.47        555.7 
      1778.0         0.33        550.1 
      1779.0         0.23        548.1 
      1780.0         0.28        545.5 
      1781.0         0.30        546.5 
      1782.0         0.23        541.6 
      1783.0         0.27        540.6 
      1784.0         0.23        536.7 
      1785.0         0.30        534.7 
      1786.0         0.47        540.6 
      1787.0         0.30        597.9 
      1788.0         0.37        618.8 
      1789.0         0.40        607.7 
      1790.0         0.38        559.6 
      1791.0         0.20        522.3 
      1792.0         0.23        503.0 
      1793.0         0.20        502.7 
      1794.0         0.20        488.6 
      1795.0         0.20        473.5 
      1796.0         2.48        790.5 
      1797.0         0.23        707.1 
      1798.0         0.27        677.4 
      1799.0         0.23        654.8 
      1800.0         0.20        634.8 
      1801.0         0.20        622.7 
      1802.0         0.27        604.7 
      1803.0         0.20        606.0 
      1804.0         0.13        606.7 
      1805.0         0.20        614.5 
      1806.0         0.20        618.1 
      1807.0         0.53        614.2 
      1808.0         0.27        598.2 
      1809.0         0.32        594.9 
      1810.0         0.27        588.7 
      1811.0         0.33        578.9 
      1812.0         0.27        565.5 
      1813.0         0.40        558.3 
      1814.0         0.30        543.9 
      1815.0         0.27        563.2 
      1816.0         0.20        594.9 
      1817.0         0.23        608.0 
      1818.0         0.20        600.1 
      1819.0         0.23        583.5 
      1820.0         0.23        557.9 
      1821.0         0.38        522.3 
      1822.0         0.37        500.4 
      1823.0         0.33        450.0 
      1824.0         0.23        440.0 
      1825.0         0.23        176.6 
      1826.0         2.05        398.9 
      1827.0         0.30        324.5 
      1828.0         0.27        306.5 
      1829.0         0.17        292.0 
      1830.0         0.27        284.4 
      1831.0         0.33        278.7 
      1832.0         0.27        282.0 
      1833.0         0.30        282.3 
      1834.0         0.47        280.9 
      1835.0         0.37        274.3 
      1836.0         0.20        270.5 
      1837.0         0.27        267.4 
      1838.0         0.25        261.9 
      1839.0         0.30        252.9 
      1840.0         0.27        243.0 
      1841.0         0.27        238.9 
      1842.0         0.23        237.5 
      1843.0         0.27        234.6 
      1844.0         0.40        242.9 
      1845.0         0.37        284.0 
      1846.0         0.23        285.4 
      1847.0         0.23        278.3 
      1848.0         0.23        260.2 
      1849.0         0.23        243.1 
      1850.0         0.35        222.2 
      1851.0         0.23        180.1 
      1852.0         0.23        154.1 
      1853.0         0.23        141.2 
      1854.0         0.27        155.7 
      1855.0         0.33        194.0 
      1856.0         1.70        372.9 
      1857.0         0.38        350.2 
      1858.0         0.27        327.5 
      1859.0         0.30        309.9 
      1860.0         0.23        286.7 
      1861.0         0.23        274.9 
      1862.0         0.23        274.2 
      1863.0         0.20        275.7 
      1864.0         0.20        275.0 
      1865.0         0.20        273.2 
      1866.0         0.27        268.8 
      1867.0         0.27        264.3 
      1868.0         0.23        285.1 
      1869.0         0.23        286.9 
      1870.0         0.17        268.5 
      1871.0         0.22        248.8 
      1872.0         0.17        234.4 
      1873.0         0.23        227.0 
      1874.0         0.23        222.9 
      1875.0         0.20        220.4 
      1876.0         0.20        213.6 
      1877.0         0.20        203.6 
      1878.0         0.17        223.2 
      1879.0         0.33        270.1 
      1880.0         0.23        279.7 
      1881.0         0.30        278.4 
      1882.0         0.40        262.7 
      1883.0         0.30        236.5 
      1884.0         0.35        203.1 
      1885.0         0.23        165.0 
      1886.0         2.33        405.2 
      1887.0         0.40        369.3 
      1888.0         0.32        326.2 
      1889.0         0.27        302.8 
      1890.0         0.27        283.3 
      1891.0         0.23        269.6 
      1892.0         0.50        272.9 
      1893.0         0.30        275.0 
      1894.0         0.40        274.6 
      1895.0         0.43        269.5 
      1896.0         0.37        259.9 
      1897.0         0.33        252.2 
      1898.0         0.28        243.6 
      1899.0         0.27        236.8 
      1900.0         0.23        231.5 
      1901.0         0.23        228.3 
      1902.0         0.37        227.0 
      1903.0         0.27        224.4 
      1904.0         0.27        222.3 
      1905.0         0.30        225.4 
      1906.0         0.27        254.6 
