~Version Information
 VERS.                                  2.0 : CWLS LAS VERSION
 WRAP.                                   NO : WRAPING MODE
 SWARE .                 MController 2.5.0J : SOFTWARE VERSION
~Well Information
 WELL.                          Silva 1-43R : WELL
 COMP.                Petrogulf Corporation : COMPANY
 FLD.                       Purgatory River : FIELD
 LOC.                  NE/SE sec1 T33S R68W : LOCATION
 DATE.                    6/16/06 - 6/17/06 : DATE(S) LOGGED
 SRVC.      Blanco Geological Services, LLC : SERVICE COMPANY
 STAT.                             Colorado : STATE
 CNTY.                           Las Animas : COUNTY
 CTRY.                                  USA : COUNTRY
 API.                       05-071-08372-00 : API NUMBER
 STRT.FT                              12.00 : START DEPTH
 STOP.FT                            2210.00 : STOP DEPTH
 STEP.FT                               1.00 : DEPTH INCREMENT
 NULL.                                -9999 : NULL VALUE
~Curve information
 DEPTH.FT                                   :
 ROP.MIN/FT                                 :
 GAS.UNITS                                  :
~ASCII Log data
# ...
       612.0         0.27          2.1 
       613.0         0.27          1.8 
       614.0         0.27          1.5 
       615.0         0.27          1.5 
       616.0         0.35          2.6 
       617.0         0.30          1.9 
       618.0         0.27          2.5 
       619.0         0.27          2.2 
       620.0         0.30          2.5 
       621.0         0.27          3.4 
       622.0         0.20          3.0 
       623.0         0.57          2.3 
       624.0         0.40          2.6 
       625.0         0.30          4.1 
       626.0         1.32          4.0 
       627.0         0.27          4.0 
       628.0         0.37          3.6 
       629.0         0.37          3.8 
       630.0         0.23          3.9 
       631.0         0.20          3.9 
       632.0         0.17          3.4 
       633.0         0.23          4.3 
       634.0         0.33          3.9 
       635.0         0.52          3.0 
       636.0         0.43          2.8 
       637.0         0.40          2.8 
       638.0         0.30          3.1 
       639.0         0.30          2.8 
       640.0         0.23          3.3 
       641.0         0.17          3.2 
       642.0         0.20          2.5 
       643.0         0.27          2.7 
       644.0         0.23          3.0 
       645.0         0.23          2.4 
       646.0         0.27          1.8 
       647.0         0.28          2.3 
       648.0         0.23          2.0 
       649.0         0.13          2.0 
       650.0         0.13          2.1 
       651.0         0.23          1.8 
       652.0         0.23          2.0 
       653.0         0.30          2.0 
       654.0         0.33          1.7 
       655.0         0.20          1.8 
       656.0         0.97          3.3 
       657.0         0.30          4.7 
       658.0         0.18          4.3 
       659.0         0.40          5.1 
       660.0         0.30          4.6 
       661.0         0.30          5.3 
       662.0         0.27          4.0 
       663.0         0.27          4.1 
       664.0         0.30          4.2 
       665.0         0.13          3.6 
       666.0         0.43          3.3 
       667.0         0.27          2.9 
       668.0         0.30          3.4 
       669.0         0.25          4.2 
       670.0         0.23          4.0 
       671.0         0.27          3.3 
       672.0         0.40          2.9 
       673.0         0.37          3.7 
       674.0         0.23          3.6 
       675.0         0.23          3.5 
       676.0         0.30          3.8 
       677.0         0.23          4.1 
       678.0         0.30          4.2 
       679.0         0.23          4.2 
       680.0         0.27          3.5 
       681.0         0.28          3.8 
       682.0         0.40          4.3 
       683.0         0.30          3.9 
       684.0         0.30          3.7 
       685.0         0.30          3.3 
       686.0         1.67         14.5 
       687.0         0.30         48.1 
       688.0         0.35         70.9 
       689.0         0.33         52.8 
       690.0         0.30         35.6 
       691.0         0.27         31.6 
       692.0         0.30         30.4 
       693.0         0.27         27.7 
       694.0         0.27         24.7 
       695.0         0.27         21.3 
       696.0         0.27         18.5 
       697.0         0.33         16.1 
       698.0         0.27         14.1 
       699.0         0.38         12.5 
       700.0         0.30         13.5 
       701.0         0.50         13.5 
       702.0         0.47         13.0 
       703.0         0.37         13.3 
       704.0         0.27         14.6 
       705.0         0.30         14.4 
       706.0         0.30         14.2 
       707.0         0.30         11.4 
       708.0         0.20          9.7 
       709.0         0.32          9.1 
       710.0         0.23          8.8 
       711.0         0.47          8.2 
       712.0         0.30          8.2 
       713.0         0.27          6.0 
       714.0         0.30          3.7 
       715.0         0.30          1.7 
       716.0         1.00          7.7 
       717.0         0.32         14.7 
       718.0         0.10         17.7 
       719.0         0.40         30.2 
       720.0         0.33         45.1 
       721.0         0.30         93.6 
       722.0         0.23        107.4 
       723.0         0.13        101.2 
       724.0         0.17         86.4 
       725.0         0.23         64.7 
       726.0         0.30         44.1 
       727.0         0.43         26.0 
       728.0         0.30         18.6 
       729.0         0.23         15.5 
       730.0         0.25         14.3 
       731.0         0.27         14.8 
       732.0         0.23         14.9 
       733.0         0.27         13.8 
       734.0         0.33         10.5 
       735.0         0.37          9.1 
       736.0         0.23          8.7 
       737.0         0.17         10.4 
       738.0         0.27         12.2 
       739.0         0.23         11.9 
       740.0         0.20          9.8 
       741.0         0.23          5.6 
       742.0         0.33          3.5 
       743.0         0.35          3.5 
       744.0         0.17          4.4 
       745.0         0.23          5.7 
       746.0         1.13          3.6 
       747.0         0.20          4.1 
       748.0         0.03          4.7 
       749.0         0.07          4.1 
       750.0         0.40          6.8 
       751.0         0.33         12.0 
       752.0         0.30         56.4 
       753.0         0.32         83.6 
       754.0         0.27         75.8 
       755.0         0.23         60.7 
       756.0         0.23         45.9 
       757.0         0.20         35.8 
       758.0         0.23         26.5 
       759.0         0.27         20.8 
       760.0         0.27         16.7 
       761.0         0.30         12.0 
       762.0         0.23         11.4 
       763.0         0.30         12.5 
       764.0         0.27         13.1 
       765.0         0.23         13.4 
       766.0         0.23         13.4 
       767.0         0.25         13.7 
       768.0         0.23         13.7 
       769.0         0.20         13.4 
       770.0         0.20         12.6 
       771.0         0.23         11.3 
       772.0         0.20         10.1 
       773.0         0.23          9.8 
       774.0         0.33          8.2 
       775.0         0.30          7.5 
       776.0         1.13          2.9 
       777.0         0.22          2.8 
       778.0         0.30          3.8 
       779.0         0.07          3.8 
       780.0         0.10          4.3 
       781.0         0.27          5.6 
       782.0         0.17          7.5 
       783.0         0.20         14.4 
       784.0         0.33         56.9 
       785.0         0.23         63.3 
       786.0         0.30         57.6 
       787.0         0.37         46.1 
       788.0         0.30         34.6 
       789.0         0.33         26.2 
       790.0         0.38         22.1 
       791.0         0.37         20.8 
       792.0         0.27         18.7 
       793.0         0.27         17.0 
       794.0         0.27         15.6 
       795.0         0.33         14.1 
       796.0         0.30         13.3 
       797.0         0.20         14.5 
       798.0         0.23         17.1 
       799.0         0.30         21.7 
       800.0         0.30         21.3 
       801.0         0.27         16.7 
       802.0         0.32         18.1 
       803.0         0.30         21.1 
       804.0         0.30         19.0 
       805.0         0.23         18.7 
       806.0         1.43         10.8 
       807.0         0.63         11.8 
       808.0         0.10         14.2 
       809.0         0.22         19.1 
       810.0         0.37         31.9 
       811.0         0.30        124.4 
