~Version Information
VERS.                      2.0: CWLS Log ASCII Standard - VERSION 2.0
WRAP.                       NO: One line per depth step
~Well Information Block
STRT.FT               440.0000: 
STOP.FT              1001.5000: 
STEP.FT                 0.1000: 
NULL.                -999.2500: 
COMP.          Pioneer Natural Resources: COMPANY
WELL.              Dylan 42-25: WELL
FLD.           Purgatoire River: FIELD
LOC.           2160' FNL & 855' FEL: LOCATION
PROV.                 Colorado: PROVINCE
CNTY.               Las Animas: COUNTRY
SRVC.                Patterson: SERVICE COMPANY
DATE.          Mon Apr 25 09:31:16 2005: LOG DATE
UWI.           05 071 08229 00: UNIQUE WELL ID
~Curve Information Block
DEPT.FT            0 000 00 00: Depth
DCAL.in                       : CDL Caliper
RHOB.g/cc                     : CDL Bulk Density
RHOC.g/cc                     : CDL Density Correction
DPOR.pu                       : CDL Density Porosity
GR.GAPI                       : Gamma Ray
NPOR.pu                       : Neutron Porosity
~Parameter Information Block
~A  Depth       DCAL        RHOB        RHOC        DPOR         GR         NPOR    
# ...
   545.6000      7.9580      2.4762      0.0528     10.5347    168.3352     27.3756
   545.7000      7.9580      2.4778      0.0311     10.4352    167.7327     27.6971
   545.8000      7.9625      2.4743      0.0677     10.6461    168.5956     27.8643
   545.9000      7.9625      2.4712      0.0903     10.8356    168.9826     27.7003
   546.0000      7.9630      2.4665      0.0843     11.1190    167.3624     27.6939
   546.1000      7.9630      2.4625      0.0837     11.3667    163.4675     28.1885
   546.2000      7.9630      2.4675      0.0736     11.0628    161.7232     28.6120
   546.3000      7.9353      2.4810      0.0659     10.2412    164.0583     28.3217
   546.4000      7.9353      2.4906      0.0834      9.6579    164.4988     27.8373
   546.5000      7.9456      2.4859      0.0727      9.9463    161.1778     27.9542
   546.6000      7.9456      2.4710      0.0173     10.8507    158.3347     28.2396
   546.7000      7.9456      2.4600      0.0568     11.5180    156.0412     28.0807
   546.8000      7.9838      2.4574      0.0497     11.6718    152.5726     27.8481
   546.9000      7.9838      2.4522      0.0543     11.9859    149.8600     27.4502
   547.0000      8.0151      2.4423     -0.0017     12.5894    147.1796     26.7372
   547.1000      8.0151      2.4541     -0.0104     11.8705    143.2382     26.5632
   547.2000      8.0151      2.5021      0.0643      8.9606    141.5060     26.7983
   547.3000      7.9776      2.5583      0.1628      5.5585    142.7452     26.5846
   547.4000      7.9776      2.5925      0.1797      3.4848    141.3494     26.0724
   547.5000      8.0196      2.6080      0.1364      2.5444    135.5862     25.6710
   547.6000      8.0196      2.6163      0.2170      2.0453    133.6305     25.6038
   547.7000      8.0196      2.6075      0.2240      2.5734    137.4890     26.0114
   547.8000      7.9084      2.5783      0.1604      4.3471    140.7536     26.6425
   547.9000      7.9084      2.5425      0.1276      6.5181    145.4421     27.2365
   548.0000      7.8279      2.5052      0.1331      8.7728    153.6580     27.9820
   548.1000      7.8279      2.4781      0.0193     10.4171    159.2405     28.4967
   548.2000      7.8279      2.4794      0.0968     10.3421    157.9933     27.9096
   548.3000      7.8434      2.4950      0.0928      9.3933    154.3764     26.8991
   548.4000      7.8434      2.4944      0.1132      9.4321    158.3937     27.0830
   548.5000      7.9172      2.4654      0.0712     11.1870    167.9795     28.2857
   548.6000      7.9172      2.4266      0.0689     13.5392    170.2876     28.9042
   548.7000      7.9172      2.4068      0.0053     14.7421    165.2975     28.7606
   548.8000      7.9630      2.4116      0.0861     14.4473    163.4055     29.1134
   548.9000      7.9630      2.4264      0.0727     13.5544    168.0575     30.2231
   549.0000      8.0089      2.4454      0.0774     12.3970    176.1364     30.7537
   549.1000      8.0089      2.4721      0.1025     10.7795    182.4327     30.1826
   549.2000      8.0089      2.5008      0.0853      9.0423    180.2933     29.6756
   549.3000      8.0111      2.5179      0.1043      8.0080    172.2363     29.9624
   549.4000      8.0111      2.5236      0.0639      7.6616    165.7682     30.4755
   549.5000      7.9952      2.5330      0.1117      7.0922    161.4691     29.7942
   549.6000      7.9952      2.5509      0.0094      6.0036    158.6733     27.7103
   549.7000      7.9952      2.5718      0.0788      4.7389    154.4813     26.3688
   549.8000      8.0350      2.5846      0.1020      3.9629    145.3011     26.6689
   549.9000      8.0350      2.5775      0.0992      4.3941    135.2665     26.8583
   550.0000      7.9920      2.5594      0.0347      5.4889    128.5590     25.8313
   550.1000      7.9920      2.5533      0.0284      5.8599    125.1325     24.5949
   550.2000      7.9920      2.5557      0.0634      5.7130    124.8279     23.8387
   550.3000      7.9685      2.5525      0.0413      5.9085    122.6510     23.2341
   550.4000      7.9685      2.5498      0.0600      6.0755    113.6978     22.6700
   550.5000      7.9580      2.5548      0.0624      5.7669    105.6310     22.5718
   550.6000      7.9580      2.5624      0.0952      5.3091    104.5997     22.9166
   550.7000      7.9580      2.5665      0.0593      5.0583    105.2523     22.8731
   550.8000      7.9310      2.5637      0.1072      5.2319    104.1176     22.3781
   550.9000      7.9310      2.5573      0.0059      5.6201    101.5991     22.1960
   551.0000      7.9298      2.5592      0.0708      5.5027     95.7775     22.1195
   551.1000      7.9298      2.5643      0.0736      5.1957     87.2661     21.6353
   551.2000      7.9298      2.5597      0.0765      5.4727     81.7044     21.1597
   551.3000      7.9215      2.5485      0.1048      6.1487     81.9133     21.2409
   551.4000      7.9215      2.5339      0.0899      7.0372     84.3876     21.6712
   551.5000      7.9037      2.5115      0.1352      8.3951     84.6492     21.9185
   551.6000      7.9037      2.4915      0.0495      9.6035     82.3445     21.9552
   551.7000      7.9037      2.4881      0.0520      9.8099     78.7965     21.8241
   551.8000      7.8987      2.4948      0.0573      9.4073     74.3736     21.4057
   551.9000      7.8987      2.5066      0.0344      8.6905     69.1781     20.6468
   552.0000      7.9066      2.5231      0.0541      7.6906     63.9178     19.8238
   552.1000      7.9066      2.5376      0.0227      6.8112     60.0262     19.3915
   552.2000      7.9066      2.5497      0.0571      6.0815     58.0985     19.0661
   552.3000      7.9413      2.5564      0.0582      5.6725     57.0425     18.2895
   552.4000      7.9413      2.5504      0.0872      6.0344     55.7361     17.3419
   552.5000      7.9482      2.5405      0.0140      6.6385     53.7239     16.7302
   552.6000      7.9482      2.5386      0.0226      6.7539     51.6582     16.4437
   552.7000      7.9482      2.5388      0.0381      6.7395     49.5967     16.4746
   552.8000      7.9403      2.5397      0.0100      6.6837     47.2492     16.8845
   552.9000      7.9403      2.5499      0.0472      6.0690     45.0641     17.6066
   553.0000      7.9344      2.5627      0.0761      5.2908     44.1133     18.1354
   553.1000      7.9344      2.5690      0.0228      4.9113     43.9508     18.1361
   553.2000      7.9344      2.5660      0.0627      5.0887     44.4551     17.9319
   553.3000      7.9436      2.5420      0.0894      6.5451     47.1822     17.8008
   553.4000      7.9436      2.4974      0.0512      9.2472     51.9450     18.2634
   553.5000      7.9484      2.4586      0.0275     11.6016     55.1763     19.3365
   553.6000      7.9484      2.4423      0.0389     12.5902     52.5565     19.7354
   553.7000      7.9484      2.4360      0.0568     12.9671     45.9507     18.9787
   553.8000      7.9369      2.4216      0.0851     13.8421     41.6635     18.3765
   553.9000      7.9369      2.4033     -0.0140     14.9515     41.6569     18.6792
   554.0000      7.9113      2.3968      0.0565     15.3438     45.2025     19.2998
   554.1000      7.9113      2.4026      0.0581     14.9912     50.2511     19.9230
   554.2000      7.9113      2.4125      0.0452     14.3953     51.2323     20.6555
   554.3000      7.9038      2.4238      0.0406     13.7082     47.2318     21.1637
   554.4000      7.9038      2.4458      0.0297     12.3733     43.9954     21.1817
   554.5000      7.9255      2.4758      0.0944     10.5587     43.7860     20.9044
   554.6000      7.9255      2.4890      0.0909      9.7595     44.5242     20.6677
   554.7000      7.9255      2.4779      0.0779     10.4328     45.9266     20.8332
   554.8000      7.9490      2.4621      0.0663     11.3869     47.3644     21.5518
   554.9000      7.9490      2.4589      0.0711     11.5832     46.8516     22.0441
   555.0000      7.9711      2.4666      0.0748     11.1136     46.6841     21.6689
   555.1000      7.9711      2.4704      0.0840     10.8859     49.5988     21.1832
