~Version Information
VERS.                      2.0: CWLS Log ASCII Standard - VERSION 2.0
WRAP.                       NO: One line per depth step
~Well Information Block
STRT.FT                -6.7500: 
STOP.FT              1181.0000: 
STEP.FT                 0.2500: 
NULL.                -999.2500: 
COMP.          Pioneer Natural Resources: COMPANY
WELL.          Pacheco 33-27 Tr: WELL
FLD.           Purgatorie River: FIELD
LOC.           2251' FSL & 2342' FEL--: LOCATION
PROV.                       CO: PROVINCE
CNTY.               Las Animas: COUNTRY
SRVC.          Patterson Wireline: SERVICE COMPANY
DATE.          Wed Jun 15 10:58:02 2005: LOG DATE
UWI.           05 071 08384 00: UNIQUE WELL ID
~Curve Information Block
DEPT.FT            0 000 00 00: Depth
CCL.                          : Casing Collar Locator
TT3.usec                      : CBL 3' Travel Time
AMP3.mV                       : CBL 3' Amplitude
GR.GAPI                       : Gamma Ray
~Parameter Information Block
~A  Depth       CCL         TT3         AMP3         GR     
# ...
    60.2500      0.0000   1170.0000      8.2744     81.5435
    60.5000      0.0000   1170.0000      8.2772     80.6149
    60.7500      0.0000   1170.0000      8.2066     79.3766
    61.0000      0.0000   1170.0000      8.0633     78.3902
    61.2500      0.0000   1170.0000      7.8760     79.1547
    61.5000      0.0000   1170.0000      7.6988     82.5464
    61.7500      0.0000   1170.0000      7.5933     87.5840
    62.0000      0.0000   1170.0000      7.6007     92.0886
    62.2500      0.0000   1170.0000      7.7240     94.6170
    62.5000      0.0000   1170.0000      7.9260     95.4143
    62.7500      0.0000   1170.0000      8.1426     95.4908
    63.0000      0.0000   1170.0000      8.3134     95.2208
    63.2500      0.0000   1170.0000      8.4132     94.1895
    63.5000      0.0000   1170.0000      8.4503     92.1833
    63.7500      0.0000   1170.0000      8.4337     89.8564
    64.0000      0.0000   1170.0000      8.3577     88.2546
    64.2500      0.0000   1170.0000      8.2229     87.9440
    64.5000      0.0000   1170.0000      8.0526     88.7734
    64.7500      0.0000   1170.0000      7.8811     90.2059
    65.0000      0.0000   1170.0000      7.7369     91.4686
    65.2500      0.0000   1170.0000      7.6391     91.5583
    65.5000      0.0000   1170.0000      7.5914     89.7203
    65.7500      0.0000   1170.0000      7.5763     86.1825
    66.0000      0.0000   1170.0000      7.5612     82.0764
    66.2500      0.0000   1170.0000      7.5143     78.5406
    66.5000      0.0000   1170.0000      7.4194     76.2391
    66.7500      0.0000   1170.0000      7.2908     75.6001
    67.0000      0.0000   1170.0000      7.1709     76.7804
    67.2500      0.0000   1170.0000      7.0893     79.2215
    67.5000      0.0000   1170.0000      7.0155     81.7836
    67.7500      0.0000   1170.0000      6.8779     83.6075
    68.0000      0.0000   1170.0000      6.6512     84.6037
    68.2500      0.0000   1170.0000      6.4120     85.0645
    68.5000      0.0000   1170.0000      6.2912     84.9684
    68.7500      0.0000   1170.0000      6.3713     83.7985
    69.0000      0.0000   1170.0000      6.6269     81.1892
    69.2500      0.0000   1170.0000      6.9477     77.7316
    69.5000      0.0000   1170.0000      7.2098     74.8393
    69.7500      0.0000   1170.0000      7.3352     73.7819
    70.0000      0.0000   1170.0000      7.3147     74.8706
    70.2500      0.0000   1170.0000      7.2026     77.2271
    70.5000      0.0000   1170.0000      7.0893     79.1839
    70.7500      0.0000   1170.0000      7.0437     79.4503
    71.0000      0.0000   1170.0000      7.0591     78.2755
    71.2500      0.0000   1170.0000      7.0663     77.2266
    71.5000      0.0000   1170.0000      7.0109     77.7296
    71.7500      0.0000   1170.0000      6.9089     80.0973
    72.0000      0.0000   1170.0000      6.8250     83.7908
    72.2500      0.0000   1170.0000      6.8149     87.9871
    72.5000      0.0000   1170.0000      6.8913     91.7493
    72.7500      0.0000   1170.0000      7.0218     94.1222
    73.0000      0.0000   1170.0000      7.1504     94.4100
    73.2500      0.0000   1170.0000      7.2307     92.4297
    73.5000      0.0000   1170.0000      7.2593     88.6271
    73.7500      0.0000   1170.0000      7.2795     84.0621
    74.0000      0.0000   1170.0000      7.3482     79.9762
    74.2500      0.0000   1170.0000      7.4960     77.0250
    74.5000      0.0000   1170.0000      7.7034     74.9111
    74.7500      0.0000   1170.0000      7.9025     72.8048
    75.0000      0.0000   1170.0000      8.0124     70.0848
    75.2500      0.0000   1170.0000      8.0003     66.8994
    75.5000      0.0000   1170.0000      7.9182     64.3380
    75.7500      0.0000   1170.0000      7.8709     63.9254
    76.0000      0.0000   1170.0000      7.9308     66.5040
    76.2500      0.0000   1170.0000      8.0713     71.5698
    76.5000      0.0000   1170.0000      8.1886     77.7998
    76.7500      0.0000   1170.0000      8.1963     83.8325
    77.0000      0.0000   1170.0000      8.1007     88.3726
    77.2500      0.0000   1170.0000      7.9816     90.3431
    77.5000      0.0000   1169.9934      7.9127     89.7000
    77.7500      0.0000   1169.9567      7.9019     87.7973
    78.0000      0.0000   1169.7798      7.8952     86.2875
    78.2500      0.0000   1169.1290      7.8371     85.5768
    78.5000      0.0000   1167.3173      7.7304     84.6974
    78.7500      0.0000   1163.5645      7.6353     82.9115
    79.0000      0.0000   1157.9769      7.6086     81.2187
    79.2500      0.0000   1152.5065      7.6493     81.8394
    79.5000      0.0000   1150.1772      7.7032     86.1695
    79.7500      0.0000   1152.5065      7.7207     93.5413
    80.0000      0.0000   1157.9769      7.7098    101.8218
    80.2500      0.0000   1163.5645      7.7172    108.5242
    80.5000      0.0000   1167.3173      7.7535    111.2757
    80.7500      0.0000   1169.1290      7.7632    108.5086
    81.0000      0.0000   1169.7798      7.6925    100.9120
    81.2500      0.0000   1169.9498      7.5678     91.7705
    81.5000      0.0000   1169.9486      7.4726     84.8232
    81.7500      0.0000   1169.7729      7.4492     81.6710
    82.0000      0.0000   1169.0885      7.4569     81.3887
    82.2500      0.0000   1167.1193      7.4368     82.0860
    82.5000      0.0000   1162.7434      7.3838     82.3755
    82.7500      0.0000   1154.9541      7.3245     81.8212
    83.0000      0.0000   1143.0470      7.2398     80.7672
    83.2500      0.0000   1125.8507      7.0503     79.8459
    83.5000      0.0000   1102.0997      6.7026     79.2152
    83.7500      0.0000   1074.6577      6.2571     78.1404
    84.0000      0.0000   1054.2520      5.8593     75.6211
    84.2500      0.0000   1053.8068      5.6291     71.6157
    84.5000      0.0000   1076.0228      5.6020     67.3650
    84.7500      0.0000   1109.5582      5.7509     64.1778
    85.0000      0.0000   1139.2910      6.0090     62.0171
    85.2500      0.0000   1157.7189      6.2796     59.7131
    85.5000      2.0000   1166.1437      6.4689     56.5961
    85.7500      2.0000   1169.0503      6.5326     53.4286
    86.0000      0.0000   1169.8169      6.5065     51.5332
    86.2500      0.0000   1169.9740      6.5096     51.4913
    86.5000      0.0000   1170.0000      6.6902     52.9835
    86.7500      0.0000   1170.0000      7.1057     55.4557
    87.0000      0.0000   1170.0000      7.6522     58.3696
    87.2500      0.0000   1170.0000      8.1497     60.9462
    87.5000      0.0000   1170.0000      8.4945     62.2451
    87.7500      0.0000   1169.9742      8.6998     61.6179
    88.0000      0.0000   1169.8063      8.8207     59.0502
    88.2500      0.0000   1168.9534      8.8901     55.4939
    88.5000      0.0000   1165.5791      8.9255     52.9821
    88.7500      0.0000   1155.1831      8.9606     53.7096
    89.0000      0.0000   1130.2351      9.0365     58.3224
    89.2500      0.0000   1083.5997      9.1554     65.1073
    89.5000      0.0000   1015.6848      9.2620     71.1082
    89.7500      0.0000    938.6123      9.2870     74.2621
    90.0000      0.0000    870.4185      9.2033     74.7298
    90.2500      0.0000    823.3249      9.0444     74.4915
    90.5000      0.0000    797.8843      8.8775     75.7410
    90.7500      0.0000    787.0857      8.7608     79.3627
    91.0000      0.0000    783.4820      8.7170     84.4787
    91.2500      0.0000    782.7520      8.7386     89.2356
    91.5000      0.0000    783.7023      8.8036     92.0983
    91.7500      0.0000    787.4199      8.8827     92.6342
    92.0000      0.0000    796.5180      8.9420     91.4549
    92.2500      0.0000    813.5364      8.9567     89.5969
    92.5000      0.0000    838.2966      8.9306     87.7484
    92.7500      0.0000    866.3765      8.8952     86.0512
    93.0000      0.0000    891.2059      8.8822     84.7413
    93.2500      0.0000    908.3382      8.9001     84.5122
    93.5000      0.0000    917.7402      8.9398     85.6926
