~Version Information
VERS.                      2.0: CWLS Log ASCII Standard - VERSION 2.0
WRAP.                       NO: One line per depth step
~Well Information Block
STRT.FT               682.0000: 
STOP.FT              2190.5000: 
STEP.FT                 0.1000: 
NULL.                -999.2500: 
COMP.          Pioneer Natural Resources: COMPANY
WELL.               King 22-13: WELL
FLD.           Purgatoire River: FIELD
LOC.           2419' FNL & 1806' FWL----: LOCATION
PROV.                 Colorado: PROVINCE
CNTY.               Las Animas: COUNTRY
SRVC.                Patterson: SERVICE COMPANY
DATE.          Fri Apr 01 07:38:12 2005: LOG DATE
UWI.           05 071 08318 00: UNIQUE WELL ID
~Curve Information Block
DEPT.FT            0 000 00 00: Depth
DCAL.in                       : CDL Caliper
RHOB.g/cc                     : CDL Bulk Density
RHOC.g/cc                     : CDL Density Correction
DPOR.pu                       : CDL Density Porosity
NPOR.pu                       : Neutron Porosity
GR.GAPI                       : Gamma Ray
~Parameter Information Block
~A  Depth       DCAL        RHOB        RHOC        DPOR        NPOR         GR     
# ...
  2170.0000      7.7940      2.5463      0.0316      6.2841     17.0994    122.6124
  2170.1000      7.7940      2.5548      0.0860      5.7677     16.6857    126.1543
  2170.2000      7.7940      2.5621      0.0732      5.3243     16.7763    130.6491
  2170.3000      7.7918      2.5675      0.0151      4.9976     17.6838    136.4532
  2170.4000      7.7918      2.5752      0.0409      4.5309     18.7567    139.3320
  2170.5000      7.7905      2.5834      0.0239      4.0342     19.2221    133.2982
  2170.6000      7.7905      2.5926      0.0712      3.4818     18.9723    121.2951
  2170.7000      7.7905      2.6011      0.0807      2.9627     18.3752    116.2634
  2170.8000      7.7899      2.6092      0.0348      2.4729     18.0650    124.1187
  2170.9000      7.7899      2.6158      0.1072      2.0725     18.2123    135.7714
  2171.0000      7.7901      2.6136      0.0734      2.2059     18.5010    138.9722
  2171.1000      7.7901      2.5994      0.0762      3.0674     18.7289    133.7212
  2171.2000      7.7901      2.5784      0.0394      4.3393     18.6239    133.3631
  2171.3000      7.7915      2.5629      0.0575      5.2766     18.2870    141.0126
  2171.4000      7.7915      2.5630      0.0064      5.2733     18.0701    143.6965
  2171.5000      7.7923      2.5744      0.0582      4.5815     17.8309    134.4371
  2171.6000      7.7923      2.5754      0.0666      4.5193     17.6610    123.1711
  2171.7000      7.7923      2.5540      0.0452      5.8200     18.0436    117.8265
  2171.8000      7.7919      2.5239      0.0073      7.6442     18.7773    113.2778
  2171.9000      7.7919      2.5036     -0.0028      8.8738     18.9324    108.5053
  2172.0000      7.7902      2.4994     -0.0011      9.1302     18.1994    106.8289
  2172.1000      7.7902      2.5113     -0.0174      8.4081     17.3172    106.0212
  2172.2000      7.7902      2.5358      0.0471      6.9210     16.9068    106.7128
  2172.3000      7.7843      2.5651      0.0794      5.1437     16.9814    105.0841
  2172.4000      7.7843      2.5993      0.0758      3.0703     17.3044     84.6398
  2172.5000      7.7768      2.6372      0.1098      0.7744     17.5374     46.1672
  2172.6000      7.7768      2.6633      0.1171     -0.8055     17.4343     15.1789
  2172.7000      7.7768      2.6621      0.1319     -0.7323     17.0941      2.8258
  2172.8000      7.7752      2.6333      0.0984      1.0140     16.8956      0.2879
  2172.9000      7.7752      2.5995      0.0642      3.0597     17.0092      0.0154
  2173.0000      7.7817      2.5845      0.0305      3.9690     17.0350      0.0000
  2173.1000      7.7817      2.5827      0.0944      4.0795     16.8097   -999.2500
  2173.2000      7.7817      2.5760      0.0331      4.4836     16.6543   -999.2500
  2173.3000      7.7908      2.5621      0.0512      5.3257     16.8319   -999.2500
  2173.4000      7.7908      2.5517      0.0042      5.9567     17.4441   -999.2500
  2173.5000      7.7949      2.5558      0.0149      5.7113     18.0587   -999.2500
  2173.6000      7.7949      2.5610      0.0627      5.3919     18.1038   -999.2500
  2173.7000      7.7949      2.5458      0.0562      6.3125     17.7230   -999.2500
  2173.8000      7.7930      2.5243     -0.0154      7.6195     17.4381   -999.2500
  2173.9000      7.7930      2.5200      0.0600      7.8796     17.4000   -999.2500
  2174.0000      7.7864      2.5248      0.0343      7.5870     17.2941   -999.2500
  2174.1000      7.7864      2.5312      0.0235      7.1982     16.7794   -999.2500
  2174.2000      7.7864      2.5527      0.0173      5.8985     15.9827   -999.2500
  2174.3000      7.7826      2.5873      0.0728      3.7979     15.3155   -999.2500
  2174.4000      7.7826      2.6010      0.0743      2.9713     14.9666   -999.2500
  2174.5000      7.7866      2.5758      0.0264      4.4953     14.9032   -999.2500
  2174.6000      7.7866      2.5430     -0.0070      6.4819     15.0567   -999.2500
  2174.7000      7.7866      2.5339      0.0047      7.0347     15.3791   -999.2500
  2174.8000      7.7907      2.5406      0.0398      6.6330     15.8703   -999.2500
  2174.9000      7.7907      2.5443      0.0260      6.4065     16.5038   -999.2500
  2175.0000      7.7911      2.5492      0.0219      6.1114     17.1717   -999.2500
  2175.1000      7.7911      2.5594      0.0726      5.4926     17.5981   -999.2500
  2175.2000      7.7911      2.5598      0.0684      5.4656     17.6131   -999.2500
  2175.3000      7.7867      2.5472      0.0467      6.2303     17.4180   -999.2500
  2175.4000      7.7867      2.5393      0.0443      6.7079     17.2447   -999.2500
  2175.5000      7.7835      2.5439      0.0634      6.4293     17.1238   -999.2500
  2175.6000      7.7835      2.5449      0.0815      6.3719     16.9872   -999.2500
  2175.7000      7.7835      2.5347      0.0320      6.9897     16.8015   -999.2500
  2175.8000      7.7883      2.5323      0.0414      7.1342     16.3860   -999.2500
  2175.9000      7.7883      2.5399      0.0542      6.6756     15.6235   -999.2500
  2176.0000      7.7933      2.5433      0.0346      6.4639     15.1913   -999.2500
  2176.1000      7.7933      2.5444      0.0623      6.4004     15.8393   -999.2500
  2176.2000      7.7933      2.5446      0.0342      6.3867     16.8809   -999.2500
  2176.3000      7.7950      2.5402      0.0239      6.6534     17.3092   -999.2500
  2176.4000      7.7950      2.5371      0.0433      6.8395     17.2660   -999.2500
  2176.5000      7.7959      2.5470      0.0112      6.2442     17.1557   -999.2500
  2176.6000      7.7959      2.5665      0.0717      5.0579     17.3751   -999.2500
  2176.7000      7.7959      2.5725      0.0737      4.6948     18.1595   -999.2500
  2176.8000      7.7959      2.5516      0.0385      5.9623     19.0722   -999.2500
  2176.9000      7.7959      2.5205      0.0081      7.8467     19.6095   -999.2500
  2177.0000      7.7966      2.5077     -0.0350      8.6215     19.7237   -999.2500
  2177.1000      7.7966      2.5181      0.0650      7.9919     19.4304   -999.2500
  2177.2000      7.7966      2.5291      0.0347      7.3260     18.8482   -999.2500
  2177.3000      7.7962      2.5302      0.0057      7.2585     18.5920   -999.2500
  2177.4000      7.7962      2.5326      0.0144      7.1141     18.9865   -999.2500
  2177.5000      7.7943      2.5431      0.0329      6.4802     19.3224   -999.2500
  2177.6000      7.7943      2.5510      0.0354      6.0003     18.9511   -999.2500
  2177.7000      7.7943      2.5452      0.0674      6.3534     18.7109   -999.2500
  2177.8000      7.7942      2.5365      0.0082      6.8817     19.6359   -999.2500
  2177.9000      7.7942      2.5388      0.0492      6.7404     22.6213   -999.2500
  2178.0000      7.7953      2.5481      0.0406      6.1732     29.9575   -999.2500
  2178.1000      7.7953      2.5587      0.0846      5.5345     40.6935   -999.2500
  2178.2000      7.7953      2.5660      0.0602      5.0935     48.3675   -999.2500
  2178.3000      7.7944      2.5681      0.0400      4.9665     51.1497   -999.2500
  2178.4000      7.7944      2.5669      0.0431      5.0335     51.6973   -999.2500
  2178.5000      7.7929      2.5595      0.0547      5.4851     51.7554   -999.2500
  2178.6000      7.7929      2.5478      0.0171      6.1967     51.7587   -999.2500
  2178.7000      7.7929      2.5466      0.0137      6.2677   -999.2500   -999.2500
  2178.8000      7.7937      2.5490      0.0853      6.1212   -999.2500   -999.2500
  2178.9000      7.7937      2.5337      0.0485      7.0466   -999.2500   -999.2500
  2179.0000      7.7961      2.5069      0.0147      8.6713   -999.2500   -999.2500
  2179.1000      7.7961      2.4851      0.0324      9.9930   -999.2500   -999.2500
  2179.2000      7.7961      2.4795     -0.0125     10.3340   -999.2500   -999.2500
  2179.3000      7.7964      2.4960      0.0462      9.3330   -999.2500   -999.2500
  2179.4000      7.7964      2.5193      0.0699      7.9238   -999.2500   -999.2500
  2179.5000      7.7954      2.5362      0.0549      6.8985   -999.2500   -999.2500
