~Version Information
VERS.                      2.0: CWLS Log ASCII Standard - VERSION 2.0
WRAP.                       NO: One line per depth step
~Well Information Block
STRT.FT               765.4000: 
STOP.FT              2581.2000: 
STEP.FT                 0.1000: 
NULL.                -999.2500: 
COMP.          Petrogulf Corporation: COMPANY
WELL.            Montoya 7-12V: WELL
FLD.           Purgatorie River: FIELD
LOC.           728' FWL & 1764' FNL: LOCATION
CNTY.               Las Animas: COUNTY
SRVC.                         : SERVICE COMPANY
DATE.          Fri Feb 20 09:23:58 2004: LOG DATE
UWI.           05-071-07887-00: UNIQUE WELL ID
STAT.                 Colorado: STATE
~Curve Information Block
DEPT.FT            0 000 00 00: Depth
DCAL.in                       : CDL Caliper
RHOB.g/cc                     : CDL Bulk Density
RHOC.g/cc                     : CDL Density Correction
DPOR.pu                       : CDL Density Porosity
GR.GAPI                       : Gamma Ray
NPOR.pu                       : Neutron Porosity
~Parameter Information Block
~A  Depth       DCAL        RHOB        RHOC        DPOR         GR         NPOR    
# ...
  2570.2000      7.2981      2.5772      0.1608      4.4113     82.2635   -999.2500
  2570.3000      7.2267      2.5769      0.1592      4.4310     83.3741   -999.2500
  2570.4000      7.2267      2.5636      0.1214      5.2380     83.1990   -999.2500
  2570.5000      7.1948      2.5505      0.1260      6.0314     79.2763   -999.2500
  2570.6000      7.1948      2.5403      0.1691      6.6505     80.1316   -999.2500
  2570.7000      7.1948      2.5147      0.1661      8.1999     85.2631   -999.2500
  2570.8000      7.1992      2.4663      0.0839     11.1315     84.8930   -999.2500
  2570.9000      7.1992      2.4216      0.0548     13.8443     79.8150   -999.2500
  2571.0000      7.2116      2.4057      0.0643     14.8038     75.7583   -999.2500
  2571.1000      7.2116      2.4253     -0.0066     13.6201     74.1933   -999.2500
  2571.2000      7.2116      2.4613      0.1621     11.4335     70.1297   -999.2500
  2571.3000      7.1562      2.4763      0.1123     10.5250     53.3403   -999.2500
  2571.4000      7.1562      2.4678      0.0468     11.0452     27.4766   -999.2500
  2571.5000      6.9303      2.4547      0.1171     11.8356      8.6398   -999.2500
  2571.6000      6.9303      2.4406      0.0914     12.6911      1.5616   -999.2500
  2571.7000      6.9303      2.4342      0.0761     13.0789      0.1563   -999.2500
  2571.8000      6.8190      2.4475      0.0782     12.2716      0.0082   -999.2500
  2571.9000      6.8190      2.4716      0.1096     10.8095      0.0000   -999.2500
  2572.0000      6.5495      2.4837      0.1403     10.0796   -999.2500   -999.2500
  2572.1000      6.5495      2.4797      0.1047     10.3231   -999.2500   -999.2500
  2572.2000      6.5495      2.4783      0.0944     10.4089   -999.2500   -999.2500
  2572.3000      6.2600      2.4843      0.1186     10.0421   -999.2500   -999.2500
  2572.4000      6.2600      2.4878      0.0904      9.8303   -999.2500   -999.2500
  2572.5000      6.2682      2.4920      0.1003      9.5734   -999.2500   -999.2500
  2572.6000      6.2682      2.5043      0.1174      8.8297   -999.2500   -999.2500
  2572.7000      6.2682      2.5143      0.1575      8.2226   -999.2500   -999.2500
  2572.8000      6.3905      2.5043      0.1426      8.8299   -999.2500   -999.2500
  2572.9000      6.3905      2.4841      0.0996     10.0570   -999.2500   -999.2500
  2573.0000      6.4479      2.4845      0.0413     10.0294   -999.2500   -999.2500
  2573.1000      6.4479      2.5076      0.1322      8.6325   -999.2500   -999.2500
  2573.2000      6.4479      2.5229      0.1682      7.7047   -999.2500   -999.2500
  2573.3000      6.5518      2.5156      0.1821      8.1470   -999.2500   -999.2500
  2573.4000      6.5518      2.4991      0.1043      9.1477   -999.2500   -999.2500
  2573.5000      6.8910      2.5008      0.0923      9.0406   -999.2500   -999.2500
  2573.6000      6.8910      2.5273      0.1517      7.4341   -999.2500   -999.2500
  2573.7000      6.8910      2.5475      0.1667      6.2123   -999.2500   -999.2500
  2573.8000      7.1418      2.5412      0.1303      6.5924   -999.2500   -999.2500
  2573.9000      7.1418      2.5223      0.0855      7.7419   -999.2500   -999.2500
  2574.0000      7.3347      2.5050      0.0804      8.7896   -999.2500   -999.2500
  2574.1000      7.3347      2.4940      0.0753      9.4545   -999.2500   -999.2500
  2574.2000      7.3347      2.5001      0.0522      9.0825   -999.2500   -999.2500
  2574.3000      7.3944      2.5269      0.1098      7.4621   -999.2500   -999.2500
  2574.4000      7.3944      2.5475      0.1160      6.2139   -999.2500   -999.2500
  2574.5000      7.4144      2.5318      0.1289      7.1664   -999.2500   -999.2500
  2574.6000      7.4144      2.4817      0.0855     10.1980   -999.2500   -999.2500
  2574.7000      7.4144      2.4368     -0.0390     12.9234   -999.2500   -999.2500
  2574.8000      7.4320      2.4272      0.0729     13.5003   -999.2500   -999.2500
  2574.9000      7.4320      2.4389      0.0226     12.7929   -999.2500   -999.2500
  2575.0000      7.4289      2.4482      0.0683     12.2327   -999.2500   -999.2500
  2575.1000      7.4289      2.4382      0.0742     12.8343   -999.2500   -999.2500
  2575.2000      7.4289      2.4144     -0.0337     14.2817   -999.2500   -999.2500
  2575.3000      7.4216      2.4135     -0.0516     14.3332   -999.2500   -999.2500
  2575.4000      7.4216      2.4476      0.0447     12.2672   -999.2500   -999.2500
  2575.5000      7.4088      2.4819      0.0820     10.1863   -999.2500   -999.2500
  2575.6000      7.4088      2.4924      0.0583      9.5518   -999.2500   -999.2500
  2575.7000      7.4088      2.4875      0.0656      9.8461   -999.2500   -999.2500
  2575.8000      7.3878      2.4777      0.0806     10.4418   -999.2500   -999.2500
  2575.9000      7.3878      2.4609      0.0896     11.4578   -999.2500   -999.2500
  2576.0000      7.3896      2.4389      0.0541     12.7921   -999.2500   -999.2500
  2576.1000      7.3896      2.4266     -0.0106     13.5411   -999.2500   -999.2500
  2576.2000      7.3896      2.4430      0.0257     12.5442   -999.2500   -999.2500
  2576.3000      7.3358      2.4845      0.0997     10.0304   -999.2500   -999.2500
  2576.4000      7.3358      2.5127      0.1519      8.3242   -999.2500   -999.2500
  2576.5000      7.1716      2.5099      0.0789      8.4893   -999.2500   -999.2500
  2576.6000      7.1716      2.5035      0.0355      8.8792   -999.2500   -999.2500
  2576.7000      7.1716      2.5042      0.0912      8.8360   -999.2500   -999.2500
  2576.8000      6.7751      2.4904      0.0454      9.6722   -999.2500   -999.2500
  2576.9000      6.7751      2.4549      0.0198     11.8232   -999.2500   -999.2500
  2577.0000      6.2957      2.4120      0.0347     14.4215   -999.2500   -999.2500
  2577.1000      6.2957      2.3912     -0.0937     15.6821   -999.2500   -999.2500
  2577.2000      6.2957      2.4309      0.0236     13.2789   -999.2500   -999.2500
  2577.3000      6.0886      2.5455      0.0548      6.3325   -999.2500   -999.2500
  2577.4000      6.0886      2.5945      0.0601      3.3664   -999.2500   -999.2500
  2577.5000      5.8606      2.1737      0.4823     28.8683   -999.2500   -999.2500
  2577.6000      5.8606      1.2336      0.0000     85.8419   -999.2500   -999.2500
  2577.7000      5.8606      0.4180      0.0000    135.2713   -999.2500   -999.2500
  2577.8000      5.5008      0.0793   -999.2500    155.7974   -999.2500   -999.2500
  2577.9000      5.5008      0.0082   -999.2500    160.1105   -999.2500   -999.2500
  2578.0000      3.2104      0.0004   -999.2500    160.5792   -999.2500   -999.2500
  2578.1000      3.2104      0.0000   -999.2500    160.6061   -999.2500   -999.2500
  2578.2000      3.2104      0.0000   -999.2500    160.6061   -999.2500   -999.2500
  2578.3000      2.9009   -999.2500   -999.2500   -999.2500   -999.2500   -999.2500
  2578.4000      2.9009   -999.2500   -999.2500   -999.2500   -999.2500   -999.2500
  2578.5000   -999.2500   -999.2500   -999.2500   -999.2500   -999.2500   -999.2500
  2578.6000   -999.2500   -999.2500   -999.2500   -999.2500   -999.2500   -999.2500
  2578.7000   -999.2500   -999.2500   -999.2500   -999.2500   -999.2500   -999.2500
  2578.8000   -999.2500   -999.2500   -999.2500   -999.2500   -999.2500   -999.2500
  2578.9000   -999.2500   -999.2500   -999.2500   -999.2500   -999.2500   -999.2500
  2579.0000   -999.2500   -999.2500   -999.2500   -999.2500   -999.2500   -999.2500
  2579.1000   -999.2500   -999.2500   -999.2500   -999.2500   -999.2500   -999.2500
  2579.2000   -999.2500   -999.2500   -999.2500   -999.2500   -999.2500   -999.2500
  2579.3000   -999.2500   -999.2500   -999.2500   -999.2500   -999.2500   -999.2500
  2579.4000   -999.2500   -999.2500   -999.2500   -999.2500   -999.2500   -999.2500
  2579.5000   -999.2500   -999.2500   -999.2500   -999.2500   -999.2500   -999.2500
  2579.6000   -999.2500   -999.2500   -999.2500   -999.2500   -999.2500   -999.2500
  2579.7000   -999.2500   -999.2500   -999.2500   -999.2500   -999.2500   -999.2500
