~Version Information
 VERS.                                  2.0 : CWLS LAS VERSION
 WRAP.                                   NO : WRAPING MODE
 SWARE .                 MController 2.5.0J : SOFTWARE VERSION
~Well Information
 WELL.                         Leier 17-24R : WELL
 COMP.                Petrogulf Corporation : COMPANY
 FLD.                      Purgatoire River : FIELD
 LOC.                SE/NE Sec 17 T33S R67W : LOCATION
 DATE.                          10/17-18/05 : DATE(S) LOGGED
 SRVC.       BLANCO Geological Services LLC : SERVICE COMPANY
 STAT.                                   CO : STATE
 CNTY.                           Las Animas : COUNTY
 CTRY.                                  USA : COUNTRY
 API.                       05-071-08410-00 : API NUMBER
 STRT.FT                              31.00 : START DEPTH
 STOP.FT                            1390.00 : STOP DEPTH
 STEP.FT                               1.00 : DEPTH INCREMENT
 NULL.                                -9999 : NULL VALUE
~Curve information
 DEPTH.FT                                   :
 ROP.MIN/FT                                 :
 GAS.UNITS                                  :
~ASCII Log data
# ...
       831.0         0.23          9.5 
       832.0         0.20          9.2 
       833.0         0.20          8.3 
       834.0         0.17          8.3 
       835.0         0.17          7.7 
       836.0         2.68         56.7 
       837.0         0.17         16.8 
       838.0         0.17         15.8 
       839.0         0.17         16.1 
       840.0         0.17         14.7 
       841.0         0.13         13.9 
       842.0         0.20         13.0 
       843.0         0.17         11.9 
       844.0         0.20         10.8 
       845.0         0.30         10.5 
       846.0         0.23          9.2 
       847.0         0.17          8.3 
       848.0         0.30          8.6 
       849.0         0.25          8.1 
       850.0         0.27          8.0 
       851.0         0.20          7.8 
       852.0         0.33          7.8 
       853.0         0.20          7.4 
       854.0         0.20          7.6 
       855.0         0.23          7.5 
       856.0         0.23          7.4 
       857.0         0.27          7.8 
       858.0         0.30          7.4 
       859.0         0.23          7.8 
       860.0         0.27          7.5 
       861.0         0.35          7.6 
       862.0         0.27          7.8 
       863.0         0.27          7.2 
       864.0         0.20          6.4 
       865.0         0.20          6.3 
       866.0         2.48         64.1 
       867.0         0.20         15.4 
       868.0         0.27         13.4 
       869.0         0.37         11.8 
       870.0         0.37         11.1 
       871.0         0.23         12.0 
       872.0         0.20         13.8 
       873.0         0.17         14.6 
       874.0         0.20         15.2 
       875.0         0.17         15.0 
       876.0         0.17         14.3 
       877.0         0.13         14.4 
       878.0         0.23         14.6 
       879.0         0.13         14.2 
       880.0         0.13         14.2 
       881.0         0.18         13.4 
       882.0         0.13         13.1 
       883.0         0.20         12.1 
       884.0         0.30         11.4 
       885.0         0.33         10.1 
       886.0         0.30          9.3 
       887.0         0.33          8.1 
       888.0         0.30          7.7 
       889.0         0.33          7.5 
       890.0         0.37          8.0 
       891.0         0.30          8.1 
       892.0         0.32          7.9 
       893.0         0.27          7.7 
       894.0         0.27          8.1 
       895.0         0.30          7.3 
       896.0         2.52         54.7 
       897.0         0.40         13.9 
       898.0         0.43         11.4 
       899.0         0.40         10.8 
       900.0         0.37          9.7 
       901.0         0.40          9.3 
       902.0         0.37          8.4 
       903.0         0.30          8.0 
       904.0         0.30          7.6 
       905.0         0.32          8.3 
       906.0         0.23          8.3 
       907.0         0.20          8.8 
       908.0         0.30          9.8 
       909.0         0.17         10.9 
       910.0         0.17         10.6 
       911.0         0.23         10.4 
       912.0         0.23         10.1 
       913.0         0.23          9.9 
       914.0         0.27          9.3 
       915.0         0.33          8.9 
       916.0         0.27          8.6 
       917.0         0.27          8.6 
       918.0         0.38          8.4 
       919.0         0.23          8.4 
       920.0         0.23          9.0 
       921.0         0.23          8.4 
       922.0         0.23          8.5 
       923.0         0.13          7.2 
       924.0         0.27          8.4 
       925.0         0.23         14.9 
       926.0         2.08         56.4 
       927.0         0.50         11.9 
       928.0         0.57         10.9 
       929.0         0.50         10.7 
       930.0         0.37          9.6 
       931.0         0.28          9.7 
       932.0         0.27          8.7 
       933.0         0.33          8.4 
       934.0         0.27          8.4 
       935.0         0.23          8.9 
       936.0         0.23          8.7 
       937.0         0.23          9.0 
       938.0         0.20          9.2 
       939.0         0.27          8.9 
       940.0         0.28          8.7 
       941.0         0.27          8.5 
       942.0         0.27          8.2 
       943.0         0.27          8.3 
       944.0         0.23          8.9 
       945.0         0.27          8.8 
       946.0         0.23          9.3 
       947.0         0.20          9.8 
       948.0         0.25         10.0 
       949.0         0.20         10.4 
       950.0         0.27         10.6 
       951.0         0.27          9.9 
       952.0         0.30          9.7 
       953.0         0.20          8.2 
       954.0         0.23          9.1 
       955.0         0.23         14.7 
       956.0         1.18         55.0 
       957.0         0.23         35.2 
       958.0         0.23         27.9 
       959.0         0.27         20.8 
       960.0         0.40         15.4 
       961.0         0.40         11.4 
       962.0         0.43         11.2 
       963.0         0.33         10.5 
       964.0         0.33          9.9 
       965.0         0.30          9.3 
       966.0         0.23          9.4 
       967.0         0.28          9.0 
       968.0         0.20          8.6 
       969.0         0.20          8.5 
       970.0         0.20          8.3 
       971.0         0.23          8.2 
       972.0         0.20          7.9 
       973.0         0.20          7.8 
       974.0         0.27          7.5 
       975.0         0.23          7.2 
       976.0         0.27          7.3 
       977.0         0.27          7.6 
       978.0         0.37          7.4 
       979.0         0.32          7.4 
       980.0         0.23          7.4 
       981.0         0.23          7.8 
       982.0         0.20          7.8 
       983.0         0.20          8.1 
       984.0         0.23          8.4 
       985.0         0.20          7.8 
       986.0         2.58         71.7 
       987.0         0.37         25.3 
       988.0         0.33         17.5 
       989.0         0.30         12.7 
       990.0         0.37         14.2 
       991.0         0.27         15.7 
       992.0         0.17         16.0 
       993.0         0.20         15.7 
       994.0         0.13         15.2 
       995.0         0.25         13.7 
       996.0         0.20         12.9 
       997.0         0.23         12.1 
       998.0         0.23         11.1 
       999.0         0.37         10.6 
      1000.0         0.27          9.1 
      1001.0         0.23          8.7 
      1002.0         0.23          8.4 
      1003.0         0.17          8.0 
      1004.0         0.20          7.8 
      1005.0         0.17          8.3 
      1006.0         0.17          8.3 
      1007.0         0.23          8.3 
      1008.0         0.47          8.7 
      1009.0         0.25          8.5 
      1010.0         0.33          8.6 
      1011.0         0.33          8.1 
      1012.0         0.20          8.3 
      1013.0         0.23          7.4 
      1014.0         0.23          6.8 
      1015.0         0.20          7.3 
      1016.0         1.48         62.0 
      1017.0         0.37         43.5 
      1018.0         0.33         26.3 
      1019.0         0.27         19.9 
      1020.0         0.23         17.3 
      1021.0         0.27         14.6 
      1022.0         0.37         13.6 
      1023.0         0.37         13.4 
      1024.0         0.33         12.7 
      1025.0         0.42         10.8 
      1026.0         0.33          9.4 
      1027.0         0.33          9.3 
      1028.0         0.33          9.1 
      1029.0         0.30          8.7 
      1030.0         0.30         10.1 
