~Version Information
VERS.                      2.0: CWLS Log ASCII Standard - VERSION 2.0
WRAP.                       NO: One line per depth step
~Well Information Block
STRT.FT               300.0000: 
STOP.FT               871.2000: 
STEP.FT                 0.1000: 
NULL.                -999.2500: 
COMP.          Pioneer Natural Resources: COMPANY
WELL.            Hustler 12-17: WELL
FLD.           Purgatoire River: FIELD
LOC.           2150' FNL & 450' FWL: LOCATION
PROV.                 Colorado: PROVINCE
CNTY.               Las Animas: COUNTRY
SRVC.                Patterson: SERVICE COMPANY
DATE.          Mon Dec 20 11:14:19 2004: LOG DATE
UWI.           05 071 08236 00: UNIQUE WELL ID
~Curve Information Block
DEPT.FT            0 000 00 00: Depth
DCAL.in                       : CDL Caliper
RHOB.g/cc                     : CDL Bulk Density
RHOC.g/cc                     : CDL Density Correction
DPOR.pu                       : CDL Density Porosity
NPOR.pu                       : Neutron Porosity
GR.GAPI                       : Gamma Ray
~Parameter Information Block
~A  Depth       DCAL        RHOB        RHOC        DPOR        NPOR         GR     
# ...
   588.0000      7.9339      2.6034      0.1291      2.8220     20.4278     85.6704
   588.1000      7.9339      2.6010      0.0668      2.9711     20.3002     89.5296
   588.2000      7.9339      2.5867      0.0547      3.8338     20.4324     91.8551
   588.3000      7.9422      2.5726      0.0400      4.6896     20.7444     93.6836
   588.4000      7.9422      2.5636      0.0509      5.2354     20.8368     94.5878
   588.5000      7.9360      2.5596      0.0281      5.4780     20.7432     92.9163
   588.6000      7.9360      2.5593      0.0538      5.4984     20.8785     90.1166
   588.7000      7.9360      2.5533      0.0554      5.8599     21.0337     89.0995
   588.8000      7.9276      2.5352      0.0345      6.9560     20.7581     91.6865
   588.9000      7.9276      2.5141      0.0134      8.2346     20.4301     97.3627
   589.0000      7.9255      2.5039      0.0411      8.8564     20.5246    102.3288
   589.1000      7.9255      2.5125      0.0060      8.3318     20.6873    100.7223
   589.2000      7.9255      2.5370      0.0297      6.8464     20.4858     93.2928
   589.3000      7.9254      2.5586      0.0641      5.5382     20.0730     86.6650
   589.4000      7.9254      2.5693      0.0233      4.8922     19.8372     85.0839
   589.5000      7.9263      2.5773      0.0638      4.4060     19.8540     88.1161
   589.6000      7.9263      2.5705      0.0859      4.8208     19.8551     90.8633
   589.7000      7.9263      2.5248      0.0689      7.5883     19.8253     89.6276
   589.8000      7.9272      2.4562      0.0098     11.7427     20.0761     87.6660
   589.9000      7.9272      2.4325     -0.0445     13.1796     20.5527     86.3846
   590.0000      7.9271      2.4864      0.0556      9.9150     20.8928     83.3843
   590.1000      7.9271      2.5565      0.0979      5.6683     20.9805     79.7609
   590.2000      7.9271      2.5855      0.0663      3.9066     20.9510     79.8961
   590.3000      7.9314      2.5797      0.0581      4.2603     21.0711     83.5859
   590.4000      7.9314      2.5651      0.0340      5.1432     21.3599     86.0921
   590.5000      7.9421      2.5664     -0.0296      5.0664     21.5500     86.6080
   590.6000      7.9421      2.5934      0.0574      3.4323     21.8710     87.0226
   590.7000      7.9421      2.6181      0.0995      1.9331     22.5746     90.1643
   590.8000      7.9503      2.6089      0.0662      2.4898     23.2426     97.6032
   590.9000      7.9503      2.5822     -0.0185      4.1118     23.7898    104.4238
   591.0000      7.9536      2.5743      0.0080      4.5868     24.4108    106.3048
   591.1000      7.9536      2.5837      0.0853      4.0207     24.8961    106.6571
   591.2000      7.9536      2.5888      0.0300      3.7108     25.2954    109.2072
   591.3000      7.9550      2.5872     -0.0117      3.8063     25.9107    111.2862
   591.4000      7.9550      2.5805      0.0260      4.2108     26.6501    107.6686
   591.5000      7.9561      2.5670      0.0094      5.0315     27.2450     99.5172
   591.6000      7.9561      2.5523      0.0445      5.9218     27.4870     95.2575
   591.7000      7.9561      2.5448      0.0080      6.3766     27.2446     97.2496
   591.8000      7.9624      2.5489      0.0447      6.1276     26.6460    102.4473
   591.9000      7.9624      2.5577      0.0112      5.5947     25.9023    112.4603
   592.0000      7.9692      2.5519      0.0711      5.9465     25.3279    128.4805
   592.1000      7.9692      2.5135      0.0448      8.2753     25.1103    144.6890
   592.2000      7.9692      2.4545     -0.0228     11.8474     24.8422    152.9813
   592.3000      7.9643      2.4076     -0.0135     14.6923     24.1740    150.7234
   592.4000      7.9643      2.3863      0.0073     15.9844     23.4233    144.1482
   592.5000      7.9523      2.3896     -0.0412     15.7818     22.8834    138.3116
   592.6000      7.9523      2.4108      0.0283     14.4999     22.4680    133.2704
   592.7000      7.9523      2.4311      0.0135     13.2668     22.1038    133.3905
   592.8000      7.9384      2.4292      0.0570     13.3815     21.6792    141.4115
   592.9000      7.9384      2.3960      0.0736     15.3950     21.2018    150.4720
   593.0000      7.9288      2.3676     -0.0401     17.1160     20.9273    154.4412
   593.1000      7.9288      2.3832      0.0665     16.1709     20.7438    151.7730
   593.2000      7.9288      2.4148      0.0665     14.2539     20.2977    141.4717
   593.3000      7.9260      2.4307      0.0465     13.2897     19.7618    130.4178
   593.4000      7.9260      2.4343      0.0794     13.0712     19.4391    129.1973
   593.5000      7.9255      2.4277      0.0626     13.4728     19.5107    136.1236
   593.6000      7.9255      2.4178      0.0192     14.0719     20.1012    140.8735
   593.7000      7.9255      2.4166      0.0280     14.1478     20.8091    137.3568
   593.8000      7.9258      2.4192      0.0668     13.9908     21.0417    130.3149
   593.9000      7.9258      2.4324      0.0289     13.1875     20.9182    127.8932
   594.0000      7.9220      2.4684      0.0778     11.0042     20.8757    131.9332
   594.1000      7.9220      2.5027      0.0754      8.9259     20.9197    136.9003
   594.2000      7.9220      2.5172      0.0851      8.0499     20.8277    136.8824
   594.3000      7.9123      2.5215      0.0806      7.7891     20.6189    131.4405
   594.4000      7.9123      2.5222      0.0972      7.7431     20.6180    123.6493
   594.5000      7.9081      2.5254      0.0681      7.5494     20.9924    119.2809
   594.6000      7.9081      2.5466      0.0674      6.2675     21.2375    120.5552
   594.7000      7.9081      2.5808      0.1129      4.1923     20.8293    122.2543
   594.8000      7.9131      2.5954      0.0771      3.3067     20.1892    119.5738
   594.9000      7.9131      2.5797      0.0724      4.2601     19.9872    112.9134
   595.0000      7.9196      2.5567      0.0299      5.6557     20.2553    106.6049
   595.1000      7.9196      2.5502      0.0454      6.0514     20.8218    104.5150
   595.2000      7.9196      2.5670      0.0461      5.0289     21.6166    105.2432
   595.3000      7.9229      2.5942      0.0878      3.3832     22.2292    102.9872
   595.4000      7.9229      2.6096      0.0572      2.4506     22.3438     97.5481
   595.5000      7.9229      2.6094      0.0720      2.4617     22.3768     95.2081
   595.6000      7.9229      2.6027      0.0752      2.8661     22.7551     95.5043
   595.7000      7.9229      2.5889      0.0569      3.7003     23.2074     93.5589
   595.8000      7.9216      2.5736     -0.0079      4.6309     23.4793     91.8575
   595.9000      7.9216      2.5708      0.0176      4.7993     23.7816     92.8531
   596.0000      7.9227      2.5697      0.0563      4.8642     24.3299     94.0548
   596.1000      7.9227      2.5536      0.0145      5.8444     24.9626     95.8969
   596.2000      7.9227      2.5330     -0.0150      7.0908     25.4564    101.0268
   596.3000      7.9253      2.5160      0.0328      8.1223     25.7036    107.3958
   596.4000      7.9253      2.4896     -0.0036      9.7230     25.6170    110.8715
   596.5000      7.9250      2.4562     -0.0254     11.7463     25.3392    112.4927
   596.6000      7.9250      2.4392     -0.0269     12.7756     25.2083    116.9141
   596.7000      7.9250      2.4485      0.0304     12.2092     25.4572    124.4674
   596.8000      7.9173      2.4714      0.0444     10.8220     25.8628    133.2034
   596.9000      7.9173      2.4894      0.0722      9.7305     25.9053    141.6372
   597.0000      7.9059      2.4869      0.0968      9.8826     25.3782    146.9301
   597.1000      7.9059      2.4690      0.0694     10.9707     24.6664    149.8887
   597.2000      7.9059      2.4593      0.0629     11.5592     24.0527    154.2642
   597.3000      7.9026      2.4574      0.1488     11.6718     23.1986    156.8517
   597.4000      7.9026      2.4487      0.0929     12.2006     21.9522    153.9949
   597.5000      7.9094      2.4481      0.0785     12.2345     20.7494    149.7774
