~Version Information
VERS.                      2.0: CWLS Log ASCII Standard - VERSION 2.0
WRAP.                       NO: One line per depth step
~Well Information Block
STRT.FT               664.0000: 
STOP.FT              1113.5000: 
STEP.FT                 0.1000: 
NULL.                -999.2500: 
COMP.          Petrogulf Corporation: COMPANY
WELL.          Great Plains 22-21R: WELL
FLD.           Purgatorie River: FIELD
LOC.           73' FNL & 1992' FWL: LOCATION
PROV.                 Colorado: PROVINCE
CNTY.               Las Animas: COUNTRY
SRVC.                Patterson: SERVICE COMPANY
DATE.          Thu Sep 08 08:02:28 2005: LOG DATE
UWI.                          : UNIQUE WELL ID
~Curve Information Block
DEPT.FT            0 000 00 00: Depth
DCAL.in                       : CDL Caliper
RHOB.g/cc                     : CDL Bulk Density
RHOC.g/cc                     : CDL Density Correction
DPOR.pu                       : CDL Density Porosity
GR.GAPI                       : Gamma Ray
NPOR.pu                       : Neutron Porosity
~Parameter Information Block
~A  Depth       DCAL        RHOB        RHOC        DPOR         GR         NPOR    
# ...
   952.0000      8.2288      2.1598      0.0330     29.7076    141.0793     29.2961
   952.1000      8.2288      2.0166     -0.0138     38.3889    131.4192     28.9926
   952.2000      8.2288      1.8658     -0.0924     47.5279    120.2746     28.7792
   952.3000      8.2759      1.7215     -0.1001     56.2744    107.0401     29.0657
   952.4000      8.2759      1.5907     -0.0980     64.1987     95.8157     29.6401
   952.5000      8.2808      1.4760     -0.0975     71.1502     89.3521     30.3353
   952.6000      8.2808      1.3914     -0.1193     76.2771     84.8689     31.2041
   952.7000      8.2808      1.3583     -0.0814     78.2841     83.2490     31.9898
   952.8000      8.2963      1.3781      0.0207     77.0842     84.7632     32.5474
   952.9000      8.2963      1.4330      0.0565     73.7595     85.1031     32.8703
   953.0000      8.3144      1.5089      0.0739     69.1601     83.6902     32.9737
   953.1000      8.3144      1.6015      0.1022     63.5461     83.7849     33.1827
   953.2000      8.3144      1.7125      0.1135     56.8165     87.2887     33.5292
   953.3000      8.3581      1.8388      0.1464     49.1630     93.7319     33.5618
   953.4000      8.3581      1.9633      0.1941     41.6210    101.4736     33.1792
   953.5000      8.3528      2.0679      0.1912     35.2761    109.9173     32.7232
   953.6000      8.3528      2.1484      0.1545     30.4014    118.5700     32.3775
   953.7000      8.3528      2.2137      0.1311     26.4437    126.3794     32.1390
   953.8000      8.2659      2.2804      0.1419     22.4009    134.1438     31.9977
   953.9000      8.2659      2.3515      0.1366     18.0886    142.5121     31.8879
   954.0000      8.2145      2.4048      0.1417     14.8586    149.6249     31.7784
   954.1000      8.2145      2.4207      0.1653     13.8970    152.5390     31.5728
   954.2000      8.2145      2.4085      0.1207     14.6391    150.4931     31.0967
   954.3000      8.1908      2.3918      0.1114     15.6504    147.5335     30.4138
   954.4000      8.1908      2.3863      0.0989     15.9803    149.0138     29.8837
   954.5000      8.1642      2.3938      0.0804     15.5269    152.5265     29.8607
   954.6000      8.1642      2.3986      0.1395     15.2379    153.9075     30.2226
   954.7000      8.1642      2.3876      0.0747     15.9036    155.7499     30.5699
   954.8000      8.1387      2.3711      0.0791     16.9042    158.4383     30.7779
   954.9000      8.1387      2.3582      0.1018     17.6830    158.8389     30.9542
   955.0000      8.1199      2.3503      0.0585     18.1658    159.5804     31.0779
   955.1000      8.1199      2.3559      0.0804     17.8267    163.4637     31.0366
   955.2000      8.1199      2.3793      0.0706     16.4069    165.3372     30.9468
   955.3000      8.0933      2.4100      0.0952     14.5477    162.5568     30.9507
   955.4000      8.0933      2.4323      0.1131     13.1953    160.8579     30.9928
   955.5000      8.0567      2.4428      0.0506     12.5564    161.9903     30.7530
   955.6000      8.0567      2.4533      0.0732     11.9203    160.7625     29.9268
   955.7000      8.0567      2.4735      0.0464     10.6977    155.2894     28.9002
   955.8000      8.1189      2.4990      0.1174      9.1531    150.9202     28.4572
   955.9000      8.1189      2.5113      0.1397      8.4045    153.0996     28.6865
   956.0000      8.0086      2.4995      0.0983      9.1231    155.9601     29.0340
   956.1000      8.0086      2.4661      0.1205     11.1446    152.1404     29.1094
   956.2000      8.0086      2.4171      0.0821     14.1154    147.5741     28.7766
   956.3000      7.9984      2.3703      0.0351     16.9496    149.0889     28.1736
   956.4000      7.9984      2.3466      0.0111     18.3905    152.8118     27.8059
   956.5000      8.0319      2.3475      0.0345     18.3327    154.3633     27.9670
   956.6000      8.0319      2.3615      0.0632     17.4833    155.0463     28.4602
   956.7000      8.0319      2.3823      0.0588     16.2223    154.8155     29.0028
   956.8000      8.0481      2.4037      0.1079     14.9288    150.0209     29.5664
   956.9000      8.0481      2.4142      0.0810     14.2934    141.6905     30.1076
   957.0000      8.0199      2.4157      0.0598     14.1992    138.0519     30.3670
   957.1000      8.0199      2.4203      0.0771     13.9242    142.7708     30.2933
   957.2000      8.0199      2.4318      0.0837     13.2256    149.1834     30.1140
   957.3000      8.0663      2.4470      0.1009     12.3039    152.4535     29.9281
   957.4000      8.0663      2.4662      0.0890     11.1391    153.1661     29.6391
   957.5000      8.2690      2.4904      0.0730      9.6746    152.0619     29.1917
   957.6000      8.2690      2.5112      0.0463      8.4140    152.3327     28.7235
   957.7000      8.2690      2.5221      0.0696      7.7528    156.8290     28.4734
   957.8000      8.0134      2.5224      0.0746      7.7304    159.7296     28.4186
   957.9000      8.0134      2.5073      0.0751      8.6476    154.9262     28.2863
   958.0000      7.9719      2.4708      0.0610     10.8577    146.0239     28.0540
   958.1000      7.9719      2.4193     -0.0255     13.9837    137.9207     27.9379
   958.2000      7.9719      2.3716     -0.0037     16.8755    133.2719     28.0235
   958.3000      8.0387      2.3356      0.0109     19.0516    133.6086     28.3946
   958.4000      8.0387      2.3036     -0.0097     20.9966    135.6961     28.9246
   958.5000      8.1581      2.2707     -0.0059     22.9892    135.0155     29.2040
   958.6000      8.1581      2.2393     -0.0072     24.8917    130.9372     29.0924
   958.7000      8.1581      2.2161     -0.0346     26.2945    126.7316     28.8513
   958.8000      8.3166      2.2047      0.0324     26.9908    125.8985     28.7944
   958.9000      8.3166      2.2001      0.0514     27.2657    127.4686     29.1106
   959.0000      8.2778      2.2002     -0.0074     27.2608    130.3514     29.9142
   959.1000      8.2778      2.2020      0.0329     27.1495    135.8906     30.8285
   959.2000      8.2778      2.1988      0.0010     27.3446    140.7693     31.3650
   959.3000      8.2622      2.1923      0.0186     27.7423    140.6242     31.5330
   959.4000      8.2622      2.1829      0.0313     28.3066    138.7276     31.4719
   959.5000      8.2427      2.1647      0.0128     29.4111    139.8358     31.3504
   959.6000      8.2427      2.1413     -0.0044     30.8332    140.9731     31.3349
   959.7000      8.2427      2.1267     -0.0300     31.7152    137.9176     31.4477
   959.8000      8.2351      2.1287      0.0075     31.5944    133.4014     31.5781
   959.9000      8.2351      2.1380      0.0414     31.0324    128.9207     31.5549
   960.0000      8.2017      2.1445      0.0245     30.6347    122.2956     31.4359
   960.1000      8.2017      2.1529      0.0567     30.1244    117.0126     31.3434
   960.2000      8.2017      2.1666      0.0868     29.2976    119.8317     31.1604
   960.3000      8.1750      2.1790      0.0944     28.5461    131.1963     31.0653
   960.4000      8.1750      2.1840      0.0868     28.2423    143.1976     31.4013
   960.5000      8.1806      2.1809      0.0827     28.4278    147.6031     31.7978
   960.6000      8.1806      2.1723      0.0706     28.9540    145.7973     31.7150
   960.7000      8.1806      2.1628      0.0494     29.5251    146.0904     31.3966
   960.8000      8.1865      2.1622      0.0460     29.5642    148.3591     31.2957
   960.9000      8.1865      2.1741      0.0805     28.8443    144.9015     31.1231
   961.0000      8.1847      2.1900      0.0790     27.8773    135.9502     30.5511
   961.1000      8.1847      2.2050      0.0512     26.9688    129.8145     29.9158
   961.2000      8.1847      2.2187      0.0991     26.1423    131.0652     29.5263
   961.3000      8.1321      2.2223      0.0758     25.9201    135.1729     29.4274
   961.4000      8.1321      2.2099      0.0563     26.6710    137.6589     29.5755
   961.5000      8.1449      2.1842      0.0651     28.2321    137.6701     29.6801
