~Version Information
VERS.                      2.0: CWLS Log ASCII Standard - VERSION 2.0
WRAP.                       NO: One line per depth step
~Well Information Block
STRT.FT               480.0000: 
STOP.FT              1994.2500: 
STEP.FT                 0.2500: 
NULL.                -999.2500: 
COMP.          Evergreen Operating Corporation: COMPANY
WELL.          McCullough 34-32 Tr: WELL
FLD.           Purgatoire River: FIELD
LOC.           394' FSL & 2077' FEL: LOCATION
PROV.                 Colorado: PROVINCE
CNTY.               Las Animas: COUNTRY
SRVC.                Patterson: SERVICE COMPANY
DATE.          Sun Sep 19 05:48:59 2004: LOG DATE
UWI.           05 071 08157 00: UNIQUE WELL ID
~Curve Information Block
DEPT.FT            0 000 00 00: Depth
SN.Ohm-m                      : IEL Short Normal
SP.mV                         : IEL Spontaneous Potential
DIR.Ohm-m                     : IEL Induction Resistivity
GR.GAPI                       : Gamma Ray
~Parameter Information Block
~A  Depth        SN          SP         DIR          GR     
# ...
   580.5000   2000.0000   2000.0000     11.5926    144.4564
   580.7500   2000.0000   2000.0000     11.5014    141.8372
   581.0000   2000.0000   2000.0000     11.4476    138.6693
   581.2500   2000.0000   2000.0000     11.4288    137.7139
   581.5000   2000.0000   2000.0000     11.4371    138.1445
   581.7500   2000.0000   2000.0000     11.4655    139.1046
   582.0000   2000.0000   2000.0000     11.5119    140.0793
   582.2500   2000.0000   2000.0000     11.5791    139.8432
   582.5000   2000.0000   2000.0000     11.6703    138.1754
   582.7500   2000.0000   2000.0000     11.7826    136.5296
   583.0000   2000.0000   2000.0000     11.9029    133.7716
   583.2500   2000.0000   2000.0000     12.0077    131.9455
   583.5000   2000.0000   2000.0000     12.0699    129.5282
   583.7500   2000.0000   2000.0000     12.0743    128.1476
   584.0000   2000.0000   2000.0000     12.0332    125.9882
   584.2500   2000.0000   2000.0000     11.9867    124.2893
   584.5000   2000.0000   2000.0000     11.9834    121.8917
   584.7500   2000.0000   2000.0000     12.0556    121.0650
   585.0000   2000.0000   2000.0000     12.2064    121.5272
   585.2500   2000.0000   2000.0000     12.4144    122.5732
   585.5000   2000.0000   2000.0000     12.6479    123.8427
   585.7500   2000.0000   2000.0000     12.8800    123.7763
   586.0000   2000.0000   2000.0000     13.0952    122.0530
   586.2500   2000.0000   2000.0000     13.2890    120.3683
   586.5000   2000.0000   2000.0000     13.4635    118.6506
   586.7500   2000.0000   2000.0000     13.6222    118.8277
   587.0000   2000.0000   2000.0000     13.7667    121.4046
   587.2500   2000.0000   2000.0000     13.8952    124.2351
   587.5000   2000.0000   2000.0000     14.0043    128.7879
   587.7500   2000.0000   2000.0000     14.0938    131.1763
   588.0000   2000.0000   2000.0000     14.1722    132.6565
   588.2500   2000.0000   2000.0000     14.2606    131.8824
   588.5000   2000.0000   2000.0000     14.3897    128.2375
   588.7500   2000.0000   2000.0000     14.5893    124.8193
   589.0000   2000.0000   2000.0000     14.8757    119.9971
   589.2500   2000.0000   2000.0000     15.2463    117.8360
   589.5000   2000.0000   2000.0000     15.6824    116.4297
   589.7500   2000.0000   2000.0000     16.1586    116.2482
   590.0000   2000.0000   2000.0000     16.6509    116.2226
   590.2500   2000.0000   2000.0000     17.1426    116.2475
   590.5000   2000.0000   2000.0000     17.6279    116.7852
   590.7500   2000.0000   2000.0000     18.1090    117.6630
   591.0000   2000.0000   2000.0000     18.5870    119.1455
   591.2500   2000.0000   2000.0000     19.0519    119.4509
   591.5000   2000.0000   2000.0000     19.4832    118.0595
   591.7500   2000.0000   2000.0000     19.8603    116.2878
   592.0000   2000.0000   2000.0000     20.1739    114.1140
   592.2500   2000.0000   2000.0000     20.4288    113.8805
   592.5000   2000.0000   2000.0000     20.6425    115.5888
   592.7500   2000.0000   2000.0000     20.8451    117.5074
   593.0000   2000.0000   2000.0000     21.0825    120.2885
   593.2500   2000.0000   2000.0000     21.4148    121.7667
   593.5000   2000.0000   2000.0000     21.9014    123.6644
   593.7500   2000.0000   2000.0000     22.5768    124.7947
   594.0000   2000.0000   2000.0000     23.4273    125.5691
   594.2500   2000.0000   2000.0000     24.3893    124.7828
   594.5000   2000.0000   2000.0000     25.3829    121.1105
   594.7500   2000.0000   2000.0000     26.3696    117.3919
   595.0000   2000.0000   2000.0000     27.3860    111.2741
   595.2500   2000.0000   2000.0000     28.5158    107.4953
   595.5000   2000.0000   2000.0000     29.8215    102.6544
   595.7500   2000.0000   2000.0000     31.2923     99.8328
   596.0000   2000.0000   2000.0000     32.8507     95.7500
   596.2500   2000.0000   2000.0000     34.4091     93.0002
   596.5000   2000.0000   2000.0000     35.9282     89.1917
   596.7500   2000.0000   2000.0000     37.4270     87.2960
   597.0000   2000.0000   2000.0000     38.9365     85.8802
   597.2500   2000.0000   2000.0000     40.4393     85.7187
   597.5000   2000.0000   2000.0000     41.8291     85.6045
   597.7500   2000.0000   2000.0000     42.8922     84.7902
   598.0000   2000.0000   2000.0000     43.3288     81.4448
   598.2500   2000.0000   2000.0000     42.8445     77.8591
   598.5000   2000.0000   2000.0000     41.3146     71.8479
   598.7500   2000.0000   2000.0000     38.9008     68.5734
   599.0000   2000.0000   2000.0000     35.9813     66.3524
   599.2500   2000.0000   2000.0000     32.9625     67.2352
   599.5000   2000.0000   2000.0000     30.1378     72.7707
   599.7500   2000.0000   2000.0000     27.6547     79.3869
   600.0000   2000.0000   2000.0000     25.5427     92.6692
   600.2500   2000.0000   2000.0000     23.7550    102.2920
   600.5000   2000.0000   2000.0000     22.2104    114.8566
   600.7500   2000.0000   2000.0000     20.8321    120.6841
   601.0000   2000.0000   2000.0000     19.5746    124.7416
   601.2500   2000.0000   2000.0000     18.4313    124.5455
   601.5000   2000.0000   2000.0000     17.4228    121.3974
   601.7500   2000.0000   2000.0000     16.5747    118.8427
   602.0000   2000.0000   2000.0000     15.8982    116.9004
   602.2500   2000.0000   2000.0000     15.3826    117.6427
   602.5000   2000.0000   2000.0000     14.9996    121.1916
   602.7500   2000.0000   2000.0000     14.7168    124.0600
   603.0000   2000.0000   2000.0000     14.5084    127.1918
   603.2500   2000.0000   2000.0000     14.3561    127.8750
   603.5000   2000.0000   2000.0000     14.2454    126.8916
   603.7500   2000.0000   2000.0000     14.1619    125.4974
   604.0000   2000.0000   2000.0000     14.0956    123.4764
   604.2500   2000.0000   2000.0000     14.0500    122.6148
   604.5000   2000.0000   2000.0000     14.0466    122.4520
   604.7500   2000.0000   2000.0000     14.1181    123.2852
   605.0000   2000.0000   2000.0000     14.2917    126.0033
   605.2500   2000.0000   2000.0000     14.5724    128.4500
   605.5000   2000.0000   2000.0000     14.9350    131.9527
   605.7500   2000.0000   2000.0000     15.3347    133.5895
   606.0000   2000.0000   2000.0000     15.7299    134.7345
   606.2500   2000.0000   2000.0000     16.1030    134.8882
   606.5000   2000.0000   2000.0000     16.4663    134.7698
   606.7500   2000.0000   2000.0000     16.8541    134.5557
   607.0000   2000.0000   2000.0000     17.3122    133.6764
   607.2500   2000.0000   2000.0000     17.8865    132.2905
   607.5000   2000.0000   2000.0000     18.6081    128.2528
   607.7500   2000.0000   2000.0000     19.4764    124.0927
   608.0000   2000.0000   2000.0000     20.4490    116.2381
   608.2500   2000.0000   2000.0000     21.4474    110.6863
   608.5000   2000.0000   2000.0000     22.3721    103.3356
   608.7500   2000.0000   2000.0000     23.1157     99.7224
   609.0000   2000.0000   2000.0000     23.5681     96.7811
   609.2500   2000.0000   2000.0000     23.6278     96.6545
   609.5000   2000.0000   2000.0000     23.2321     99.7219
   609.7500   2000.0000   2000.0000     22.3992    104.2225
   610.0000   2000.0000   2000.0000     21.2392    114.1037
   610.2500   2000.0000   2000.0000     19.9163    121.5521
   610.5000   2000.0000   2000.0000     18.5860    131.3492
   610.7500   2000.0000   2000.0000     17.3511    136.0025
   611.0000   2000.0000   2000.0000     16.2551    140.0902
   611.2500   2000.0000   2000.0000     15.3025    141.2918
   611.5000   2000.0000   2000.0000     14.4852    141.4091
   611.7500   2000.0000   2000.0000     13.8015    140.6933
   612.0000   2000.0000   2000.0000     13.2590    139.2663
   612.2500   2000.0000   2000.0000     12.8654    138.5714
   612.5000   2000.0000   2000.0000     12.6163    138.1570
   612.7500   2000.0000   2000.0000     12.4911    138.0426
   613.0000   2000.0000   2000.0000     12.4584    137.6712
   613.2500   2000.0000   2000.0000     12.4873    137.3989
   613.5000   2000.0000   2000.0000     12.5557    137.5279
   613.7500   2000.0000   2000.0000     12.6504    138.0401
