~Version Information
VERS.                      2.0: CWLS Log ASCII Standard - VERSION 2.0
WRAP.                       NO: One line per depth step
~Well Information Block
STRT.FT               472.0000: 
STOP.FT              2430.5000: 
STEP.FT                 0.2500: 
NULL.                -999.2500: 
COMP.          Pioneer Natural Resources: COMPANY
WELL.          Flying Horse 12-11: WELL
FLD.           Purgatoire River: FIELD
LOC.           2428' FNL & 308' FWL: LOCATION
PROV.                 Colorado: PROVINCE
CNTY.               Las Animas: COUNTRY
SRVC.                Patterson: SERVICE COMPANY
DATE.          Sun May 29 11:58:35 2005: LOG DATE
UWI.           05 071 08378 00: UNIQUE WELL ID
~Curve Information Block
DEPT.FT            0 000 00 00: Depth
SN.Ohm-m                      : IEL Short Normal
SP.mV                         : IEL Spontaneous Potential
DIR.Ohm-m                     : IEL Induction Resistivity
GR.GAPI                       : Gamma Ray
~Parameter Information Block
~A  Depth        SN          SP         DIR          GR     
# ...
  2247.5000     25.7504     -3.6142     20.4890     88.4078
  2247.7500     25.3771     -3.3254     20.0369     88.7476
  2248.0000     25.0812     -3.0646     19.7280     90.7035
  2248.2500     24.8619     -2.8762     19.5789     92.5954
  2248.5000     24.7179     -2.7882     19.5894     95.0827
  2248.7500     24.6547     -2.8028     19.7392     95.7829
  2249.0000     24.6820     -2.8922     19.9868     94.8114
  2249.2500     24.8169     -3.0087     20.2747     92.9493
  2249.5000     25.0797     -3.1140     20.5484     89.1389
  2249.7500     25.4640     -3.2044     20.7787     86.6059
  2250.0000     25.9203     -3.3111     20.9664     84.0493
  2250.2500     26.3704     -3.4739     21.1212     83.5265
  2250.5000     26.7461     -3.7156     21.2385     83.9579
  2250.7500     27.0374     -4.0359     21.2983     84.3864
  2251.0000     27.2833     -4.4221     21.2843     84.8066
  2251.2500     27.4938     -4.8616     21.2037     85.2776
  2251.5000     27.6184     -5.3420     21.0899     86.8487
  2251.7500     27.6083     -5.8450     20.9932     88.3151
  2252.0000     27.4715     -6.3458     20.9673     90.2330
  2252.2500     27.2494     -6.8219     21.0577     90.8386
  2252.5000     26.9742     -7.2636     21.2937     90.5558
  2252.7500     26.6744     -7.6776     21.6875     89.8837
  2253.0000     26.4093     -8.0836     22.2385     88.8226
  2253.2500     26.2867     -8.5042     22.9408     88.0258
  2253.5000     26.4483     -8.9512     23.7825     85.4789
  2253.7500     27.0229     -9.4181     24.7337     82.0036
  2254.0000     28.0674     -9.8838     25.7290     73.7188
  2254.2500     29.6110    -10.3235     26.6627     66.7822
  2254.5000     31.8364    -10.7170     27.4102     56.0986
  2254.7500     35.1341    -11.0460     27.8702     49.8174
  2255.0000     39.7689    -11.2940     27.9997     42.8578
  2255.2500     45.3915    -11.4590     27.8164     40.0905
  2255.5000     50.9431    -11.5678     27.3719     38.2962
  2255.7500     55.1175    -11.6690     26.7219     38.2269
  2256.0000     56.9646    -11.8049     25.9185     39.6259
  2256.2500     56.1711    -11.9814     25.0177     41.8749
  2256.5000     52.9532    -12.1548     24.0804     47.6471
  2256.7500     47.8375    -12.2462     23.1623     52.8139
  2257.0000     41.6079    -12.1809     22.3050     61.3307
  2257.2500     35.3122    -11.9307     21.5359     66.8888
  2257.5000     29.9835    -11.5343     20.8712     74.6997
  2257.7500     26.2167    -11.0835     20.3148     79.6118
  2258.0000     24.0600    -10.6860     19.8543     86.3096
  2258.2500     23.2063    -10.4228     19.4637     89.8856
  2258.5000     23.1938    -10.3216     19.1128     93.1642
  2258.7500     23.5735    -10.3611     18.7817     93.8062
  2259.0000     24.0622    -10.4971     18.4732     92.6919
  2259.2500     24.5866    -10.6893     18.2184     90.9265
  2259.5000     25.2002    -10.9112     18.0700     87.6841
  2259.7500     25.9779    -11.1450     18.0869     85.6632
  2260.0000     26.9495    -11.3698     18.3185     83.2318
  2260.2500     28.0762    -11.5613     18.7957     81.8830
  2260.5000     29.2729    -11.7029     19.5288     79.7904
  2260.7500     30.4581    -11.7980     20.5082     78.0897
  2261.0000     31.5785    -11.8660     21.7004     74.8773
  2261.2500     32.5876    -11.9287     23.0432     72.5013
  2261.5000     33.4323    -12.0004     24.4471     69.6678
  2261.7500     34.0888    -12.0858     25.8145     69.0408
  2262.0000     34.5999    -12.1815     27.0684     70.5267
  2262.2500     35.0550    -12.2777     28.1695     72.6261
  2262.5000     35.5209    -12.3613     29.1078     75.6843
  2262.7500     35.9949    -12.4196     29.8845     76.8066
  2263.0000     36.4324    -12.4431     30.5034     76.6813
  2263.2500     36.8090    -12.4266     30.9753     75.5998
  2263.5000     37.1533    -12.3669     31.3201     73.1950
  2263.7500     37.5219    -12.2578     31.5637     71.6519
  2264.0000     37.9430    -12.0900     31.7347     70.3924
  2264.2500     38.4096    -11.8602     31.8663     70.3455
  2264.5000     38.9149    -11.5786     31.9995     70.4296
  2264.7500     39.4411    -11.2663     32.1770     69.7993
  2265.0000     39.9303    -10.9494     32.4303     67.5528
  2265.2500     40.3185    -10.6546     32.7711     65.7903
  2265.5000     40.5890    -10.4073     33.1882     63.8591
  2265.7500     40.7652    -10.2238     33.6515     63.0708
  2266.0000     40.8779    -10.1045     34.1232     61.8283
  2266.2500     40.9517    -10.0325     34.5783     60.6436
  2266.5000     41.0009     -9.9822     35.0225     58.6826
  2266.7500     41.0287     -9.9348     35.4855     57.6932
  2267.0000     41.0325     -9.8914     35.9808     57.0740
  2267.2500     41.0135     -9.8728     36.4642     57.1637
  2267.5000     40.9841     -9.9058     36.8262     57.7464
  2267.7500     40.9674    -10.0024     36.9373     58.2708
  2268.0000     40.9834    -10.1483     36.7024     59.0022
  2268.2500     41.0287    -10.3064     36.0774     59.3697
  2268.5000     41.0591    -10.4335     35.0564     59.9485
  2268.7500     40.9823    -10.4951     33.6905     60.6049
  2269.0000     40.6655    -10.4662     32.1350     62.0731
  2269.2500     39.9559    -10.3204     30.6350     63.0624
  2269.5000     38.7075    -10.0249     29.4194     64.0018
  2269.7500     36.8133     -9.5536     28.5887     64.3671
  2270.0000     34.2889     -8.9134     28.0808     65.4844
  2270.2500     31.4025     -8.1616     27.7202     67.2266
  2270.5000     28.6716     -7.4073     27.3171     71.8752
  2270.7500     26.5962     -6.7963     26.7582     76.2671
  2271.0000     25.3434     -6.4830     26.0304     83.9673
  2271.2500     24.7149     -6.5928     25.1709     88.9569
  2271.5000     24.3735     -7.1846     24.2063     94.6952
  2271.7500     24.0426     -8.2274     23.1367     96.9930
  2272.0000     23.5710     -9.6080     21.9675     98.6038
  2272.2500     22.9425    -11.1634     20.7442     98.9752
  2272.5000     22.2448    -12.7228     19.5472     99.2358
  2272.7500     21.5741    -14.1421     18.4558     99.4783
  2273.0000     20.9533    -15.3223     17.5137    100.0061
  2273.2500     20.3506    -16.2141     16.7233    100.3798
  2273.5000     19.7569    -16.8112     16.0612    100.9591
  2273.7500     19.2006    -17.1423     15.4985    101.3214
  2274.0000     18.7078    -17.2581     15.0135    101.1645
  2274.2500     18.2922    -17.2129     14.5923    100.0104
  2274.5000     17.9520    -17.0412     14.2222     96.5483
  2274.7500     17.6489    -16.7455     13.8878     93.8124
  2275.0000     17.3506    -16.3060     13.5736     90.7896
  2275.2500     17.0817    -15.7049     13.2706     89.9887
  2275.5000     16.8711    -14.9474     12.9802     90.2153
  2275.7500     16.7015    -14.0663     12.7132     90.8833
  2276.0000     16.5490    -13.1106     12.4847     92.4031
  2276.2500     16.4140    -12.1295     12.3087     93.7586
  2276.5000     16.3025    -11.1610     12.1946     95.9650
  2276.7500     16.2227    -10.2263     12.1466     97.2402
  2277.0000     16.2047     -9.3328     12.1662     98.7168
  2277.2500     16.2842     -8.4792     12.2546     99.4992
  2277.5000     16.4607     -7.6653     12.4132    100.0868
  2277.7500     16.6986     -6.9003     12.6415     99.6009
  2278.0000     16.9657     -6.2023     12.9359     97.0945
  2278.2500     17.2405     -5.5879     13.2895     94.5416
  2278.5000     17.5068     -5.0631     13.6949     90.2854
  2278.7500     17.7682     -4.6229     14.1458     87.4026
  2279.0000     18.0544     -4.2531     14.6359     83.1023
  2279.2500     18.4031     -3.9273     15.1575     80.6286
  2279.5000     18.8465     -3.6050     15.7005     78.8097
  2279.7500     19.4253     -3.2427     16.2540     79.3238
  2280.0000     20.1775     -2.8113     16.8059     81.8064
  2280.2500     21.0759     -2.3055     17.3403     83.3482
  2280.5000     21.9777     -1.7350     17.8346     83.6309
  2280.7500     22.6483     -1.1044     18.2630     82.1594
