~Version Information
VERS.                      2.0: CWLS Log ASCII Standard - VERSION 2.0
WRAP.                       NO: One line per depth step
~Well Information Block
STRT.FT               450.0000: 
STOP.FT              2753.5000: 
STEP.FT                 0.1000: 
NULL.                -999.2500: 
COMP.          Pioneer Natural Resources: COMPANY
WELL.             Squeal 11-26: WELL
FLD.           Purgatoire River: FIELD
LOC.           1186' FNL & 152' FWL: LOCATION
PROV.                 Colorado: PROVINCE
CNTY.               Las Animas: COUNTRY
SRVC.                Patterson: SERVICE COMPANY
DATE.          Wed Jun 15 09:11:52 2005: LOG DATE
UWI.           05 071 08404 00: UNIQUE WELL ID
~Curve Information Block
DEPT.FT            0 000 00 00: Depth
DCAL.in                       : CDL Caliper
RHOB.g/cc                     : CDL Bulk Density
RHOC.g/cc                     : CDL Density Correction
DPOR.pu                       : CDL Density Porosity
GR.GAPI                       : Gamma Ray
NPOR.pu                       : Neutron Porosity
~Parameter Information Block
~A  Depth       DCAL        RHOB        RHOC        DPOR         GR         NPOR    
# ...
  1669.2000      8.0190      2.4711      0.0525     10.8399     73.2825     24.1205
  1669.3000      8.0221      2.4842      0.0880     10.0496     72.0424     23.9594
  1669.4000      8.0221      2.4788      0.0562     10.3740     67.3081     24.0130
  1669.5000      8.0265      2.4734      0.0144     10.7040     60.2691     24.1459
  1669.6000      8.0265      2.4873      0.0033      9.8596     55.8468     23.9080
  1669.7000      8.0265      2.5153      0.0360      8.1609     58.1043     23.4637
  1669.8000      8.0293      2.5447      0.0004      6.3829     65.0332     22.8589
  1669.9000      8.0293      2.5716      0.0849      4.7513     70.0224     22.0693
  1670.0000      8.0259      2.5851      0.1222      3.9360     69.3736     21.5381
  1670.1000      8.0259      2.5848      0.0457      3.9523     66.1281     21.7464
  1670.2000      8.0259      2.5845      0.1071      3.9690     65.5517     22.3553
  1670.3000      8.0256      2.5792      0.0551      4.2898     68.6446     22.8121
  1670.4000      8.0256      2.5552      0.0860      5.7473     71.7348     22.9786
  1670.5000      8.0278      2.5139      0.0189      8.2507     71.5966     22.6947
  1670.6000      8.0278      2.4770     -0.0142     10.4819     68.8669     22.5047
  1670.7000      8.0278      2.4599      0.0064     11.5219     64.8791     23.0367
  1670.8000      8.0339      2.4528      0.0229     11.9534     62.1224     23.8383
  1670.9000      8.0339      2.4418      0.0198     12.6171     64.3545     24.5293
  1671.0000      8.0329      2.4317     -0.0007     13.2324     70.0894     24.7097
  1671.1000      8.0329      2.4328      0.0448     13.1633     75.3180     23.9457
  1671.2000      8.0329      2.4355      0.0013     12.9995     79.9674     22.7328
  1671.3000      8.0299      2.4264      0.0219     13.5527     83.0232     21.8883
  1671.4000      8.0299      2.4140     -0.0281     14.3024     82.1855     21.9587
  1671.5000      8.0336      2.4164     -0.0110     14.1584     79.2782     22.7482
  1671.6000      8.0336      2.4368     -0.0282     12.9190     77.2985     23.2602
  1671.7000      8.0336      2.4623      0.0757     11.3746     77.4480     23.0793
  1671.8000      8.0365      2.4689      0.0367     10.9778     78.6808     22.7973
  1671.9000      8.0365      2.4577      0.0264     11.6547     80.1215     23.1696
  1672.0000      8.0369      2.4655     -0.0055     11.1833     82.4178     24.1845
  1672.1000      8.0369      2.5053      0.0633      8.7708     83.7660     24.4261
  1672.2000      8.0369      2.5417      0.0950      6.5642     82.8071     23.2061
  1672.3000      8.0344      2.5453      0.0696      6.3437     81.6027     22.5173
  1672.4000      8.0344      2.5319      0.0278      7.1568     81.2495     23.6105
  1672.5000      8.0323      2.5247      0.0478      7.5963     81.6825     24.7301
  1672.6000      8.0323      2.5236      0.0513      7.6578     82.9855     24.3020
  1672.7000      8.0323      2.5250      0.0415      7.5772     83.8580     23.0099
  1672.8000      8.0323      2.5226      0.0694      7.7192     84.0383     22.3411
  1672.9000      8.0323      2.5089      0.0389      8.5522     85.8261     23.0551
  1673.0000      8.0274      2.4985     -0.0175      9.1829     88.1842     24.0658
  1673.1000      8.0274      2.5088      0.0388      8.5573     89.3294     23.8860
  1673.2000      8.0274      2.5238      0.0397      7.6469     90.0401     22.9050
  1673.3000      8.0278      2.5264      0.0239      7.4914     89.9937     22.0943
  1673.4000      8.0278      2.5335      0.0224      7.0619     87.2164     22.0903
  1673.5000      8.0290      2.5541      0.0953      5.8127     81.8176     22.9827
  1673.6000      8.0290      2.5652      0.1069      5.1371     76.9885     23.9939
  1673.7000      8.0290      2.5601      0.0557      5.4470     73.8964     24.5278
  1673.8000      8.0266      2.5514      0.0795      5.9749     73.8439     24.3789
  1673.9000      8.0266      2.5427      0.0501      6.5060     79.4411     23.9132
  1674.0000      8.0276      2.5400      0.0277      6.6651     87.3963     23.5573
  1674.1000      8.0276      2.5499      0.0311      6.0681     90.3212     23.0990
  1674.2000      8.0276      2.5684      0.0590      4.9476     87.9839     22.8661
  1674.3000      8.0246      2.5824      0.1264      4.0999     83.4219     23.2660
  1674.4000      8.0246      2.5749      0.0831      4.5495     78.2570     23.5788
  1674.5000      8.0276      2.5494      0.0351      6.0961     76.5683     23.5498
  1674.6000      8.0276      2.5350      0.0183      6.9691     76.6053     23.9101
  1674.7000      8.0276      2.5507      0.0438      6.0157     72.4303     24.0680
  1674.8000      8.0301      2.5817      0.0669      4.1400     66.7569     23.3984
  1674.9000      8.0301      2.5976      0.1094      3.1769     65.6772     23.2639
  1675.0000      8.0320      2.5888      0.0756      3.7088     70.2887     24.1071
  1675.1000      8.0320      2.5741      0.0550      4.6018     76.6622     24.4220
  1675.2000      8.0320      2.5714      0.0360      4.7636     79.5963     23.7697
  1675.3000      8.0330      2.5815      0.0833      4.1504     78.6374     22.5035
  1675.4000      8.0330      2.5966      0.0567      3.2337     76.8408     21.0709
  1675.5000      8.0296      2.6097      0.0991      2.4438     74.8940     20.6906
  1675.6000      8.0296      2.6122      0.0513      2.2892     71.9552     21.5152
  1675.7000      8.0296      2.5998      0.0939      3.0443     70.7912     22.2487
  1675.8000      8.0300      2.5800      0.0133      4.2435     72.9797     22.3125
  1675.9000      8.0300      2.5658      0.0711      5.1045     77.7881     21.8422
  1676.0000      8.0295      2.5589      0.0956      5.5187     83.3048     20.8061
  1676.1000      8.0295      2.5583      0.0754      5.5585     85.1445     19.7522
  1676.2000      8.0295      2.5693      0.0163      4.8906     82.1531     19.3776
  1676.3000      8.0293      2.5890      0.0577      3.6958     77.3916     19.6841
  1676.4000      8.0293      2.6038      0.0813      2.7994     74.2160     20.2520
  1676.5000      8.0339      2.6117      0.0537      2.3201     73.7809     21.2257
  1676.6000      8.0339      2.6157      0.0877      2.0764     73.4709     22.3286
  1676.7000      8.0339      2.6137      0.0679      2.2023     71.1470     22.8143
  1676.8000      8.0285      2.6100      0.0688      2.4217     69.5735     22.7768
  1676.9000      8.0285      2.6027      0.1345      2.8694     70.6880     22.4045
  1677.0000      8.0303      2.5844      0.0739      3.9775     72.1889     22.1857
  1677.1000      8.0303      2.5677      0.0270      4.9863     73.6919     22.7061
  1677.2000      8.0303      2.5647      0.0493      5.1716     76.4024     23.3651
  1677.3000      8.0309      2.5631      0.0764      5.2647     78.9441     23.6280
  1677.4000      8.0309      2.5535      0.0572      5.8491     79.8621     23.6531
  1677.5000      8.0362      2.5402      0.0581      6.6550     79.0313     23.2334
  1677.6000      8.0362      2.5256      0.0458      7.5398     77.2718     22.3317
  1677.7000      8.0362      2.5192     -0.0208      7.9298     76.9991     21.8574
  1677.8000      8.0373      2.5258      0.0858      7.5287     78.8546     22.3578
  1677.9000      8.0373      2.5203      0.0670      7.8627     81.4132     23.2638
  1678.0000      8.0337      2.4921      0.0207      9.5689     84.0379     24.1512
  1678.1000      8.0337      2.4702     -0.0409     10.8953     86.1005     24.5566
  1678.2000      8.0337      2.4721      0.0163     10.7808     88.4323     23.9065
  1678.3000      8.0336      2.4889      0.0146      9.7645     90.0164     22.9481
  1678.4000      8.0336      2.5134      0.0320      8.2788     87.8906     22.8373
  1678.5000      8.0335      2.5334      0.1346      7.0681     85.4408     23.2898
  1678.6000      8.0335      2.5342      0.0772      7.0175     86.3149     23.4286
  1678.7000      8.0335      2.5252      0.0841      7.5662     88.4621     23.3918
