~Version Information
VERS.                      2.0: CWLS Log ASCII Standard - VERSION 2.0
WRAP.                       NO: One line per depth step
~Well Information Block
STRT.FT               -11.2500: 
STOP.FT              1767.0000: 
STEP.FT                 0.2500: 
NULL.                -999.2500: 
COMP.          Petrogulf Corporation: COMPANY
WELL.             McLeod 9-42R: WELL
FLD.           Purgatoire River: FIELD
LOC.           1748' FNL & 372' FEL--: LOCATION
PROV.                 Colorado: PROVINCE
CNTY.               Las Animas: COUNTRY
SRVC.                         : SERVICE COMPANY
DATE.          Thu Sep 29 13:28:07 2005: LOG DATE
UWI.                          : UNIQUE WELL ID
~Curve Information Block
DEPT.FT            0 000 00 00: Depth
GR.GAPI                       : Gamma Ray
CCL.                          : Casing Collar Locator
AMP3.mV                       : CBL 3' Amplitude
AMP5.mV                       : CBL 5' Amplitude
~Parameter Information Block
~A  Depth        GR         CCL         AMP3        AMP5    
# ...
    89.2500     52.3539      0.0000      6.3403      0.5410
    89.5000     51.6605      0.0000      6.3006      0.5000
    89.7500     49.8421      0.0000      6.2851      0.4614
    90.0000     47.7736      0.0000      6.2894      0.4326
    90.2500     46.3431      0.0000      6.3076      0.4153
    90.5000     45.6636      0.0000      6.3373      0.4117
    90.7500     45.2570      0.0000      6.3808      0.4250
    91.0000     44.6795      0.0000      6.4444      0.4537
    91.2500     43.7238      0.0000      6.5371      0.4871
    91.5000     42.2733      0.0000      6.6714      0.5106
    91.7500     40.3943      0.0000      6.8580      0.5157
    92.0000     38.6085      0.0000      7.0894      0.5017
    92.2500     37.8240      0.0000      7.3236      0.4709
    92.5000     38.8532      0.0000      7.4965      0.4283
    92.7500     41.9289      0.0000      7.5590      0.3852
    93.0000     46.5902      0.0000      7.5013      0.3555
    93.2500     51.9528      0.0000      7.3492      0.3453
    93.5000     57.0964      0.0000      7.1456      0.3472
    93.7500     61.3091      0.0000      6.9332      0.3478
    94.0000     64.0840      0.0000      6.7456      0.3405
    94.2500     64.9512      0.0000      6.6042      0.3317
    94.5000     63.4258      0.0000      6.5175      0.3364
    94.7500     59.4265      0.0000      6.4804      0.3634
    95.0000     53.8866      0.0000      6.4792      0.4055
    95.2500     48.6183      0.0000      6.5044      0.4442
    95.5000     45.2858      0.0000      6.5578      0.4659
    95.7500     44.6824      0.0000      6.6417      0.4703
    96.0000     46.9691      0.0000      6.7364      0.4659
    96.2500     52.0388      0.0000      6.7956      0.4613
    96.5000     59.2915      0.0000      6.7699      0.4610
    96.7500     67.3949      0.0000      6.6400      0.4644
    97.0000     74.7501      0.0000      6.4349      0.4663
    97.2500     80.2932      0.0000      6.2225      0.4597
    97.5000     83.9017      0.0000      6.0766      0.4394
    97.7500     86.2205      0.0000      6.0319      0.4063
    98.0000     88.0391      0.0000      6.0613      0.3689
    98.2500     89.5707      0.0000      6.0965      0.3388
    98.5000     90.3262      0.0000      6.0725      0.3214
    98.7500     89.8477      0.0000      5.9583      0.3104
    99.0000     88.3881      0.0000      5.7630      0.2952
    99.2500     86.6022      0.0000      5.5282      0.2733
    99.5000     84.9196      0.0000      5.3122      0.2529
    99.7500     83.6290      0.0000      5.1676      0.2434
   100.0000     83.0860      0.0000      5.1232      0.2465
   100.2500     83.2107      0.0000      5.1780      0.2557
   100.5000     83.1321      0.0000      5.3023      0.2640
   100.7500     81.9848      0.0000      5.4437      0.2704
   101.0000     79.9273      0.0000      5.5489      0.2813
   101.2500     77.9793      0.0000      5.5966      0.3045
   101.5000     77.0337      0.0000      5.6173      0.3418
   101.7500     77.3497      0.0000      5.6726      0.3872
   102.0000     78.7514      0.0000      5.8095      0.4313
   102.2500     80.8794      0.0000      6.0257      0.4646
   102.5000     83.1780      0.0000      6.2758      0.4792
   102.7500     84.9423      0.0000      6.5057      0.4712
   103.0000     85.7630      0.0000      6.6858      0.4460
   103.2500     85.9589      0.0000      6.8154      0.4177
   103.5000     86.2316      0.0000      6.9025      0.4025
   103.7500     86.8406      0.0000      6.9454      0.4093
   104.0000     87.5244      0.0000      6.9366      0.4347
   104.2500     88.1857      0.0000      6.8820      0.4664
   104.5000     89.0375      0.0000      6.8115      0.4921
   104.7500     89.9603      0.0000      6.7615      0.5035
   105.0000     90.3499      0.0000      6.7480      0.4979
   105.2500     89.9067      0.0000      6.7609      0.4807
   105.5000     89.1364      0.0000      6.7843      0.4684
   105.7500     88.7475      0.0000      6.8134      0.4814
   106.0000     88.8021      0.0000      6.8506      0.5274
   106.2500     88.7437      0.0000      6.8930      0.5921
   106.5000     88.0503      0.0000      6.9320      0.6501
   106.7500     86.5946      0.0000      6.9589      0.6837
   107.0000     84.4820      0.0000      6.9685      0.6919
   107.2500     81.8204      0.0000      6.9557      0.6828
   107.5000     78.7325      0.0000      6.9161      0.6631
   107.7500     75.5518      0.0000      6.8501      0.6348
   108.0000     73.0080      0.0000      6.7672      0.6002
   108.2500     72.1028      0.0000      6.6818      0.5666
   108.5000     73.6112      0.0000      6.6043      0.5455
   108.7500     77.6508      0.0000      6.5331      0.5431
   109.0000     83.6877      0.0000      6.4582      0.5531
   109.2500     90.7529      0.0000      6.3754      0.5611
   109.5000     97.4887      0.0000      6.2984      0.5573
   109.7500    102.1532      0.0000      6.2477      0.5436
   110.0000    103.1627      0.0000      6.2257      0.5271
   110.2500    100.3213      0.0000      6.2091      0.5113
   110.5000     95.6602      0.0000      6.1760      0.4958
   110.7500     92.3580      0.0000      6.1325      0.4834
   111.0000     92.1359      0.0000      6.1070      0.4804
   111.2500     93.8018      0.0000      6.1278      0.4903
   111.5000     94.7015      0.0000      6.2116      0.5109
   111.7500     93.3982      0.0000      6.3639      0.5394
   112.0000     90.4738      0.0000      6.5754      0.5779
   112.2500     86.9728      0.0000      6.8170      0.6303
   112.5000     82.9375      0.0000      7.0445      0.6955
   112.7500     77.7991      0.0000      7.2188      0.7666
   113.0000     71.6828      0.0000      7.3322      0.8353
   113.2500     65.6878      0.0000      7.4129      0.8935
   113.5000     60.8409      0.0000      7.4982      0.9328
   113.7500     57.2729      0.0000      7.6049      0.9487
   114.0000     54.5430      0.0000      7.7267      0.9489
   114.2500     52.2903      0.0000      7.8529      0.9519
   114.5000     50.4542      0.0000      7.9794      0.9735
   114.7500     49.3188      0.0000      8.1064      1.0137
   115.0000     49.5203      0.0000      8.2357      1.0568
   115.2500     51.6311      0.0000      8.3702      1.0842
   115.5000     55.4752      0.0000      8.5051      1.0859
   115.7500     59.9915      0.0000      8.6218      1.0620
   116.0000     64.0149      0.0000      8.6938      1.0185
   116.2500     67.2595      0.0000      8.7045      0.9618
   116.5000     70.3804      0.0000      8.6661      0.8956
   116.7500     73.9857      0.0000      8.6211      0.8219
   117.0000     77.8293      0.0000      8.6192      0.7504
   117.2500     81.1748      0.0000      8.6867      0.7040
   117.5000     83.5727      0.0000      8.8154      0.7065
   117.7500     84.8435      0.0000      8.9791      0.7635
   118.0000     84.6182      0.0000      9.1538      0.8587
   118.2500     82.6004      0.0000      9.3250      0.9672
   118.5000     79.3671      0.0000      9.4862      1.0677
   118.7500     76.3570      0.0000      9.6378      1.1466
   119.0000     74.6600      0.0000      9.7878      1.2004
   119.2500     73.9912      0.0000      9.9447      1.2359
   119.5000     73.1052      0.0000     10.1068      1.2638
   119.7500     71.1129      0.0000     10.2663      1.2908
   120.0000     68.2860      0.0000     10.4193      1.3167
   120.2500     65.7563      0.0000     10.5693      1.3364
   120.5000     64.6742      0.0000     10.7162      1.3388
   120.7500     65.5204      0.0000     10.8422      1.3041
   121.0000     67.7437      0.0000     10.9011      1.2103
   121.2500     69.8871      0.0000     10.8143      1.0544
   121.5000     70.5195      0.0000     10.4821      0.8671
   121.7500     69.3969      0.0000      9.8286      0.6980
   122.0000     67.4864      0.0000      8.8751      0.5819
   122.2500     65.7094      0.0000      7.7801      0.5203
   122.5000     63.9928      0.0000      6.7805      0.4930
