~Version Information
VERS.                      2.0: CWLS Log ASCII Standard - VERSION 2.0
WRAP.                       NO: One line per depth step
~Well Information Block
STRT.FT                -7.5000: 
STOP.FT              2304.7500: 
STEP.FT                 0.2500: 
NULL.                -999.2500: 
COMP.          Pioneer Natural Resources: COMPANY
WELL.          Foothills 12-36: WELL
FLD.           Purgatorie River: FIELD
LOC.           2450' FNL & 201' FWL--: LOCATION
PROV.                       CO: PROVINCE
CNTY.               Las Animas: COUNTRY
SRVC.          Patterson Wireline: SERVICE COMPANY
DATE.          Tue Apr 26 11:10:08 2005: LOG DATE
UWI.           05 071 08339 00: UNIQUE WELL ID
~Curve Information Block
DEPT.FT            0 000 00 00: Depth
CCL.                          : Casing Collar Locator
TT3.usec                      : CBL 3' Travel Time
AMP3.mV                       : CBL 3' Amplitude
GR.GAPI                       : Gamma Ray
~Parameter Information Block
~A  Depth       CCL         TT3         AMP3         GR     
# ...
   595.5000      0.0000    783.7952      7.0940     52.3597
   595.7500      0.0000    786.0576      7.0733     53.4888
   596.0000      0.0000    785.5183      7.0196     56.4785
   596.2500      0.0000    782.0439      6.9333     60.3518
   596.5000      0.0000    777.2427      6.8203     64.0681
   596.7500      0.0000    773.0033      6.6908     67.4782
   597.0000      0.0000    770.2423      6.5645     71.1409
   597.2500      0.0000    768.8998      6.4704     75.4993
   597.5000      0.0000    768.5831      6.4376     80.4511
   597.7500      0.0000    768.9197      6.4839     85.2644
   598.0000      0.0000    769.3454      6.6084     88.5708
   598.2500      0.0000    768.7617      6.7862     88.9306
   598.5000      0.0000    766.0009      6.9734     86.1232
   598.7500      0.0000    761.3484      7.1299     81.8057
   599.0000      0.0000    757.0718      7.2437     78.3105
   599.2500      0.0000    754.8625      7.3328     76.8003
   599.5000      0.0000    752.7986      7.4228     77.0302
   599.7500      0.0000    746.8310      7.5299     78.6945
   600.0000      0.0000    735.7192      7.6620     82.2510
   600.2500      0.0000    722.8414      7.8267     88.2347
   600.5000      0.0000    712.9482      8.0268     96.1969
   600.7500      0.0000    708.7841      8.2399    104.4662
   601.0000      0.0000    711.0800      8.4129    110.5906
   601.2500      0.0000    719.9625      8.4958    112.2939
   601.5000      0.0000    735.1019      8.4780    109.2316
   601.7500      0.0000    754.8002      8.3835    104.3462
   602.0000      0.0000    775.4561      8.2480    102.3890
   602.2500      0.0000    792.1035      8.1100    106.0368
   602.5000      0.0000    800.3597      8.0005    113.6560
   602.7500      0.0000    799.1965      7.9246    121.1719
   603.0000      0.0000    791.7999      7.8599    125.5749
   603.2500      0.0000    782.9703      7.7781    126.4706
   603.5000      0.0000    775.8680      7.6717    125.2585
   603.7500      0.0000    771.3744      7.5644    123.7087
   604.0000      0.0000    769.1912      7.4965    122.9692
   604.2500      0.0000    768.4137      7.4966    123.2239
   604.5000      0.0000    767.6733      7.5644    124.1030
   604.7500      0.0000    765.8481      7.6721    125.5031
   605.0000      0.0000    762.6461      7.7728    127.8607
   605.2500      0.0000    758.0222      7.8065    131.4203
   605.5000      0.0000    751.4001      7.7271    135.4469
   605.7500      0.0000    742.4106      7.5478    138.5948
   606.0000      0.0000    732.9440      7.3505    139.9438
   606.2500      0.0000    727.6820      7.2208    139.1770
   606.5000      0.0000    731.1672      7.1846    136.0249
   606.7500      0.0000    743.6485      7.2340    130.6830
   607.0000      0.0000    760.1849      7.3734    124.9643
   607.2500      0.0000    774.2631      7.5883    121.6499
   607.5000     -2.0000    782.5840      7.8038    121.6049
   607.7500      0.0000    786.8826      7.9299    122.2822
   608.0000      2.0000    791.5004      7.9420    120.2375
   608.2500      0.0000    799.1802      7.9051    114.6562
   608.5000      0.0000    808.2808      7.9287    107.3844
   608.7500      0.0000    812.9085      8.0908    100.2507
   609.0000      0.0000    805.6857      8.3832     93.9199
   609.2500      0.0000    782.4270      8.7398     89.3353
   609.5000      0.0000    746.8932      9.1351     88.5793
   609.7500      0.0000    711.8187      9.6126     93.0190
   610.0000      0.0000    692.2018     10.1912    100.9872
   610.2500      0.0000    693.8104     10.7967    108.6396
   610.5000      0.0000    708.6758     11.3281    113.4933
   610.7500      0.0000    723.3820     11.7496    116.2222
   611.0000      0.0000    730.1533     12.0871    118.6571
   611.2500      0.0000    729.2727     12.3631    121.0897
   611.5000      0.0000    724.4713     12.5564    122.3799
   611.7500      0.0000    719.0806     12.6169    122.0698
   612.0000      0.0000    715.7798     12.5090    121.2713
   612.2500      0.0000    717.4819     12.2459    121.1128
   612.5000      0.0000    726.4798     11.8853    120.9462
   612.7500      0.0000    741.8256     11.4955    118.7876
   613.0000      0.0000    757.7526     11.1254    113.4604
   613.2500      0.0000    766.2830     10.7976    105.9426
   613.5000      0.0000    762.9101     10.5168     98.6936
   613.7500      0.0000    749.9926     10.2748     93.9532
   614.0000      0.0000    734.1899     10.0471     92.4347
   614.2500      0.0000    721.0671      9.7979     93.1701
   614.5000      0.0000    712.7474      9.5046     94.4428
   614.7500      0.0000    709.4254      9.1742     95.0476
   615.0000      0.0000    710.8774      8.8348     94.8406
   615.2500      0.0000    716.0239      8.5166     94.3240
   615.5000      0.0000    722.3958      8.2491     93.9407
   615.7500      0.0000    727.3105      8.0581     93.6922
   616.0000      0.0000    729.8029      7.9449     93.2960
   616.2500      0.0000    730.9305      7.8781     92.6896
   616.5000      0.0000    732.0580      7.8211     92.2794
   616.7500      0.0000    733.2762      7.7615     92.4530
   617.0000      0.0000    733.7685      7.7029     92.9445
   617.2500      0.0000    733.6685      7.6382     92.9272
   617.5000      0.0000    735.6716      7.5483     91.5116
   617.7500      0.0000    744.7945      7.4256     87.9935
   618.0000      0.0000    765.5851      7.2899     82.0788
   618.2500      0.0000    798.2684      7.1742     74.3866
   618.5000      0.0000    837.0629      7.1003     66.5852
   618.7500      0.0000    872.4186      7.0720     60.4789
   619.0000      0.0000    895.7252      7.0851     56.6967
   619.2500      0.0000    903.3194      7.1296     54.4562
   619.5000      0.0000    897.4605      7.1873     52.5942
   619.7500      0.0000    884.1807      7.2409     50.5660
   620.0000      0.0000    869.6042      7.2914     48.5213
   620.2500      0.0000    857.0049      7.3593     46.8344
   620.5000      0.0000    846.4189      7.4653     45.7278
   620.7500      0.0000    836.6587      7.6097     45.1597
   621.0000      0.0000    827.1420      7.7679     45.0094
   621.2500      0.0000    817.7097      7.9000     45.4268
   621.5000      0.0000    807.5396      7.9586     46.7979
   621.7500      0.0000    795.3835      7.9052     49.2389
   622.0000      0.0000    781.1086      7.7390     52.3532
   622.2500      0.0000    767.1838      7.5104     55.5449
   622.5000      0.0000    759.1645      7.2864     58.2781
   622.7500      0.0000    763.5810      7.0985     60.0526
   623.0000      0.0000    782.3569      6.9334     60.5819
   623.2500      0.0000    808.2734      6.7732     60.1647
   623.5000      0.0000    828.4870      6.6304     59.6758
   623.7500      0.0000    835.0605      6.5325     60.0822
   624.0000      0.0000    831.6758      6.4843     61.8062
   624.2500      0.0000    828.6479      6.4624     64.2091
   624.5000      0.0000    832.2266      6.4442     65.7874
   624.7500      0.0000    840.5493      6.4251     65.3826
   625.0000      0.0000    848.6880      6.4115     63.2095
   625.2500      0.0000    854.3545      6.4110     60.4554
   625.5000      0.0000    858.1245      6.4296     58.1999
   625.7500      0.0000    860.8073      6.4687     57.0479
   626.0000      0.0000    862.3292      6.5169     57.3504
   626.2500      0.0000    862.4422      6.5484     59.2446
   626.5000      0.0000    861.4752      6.5414     62.6321
   626.7500      0.0000    860.4843      6.5014     67.2365
   627.0000      0.0000    860.8049      6.4650     72.3239
   627.2500      0.0000    863.2096      6.4730     76.3442
   627.5000      0.0000    867.3956      6.5338     77.6223
   627.7500      0.0000    872.2360      6.6149     75.8376
   628.0000      0.0000    876.3099      6.6715     72.3666
   628.2500      0.0000    878.3995      6.6887     68.9498
   628.5000      0.0000    878.1508      6.6900     66.4452
   628.7500      0.0000    876.3916      6.7014     64.8474
