~Version Information
VERS.                      2.0: CWLS Log ASCII Standard - VERSION 2.0
WRAP.                       NO: One line per depth step
~Well Information Block
STRT.FT               745.0000: 
STOP.FT              2945.7000: 
STEP.FT                 0.1000: 
NULL.                -999.2500: 
COMP.          Pioneer Natural Resources: COMPANY
WELL.          Old Yeller 31-32: WELL
FLD.           Purgatoire River: FIELD
LOC.           1832' FEL & 793' FNL--: LOCATION
STAT.                 Colorado: State
CNTY.               Las Animas: COUNTY
CTRY. USA : Country
SECT. 32 : Section
TOWN. 32S : Township
RANG. 67W : Range
SRVC.                Patterson: SERVICE COMPANY
DATE.          Mon Aug 29 11:12:35 2005: LOG DATE
API.           05 071 08356 00: UNIQUE WELL ID
~Curve Information Block
DEPT.FT            0 000 00 00: Depth
DCAL.in                       : CDL Caliper
RHOB.g/cc                     : CDL Bulk Density
RHOC.g/cc                     : CDL Density Correction
DPOR.pu                       : CDL Density Porosity
NPOR.pu                       : Neutron Porosity
GR.GAPI                       : Gamma Ray
~Parameter Information Block
~A  Depth       DCAL        RHOB        RHOC        DPOR        NPOR         GR     
# ...
  2770.6000      7.9094      2.0580      0.2491     35.8789     26.7200     34.6390
  2770.7000      7.9094      2.1190      0.2177     32.1847     25.9931     39.3454
  2770.8000      7.9074      2.1564      0.1438     29.9176     25.7417     41.8244
  2770.9000      7.9074      2.2166      0.1739     26.2682     25.4110     41.9650
  2771.0000      7.8975      2.3043      0.1661     20.9525     24.7217     41.0024
  2771.1000      7.8975      2.3768      0.1472     16.5592     23.8134     38.8004
  2771.2000      7.8975      2.3912      0.0519     15.6834     23.1905     36.1900
  2771.3000      7.8895      2.3533     -0.0124     17.9809     23.3198     34.7011
  2771.4000      7.8895      2.3125     -0.1339     20.4526     23.9923     36.2961
  2771.5000      7.8887      2.3038     -0.0639     20.9829     24.7408     41.5150
  2771.6000      7.8887      2.3186     -0.0758     20.0841     25.2166     48.4479
  2771.7000      7.8887      2.3357     -0.0026     19.0489     25.2242     55.4226
  2771.8000      7.8955      2.3415     -0.0044     18.6951     24.8895     62.8416
  2771.9000      7.8955      2.3347      0.0031     19.1108     24.5272     71.3690
  2772.0000      7.9060      2.3258     -0.0371     19.6493     24.4439     77.0512
  2772.1000      7.9060      2.3263      0.0138     19.6185     24.7841     79.1633
  2772.2000      7.9060      2.3383      0.0397     18.8901     25.2097     83.2301
  2772.3000      7.9133      2.3610      0.0809     17.5148     25.1401     85.9087
  2772.4000      7.9133      2.3942      0.0680     15.5042     24.5560     83.8365
  2772.5000      7.9157      2.4334      0.0782     13.1249     24.2653     84.3106
  2772.6000      7.9157      2.4688      0.0794     10.9821     24.7053     91.1024
  2772.7000      7.9157      2.4973      0.0538      9.2549     25.2504    100.6787
  2772.8000      7.9150      2.5296      0.0373      7.2966     25.3459    109.3120
  2772.9000      7.9150      2.5672      0.0927      5.0198     25.3774    112.2168
  2773.0000      7.9141      2.5932      0.0918      3.4435     25.8064    105.6333
  2773.1000      7.9141      2.5959      0.1045      3.2775     26.3837     94.8537
  2773.2000      7.9141      2.5828      0.0520      4.0712     26.5739     90.3253
  2773.3000      7.9148      2.5686      0.0389      4.9312     26.4174     94.8521
  2773.4000      7.9148      2.5506      0.0724      6.0257     26.3826    104.9215
  2773.5000      7.9152      2.5232      0.0451      7.6832     26.6878    116.1930
  2773.6000      7.9152      2.5005      0.0227      9.0622     27.1574    124.0904
  2773.7000      7.9152      2.4860      0.0450      9.9404     27.5483    127.1383
  2773.8000      7.9158      2.4616      0.0239     11.4156     27.7741    125.5675
  2773.9000      7.9158      2.4273     -0.0148     13.4992     27.8230    120.1273
  2774.0000      7.9196      2.4052     -0.0290     14.8342     27.9581    118.6287
  2774.1000      7.9196      2.4004      0.0397     15.1289     28.3258    127.0673
  2774.2000      7.9196      2.3943      0.0319     15.4949     28.6620    137.7837
  2774.3000      7.9273      2.3713      0.0138     16.8887     28.9290    142.3132
  2774.4000      7.9273      2.3328     -0.0112     19.2252     29.4510    144.1037
  2774.5000      7.9366      2.2989     -0.0440     21.2779     30.0477    146.2563
  2774.6000      7.9366      2.2798      0.0127     22.4371     30.2295    144.5074
  2774.7000      7.9366      2.2629     -0.0020     23.4616     30.0745    139.4926
  2774.8000      7.9415      2.2483     -0.0414     24.3429     29.9681    139.0339
  2774.9000      7.9415      2.2457      0.0210     24.5002     30.0580    139.7990
  2775.0000      7.9429      2.2405      0.0772     24.8197     30.2335    131.3417
  2775.1000      7.9429      2.2108      0.0354     26.6211     30.3671    117.9048
  2775.2000      7.9429      2.1490      0.0423     30.3624     30.5744    111.0670
  2775.3000      7.9431      2.0606     -0.0148     35.7225     30.9396    114.1585
  2775.4000      7.9431      1.9655     -0.0522     41.4845     31.1385    122.2305
  2775.5000      7.9442      1.8812     -0.1109     46.5937     30.8807    124.3843
  2775.6000      7.9442      1.8074     -0.1068     51.0640     30.4116    114.2933
  2775.7000      7.9442      1.7419     -0.1553     55.0365     30.3058     96.8566
  2775.8000      7.9442      1.7003     -0.1280     57.5593     30.6558     82.6435
  2775.9000      7.9442      1.7018     -0.0733     57.4674     30.8129     77.3865
  2776.0000      7.9412      1.7434      0.0175     54.9464     30.4752     78.9772
  2776.1000      7.9412      1.8112      0.0838     50.8364     30.1134     82.0624
  2776.2000      7.9412      1.9045      0.1159     45.1793     30.0172     82.6239
  2776.3000      7.9372      2.0231      0.1770     37.9954     29.8843     85.1793
  2776.4000      7.9372      2.1432      0.2472     30.7146     29.5452     94.1396
  2776.5000      7.9283      2.2384      0.2535     24.9434     28.9226    102.2872
  2776.6000      7.9283      2.3137      0.2062     20.3799     28.0101    102.5252
  2776.7000      7.9283      2.3872      0.2199     15.9289     27.1827     99.1072
  2776.8000      7.9129      2.4502      0.2066     12.1090     26.6688    100.1620
  2776.9000      7.9129      2.4834      0.1582     10.0990     26.5693    106.4177
  2777.0000      7.8984      2.4955      0.0811      9.3608     26.9144    113.0370
  2777.1000      7.8984      2.5106      0.0859      8.4480     27.3482    119.1071
  2777.2000      7.8984      2.5306      0.0819      7.2351     27.5052    127.7073
  2777.3000      7.8910      2.5419      0.0620      6.5486     27.3199    135.5427
  2777.4000      7.8910      2.5339      0.0740      7.0366     26.9507    132.1017
  2777.5000      7.8896      2.5051      0.0472      8.7812     26.5129    120.1321
  2777.6000      7.8896      2.4692      0.0326     10.9577     26.1808    112.3622
  2777.7000      7.8896      2.4484      0.0018     12.2192     26.1654    108.8175
  2777.8000      7.8900      2.4567      0.0148     11.7167     26.2510    105.8339
  2777.9000      7.8900      2.4868      0.0236      9.8883     26.0630    108.5540
  2778.0000      7.8912      2.5165      0.0645      8.0911     25.8269    115.7241
  2778.1000      7.8912      2.5266      0.0648      7.4768     26.1850    118.9481
  2778.2000      7.8912      2.5177      0.0251      8.0168     26.8505    118.5301
  2778.3000      7.8949      2.5066      0.0398      8.6888     26.9303    117.5660
  2778.4000      7.8949      2.5022      0.0407      8.9570     26.4951    115.5565
  2778.5000      7.8979      2.5034      0.0279      8.8821     25.9842    112.1617
  2778.6000      7.8979      2.5141      0.0337      8.2382     25.5408    105.0645
  2778.7000      7.8979      2.5421      0.0299      6.5407     25.3362     93.7907
  2778.8000      7.8968      2.5876      0.0277      3.7820     25.3881     83.8713
  2778.9000      7.8968      2.6342      0.1035      0.9552     25.5196     83.5041
  2779.0000      7.8953      2.6651      0.0836     -0.9127     25.7847     92.2649
  2779.1000      7.8953      2.6804      0.1102     -1.8416     26.0935    102.2109
  2779.2000      7.8953      2.6837      0.1044     -2.0401     25.9536    110.9156
  2779.3000      7.8953      2.6710      0.0995     -1.2736     25.5910    116.7773
  2779.4000      7.8953      2.6421      0.0691      0.4794     25.7841    113.9746
  2779.5000      7.9004      2.6107      0.0352      2.3817     26.5199    104.1019
  2779.6000      7.9004      2.5942      0.0278      3.3815     26.8517     96.1986
  2779.7000      7.9004      2.5932      0.0275      3.4397     26.4485     95.7857
  2779.8000      7.9122      2.5961     -0.0235      3.2658     26.1872    100.4771
  2779.9000      7.9122      2.5893     -0.0331      3.6795     26.6916    106.2683
  2780.0000      7.9219      2.5586     -0.0093      5.5382     27.5834    112.4400
  2780.1000      7.9219      2.5106     -0.0845      8.4487     27.9099    116.8266
