~Version Information
VERS.                      2.0: CWLS Log ASCII Standard - VERSION 2.0
WRAP.                       NO: One line per depth step
~Well Information Block
STRT.FT                -7.0000: 
STOP.FT              1329.7500: 
STEP.FT                 0.2500: 
NULL.                -999.2500: 
COMP.          Pioneer Natural Resources: COMPANY
WELL.             Raptor 44-26: WELL
FLD.           Purgatorie River: FIELD
LOC.           180' FSL & 812' FEL--: LOCATION
PROV.                       CO: PROVINCE
CNTY.               Las Animas: COUNTRY
SRVC.          Patterson Wireline: SERVICE COMPANY
DATE.          Wed Mar 30 12:38:23 2005: LOG DATE
UWI.           05 071 08187 00: UNIQUE WELL ID
~Curve Information Block
DEPT.FT            0 000 00 00: Depth
CCL.                          : Casing Collar Locator
TT3.usec                      : CBL 3' Travel Time
AMP3.mV                       : CBL 3' Amplitude
GR.GAPI                       : Gamma Ray
~Parameter Information Block
MINATTN.db/ft           0.8000: Minimum Attenuation
~A  Depth       CCL         TT3         AMP3         GR     
# ...
   696.5000      0.0000    832.0505      6.9337    158.6082
   696.7500      0.0000    835.2446      6.8142    162.0491
   697.0000      0.0000    839.1194      6.6854    161.4781
   697.2500      0.0000    842.4033      6.5590    157.8537
   697.5000      0.0000    844.0232      6.4503    152.4984
   697.7500      0.0000    844.1781      6.3753    147.1671
   698.0000      0.0000    843.7584      6.3452    143.6117
   698.2500      0.0000    842.8492      6.3600    142.9712
   698.5000      0.0000    840.6467      6.4085    145.4742
   698.7500      0.0000    836.9564      6.4786    150.5350
   699.0000      0.0000    832.9745      6.5616    156.8877
   699.2500      0.0000    830.2854      6.6490    162.5324
   699.5000      0.0000    829.5753      6.7262    165.1449
   699.7500      0.0000    830.5507      6.7743    163.5982
   700.0000      0.0000    832.7005      6.7827    159.3967
   700.2500      0.0000    835.6539      6.7653    155.7670
   700.5000      0.0000    838.7357      6.7550    154.6333
   700.7500      0.0000    840.6491      6.7708    154.8215
   701.0000      0.0000    840.2195      6.7942    153.6137
   701.2500      0.0000    837.4791      6.7902    149.5668
   701.5000      0.0000    833.5251      6.7444    143.4264
   701.7500      0.0000    829.1256      6.6706    137.0379
   702.0000      0.0000    823.7626      6.5877    132.1208
   702.2500      0.0000    816.2003      6.5039    129.6257
   702.5000      0.0000    805.9057      6.4226    129.4064
   702.7500      0.0000    793.8619      6.3522    130.3898
   703.0000      0.0000    782.1666      6.3047    131.6022
   703.2500      0.0000    773.0513      6.2863    133.2116
   703.5000      0.0000    767.9922      6.2900    136.0525
   703.7500      0.0000    767.1611      6.3013    139.8592
   704.0000      0.0000    769.7744      6.3109    142.7461
   704.2500      0.0000    775.2509      6.3240    143.1609
   704.5000      0.0000    783.2454      6.3542    141.9223
   704.7500      0.0000    792.1896      6.4075    141.7076
   705.0000      0.0000    799.3793      6.4710    144.7261
   705.2500      0.0000    803.6257      6.5198    151.0732
   705.5000      0.0000    806.6194      6.5373    158.8434
   705.7500      0.0000    810.6219      6.5270    165.3804
   706.0000      0.0000    815.6809      6.5061    168.4922
   706.2500      0.0000    819.8480      6.4880    167.1965
   706.5000      0.0000    821.1353      6.4711    162.3432
   706.7500      0.0000    818.5196      6.4454    156.7830
   707.0000      0.0000    811.8820      6.4087    153.8837
   707.2500      0.0000    801.9775      6.3764    154.8627
   707.5000      0.0000    790.3509      6.3737    157.6723
   707.7500      0.0000    778.9904      6.4154    159.0017
   708.0000      0.0000    770.0594      6.4892    157.2894
   708.2500      0.0000    765.5427      6.5611    153.6111
   708.5000      0.0000    766.4381      6.6001    150.0670
   708.7500      0.0000    772.4207      6.6005    147.8018
   709.0000      0.0000    782.3628      6.5791    146.5026
   709.2500      0.0000    794.4926      6.5560    145.5515
   709.5000      0.0000    806.2189      6.5414    145.2365
   709.7500      0.0000    815.0558      6.5357    146.4533
   710.0000      0.0000    820.0338      6.5362    149.5976
   710.2500      0.0000    821.7139      6.5455    154.3866
   710.5000      0.0000    820.9159      6.5736    160.4075
   710.7500      0.0000    817.8900      6.6271    166.9612
   711.0000      0.0000    812.5763      6.6941    172.2122
   711.2500      0.0000    805.1856      6.7481    173.2533
   711.5000      0.0000    796.2984      6.7685    167.8129
   711.7500      0.0000    786.7601      6.7597    156.1132
   712.0000      0.0000    777.8458      6.7448    140.8365
   712.2500      0.0000    771.2021      6.7417    125.2698
   712.5000      0.0000    767.8926      6.7473    111.5201
   712.7500      0.0000    767.4886      6.7489    100.0585
   713.0000      0.0000    768.4762      6.7437     90.3578
   713.2500      0.0000    769.4452      6.7416     81.8511
   713.5000      0.0000    769.6843      6.7509     74.4496
   713.7500      0.0000    768.8804      6.7681     68.2731
   714.0000      0.0000    766.6307      6.7806     63.1351
   714.2500      0.0000    762.4975      6.7770     58.5196
   714.5000      0.0000    756.6608      6.7553     54.0354
   714.7500      0.0000    750.4282      6.7247     49.8613
   715.0000      0.0000    745.7130      6.6999     46.8297
   715.2500      0.0000    743.6757      6.6912     46.0459
   715.5000      0.0000    743.8806      6.7028     48.3499
   715.7500      0.0000    744.8620      6.7402     54.1379
   716.0000      0.0000    745.3825      6.8143     63.5119
   716.2500      0.0000    745.0264      6.9260     76.3031
   716.5000      0.0000    744.0242      7.0476     91.7430
   716.7500      0.0000    743.0960      7.1332    108.0021
   717.0000      0.0000    743.0400      7.1534    122.0813
   717.2500      0.0000    743.5090      7.1140    130.5726
   717.5000      0.0000    742.4299      7.0396    131.2945
   717.7500      0.0000    737.9120      6.9471    124.9643
   718.0000      0.0000    731.3444      6.8387    115.5206
   718.2500      0.0000    727.7610      6.7140    108.0562
   718.5000      0.0000    731.8715      6.5872    105.3809
   718.7500      0.0000    743.0469      6.4937    106.3572
   719.0000      0.0000    754.6549      6.4701    107.8271
   719.2500      0.0000    759.4941      6.5158    108.0187
   719.5000      0.0000    756.6113      6.5830    107.9025
   719.7500     -2.0000    752.0062      6.6161    109.5747
   720.0000      0.0000    751.7961      6.5989    113.8134
   720.2500      0.0000    755.2256      6.5668    119.3034
   720.5000      0.0000    755.5367      6.5854    123.9867
   720.7500      0.0000    747.7233      6.7047    126.9513
   721.0000      0.0000    734.6982      6.9037    128.8919
   721.2500      0.0000    725.0667      7.0847    130.8099
   721.5000      0.0000    724.7308      7.1550    132.3387
   721.7500      0.0000    731.9063      7.1166    131.3891
   722.0000      0.0000    740.3447      7.0518    125.7183
   722.2500      0.0000    744.3623      7.0321    115.1720
   722.5000      0.0000    739.1182      7.0619    102.4264
   722.7500      0.0000    719.3441      7.0987     91.3736
   723.0000      0.0000    683.1113      7.1016     84.5460
   723.2500      0.0000    638.9758      7.0595     81.8959
   723.5000      0.0000    606.4077      6.9903     81.9391
   723.7500      0.0000    603.4809      6.9258     83.6469
   724.0000      0.0000    631.8688      6.8947     86.8613
   724.2500      0.0000    675.7940      6.9105     91.2996
   724.5000      0.0000    716.0229      6.9647     95.9749
   724.7500      0.0000    743.1859      7.0358     99.9588
   725.0000      0.0000    759.2293      7.1049    103.4502
   725.2500      0.0000    770.3325      7.1669    107.7970
   725.5000      0.0000    780.3976      7.2294    114.3679
   725.7500      0.0000    789.7431      7.3018    123.2607
   726.0000      0.0000    797.0611      7.3820    132.7770
   726.2500      0.0000    801.1946      7.4497    140.0769
   726.5000      0.0000    801.8749      7.4822    142.9634
   726.7500      0.0000    800.0190      7.4778    141.7659
   727.0000      0.0000    797.5626      7.4581    139.3939
   727.2500      0.0000    796.5817      7.4454    139.0028
   727.5000      0.0000    798.2417      7.4436    141.5535
   727.7500      0.0000    802.1000      7.4386    145.6667
   728.0000      0.0000    806.0345      7.4125    149.3561
   728.2500      0.0000    807.2468      7.3625    151.5609
   728.5000      0.0000    804.3784      7.3053    152.5030
   728.7500      0.0000    799.2290      7.2622    153.0806
   729.0000      0.0000    795.8688      7.2373    153.9806
   729.2500      0.0000    797.3162      7.2142    155.3495
   729.5000      0.0000    803.1345      7.1710    157.0423
   729.7500      0.0000    810.4030      7.0969    158.7171
