~Version Information
VERS.                      2.0: CWLS Log ASCII Standard - VERSION 2.0
WRAP.                       NO: One line per depth step
~Well Information Block
STRT.FT               -12.2500: 
STOP.FT              1948.2500: 
STEP.FT                 0.2500: 
NULL.                -999.2500: 
COMP.          Petrogulf Corporation: COMPANY
WELL.            Torcom 17-33R: WELL
FLD.           Purgatorie River: FIELD
LOC.           1483' FSL & 1804' FEL--: LOCATION
PROV.                       CO: PROVINCE
CNTY.               Las Animas: COUNTRY
SRVC.          Patterson Wireline: SERVICE COMPANY
DATE.          Fri Sep 30 10:11:43 2005: LOG DATE
UWI.           05 071 08096 00: UNIQUE WELL ID
~Curve Information Block
DEPT.FT            0 000 00 00: Depth
CCL.                          : Casing Collar Locator
TT3.usec                      : CBL 3' Travel Time
AMP3.mV                       : CBL 3' Amplitude
GR.GAPI                       : Gamma Ray
~Parameter Information Block
~A  Depth       CCL         TT3         AMP3         GR     
# ...
   624.2500      0.0000    385.5638     10.4039    102.9019
   624.5000      0.0000    388.2558     10.5133    106.3656
   624.7500      0.0000    393.8408     10.6590    105.7962
   625.0000      0.0000    400.1128     10.8236    102.2643
   625.2500      0.0000    404.2528     10.9806     97.1047
   625.5000      0.0000    404.2857     11.0948     90.9763
   625.7500      0.0000    400.1685     11.1359     84.4431
   626.0000      0.0000    393.7338     11.0948     78.6408
   626.2500      0.0000    387.6204     10.9868     74.9399
   626.5000      0.0000    384.1331     10.8317     73.9318
   626.7500      0.0000    384.9257     10.6203     74.9597
   627.0000      0.0000    390.9256     10.3126     76.8824
   627.2500      0.0000    401.1921      9.9061     79.1918
   627.5000      0.0000    411.5420      9.5146     82.0454
   627.7500      0.0000    416.0850      9.3395     85.2880
   628.0000      0.0000    411.9620      9.5171     87.8777
   628.2500      0.0000    402.1602      9.9974     88.5450
   628.5000      0.0000    392.7982     10.5872     87.1479
   628.7500      2.0000    388.5808     11.0883     85.3109
   629.0000      0.0000    391.5179     11.3764     85.2858
   629.2500      0.0000    402.5912     11.3948     87.7690
   629.5000      0.0000    422.7966     11.1494     91.0068
   629.7500      0.0000    451.2723     10.7468     92.5554
   630.0000      0.0000    481.7690     10.4019     91.9550
   630.2500      0.0000    502.7293     10.3337     91.1402
   630.5000      0.0000    504.7426     10.6085     92.0838
   630.7500      0.0000    489.3410     11.0877     94.7873
   631.0000      0.0000    468.1566     11.5435     97.9936
   631.2500      0.0000    452.4955     11.8237    101.0475
   631.5000      0.0000    445.1094     11.9154    104.1154
   631.7500      0.0000    441.5117     11.8908    106.8374
   632.0000      0.0000    436.4087     11.8242    107.6519
   632.2500      0.0000    427.7889     11.7542    105.0226
   632.5000      0.0000    416.6439     11.6925     99.3867
   632.7500      0.0000    404.9722     11.6427     93.5118
   633.0000      0.0000    394.5504     11.6120     90.4658
   633.2500      0.0000    386.5992     11.6127     91.0812
   633.5000      0.0000    381.5742     11.6584     93.3764
   633.7500      0.0000    379.0903     11.7547     94.3734
   634.0000      0.0000    378.2946     11.8914     92.5781
   634.2500      0.0000    378.3902     12.0454     89.0681
   634.5000      0.0000    378.9236     12.1919     86.4956
   634.7500      0.0000    379.8276     12.3158     86.9481
   635.0000      0.0000    381.4093     12.4172     90.4238
   635.2500      0.0000    384.2662     12.5037     95.1274
   635.5000      0.0000    388.9389     12.5774     99.0183
   635.7500      0.0000    395.2890     12.6305    100.8632
   636.0000      0.0000    402.0969     12.6576    100.2180
   636.2500      0.0000    407.4417     12.6679     97.3780
   636.5000      0.0000    409.6479     12.6791     93.6488
   636.7500      0.0000    408.0560     12.6987     90.8291
   637.0000      0.0000    403.2737     12.7157     89.5390
   637.2500      0.0000    396.9442     12.7133     88.2856
   637.5000      0.0000    391.0026     12.6841     84.9667
   637.7500      0.0000    386.7817     12.6303     79.4630
   638.0000      0.0000    384.7434     12.5540     74.1935
   638.2500      0.0000    385.2138     12.4530     71.8232
   638.5000      0.0000    389.5898     12.3256     72.6889
   638.7500      0.0000    401.0998     12.1743     74.6430
   639.0000      0.0000    424.0054     12.0036     74.9294
   639.2500      0.0000    460.2709     11.8140     71.9799
   639.5000      0.0000    505.2675     11.5990     66.1870
   639.7500      0.0000    547.7857     11.3463     59.6793
   640.0000      0.0000    577.3987     11.0437     54.9448
   640.2500      0.0000    592.4020     10.6908     53.0851
   640.5000      0.0000    598.9025     10.3095     53.4410
   640.7500      0.0000    603.5306      9.9395     54.7131
   641.0000      0.0000    609.9830      9.6222     55.9543
   641.2500      0.0000    620.4844      9.3881     56.6597
   641.5000      0.0000    635.4648      9.2545     56.4701
   641.7500      0.0000    651.4425      9.2205     55.0108
   642.0000      0.0000    662.6530      9.2560     52.1254
   642.2500      0.0000    665.8858      9.3014     48.4022
   642.5000      0.0000    662.7192      9.2922     45.2455
   642.7500      0.0000    657.3423      9.1943     44.0477
   643.0000      0.0000    653.2735      9.0186     45.1639
   643.2500      0.0000    652.0586      8.8037     47.7096
   643.5000      0.0000    653.9532      8.5844     50.2749
   643.7500      0.0000    658.8127      8.3797     51.9339
   644.0000      0.0000    666.0728      8.2060     52.8439
   644.2500      0.0000    674.3163      8.0877     54.1005
   644.5000      0.0000    681.6257      8.0440     56.9944
   644.7500      0.0000    686.6931      8.0693     62.2365
   645.0000      0.0000    689.4655      8.1290     69.6264
   645.2500      0.0000    690.7086      8.1771     78.2258
   645.5000      0.0000    691.1910      8.1842     86.7363
   645.7500      0.0000    691.2905      8.1593     93.7601
   646.0000      0.0000    691.0015      8.1477     97.9923
   646.2500      0.0000    689.9243      8.1978     98.7113
   646.5000      0.0000    687.1672      8.3215     96.5282
   646.7500      0.0000    681.5718      8.4831     93.5380
   647.0000      0.0000    672.5904      8.6311     92.0696
   647.2500      0.0000    661.4198      8.7397     92.8463
   647.5000      0.0000    651.2401      8.8221     94.5133
   647.7500      0.0000    645.5836      8.9073     95.0892
   648.0000      0.0000    645.5563      9.0098     93.7012
   648.2500      0.0000    648.7441      9.1172     90.9840
   648.5000      0.0000    651.5940      9.2005     88.3477
   648.7500      0.0000    652.7719      9.2336     87.2539
   649.0000      0.0000    653.5687      9.2079     88.6581
   649.2500      0.0000    655.5949      9.1385     92.3435
   649.5000      0.0000    658.7630      9.0587     96.7879
   649.7500      0.0000    660.8020      9.0070    100.1691
   650.0000      0.0000    658.3701      9.0152    101.4974
   650.2500      0.0000    649.7408      9.1024    100.7356
   650.5000      0.0000    636.9636      9.2722     98.4068
   650.7500      0.0000    624.6348      9.5090     95.5618
   651.0000      0.0000    616.0564      9.7791     93.6502
   651.2500      0.0000    610.4130     10.0405     93.6401
   651.5000      0.0000    603.3626     10.2575     95.0636
   651.7500      0.0000    590.7059     10.4132     96.2685
   652.0000      0.0000    571.8682     10.5167     95.7908
   652.2500      0.0000    548.9183     10.5989     93.5085
   652.5000      0.0000    522.1530     10.6926     90.8508
   652.7500      0.0000    489.5685     10.8103     90.0237
   653.0000      0.0000    451.9550     10.9396     92.4279
   653.2500      0.0000    415.4076     11.0591     97.4581
   653.5000      0.0000    386.8490     11.1577    103.1791
   653.7500      0.0000    368.8709     11.2424    108.1863
   654.0000      0.0000    359.5982     11.3365    112.2773
   654.2500      0.0000    355.6377     11.4699    115.3690
   654.5000      0.0000    354.2480     11.6657    116.4467
   654.7500      0.0000    353.8399     11.9233    114.1590
   655.0000      0.0000    353.7126     12.2112    108.6569
   655.2500      0.0000    353.6633     12.4723    102.4636
   655.5000      0.0000    353.7036     12.6408     98.8922
   655.7500      0.0000    353.9277     12.6640     99.5227
   656.0000      0.0000    354.5168     12.5239    103.1978
   656.2500      0.0000    355.9011     12.2450    106.9822
   656.5000      0.0000    358.8534     11.8791    108.0290
   656.7500      0.0000    364.2726     11.4778    105.3547
   657.0000      0.0000    372.6746     11.0782    100.4741
   657.2500      0.0000    384.0161     10.7013     96.2200
   657.5000      0.0000    398.0812     10.3591     94.7179
