~Version Information
VERS.                      2.0: CWLS Log ASCII Standard - VERSION 2.0
WRAP.                       NO: One line per depth step
~Well Information Block
STRT.FT               550.0000: 
STOP.FT              1577.7500: 
STEP.FT                 0.2500: 
NULL.                -999.2500: 
COMP.          Pioneer Natural Resources: COMPANY
WELL.          Kristin 22-23 Tr: WELL
FLD.           Purgatoire River: FIELD
LOC.           2273' FNL & 2029' FWL: LOCATION
PROV.                 Colorado: PROVINCE
CNTY.               Las Animas: COUNTRY
SRVC.                Patterson: SERVICE COMPANY
DATE.          Thu Jan 20 21:18:23 2005: LOG DATE
UWI.           05 071 08259 00: UNIQUE WELL ID
~Curve Information Block
DEPT.FT            0 000 00 00: Depth
SN.Ohm-m                      : IEL Short Normal
SP.mV                         : IEL Spontaneous Potential
DIR.Ohm-m                     : IEL Induction Resistivity
GR.GAPI                       : Gamma Ray
~Parameter Information Block
~A  Depth        SN          SP         DIR          GR     
# ...
  1086.0000     16.8128   -145.5739     13.3516    136.7316
  1086.2500     17.4923   -146.1846     13.9339    132.7205
  1086.5000     18.0660   -146.8364     14.5207    125.6391
  1086.7500     18.6063   -147.5345     15.0996    121.7811
  1087.0000     19.1876   -148.2853     15.6692    118.0917
  1087.2500     19.8600   -149.1012     16.2344    116.5000
  1087.5000     20.6317   -149.9985     16.8049    114.3987
  1087.7500     21.4658   -150.9893     17.3947    113.2544
  1088.0000     22.3005   -152.0687     18.0174    112.8956
  1088.2500     23.0795   -153.2067     18.6767    113.7851
  1088.5000     23.7675   -154.3482     19.3591    115.6506
  1088.7500     24.3434   -155.4209     20.0325    116.1674
  1089.0000     24.7867   -156.3471     20.6505    114.9887
  1089.2500     25.0720   -157.0529     21.1616    113.1733
  1089.5000     25.1765   -157.4755     21.5205    109.7512
  1089.7500     25.0937   -157.5713     21.6951    107.3522
  1090.0000     24.8393   -157.3228     21.6680    104.0608
  1090.2500     24.4430   -156.7462     21.4347    102.4394
  1090.5000     23.9363   -155.8906     21.0047    101.6407
  1090.7500     23.3525   -154.8313     20.4088    102.6312
  1091.0000     22.7304   -153.6589     19.7031    106.9429
  1091.2500     22.1094   -152.4698     18.9636    111.7371
  1091.5000     21.5128   -151.3611     18.2676    120.7895
  1091.7500     20.9425   -150.4259     17.6726    126.6075
  1092.0000     20.3945   -149.7422     17.2042    131.8275
  1092.2500     19.8804   -149.3550     16.8569    131.7982
  1092.5000     19.4278   -149.2598     16.6068    127.2489
  1092.7500     19.0651   -149.3977     16.4264    123.0299
  1093.0000     18.8098   -149.6708     16.2951    118.1241
  1093.2500     18.6682   -149.9709     16.2038    116.5489
  1093.5000     18.6360   -150.2120     16.1546    115.8754
  1093.7500     18.6961   -150.3519     16.1563    115.6714
  1094.0000     18.8228   -150.3990     16.2163    115.1184
  1094.2500     18.9968   -150.4062     16.3328    114.7889
  1094.5000     19.2188   -150.4539     16.4933    114.8786
  1094.7500     19.5062   -150.6290     16.6803    115.4935
  1095.0000     19.8748   -151.0018     16.8810    117.0811
  1095.2500     20.3207   -151.6066     17.0940    117.9761
  1095.5000     20.8172   -152.4328     17.3285    117.2539
  1095.7500     21.3260   -153.4272     17.5958    114.5982
  1096.0000     21.8140   -154.5063     17.8998    107.6098
  1096.2500     22.2639   -155.5707     18.2328    101.7942
  1096.5000     22.6799   -156.5173     18.5797     92.7704
  1096.7500     23.0878   -157.2505     18.9263     87.2759
  1097.0000     23.5236   -157.6943     19.2661     81.4182
  1097.2500     24.0069   -157.8090     19.5974     80.1457
  1097.5000     24.5121   -157.6040     19.9179     83.0578
  1097.7500     24.9660   -157.1391     20.2208     87.7776
  1098.0000     25.2793   -156.5080     20.4957     97.0410
  1098.2500     25.3901   -155.8108     20.7273    103.3896
  1098.5000     25.2871   -155.1259     20.8905    111.6247
  1098.7500     24.9987   -154.4944     20.9500    115.7254
  1099.0000     24.5634   -153.9205     20.8732    119.0671
  1099.2500     24.0093   -153.3830     20.6549    119.2480
  1099.5000     23.3606   -152.8497     20.3307    117.3168
  1099.7500     22.6617   -152.2913     19.9660    115.5574
  1100.0000     21.9848   -151.6922     19.6261    113.4755
  1100.2500     21.4028   -151.0596     19.3511    112.7440
  1100.5000     20.9527   -150.4277     19.1478    113.2462
  1100.7500     20.6269   -149.8531     18.9971    115.2713
  1101.0000     20.3964   -149.4006     18.8683    121.3990
  1101.2500     20.2382   -149.1234     18.7321    127.0559
  1101.5000     20.1414   -149.0472     18.5692    135.7776
  1101.7500     20.0946   -149.1642     18.3751    140.1816
  1102.0000     20.0800   -149.4398     18.1619    142.3046
  1102.2500     20.0815   -149.8260     17.9573    140.0506
  1102.5000     20.0987   -150.2737     17.7983    131.9218
  1102.7500     20.1546   -150.7415     17.7208    124.7844
  1103.0000     20.2952   -151.1973     17.7512    114.2993
  1103.2500     20.5757   -151.6171     17.9036    108.3985
  1103.5000     21.0335   -151.9813     18.1793    101.3526
  1103.7500     21.6574   -152.2725     18.5670     97.7859
  1104.0000     22.3774   -152.4756     19.0388     94.5333
  1104.2500     23.0926   -152.5825     19.5455     93.9244
  1104.5000     23.7211   -152.6014     20.0208     94.6588
  1104.7500     24.2349   -152.5673     20.4003     95.5526
  1105.0000     24.6593   -152.5452     20.6500     96.8390
  1105.2500     25.0489   -152.6212     20.7854     97.5503
  1105.5000     25.4629   -152.8806     20.8633     97.8118
  1105.7500     25.9435   -153.3780     20.9522     96.8042
  1106.0000     26.5005   -154.1139     21.1028     92.8304
  1106.2500     27.1085   -155.0258     21.3329     88.7733
  1106.5000     27.7184   -156.0014     21.6313     81.6353
  1106.7500     28.2741   -156.9061     21.9706     76.7279
  1107.0000     28.7277   -157.6169     22.3174     69.8753
  1107.2500     29.0578   -158.0484     22.6361     66.1786
  1107.5000     29.2863   -158.1661     22.8910     63.0610
  1107.7500     29.4729   -157.9843     23.0566     63.1527
  1108.0000     29.6767   -157.5556     23.1316     66.9690
  1108.2500     29.9112   -156.9555     23.1443     71.7889
  1108.5000     30.1255   -156.2681     23.1382     81.2366
  1108.7500     30.2269   -155.5727     23.1448     87.9613
  1109.0000     30.1240   -154.9339     23.1618     96.9618
  1109.2500     29.7744   -154.3950     23.1537    101.5561
  1109.5000     29.2115   -153.9750     23.0784    105.7739
  1109.7500     28.5326   -153.6718     22.9199    106.7334
  1110.0000     27.8479   -153.4683     22.7021    105.6929
  1110.2500     27.2372   -153.3412     22.4748    103.8722
  1110.5000     26.7440   -153.2676     22.2859    100.9020
  1110.7500     26.3934   -153.2309     22.1628     99.5120
  1111.0000     26.1971   -153.2214     22.1099     98.5955
  1111.2500     26.1424   -153.2363     22.1166     98.4012
  1111.5000     26.1906   -153.2758     22.1708     97.9866
  1111.7500     26.2922   -153.3402     22.2681     97.3666
  1112.0000     26.4045   -153.4261     22.4119     95.6833
  1112.2500     26.4990   -153.5260     22.6037     94.0075
  1112.5000     26.5626   -153.6306     22.8285     90.9749
  1112.7500     26.6002   -153.7328     23.0513     89.0296
  1113.0000     26.6330   -153.8329     23.2291     86.7822
  1113.2500     26.6916   -153.9405     23.3313     85.6402
  1113.5000     26.8030   -154.0737     23.3535     83.9305
  1113.7500     26.9798   -154.2555     23.3123     82.6925
  1114.0000     27.2154   -154.5103     23.2364     81.0272
  1114.2500     27.4842   -154.8615     23.1625     80.3151
  1114.5000     27.7490   -155.3305     23.1381     80.2229
  1114.7500     27.9755   -155.9338     23.2234     80.9032
  1115.0000     28.1487   -156.6763     23.4780     82.5061
  1115.2500     28.2747   -157.5402     23.9296     83.1559
  1115.5000     28.3629   -158.4736     24.5310     82.1490
  1115.7500     28.4043   -159.3838     25.1342     80.0834
  1116.0000     28.3614   -160.1432     25.5303     76.2543
  1116.2500     28.1704   -160.6081     25.5597     74.2770
  1116.5000     27.7544   -160.6488     25.2046     73.1831
  1116.7500     27.0494   -160.1802     24.5615     73.7262
  1117.0000     26.0410   -159.1827     23.7328     76.3500
  1117.2500     24.7922   -157.7058     22.7623     79.5120
  1117.5000     23.4292   -155.8533     21.6526     86.9261
  1117.7500     22.0838   -153.7596     20.4187     93.7409
  1118.0000     20.8335   -151.5660     19.1147    106.2595
  1118.2500     19.6890   -149.4042     17.8184    115.5801
  1118.5000     18.6251   -147.3898     16.5969    129.9181
  1118.7500     17.6209   -145.6194     15.4882    138.9662
  1119.0000     16.6819   -144.1688     14.5054    150.1829
  1119.2500     15.8335   -143.0900     13.6527    155.1998
