~Version Information
 VERS.                                  2.0 : CWLS LAS VERSION
 WRAP.                                   NO : WRAPING MODE
 SWARE .                 MController 2.5.0J : SOFTWARE VERSION
~Well Information
 WELL.                           Ywam 7-23V : WELL
 COMP.                       Petrogulf Corp : COMPANY
 FLD.                      Purgatorie River : FIELD
 LOC.                 NE/SW Sec 7 T33S R67W : LOCATION
 DATE.                          10/29-30/04 : DATE(S) LOGGED
 SRVC.       Blanco Geological Services LLC : SERVICE COMPANY
 STAT.                                   CO : STATE
 CNTY.                           Las Animas : COUNTY
 CTRY.                                  USA : COUNTRY
 API.                       05-071-08227-00 : API NUMBER
 STRT.FT                             634.00 : START DEPTH
 STOP.FT                            2611.00 : STOP DEPTH
 STEP.FT                               1.00 : DEPTH INCREMENT
 NULL.                                -9999 : NULL VALUE
~Curve information
 DEPTH.FT                                   :
 ROP.MIN/FT                                 :
 GAS.UNITS                                  :
~ASCII Log data
       634.0     -9999.00         10.4 
       635.0         0.07         11.1 
       636.0         0.17         11.4 
       637.0         0.18         11.4 
       638.0         0.13         11.0 
       639.0         0.10         10.2 
       640.0         0.10         10.9 
       641.0         0.10         10.6 
       642.0         0.30         11.1 
       643.0         0.10         10.7 
       644.0         0.10          9.9 
       645.0         0.10         10.1 
       646.0         0.07         10.7 
       647.0         0.10         10.9 
       648.0         0.07         11.5 
       649.0         0.10         12.0 
       650.0         0.20         12.2 
       651.0         0.10         11.7 
       652.0         0.07         11.3 
       653.0         0.10         11.9 
       654.0         0.07         11.4 
       655.0         0.10         11.2 
       656.0         0.07         11.2 
       657.0         0.10         11.3 
       658.0         0.07         11.3 
       659.0         0.10         11.3 
       660.0         0.07         11.1 
       661.0         0.10         11.1 
       662.0         0.07         11.1 
       663.0         0.10         10.9 
       664.0         0.10         10.9 
       665.0         0.32         10.7 
       666.0         0.27         11.0 
       667.0         0.27         11.5 
       668.0         0.30         11.1 
       669.0         0.13         10.8 
       670.0         0.23         10.6 
       671.0         0.17         10.1 
       672.0         0.13         10.6 
       673.0         0.13         10.6 
       674.0         0.10         11.1 
       675.0         0.13         11.2 
       676.0         0.10         11.4 
       677.0         0.10         11.4 
       678.0         0.10         10.6 
       679.0         0.10         11.0 
       680.0         0.10         10.9 
       681.0         0.10         11.8 
       682.0         0.13         11.2 
       683.0         0.10         10.8 
       684.0         0.07         11.1 
       685.0         0.10         10.9 
       686.0         0.10         10.8 
       687.0         0.10         11.8 
       688.0         0.08         11.2 
       689.0         0.10         11.4 
       690.0         0.10         11.7 
       691.0         0.10         11.6 
       692.0         0.10         11.6 
       693.0         0.07         11.6 
       694.0         0.10         11.6 
       695.0         0.10         11.6 
       696.0         0.07         11.6 
       697.0         0.10         10.5 
       698.0         0.10         10.5 
       699.0         0.27         10.3 
       700.0         0.90         15.2 
       701.0         0.20         10.2 
       702.0         0.20         10.6 
       703.0         0.17         10.8 
       704.0         0.13         10.4 
       705.0         0.13         10.5 
       706.0         0.10         10.6 
       707.0         0.10         10.9 
       708.0         0.10         10.7 
       709.0         0.12         10.7 
       710.0         0.13         11.0 
       711.0         0.10         10.2 
       712.0         0.13         10.5 
       713.0         0.10         10.5 
       714.0         0.10         10.5 
       715.0         0.13         10.7 
       716.0         0.10         11.5 
       717.0         0.10         11.5 
       718.0         0.13         11.5 
       719.0         0.10         11.5 
       720.0         0.13         11.6 
       721.0         0.10         11.7 
       722.0         0.10         11.7 
       723.0         0.13         11.6 
       724.0         0.10         11.6 
       725.0         0.13         10.8 
       726.0         0.10         10.8 
       727.0         0.10         10.9 
       728.0         0.13         10.9 
       729.0         0.10         10.9 
       730.0         0.13         11.3 
       731.0         0.30         11.2 
       732.0         0.88         11.6 
       733.0         0.13         10.8 
       734.0         0.20         10.7 
       735.0         0.17         10.7 
       736.0         0.10         10.8 
       737.0         0.17         11.1 
       738.0         0.17         11.2 
       739.0         0.13         11.3 
       740.0         0.13         11.3 
       741.0         0.13         11.4 
       742.0         0.13         11.6 
       743.0         0.13         11.7 
       744.0         0.13         11.2 
       745.0         0.13         11.6 
       746.0         0.13         11.2 
       747.0         0.13         11.4 
       748.0         0.10         10.5 
       749.0         0.13         11.3 
       750.0         0.13         11.1 
       751.0         0.10         11.8 
       752.0         0.13         11.7 
       753.0         0.13         12.4 
       754.0         0.13         12.1 
       755.0         0.15         12.1 
       756.0         0.10         11.7 
       757.0         0.13         11.0 
       758.0         0.13         11.0 
       759.0         0.13         11.5 
       760.0         0.10         12.0 
       761.0         0.10         12.0 
       762.0         0.17         12.8 
       763.0         0.40         12.1 
       764.0         0.80         12.6 
       765.0         0.10         12.2 
       766.0         0.17         11.6 
       767.0         0.23         12.1 
       768.0         0.20         12.2 
       769.0         0.17         12.3 
       770.0         0.10         12.1 
       771.0         0.10         12.0 
       772.0         0.10         12.3 
       773.0         0.12         12.0 
       774.0         0.07         11.9 
       775.0         0.10         12.4 
       776.0         0.10         11.7 
       777.0         0.10         11.6 
       778.0         0.10         12.3 
       779.0         0.10         12.3 
       780.0         0.07         12.7 
       781.0         0.10         13.1 
       782.0         0.10         12.6 
       783.0         0.10         12.1 
       784.0         0.07         12.8 
       785.0         0.10         11.9 
       786.0         0.10         11.8 
       787.0         0.07         12.0 
       788.0         0.10         12.0 
       789.0         0.10         11.7 
       790.0         0.10         11.7 
       791.0         0.10         11.2 
       792.0         0.07         11.2 
       793.0         0.10         11.8 
       794.0         0.10         11.8 
       795.0         0.13         12.0 
       796.0         0.37         11.9 
       797.0         0.77         12.8 
       798.0         0.12         11.3 
       799.0         0.17         11.9 
       800.0         0.23         11.5 
       801.0         0.17         11.3 
       802.0         0.17         11.2 
       803.0         0.17         12.4 
       804.0         0.17         11.6 
       805.0         0.13         11.7 
       806.0         0.13         11.2 
       807.0         0.10         11.4 
       808.0         0.13         10.9 
       809.0         0.10         11.5 
       810.0         0.10         11.6 
       811.0         0.10         11.4 
       812.0         0.10         12.0 
       813.0         0.10         11.6 
       814.0         0.10         11.0 
       815.0         0.13         11.3 
       816.0         0.10         11.1 
       817.0         0.10         11.5 
       818.0         0.10         11.5 
       819.0         0.10         10.8 
       820.0         0.07         10.8 
       821.0         0.10         10.3 
       822.0         0.07         10.3 
       823.0         0.10         10.3 
       824.0         0.10         11.6 
       825.0         0.07         11.6 
       826.0         0.10         11.6 
       827.0         0.08         11.6 
       828.0         0.10         10.8 
       829.0         0.33         10.2 
       830.0         0.40         10.4 
       831.0         0.30         10.7 
       832.0         0.20         11.2 
       833.0         0.17         10.7 
