~Version Information
 VERS.                                  2.0 : CWLS LAS VERSION
 WRAP.                                   NO : WRAPING MODE
 SWARE .                 MController 2.5.0I : SOFTWARE VERSION
~Well Information
 WELL.                        Tomahawk 44-9 : WELL
 COMP.             Evergreen Operating Corp : COMPANY
 FLD.                      Purgatorie River : FIELD
 LOC.                 SE/SE Sec 9 T33S R65W : LOCATION
 DATE.                              9/11/04 : DATE(S) LOGGED
 SRVC.       Blanco Geological Services LLC : SERVICE COMPANY
 STAT.                                   CO : STATE
 CNTY.                           Las Animas : COUNTY
 CTRY.                                  USA : COUNTRY
 API.                       05-071-08133-00 : API NUMBER
 STRT.FT                             696.00 : START DEPTH
 STOP.FT                            1585.00 : STOP DEPTH
 STEP.FT                               1.00 : DEPTH INCREMENT
 NULL.                                -9999 : NULL VALUE
~Curve information
 DEPTH.FT                                   :
 ROP.MIN/FT                                 :
 GAS.UNITS                                  :
~ASCII Log data
       696.0      -9999.0          0.5 
       697.0          0.1          0.5 
       698.0          1.2          1.9 
       699.0          0.1          1.9 
       700.0          0.1          2.0 
       701.0          0.1          2.0 
       702.0          0.1          2.4 
       703.0          0.1          2.6 
       704.0          0.1          2.7 
       705.0          0.1          2.6 
       706.0          0.1          3.0 
       707.0          0.1          3.0 
       708.0          0.1          3.0 
       709.0          0.1          3.1 
       710.0          0.1          3.1 
       711.0          0.1          3.1 
       712.0          0.1          3.5 
       713.0          0.1          3.3 
       714.0          0.1          3.3 
       715.0          0.1          3.6 
       716.0          2.3          4.3 
       717.0          0.1          4.3 
       718.0          0.2          4.5 
       719.0          0.2          4.5 
       720.0          0.2          4.9 
       721.0          0.2          4.8 
       722.0          0.1          4.7 
       723.0          0.2          4.5 
       724.0          0.1          4.7 
       725.0          0.1          5.2 
       726.0          0.1          4.5 
       727.0          0.1          4.7 
       728.0          0.1          4.7 
       729.0          0.2          4.9 
       730.0          0.1          4.9 
       731.0          0.2          5.1 
       732.0          0.1          5.1 
       733.0          0.1          5.0 
       734.0          0.1          5.3 
       735.0          0.1          5.4 
       736.0          0.1          5.1 
       737.0          0.2          5.4 
       738.0          0.2          5.1 
       739.0          0.1          5.2 
       740.0          0.2          5.3 
       741.0          0.1          5.2 
       742.0          0.1          5.2 
       743.0          0.1          5.1 
       744.0          0.2          5.6 
       745.0          0.1          5.5 
       746.0        131.6          9.3 
       747.0          0.1          3.0 
       748.0          0.1          2.7 
       749.0          0.2          2.8 
       750.0          0.2          2.7 
       751.0          0.1          2.9 
       752.0          0.2          2.7 
       753.0          0.2          2.9 
       754.0          0.2          3.0 
       755.0          0.2          3.3 
       756.0          0.2          2.8 
       757.0          0.2          2.9 
       758.0          0.2          2.9 
       759.0          0.1          2.9 
       760.0          0.1          2.8 
       761.0          0.2          2.9 
       762.0          0.1          3.0 
       763.0          0.1          3.0 
       764.0          0.1          2.8 
       765.0          0.1          2.9 
       766.0          0.1          3.0 
       767.0          0.1          3.0 
       768.0          0.1          3.1 
       769.0          0.2          3.1 
       770.0          0.1          3.2 
       771.0          0.2          3.3 
       772.0          0.2          3.0 
       773.0          0.1          3.1 
       774.0          0.1          3.3 
       775.0          0.1          3.3 
       776.0          2.8          3.5 
       777.0          0.2          3.5 
       778.0          0.2          3.1 
       779.0          0.2          3.3 
       780.0          0.1          3.1 
       781.0          0.2          3.2 
       782.0          0.1          3.3 
       783.0          0.2          3.4 
       784.0          0.1          3.5 
       785.0          0.1          3.3 
       786.0          0.1          3.3 
       787.0          0.1          3.2 
       788.0          0.1          3.3 
       789.0          0.1          3.2 
       790.0          0.1          3.5 
       791.0          0.1          3.4 
       792.0          0.1          3.5 
       793.0          0.1          3.2 
       794.0          0.1          3.5 
       795.0          0.1          3.2 
       796.0          0.1          3.1 
       797.0          0.1          3.4 
       798.0          0.1          3.3 
       799.0          0.2          3.4 
       800.0          0.1          3.2 
       801.0          0.1          3.3 
       802.0          0.1          3.3 
       803.0          0.1          3.5 
       804.0          0.1          3.3 
       805.0          0.1          3.4 
       806.0          2.0          3.6 
       807.0          0.1          3.3 
       808.0          0.1          3.4 
       809.0          0.2          3.5 
       810.0          0.2          3.7 
       811.0          0.2          3.5 
       812.0          0.1          3.9 
       813.0          0.1          3.5 
       814.0          0.1          3.5 
       815.0          0.2          3.7 
       816.0          0.1          3.6 
       817.0          0.2          3.9 
       818.0          0.1          3.7 
       819.0          0.1          3.8 
       820.0          0.1          3.7 
       821.0          0.1          3.7 
       822.0          0.1          3.7 
       823.0          0.1          3.7 
       824.0          0.1          3.6 
       825.0          0.1          3.6 
       826.0          0.2          3.7 
       827.0          0.1          3.5 
       828.0          0.1          3.7 
       829.0          0.1          3.6 
       830.0          0.1          3.3 
       831.0          0.1          3.4 
       832.0          0.1          3.4 
       833.0          0.1          3.2 
       834.0          0.1          3.7 
       835.0          0.1          3.5 
       836.0          2.0          3.8 
       837.0          0.1          2.5 
       838.0          0.1          2.3 
       839.0          0.2          2.1 
       840.0          0.1          1.3 
       841.0          0.1          1.4 
       842.0          0.1          1.6 
       843.0          0.1          1.5 
       844.0          0.1          1.5 
       845.0          0.1          1.3 
       846.0          0.1          1.6 
       847.0          0.1          1.3 
       848.0          0.1          1.4 
       849.0          0.1          1.5 
       850.0          0.1          1.5 
       851.0          0.1          1.4 
       852.0          0.1          1.4 
       853.0          0.1          1.7 
       854.0          0.1          1.4 
       855.0          0.1          1.4 
       856.0          0.1          1.5 
       857.0          0.1          1.5 
       858.0          0.1          1.4 
       859.0          0.1          1.4 
       860.0          0.1          1.4 
       861.0          0.1          1.5 
       862.0          0.1          1.5 
       863.0          0.1          1.3 
       864.0          0.1          1.2 
       865.0          0.1          1.5 
       866.0          2.1          2.1 
       867.0          0.1          2.1 
       868.0          0.2          1.8 
       869.0          0.1          1.9 
       870.0          0.2          1.8 
       871.0          0.1          1.8 
       872.0          0.1          2.0 
       873.0          0.1          2.0 
       874.0          0.1          1.9 
       875.0          0.1          2.0 
       876.0          0.1          2.0 
       877.0          0.1          2.0 
       878.0          0.1          2.1 
       879.0          0.1          2.0 
       880.0          0.1          1.9 
       881.0          0.1          1.8 
       882.0          0.1          2.0 
       883.0          0.1          2.0 
       884.0          0.2          2.0 
       885.0          0.1          2.0 
       886.0          0.1          2.1 
       887.0          0.1          2.1 
       888.0          0.1          2.0 
       889.0          0.1          1.9 
       890.0          0.1          1.9 
       891.0          0.1          2.0 
       892.0          0.1          2.1 
       893.0          0.1          2.0 
       894.0          0.1          2.0 
       895.0          0.2          2.1 
