~Version Information
VERS.                      2.0: CWLS Log ASCII Standard - VERSION 2.0
WRAP.                       NO: One line per depth step
~Well Information Block
STRT.FT               840.0000: 
STOP.FT              2020.0000: 
STEP.FT                 0.1000: 
NULL.                -999.2500: 
COMP.          Petrogulf Corporation: COMPANY
WELL.           Lavedure 7-44R: WELL
FLD.           Purgatorie River: FIELD
LOC.           946' FSL & 521' FEL: LOCATION
PROV.                 Colorado: PROVINCE
CNTY.               Las Animas: COUNTRY
SRVC.                Patterson: SERVICE COMPANY
DATE.          Mon Sep 26 08:30:48 2005: LOG DATE
UWI.                          : UNIQUE WELL ID
~Curve Information Block
DEPT.FT            0 000 00 00: Depth
DCAL.in                       : CDL Caliper
RHOB.g/cc                     : CDL Bulk Density
RHOC.g/cc                     : CDL Density Correction
DPOR.pu                       : CDL Density Porosity
GR.GAPI                       : Gamma Ray
NPOR.pu                       : Neutron Porosity
~Parameter Information Block
~A  Depth       DCAL        RHOB        RHOC        DPOR         GR         NPOR    
# ...
  1464.0000      8.0205      2.5048      0.0210      8.7992     93.9181     23.0419
  1464.1000      8.0205      2.5108      0.0055      8.4376     87.1063     22.6308
  1464.2000      8.0205      2.5175      0.0172      8.0302     81.6419     22.5870
  1464.3000      8.0261      2.5188      0.0528      7.9497     78.5371     22.8902
  1464.4000      8.0261      2.5169     -0.0088      8.0643     75.7704     23.1476
  1464.5000      8.0264      2.5137      0.0290      8.2622     73.1892     23.2920
  1464.6000      8.0264      2.5043      0.0194      8.8317     72.2114     23.4188
  1464.7000      8.0264      2.4937      0.0189      9.4719     74.5332     23.4285
  1464.8000      8.0199      2.4936      0.0258      9.4799     78.7219     23.1799
  1464.9000      8.0199      2.5045      0.0551      8.8209     81.5228     22.8865
  1465.0000      8.0177      2.5206      0.0159      7.8422     79.7008     22.5702
  1465.1000      8.0177      2.5377      0.0608      6.8036     74.6541     22.0438
  1465.2000      8.0177      2.5416      0.1007      6.5685     73.3704     21.6309
  1465.3000      8.0226      2.5226      0.0491      7.7188     76.3788     21.7405
  1465.4000      8.0226      2.4942      0.0351      9.4398     76.7722     22.3515
  1465.5000      8.0226      2.4757      0.0415     10.5610     73.1480     22.9737
  1465.6000      8.0226      2.4776      0.0270     10.4504     71.5571     23.1441
  1465.7000      8.0226      2.4938      0.0558      9.4681     73.9709     22.9002
  1465.8000      8.0170      2.5074      0.0556      8.6403     74.7618     22.3936
  1465.9000      8.0170      2.5107      0.0537      8.4453     72.9876     21.8809
  1466.0000      8.0139      2.5008      0.0585      9.0450     73.5256     21.5029
  1466.1000      8.0139      2.4792      0.0604     10.3516     77.5049     21.2319
  1466.2000      8.0139      2.4601      0.0256     11.5078     81.8042     21.3252
  1466.3000      8.0184      2.4546      0.0258     11.8413     83.7780     21.6842
  1466.4000      8.0184      2.4602      0.0135     11.5019     84.1575     21.9091
  1466.5000      8.0167      2.4712      0.0472     10.8346     83.2593     22.1542
  1466.6000      8.0167      2.4824      0.0435     10.1567     80.4042     22.5989
  1466.7000      8.0167      2.4909      0.0396      9.6406     78.1889     23.1017
  1466.8000      8.0148      2.4968      0.0247      9.2874     78.2613     23.4534
  1466.9000      8.0148      2.4982      0.0563      9.1987     78.3789     23.5761
  1467.0000      8.0174      2.4956      0.0168      9.3601     77.6122     23.5403
  1467.1000      8.0174      2.4928      0.0525      9.5255     78.5994     23.3416
  1467.2000      8.0174      2.4876      0.0442      9.8410     81.5175     23.0002
  1467.3000      8.0157      2.4796      0.0469     10.3266     84.2604     22.7010
  1467.4000      8.0157      2.4802      0.0311     10.2935     87.5561     22.5452
  1467.5000      8.0154      2.4951      0.0344      9.3863     90.4552     22.5020
  1467.6000      8.0154      2.5060      0.0764      8.7297     88.9818     22.5808
  1467.7000      8.0154      2.4948      0.0437      9.4072     85.9664     22.8759
  1467.8000      8.0149      2.4801      0.0042     10.2999     85.4716     23.1938
  1467.9000      8.0149      2.4809      0.0293     10.2489     84.3010     23.0977
  1468.0000      8.0109      2.4818      0.0544     10.1938     81.3734     22.6913
  1468.1000      8.0109      2.4733      0.0179     10.7065     81.0166     22.3014
  1468.2000      8.0109      2.4668      0.0532     11.1056     85.6244     21.9121
  1468.3000      8.0119      2.4668      0.0160     11.1041     91.0772     21.6658
  1468.4000      8.0119      2.4742      0.0235     10.6554     91.7035     21.6642
  1468.5000      8.0156      2.4842      0.0483     10.0499     88.4767     21.6765
  1468.6000      8.0156      2.4837      0.0527     10.0767     85.2763     21.6689
  1468.7000      8.0156      2.4708      0.0010     10.8594     82.5718     21.8018
  1468.8000      8.0119      2.4562     -0.0118     11.7449     79.4083     22.0055
  1468.9000      8.0119      2.4475      0.0385     12.2706     77.0631     22.1313
  1469.0000      8.0106      2.4513     -0.0316     12.0430     76.3820     22.2775
  1469.1000      8.0106      2.4692      0.0375     10.9591     74.7740     22.4695
  1469.2000      8.0106      2.4866      0.0420      9.9027     71.9636     22.4670
  1469.3000      8.0122      2.4885      0.0846      9.7881     71.4167     22.1432
  1469.4000      8.0122      2.4764      0.0236     10.5209     72.3962     21.6820
  1469.5000      8.0109      2.4687      0.0029     10.9878     71.0968     21.4365
  1469.6000      8.0109      2.4796      0.0328     10.3298     67.8050     21.6016
  1469.7000      8.0109      2.4978      0.0656      9.2227     65.4103     21.9870
  1469.8000      8.0133      2.5019      0.0385      8.9733     64.8342     22.1729
  1469.9000      8.0133      2.4900      0.0258      9.6998     65.3731     22.0859
  1470.0000      8.0114      2.4770      0.0034     10.4858     66.7574     22.1805
  1470.1000      8.0114      2.4664      0.0592     11.1262     69.1673     22.5682
  1470.2000      8.0114      2.4521      0.0203     11.9930     70.7679     22.8504
  1470.3000      8.0168      2.4444     -0.0042     12.4609     70.5820     22.9135
  1470.4000      8.0168      2.4561      0.0256     11.7505     70.4404     22.7466
  1470.5000      8.0150      2.4736      0.0869     10.6925     71.8551     22.3279
  1470.6000      8.0150      2.4740      0.0547     10.6681     74.4520     21.9413
  1470.7000      8.0150      2.4589      0.0221     11.5830     75.5521     21.5357
  1470.8000      8.0197      2.4468      0.0163     12.3135     74.5023     21.0285
  1470.9000      8.0197      2.4478      0.0175     12.2542     73.9440     20.7098
  1471.0000      8.0371      2.4603      0.0121     11.4958     73.6986     20.6634
  1471.1000      8.0371      2.4739      0.0515     10.6757     72.5602     20.7601
  1471.2000      8.0371      2.4709      0.0445     10.8531     71.5537     20.8132
  1471.3000      8.0494      2.4545     -0.0103     11.8473     71.0471     20.8464
  1471.4000      8.0494      2.4492     -0.0057     12.1705     71.0514     21.0167
  1471.5000      8.0499      2.4590      0.0277     11.5745     70.6886     21.1744
  1471.6000      8.0499      2.4645      0.0505     11.2417     69.0313     21.2574
  1471.7000      8.0499      2.4583      0.0139     11.6199     67.7135     21.4751
  1471.8000      8.0498      2.4504      0.0385     12.0994     67.1363     21.8375
  1471.9000      8.0498      2.4445      0.0258     12.4565     66.7527     21.9613
  1472.0000      8.0447      2.4387      0.0221     12.8069     67.5018     21.3460
  1472.1000      8.0447      2.4398     -0.0005     12.7405     68.7299     20.1105
  1472.2000      8.0447      2.4557      0.0608     11.7732     69.1444     19.0155
  1472.3000      8.0563      2.4788      0.0540     10.3783     68.4039     18.5049
  1472.4000      8.0563      2.4885      0.0784      9.7907     67.2830     18.4744
  1472.5000      8.0418      2.4729      0.0652     10.7307     67.6088     18.7466
  1472.6000      8.0418      2.4476      0.0187     12.2683     71.2182     19.1736
  1472.7000      8.0418      2.4401      0.0212     12.7207     75.7677     19.7942
  1472.8000      8.0155      2.4532      0.0519     11.9246     75.9709     20.6553
  1472.9000      8.0155      2.4711      0.0344     10.8440     72.9127     21.4852
  1473.0000      8.0004      2.4876      0.0776      9.8412     72.5769     22.0395
  1473.1000      8.0004      2.5037      0.0479      8.8638     75.1816     22.3606
  1473.2000      8.0004      2.5097      0.0864      8.5045     76.5758     22.6423
  1473.3000      8.0013      2.4955      0.0228      9.3637     75.2995     22.8825
  1473.4000      8.0013      2.4768     -0.0006     10.4984     72.6607     22.6407
  1473.5000      7.9981      2.4666      0.0457     11.1174     70.2682     21.8266
