~Version Information
VERS.                      2.0: CWLS Log ASCII Standard - VERSION 2.0
WRAP.                       NO: One line per depth step
~Well Information Block
STRT.FT               860.0000: 
STOP.FT              2733.7500: 
STEP.FT                 0.2500: 
NULL.                -999.2500: 
COMP.          Pioneer Natural Resources: COMPANY
WELL.          Beacon 11-18 Tr: WELL
FLD.           Purgatoire River: FIELD
LOC.           409' FNL & 203' FWL: LOCATION
PROV.                 Colorado: PROVINCE
CNTY.               Las Animas: COUNTRY
SRVC.                Patterson: SERVICE COMPANY
DATE.          Sun Jan 16 19:36:19 2005: LOG DATE
UWI.           05 071 08251 00: UNIQUE WELL ID
~Curve Information Block
DEPT.FT            0 000 00 00: Depth
SN.Ohm-m                      : IEL Short Normal
SP.mV                         : IEL Spontaneous Potential
DIR.Ohm-m                     : IEL Induction Resistivity
GR.GAPI                       : Gamma Ray
~Parameter Information Block
~A  Depth        SN          SP         DIR          GR     
# ...
   994.0000   2000.0000   2000.0000     13.0344    132.9774
   994.2500   2000.0000   2000.0000     13.0691    133.9766
   994.5000   2000.0000   2000.0000     13.0963    134.5726
   994.7500   2000.0000   2000.0000     13.1212    134.1722
   995.0000   2000.0000   2000.0000     13.1482    132.8187
   995.2500   2000.0000   2000.0000     13.1793    131.8479
   995.5000   2000.0000   2000.0000     13.2153    130.6464
   995.7500   2000.0000   2000.0000     13.2581    129.9384
   996.0000   2000.0000   2000.0000     13.3124    128.6255
   996.2500   2000.0000   2000.0000     13.3836    127.3135
   996.5000   2000.0000   2000.0000     13.4723    124.5075
   996.7500   2000.0000   2000.0000     13.5707    122.2831
   997.0000   2000.0000   2000.0000     13.6682    119.0011
   997.2500   2000.0000   2000.0000     13.7642    116.9765
   997.5000   2000.0000   2000.0000     13.8756    113.9311
   997.7500   2000.0000   2000.0000     14.0246    111.7270
   998.0000   2000.0000   2000.0000     14.2155    108.2005
   998.2500   2000.0000   2000.0000     14.4228    105.8950
   998.5000   2000.0000   2000.0000     14.6031    102.9424
   998.7500   2000.0000   2000.0000     14.7219    101.5265
   999.0000   2000.0000   2000.0000     14.7691    100.3752
   999.2500   2000.0000   2000.0000     14.7541    100.2967
   999.5000   2000.0000   2000.0000     14.6889    101.4919
   999.7500   2000.0000   2000.0000     14.5770    103.3536
  1000.0000   2000.0000   2000.0000     14.4152    107.6321
  1000.2500   2000.0000   2000.0000     14.2040    111.1745
  1000.5000   2000.0000   2000.0000     13.9574    116.9962
  1000.7500   2000.0000   2000.0000     13.7014    120.8582
  1001.0000   2000.0000   2000.0000     13.4636    125.5900
  1001.2500   2000.0000   2000.0000     13.2628    127.3624
  1001.5000   2000.0000   2000.0000     13.1071    127.3808
  1001.7500   2000.0000   2000.0000     12.9965    125.7958
  1002.0000   2000.0000   2000.0000     12.9244    122.0554
  1002.2500   2000.0000   2000.0000     12.8765    119.6056
  1002.5000   2000.0000   2000.0000     12.8333    117.5805
  1002.7500   2000.0000   2000.0000     12.7807    117.6030
  1003.0000   2000.0000   2000.0000     12.7233    118.6168
  1003.2500   2000.0000   2000.0000     12.6877    118.9353
  1003.5000   2000.0000   2000.0000     12.7078    117.8626
  1003.7500   2000.0000   2000.0000     12.8030    116.2124
  1004.0000   2000.0000   2000.0000     12.9655    113.2593
  1004.2500   2000.0000   2000.0000     13.1673    111.6024
  1004.5000   2000.0000   2000.0000     13.3799    110.2788
  1004.7500   2000.0000   2000.0000     13.5913    110.1818
  1005.0000   2000.0000   2000.0000     13.8090    110.5999
  1005.2500   2000.0000   2000.0000     14.0502    110.7372
  1005.5000   2000.0000   2000.0000     14.3293    109.9841
  1005.7500   2000.0000   2000.0000     14.6484    108.5747
  1006.0000   2000.0000   2000.0000     14.9966    104.8584
  1006.2500   2000.0000   2000.0000     15.3551    101.3633
  1006.5000   2000.0000   2000.0000     15.7059     95.2900
  1006.7500   2000.0000   2000.0000     16.0379     91.3931
  1007.0000   2000.0000   2000.0000     16.3435     86.8275
  1007.2500   2000.0000   2000.0000     16.6090     84.9210
  1007.5000   2000.0000   2000.0000     16.8055     83.9634
  1007.7500   2000.0000   2000.0000     16.8924     84.7061
  1008.0000   2000.0000   2000.0000     16.8375     87.9061
  1008.2500   2000.0000   2000.0000     16.6404     91.2520
  1008.5000   2000.0000   2000.0000     16.3395     97.7593
  1008.7500   2000.0000   2000.0000     15.9916    102.9302
  1009.0000   2000.0000   2000.0000     15.6415    111.1834
  1009.2500   2000.0000   2000.0000     15.3066    116.1249
  1009.5000   2000.0000   2000.0000     14.9836    121.1635
  1009.7500   2000.0000   2000.0000     14.6671    122.6496
  1010.0000   2000.0000   2000.0000     14.3620    122.7454
  1010.2500   2000.0000   2000.0000     14.0835    121.9988
  1010.5000   2000.0000   2000.0000     13.8493    120.2786
  1010.7500   2000.0000   2000.0000     13.6732    118.7771
  1011.0000   2000.0000   2000.0000     13.5598    115.9951
  1011.2500   2000.0000   2000.0000     13.5007    113.9811
  1011.5000   2000.0000   2000.0000     13.4739    111.2510
  1011.7500   2000.0000   2000.0000     13.4528    109.7670
  1012.0000   2000.0000   2000.0000     13.4230    107.8390
  1012.2500   2000.0000   2000.0000     13.3912    106.6162
  1012.5000   2000.0000   2000.0000     13.3781    105.1514
  1012.7500   2000.0000   2000.0000     13.3999    104.8792
  1013.0000   2000.0000   2000.0000     13.4547    106.1207
  1013.2500   2000.0000   2000.0000     13.5240    107.8783
  1013.5000   2000.0000   2000.0000     13.5825    110.9253
  1013.7500   2000.0000   2000.0000     13.6088    112.7919
  1014.0000   2000.0000   2000.0000     13.5930    115.3040
  1014.2500   2000.0000   2000.0000     13.5415    116.8419
  1014.5000   2000.0000   2000.0000     13.4769    118.5635
  1014.7500   2000.0000   2000.0000     13.4279    119.0441
  1015.0000   2000.0000   2000.0000     13.4150    118.9308
  1015.2500   2000.0000   2000.0000     13.4389    118.7231
  1015.5000   2000.0000   2000.0000     13.4834    118.7428
  1015.7500   2000.0000   2000.0000     13.5297    118.8887
  1016.0000   2000.0000   2000.0000     13.5696    118.5747
  1016.2500   2000.0000   2000.0000     13.6087    117.5875
  1016.5000   2000.0000   2000.0000     13.6595    115.0125
  1016.7500   2000.0000   2000.0000     13.7357    113.1721
  1017.0000   2000.0000   2000.0000     13.8502    111.3283
  1017.2500   2000.0000   2000.0000     14.0118    110.7708
  1017.5000   2000.0000   2000.0000     14.2154    109.8981
  1017.7500   2000.0000   2000.0000     14.4343    108.5671
  1018.0000   2000.0000   2000.0000     14.6242    105.1693
  1018.2500   2000.0000   2000.0000     14.7454    102.5607
  1018.5000   2000.0000   2000.0000     14.7848     99.7868
  1018.7500   2000.0000   2000.0000     14.7624     99.4677
  1019.0000   2000.0000   2000.0000     14.7142    101.7359
  1019.2500   2000.0000   2000.0000     14.6680    104.9385
  1019.5000   2000.0000   2000.0000     14.6259    111.5591
  1019.7500   2000.0000   2000.0000     14.5651    116.3868
  1020.0000   2000.0000   2000.0000     14.4550    122.3051
  1020.2500   2000.0000   2000.0000     14.2787    124.3713
  1020.5000   2000.0000   2000.0000     14.0454    124.2741
  1020.7500   2000.0000   2000.0000     13.7862    122.7210
  1021.0000   2000.0000   2000.0000     13.5411    119.7694
  1021.2500   2000.0000   2000.0000     13.3469    117.9861
  1021.5000   2000.0000   2000.0000     13.2296    115.6892
  1021.7500   2000.0000   2000.0000     13.2008    114.1674
  1022.0000   2000.0000   2000.0000     13.2585    111.4405
  1022.2500   2000.0000   2000.0000     13.3912    109.1609
  1022.5000   2000.0000   2000.0000     13.5856    105.0608
  1022.7500   2000.0000   2000.0000     13.8307    102.0529
  1023.0000   2000.0000   2000.0000     14.1203     97.4220
  1023.2500   2000.0000   2000.0000     14.4510     94.2700
  1023.5000   2000.0000   2000.0000     14.8199     89.2937
  1023.7500   2000.0000   2000.0000     15.2202     85.7323
  1024.0000   2000.0000   2000.0000     15.6371     79.9405
  1024.2500   2000.0000   2000.0000     16.0454     75.7846
  1024.5000   2000.0000   2000.0000     16.4132     69.3682
  1024.7500   2000.0000   2000.0000     16.7133     65.2693
  1025.0000   2000.0000   2000.0000     16.9377     59.9234
  1025.2500   2000.0000   2000.0000     17.1020     57.1300
  1025.5000   2000.0000   2000.0000     17.2374     54.3306
  1025.7500   2000.0000   2000.0000     17.3745     53.3498
  1026.0000   2000.0000   2000.0000     17.5315     52.7255
  1026.2500   2000.0000   2000.0000     17.7121     52.5274
  1026.5000   2000.0000   2000.0000     17.9082     52.3034
  1026.7500   2000.0000   2000.0000     18.1020     52.1983
  1027.0000   2000.0000   2000.0000     18.2671     51.8827
  1027.2500   2000.0000   2000.0000     18.3740     51.2817
