~Version Information
VERS.                      2.0: CWLS Log ASCII Standard - VERSION 2.0
WRAP.                       NO: One line per depth step
~Well Information Block
STRT.FT               420.0000: 
STOP.FT              1528.5000: 
STEP.FT                 0.2500: 
NULL.                -999.2500: 
COMP.          Evergreen Operating Corporation: COMPANY
WELL.              Chase 21-10: WELL
FLD.           Purgatoire River: FIELD
LOC.           1122' FNL & 1544' FWL: LOCATION
PROV.                       CO: PROVINCE
CNTY.               Las Animas: COUNTRY
SRVC.                         : SERVICE COMPANY
DATE.          Sun May 23 21:20:45 2004: LOG DATE
UWI.           05 071 08006 00: UNIQUE WELL ID
~Curve Information Block
DEPT.FT            0 000 00 00: Depth
SN.Ohm-m                      : IEL Short Normal
SP.mV                         : IEL Spontaneous Potential
DIR.Ohm-m                     : IEL Induction Resistivity
GR.GAPI                       : Gamma Ray
~Parameter Information Block
~A  Depth        SN          SP         DIR          GR     
# ...
  1358.0000     33.6049    144.7390     36.1143     69.7202
  1358.2500     34.7282    144.6689     36.9475     69.6644
  1358.5000     35.8331    144.6054     37.6628     69.0557
  1358.7500     36.8591    144.5539     38.3065     68.0671
  1359.0000     37.7438    144.5180     38.9204     65.7938
  1359.2500     38.4316    144.4988     39.5174     64.0435
  1359.5000     38.8830    144.4959     40.0791     61.5476
  1359.7500     39.0819    144.5071     40.5639     60.2205
  1360.0000     39.0357    144.5292     40.9154     59.5277
  1360.2500     38.7704    144.5587     41.0671     60.4666
  1360.5000     38.3227    144.5922     40.9585     63.8487
  1360.7500     37.7356    144.6268     40.5595     66.4324
  1361.0000     37.0563    144.6606     39.8937     68.7502
  1361.2500     36.3341    144.6930     39.0338     68.7874
  1361.5000     35.6153    144.7247     38.0721     67.4033
  1361.7500     34.9360    144.7575     37.0865     66.4099
  1362.0000     34.3179    144.7946     36.1327     65.9790
  1362.2500     33.7681    144.8394     35.2597     66.6224
  1362.5000     33.2829    144.8955     34.5201     68.4450
  1362.7500     32.8516    144.9655     33.9529     69.5064
  1363.0000     32.4604    145.0508     33.5534     69.7316
  1363.2500     32.0944    145.1509     33.2627     68.8452
  1363.5000     31.7418    145.2635     32.9957     66.7358
  1363.7500     31.3948    145.3844     32.6866     65.4908
  1364.0000     31.0508    145.5083     32.3138     64.7990
  1364.2500     30.7090    145.6292     31.8903     65.3067
  1364.5000     30.3681    145.7408     31.4405     66.9653
  1364.7500     30.0251    145.8372     30.9870     67.9720
  1365.0000     29.6773    145.9130     30.5493     68.4356
  1365.2500     29.3244    145.9643     30.1456     68.1396
  1365.5000     28.9710    145.9882     29.7889     67.6443
  1365.7500     28.6257    145.9840     29.4819     67.5648
  1366.0000     28.2982    145.9529     29.2164     67.5167
  1366.2500     27.9970    145.8983     28.9792     67.3141
  1366.5000     27.7282    145.8256     28.7612     66.9414
  1366.7500     27.4961    145.7414     28.5617     66.7576
  1367.0000     27.3041    145.6526     28.3838     66.0082
  1367.2500     27.1555    145.5660     28.2262     64.6879
  1367.5000     27.0522    145.4870     28.0792     61.5270
  1367.7500     26.9925    145.4193     27.9274     59.3554
  1368.0000     26.9707    145.3651     27.7566     57.5274
  1368.2500     26.9762    145.3246     27.5623     57.7274
  1368.5000     26.9940    145.2967     27.3562     59.7911
  1368.7500     27.0060    145.2794     27.1662     61.6652
  1369.0000     26.9955    145.2701     27.0235     64.1496
  1369.2500     26.9547    145.2657     26.9431     65.3629
  1369.5000     26.8884    145.2640     26.9125     66.7353
  1369.7500     26.8116    145.2631     26.9003     67.4869
  1370.0000     26.7389    145.2623     26.8774     68.0885
  1370.2500     26.6753    145.2620     26.8323     67.7344
  1370.5000     26.6148    145.2643     26.7705     65.7149
  1370.7500     26.5488    145.2721     26.7027     63.7249
  1371.0000     26.4757    145.2891     26.6350     61.1548
  1371.2500     26.4050    145.3187     26.5663     60.4469
  1371.5000     26.3536    145.3638     26.4921     61.1134
  1371.7500     26.3386    145.4258     26.4111     62.2241
  1372.0000     26.3725    145.5041     26.3286     63.7297
  1372.2500     26.4631    145.5965     26.2584     64.1958
  1372.5000     26.6134    145.6987     26.2199     64.1863
  1372.7500     26.8227    145.8052     26.2365     64.1134
  1373.0000     27.0882    145.9097     26.3369     64.3241
  1373.2500     27.4107    146.0057     26.5588     64.4434
  1373.5000     27.8015    146.0871     26.9484     63.9951
  1373.7500     28.2898    146.1487     27.5506     63.4408
  1374.0000     28.9230    146.1870     28.3924     63.4805
  1374.2500     29.7609    146.2002     29.4697     64.7074
  1374.5000     30.8655    146.1883     30.7479     67.9611
  1374.7500     32.2931    146.1537     32.1802     70.0698
  1375.0000     34.0906    146.1003     33.7343     71.5676
  1375.2500     36.2954    146.0332     35.4034     71.4073
  1375.5000     38.9338    145.9585     37.1958     70.7976
  1375.7500     42.0119    145.8820     39.1100     71.0194
  1376.0000     45.4978    145.8089     41.1200     72.7114
  1376.2500     49.2951    145.7435     43.1747     74.4268
  1376.5000     53.2168    145.6889     45.1999     77.2616
  1376.7500     56.9772    145.6468     47.0943     79.1417
  1377.0000     60.2192    145.6180     48.7267     81.6581
  1377.2500     62.5812    145.6019     49.9558     82.8659
  1377.5000     63.7850    145.5972     50.6740     83.5850
  1377.7500     63.7070    145.6017     50.8476     83.3748
  1378.0000     62.4035    145.6129     50.5249     82.6770
  1378.2500     60.0851    145.6280     49.8052     82.4894
  1378.5000     57.0564    145.6449     48.7942     83.0579
  1378.7500     53.6494    145.6624     47.5758     83.7162
  1379.0000     50.1676    145.6804     46.2079     84.1247
  1379.2500     46.8516    145.7008     44.7316     83.6208
  1379.5000     43.8635    145.7265     43.1776     81.7902
  1379.7500     41.2896    145.7615     41.5744     80.2838
  1380.0000     39.1547    145.8095     39.9611     78.7623
  1380.2500     37.4412    145.8737     38.3985     78.8537
  1380.5000     36.1092    145.9555     36.9630     80.5648
  1380.7500     35.1099    146.0543     35.7243     81.9562
  1381.0000     34.3918    146.1673     34.7228     83.1067
  1381.2500     33.9010    146.2897     33.9622     83.2096
  1381.5000     33.5797    146.4152     33.4170     83.1414
  1381.7500     33.3669    146.5364     33.0460     83.2244
  1382.0000     33.2049    146.6456     32.8009     83.3676
  1382.2500     33.0473    146.7358     32.6316     83.2940
  1382.5000     32.8656    146.8010     32.4917     82.8783
  1382.7500     32.6503    146.8369     32.3467     82.4131
  1383.0000     32.4061    146.8412     32.1821     81.2920
  1383.2500     32.1468    146.8143     32.0025     80.1668
  1383.5000     31.8893    146.7587     31.8201     78.0878
  1383.7500     31.6510    146.6791     31.6421     76.8135
  1384.0000     31.4479    146.5818     31.4682     75.8410
  1384.2500     31.2934    146.4738     31.3040     75.9898
  1384.5000     31.1991    146.3622     31.1754     76.8247
  1384.7500     31.1756    146.2535     31.1288     77.1756
  1385.0000     31.2352    146.1532     31.2135     76.9082
  1385.2500     31.3939    146.0654     31.4624     76.5602
  1385.5000     31.6718    145.9929     31.8878     76.9633
  1385.7500     32.0913    145.9373     32.4921     78.2868
  1386.0000     32.6735    145.8992     33.2817     81.6517
  1386.2500     33.4364    145.8783     34.2688     84.4053
  1386.5000     34.3968    145.8731     35.4628     88.9729
  1386.7500     35.5753    145.8819     36.8580     92.4020
  1387.0000     36.9975    145.9024     38.4313     98.0863
  1387.2500     38.6850    145.9324     40.1513    101.8870
  1387.5000     40.6387    145.9700     41.9937    106.7923
  1387.7500     42.8217    146.0143     43.9516    109.1926
  1388.0000     45.1553    146.0652     46.0290    111.2657
  1388.2500     47.5288    146.1241     48.2211    111.6552
  1388.5000     49.8210    146.1928     50.4956    110.7709
  1388.7500     51.9207    146.2738     52.7923    109.1542
  1389.0000     53.7414    146.3690     55.0402    105.5286
  1389.2500     55.2268    146.4794     57.1746    102.9479
  1389.5000     56.3507    146.6045     59.1338    100.0171
  1389.7500     57.1143    146.7420     60.8422     99.0649
  1390.0000     57.5434    146.8879     62.2040     99.4046
  1390.2500     57.6835    147.0366     63.1313    100.7910
  1390.5000     57.5929    147.1814     63.5928    103.7836
  1390.7500     57.3330    147.3151     63.6454    105.4795
  1391.0000     56.9604    147.4304     63.4150    106.3475
  1391.2500     56.5222    147.5209     63.0446    105.7877
