~Version Information
VERS.                      2.0: CWLS Log ASCII Standard - VERSION 2.0
WRAP.                       NO: One line per depth step
~Well Information Block
STRT.FT               350.0000: 
STOP.FT              2531.5000: 
STEP.FT                 0.1000: 
NULL.                -999.2500: 
COMP.          Pioneer Natural Resources: COMPANY
WELL.          Cock-a-doodle-doo: WELL
FLD.           Purgatoire River: FIELD
LOC.           163' FSL & 54' FEL: LOCATION
PROV.                 Colorado: PROVINCE
CNTY.               Las Animas: COUNTRY
SRVC.                Patterson: SERVICE COMPANY
DATE.          Fri Jul 01 09:34:59 2005: LOG DATE
UWI.           05 071 08429 00: UNIQUE WELL ID
~Curve Information Block
DEPT.FT            0 000 00 00: Depth
DCAL.in                       : CDL Caliper
RHOB.g/cc                     : CDL Bulk Density
RHOC.g/cc                     : CDL Density Correction
DPOR.pu                       : CDL Density Porosity
GR.GAPI                       : Gamma Ray
NPOR.pu                       : Neutron Porosity
~Parameter Information Block
~A  Depth       DCAL        RHOB        RHOC        DPOR         GR         NPOR    
# ...
   638.0000      8.3345      2.6422      0.0535      0.4713    117.8777     27.6494
   638.1000      8.3345      2.6365      0.0626      0.8193    122.0308     28.2802
   638.2000      8.3345      2.6308      0.0857      1.1628    124.4534     28.3637
   638.3000      8.3359      2.5962      0.0431      3.2612    124.0663     27.9784
   638.4000      8.3359      2.5270     -0.0258      7.4566    124.3138     27.4847
   638.5000      8.3531      2.4456     -0.0578     12.3877    125.4273     27.3264
   638.6000      8.3531      2.3790     -0.1203     16.4271    121.8943     27.4102
   638.7000      8.3531      2.3421     -0.1506     18.6618    112.5853     27.4819
   638.8000      8.3687      2.3201     -0.0578     19.9910    103.8276     27.2297
   638.9000      8.3687      2.2817     -0.0235     22.3190     97.8119     26.2960
   639.0000      8.3455      2.2241     -0.0811     25.8130     93.3270     24.8320
   639.1000      8.3455      2.1641     -0.0207     29.4482     92.5545     23.2387
   639.2000      8.3455      2.1110      0.0015     32.6688     94.5540     21.5623
   639.3000      8.3389      2.0656      0.0707     35.4190     96.3278     19.6683
   639.4000      8.3389      2.0117      0.1259     38.6848     99.2560     17.5572
   639.5000      8.3536      1.9257      0.1914     43.8953    105.6430     15.5572
   639.6000      8.3536      1.7968      0.2669     51.7108    113.2696     14.0444
   639.7000      8.3536      1.6465      0.2421     60.8167    117.5790     13.0321
   639.8000      8.3904      1.5285      0.2341     67.9702    116.4480     12.4723
   639.9000      8.3904      1.4752      0.2712     71.2003    110.9908     12.3194
   640.0000      8.4103      1.4752      0.2427     71.2006    106.7305     12.4794
   640.1000      8.4103      1.5190      0.1870     68.5470    107.3057     13.0543
   640.2000      8.4103      1.6211      0.2390     62.3604    108.8189     14.0482
   640.3000      8.4646      1.7832      0.3734     52.5341    107.0010     15.4219
   640.4000      8.4646      1.9743      0.4416     40.9496    104.7048     17.2865
   640.5000      8.6462      2.1506      0.5106     30.2693    107.4819     19.3670
   640.6000      8.6462      2.2845      0.4798     22.1520    113.4293     21.1089
   640.7000      8.6462      2.3850      0.4030     16.0597    115.0896     22.3404
   640.8000      8.7165      2.4655      0.4506     11.1796    111.1249     23.4696
   640.9000      8.7165      2.5127      0.3256      8.3184    106.2299     24.9616
   641.0000      8.7016      2.5227      0.1842      7.7181    103.0444     26.6460
   641.1000      8.7016      2.5197      0.1262      7.8985    100.8916     28.1168
   641.2000      8.7016      2.5227      0.1423      7.7170    100.5925     29.3569
   641.3000      8.4946      2.5311      0.0535      7.2044     99.7418     30.2001
   641.4000      8.4946      2.5481      0.0566      6.1781     94.0332     30.3122
   641.5000      8.2239      2.5748      0.0782      4.5594     88.0507     29.8700
   641.6000      8.2239      2.5917      0.1016      3.5339     87.9319     29.4731
   641.7000      8.2239      2.5884      0.0948      3.7363     94.7017     29.2477
   641.8000      8.1571      2.5786      0.1205      4.3255    105.9240     28.8319
   641.9000      8.1571      2.5693      0.1171      4.8912    114.9293     28.4081
   642.0000      8.1622      2.5608      0.0965      5.4036    116.8076     28.4047
   642.1000      8.1622      2.5589      0.1049      5.5190    114.4976     28.4880
   642.2000      8.1622      2.5666      0.1248      5.0535    113.3915     28.1774
   642.3000      8.0950      2.5836      0.0702      4.0231    115.9057     27.6286
   642.4000      8.0950      2.6066      0.0973      2.6284    120.7121     27.1745
   642.5000      8.0671      2.6223      0.1157      1.6781    124.8584     26.6863
   642.6000      8.0671      2.6194      0.0869      1.8559    125.9202     25.8834
   642.7000      8.0671      2.6036      0.0528      2.8093    125.0891     25.1100
   642.8000      8.0739      2.5897      0.0746      3.6564    127.4884     24.7471
   642.9000      8.0739      2.5882      0.0174      3.7466    131.6566     24.5793
   643.0000      8.0698      2.5995      0.0876      3.0616    132.8226     24.3183
   643.1000      8.0698      2.6084      0.0713      2.5213    132.5719     23.9592
   643.2000      8.0698      2.6056      0.0569      2.6892    132.1164     23.7909
   643.3000      8.0489      2.6025      0.0255      2.8769    133.9164     23.9700
   643.4000      8.0489      2.6070      0.0580      2.6035    139.4570     24.3710
   643.5000      8.0870      2.6054      0.0412      2.7051    146.1600     24.9372
   643.6000      8.0870      2.5830      0.0663      4.0615    151.5189     25.5133
   643.7000      8.0870      2.5475      0.0360      6.2131    152.7804     25.7453
   643.8000      8.0987      2.5236     -0.0174      7.6624    147.4438     25.6341
   643.9000      8.0987      2.5218      0.0318      7.7698    139.9482     25.7045
   644.0000      8.1267      2.5344      0.0195      7.0089    138.4859     26.2449
   644.1000      8.1267      2.5524      0.0399      5.9142    141.2192     27.0646
   644.2000      8.1267      2.5637      0.0117      5.2280    142.0843     27.7866
   644.3000      8.1550      2.5620     -0.0126      5.3354    141.6040     28.1080
   644.4000      8.1550      2.5490     -0.0079      6.1193    142.2099     28.1256
   644.5000      8.1690      2.5255     -0.0261      7.5472    145.0366     28.1488
   644.6000      8.1690      2.5032     -0.0433      8.8947    147.7151     28.1546
   644.7000      8.1690      2.4994     -0.0122      9.1292    146.7328     27.9480
   644.8000      8.1677      2.5061      0.0378      8.7192    142.9115     27.5967
   644.9000      8.1677      2.5027     -0.0042      8.9292    138.5782     27.4586
   645.0000      8.1676      2.4909     -0.0242      9.6422    137.6819     27.6264
   645.1000      8.1676      2.4910     -0.0300      9.6369    141.3921     27.6739
   645.2000      8.1676      2.5150     -0.0048      8.1808    143.4798     27.4659
   645.3000      8.1684      2.5587      0.0304      5.5350    142.6417     27.4768
   645.4000      8.1684      2.6018      0.1023      2.9219    144.8968     27.7802
   645.5000      8.1608      2.6259      0.0945      1.4635    148.9079     27.8798
   645.6000      8.1608      2.6335      0.0839      1.0008    149.1171     27.5233
   645.7000      8.1608      2.6313      0.0838      1.1318    147.2539     26.9023
   645.8000      8.1621      2.6227      0.0517      1.6554    145.2016     26.3691
   645.9000      8.1621      2.6198      0.0553      1.8309    143.4297     26.2643
   646.0000      8.1742      2.6312      0.0251      1.1421    142.6249     26.6766
   646.1000      8.1742      2.6418      0.0841      0.4994    138.9810     27.2581
   646.2000      8.1742      2.6336      0.0896      0.9954    132.1689     27.6365
   646.3000      8.1901      2.6222      0.0261      1.6827    129.8510     27.6889
   646.4000      8.1901      2.6251      0.1103      1.5118    134.4133     27.6321
   646.5000      8.2100      2.6233      0.0720      1.6211    138.8373     27.7324
   646.6000      8.2100      2.6095      0.0097      2.4535    137.4839     27.9633
   646.7000      8.2100      2.6067      0.0274      2.6216    131.6330     28.2285
   646.8000      8.2191      2.6206      0.0444      1.7848    127.7844     28.5249
   646.9000      8.2191      2.6329      0.0881      1.0375    130.1118     28.7381
   647.0000      8.2207      2.6383      0.0891      0.7066    136.1205     28.7408
   647.1000      8.2207      2.6467      0.0819      0.2013    140.4348     28.6475
   647.2000      8.2207      2.6534      0.1140     -0.2077    140.7849     28.5515
   647.3000      8.1921      2.6450      0.0639      0.3040    139.7947     28.5384
   647.4000      8.1921      2.6181      0.0754      1.9352    142.7905     28.8873
   647.5000      8.1817      2.5777      0.0933      4.3801    148.3937     29.4432
