~Version Information
VERS.                      2.0: CWLS Log ASCII Standard - VERSION 2.0
WRAP.                       NO: One line per depth step
~Well Information Block
STRT.FT               472.0000: 
STOP.FT              2428.5000: 
STEP.FT                 0.1000: 
NULL.                -999.2500: 
COMP.          Pioneer Natural Resources: COMPANY
WELL.          Flying Horse 12-11: WELL
FLD.           Purgatoire River: FIELD
LOC.           2428' FNL & 308' FWL: LOCATION
PROV.                 Colorado: PROVINCE
CNTY.               Las Animas: COUNTRY
SRVC.                Patterson: SERVICE COMPANY
DATE.          Mon May 30 06:06:20 2005: LOG DATE
UWI.           05 071 08378 00: UNIQUE WELL ID
~Curve Information Block
DEPT.FT            0 000 00 00: Depth
DCAL.in                       : CDL Caliper
RHOB.g/cc                     : CDL Bulk Density
RHOC.g/cc                     : CDL Density Correction
DPOR.pu                       : CDL Density Porosity
GR.GAPI                       : Gamma Ray
NPOR.pu                       : Neutron Porosity
~Parameter Information Block
~A  Depth       DCAL        RHOB        RHOC        DPOR         GR         NPOR    
# ...
  1768.0000      7.9557      2.5848      0.0339      3.9502    150.0625     25.0988
  1768.1000      7.9557      2.5898      0.0251      3.6468    149.3840     24.7761
  1768.2000      7.9557      2.5805      0.0748      4.2094    145.0681     25.2460
  1768.3000      7.9532      2.5536      0.0436      5.8414    139.6773     26.2193
  1768.4000      7.9532      2.5256      0.0526      7.5366    136.4175     26.2590
  1768.5000      7.9424      2.5062      0.0471      8.7145    134.1084     24.8614
  1768.6000      7.9424      2.5005     -0.0026      9.0619    131.0174     23.7271
  1768.7000      7.9424      2.5080      0.0329      8.6063    127.0513     24.0390
  1768.8000      7.9435      2.5099      0.0308      8.4889    123.8422     25.3948
  1768.9000      7.9435      2.4996      0.0711      9.1144    125.5977     26.7799
  1769.0000      7.9536      2.4909      0.0604      9.6405    132.4635     27.4644
  1769.1000      7.9536      2.5010      0.0317      9.0321    137.2808     27.6798
  1769.2000      7.9536      2.5587      0.0274      5.5315    136.2934     27.9513
  1769.3000      7.9601      2.6771      0.0981     -1.6445    133.4656     28.0948
  1769.4000      7.9601      2.8179      0.1410    -10.1743    131.6689     27.8920
  1769.5000      7.9448      2.9392      0.1987    -17.5297    133.3129     27.6968
  1769.6000      7.9448      3.0411      0.2295    -23.7013    136.1863     27.6948
  1769.7000      7.9448      3.1200      0.2902    -28.4837    134.4792     27.6417
  1769.8000      7.9440      3.1386      0.3109    -29.6123    125.8468     27.4271
  1769.9000      7.9440      3.0837      0.1226    -26.2819    113.6549     27.0706
  1770.0000      7.9463      2.9841      0.0390    -20.2481    102.9118     26.2726
  1770.1000      7.9463      2.8640     -0.1435    -12.9677     95.2382     25.2539
  1770.2000      7.9463      2.7355     -0.1779     -5.1828     90.0292     24.5120
  1770.3000      7.9385      2.6311     -0.2578      1.1456     87.8633     23.8994
  1770.4000      7.9385      2.6069     -0.1959      2.6149     87.7948     23.2646
  1770.5000      7.9364      2.6589     -0.0195     -0.5395     89.2451     22.9223
  1770.6000      7.9364      2.7015      0.0796     -3.1198     93.4485     22.8756
  1770.7000      7.9364      2.6782      0.0430     -1.7091    100.0370     22.5434
  1770.8000      7.9431      2.6173      0.0555      1.9838    104.7043     22.1486
  1770.9000      7.9431      2.5736      0.0028      4.6288    103.8979     22.3473
  1771.0000      7.9510      2.5663      0.0507      5.0728    100.1944     22.6792
  1771.1000      7.9510      2.5724      0.0998      4.7035     97.6685     22.9608
  1771.2000      7.9510      2.5786      0.0390      4.3245     98.1801     23.8681
  1771.3000      7.9596      2.5962      0.0183      3.2609    103.8720     24.7665
  1771.4000      7.9596      2.6174      0.0783      1.9763    114.8617     24.6308
  1771.5000      7.9674      2.6160      0.0871      2.0609    125.3648     24.0203
  1771.6000      7.9674      2.5904      0.0452      3.6123    129.8809     23.8049
  1771.7000      7.9674      2.5664      0.0417      5.0646    128.6578     24.1602
  1771.8000      7.9772      2.5624      0.0338      5.3079    125.2369     24.8491
  1771.9000      7.9772      2.5723      0.0826      4.7092    120.8322     25.3657
  1772.0000      7.9807      2.5769      0.0757      4.4281    117.2614     24.9888
  1772.1000      7.9807      2.5753      0.0254      4.5294    114.9567     23.7280
  1772.2000      7.9807      2.5788      0.0484      4.3133    112.7101     22.9725
  1772.3000      7.9914      2.5828      0.0716      4.0747    114.5061     23.6057
  1772.4000      7.9914      2.5825      0.0218      4.0899    119.8484     24.6413
  1772.5000      8.0008      2.5771      0.0684      4.4170    119.7244     24.7509
  1772.6000      8.0008      2.5608      0.0341      5.4075    113.1324     23.8909
  1772.7000      8.0008      2.5478      0.0261      6.1924    109.1009     22.8728
  1772.8000      8.0192      2.5549      0.0299      5.7613    110.4313     22.9584
  1772.9000      8.0192      2.5644      0.0714      5.1890    110.9766     24.1382
  1773.0000      8.0207      2.5620      0.0225      5.3321    108.1743     24.6326
  1773.1000      8.0207      2.5661      0.0189      5.0851    106.7533     24.2831
  1773.2000      8.0207      2.5871      0.0399      3.8109    108.9167     24.3405
  1773.3000      8.0243      2.6111      0.0894      2.3588    112.1428     24.5149
  1773.4000      8.0243      2.6158      0.0815      2.0736    115.9784     23.9933
  1773.5000      8.0294      2.5925      0.0462      3.4841    120.1481     23.1922
  1773.6000      8.0294      2.5611      0.0128      5.3897    122.5897     22.8644
  1773.7000      8.0294      2.5431      0.0395      6.4759    121.4063     23.0563
  1773.8000      8.0363      2.5454      0.0422      6.3381    117.4803     23.6678
  1773.9000      8.0363      2.5607      0.0602      5.4143    115.9414     24.5461
  1774.0000      8.0329      2.5658      0.0576      5.1030    119.1898     25.1792
  1774.1000      8.0329      2.5530      0.0251      5.8814    123.2354     25.4007
  1774.2000      8.0329      2.5374      0.0270      6.8271    124.9929     25.3804
  1774.3000      8.0377      2.5247      0.0403      7.5949    125.6716     24.8427
  1774.4000      8.0377      2.5151      0.0282      8.1733    125.7098     24.2887
  1774.5000      8.0370      2.5142      0.0291      8.2295    125.9841     24.5786
  1774.6000      8.0370      2.5172      0.0565      8.0477    127.8550     25.0014
  1774.7000      8.0370      2.5165      0.0663      8.0901    128.9810     24.4614
  1774.8000      8.0522      2.5165      0.0247      8.0903    127.9806     23.4653
  1774.9000      8.0522      2.5237      0.0673      7.6523    127.8234     23.0540
  1775.0000      8.0183      2.5364      0.0401      6.8863    129.7055     23.5980
  1775.1000      8.0183      2.5470      0.0824      6.2452    131.5316     24.7120
  1775.2000      8.0183      2.5445      0.1144      6.3939    131.1405     25.0769
  1775.3000      7.9853      2.5302      0.0989      7.2594    129.7564     24.0251
  1775.4000      7.9853      2.5174      0.0955      8.0336    129.3977     23.0782
  1775.5000      7.9727      2.5114      0.0289      8.3997    129.2607     23.2836
  1775.6000      7.9727      2.5083      0.0727      8.5905    129.9978     24.0500
  1775.7000      7.9727      2.4991      0.0468      9.1442    133.0368     25.2015
  1775.8000      7.9575      2.4810      0.0079     10.2454    137.6546     26.2020
  1775.9000      7.9575      2.4660     -0.0189     11.1526    140.5348     26.5722
  1776.0000      7.9803      2.4678     -0.0106     11.0432    139.2840     26.8806
  1776.1000      7.9803      2.4784      0.0391     10.4015    136.8696     27.1970
  1776.2000      7.9803      2.4793      0.0079     10.3476    136.8512     27.0209
  1776.3000      8.0301      2.4743     -0.0324     10.6497    138.2476     26.5381
  1776.4000      8.0301      2.4810      0.0144     10.2453    137.1437     26.3868
  1776.5000      8.0548      2.4991      0.0150      9.1468    134.9094     26.6599
  1776.6000      8.0548      2.5165      0.0605      8.0937    136.4003     26.7340
  1776.7000      8.0548      2.5290      0.0583      7.3353    137.9131     26.2655
  1776.8000      8.1765      2.5369      0.0312      6.8523    137.4375     25.8113
  1776.9000      8.1765      2.5338      0.0704      7.0455    138.2617     25.7173
  1777.0000      8.2044      2.5213     -0.0148      7.7990    139.2127     26.1155
  1777.1000      8.2044      2.5140      0.0195      8.2431    138.4635     27.0509
  1777.2000      8.2044      2.5118      0.0303      8.3736    135.8487     27.7776
  1777.3000      8.1201      2.5016      0.0394      8.9953    135.7405     27.4563
  1777.4000      8.1201      2.4794     -0.0198     10.3385    143.4680     26.7649
  1777.5000      8.0960      2.4575     -0.0192     11.6694    152.6123     27.0705
