~Version Information
VERS.                      2.0: CWLS Log ASCII Standard - VERSION 2.0
WRAP.                       NO: One line per depth step
~Well Information Block
STRT.FT                17.7500: 
STOP.FT              1139.0000: 
STEP.FT                 0.2500: 
NULL.                -999.2500: 
COMP.          El Paso E&P Company L.P.: COMPANY
WELL.              VPR "ST" 38: WELL
FLD.           Purgatorie River: FIELD
LOC.           687' FNL & 2121' FEL: LOCATION
CNTY.               Las Animas: COUNTY
SRVC.          Superior Well Services: SERVICE COMPANY
DATE.          Sat Oct 13 22-40-21 2007: LOG DATE
UWI.           05-071-08357-00: UNIQUE WELL ID
STAT.                       CO: STATE
~Curve Information Block
DEPT.FT            0 000 00 00: Depth
CCL.                          : Casing Collar Locator
TT3.usec                      : CBL 3' Travel Time
AMP3.mV                       : CBL 3' Amplitude
GR.GAPI                       : Gamma Ray
~Parameter Information Block
~A  Depth       CCL         TT3         AMP3         GR     
# ...
   453.2500      0.0000    735.6266      3.6666    146.2605
   453.5000      0.0000    733.7681      3.6397    149.1431
   453.7500      0.0000    727.8710      3.6032    155.4723
   454.0000      0.0000    717.1002      3.5626    160.0410
   454.2500      0.0000    701.7068      3.5248    165.3296
   454.5000      0.0000    681.4008      3.4998    166.6989
   454.7500      0.0000    655.5508      3.4976    164.6349
   455.0000      0.0000    625.5993      3.5219    161.0101
   455.2500      0.0000    597.2209      3.5733    154.2691
   455.5000      0.0000    578.7244      3.6614    149.9201
   455.7500      0.0000    575.2083      3.8014    143.9092
   456.0000      0.0000    583.3439      3.9833    139.6732
   456.2500      0.0000    592.3263      4.1540    131.5433
   456.5000      0.0000    590.8221      4.2550    124.3681
   456.7500      0.0000    574.3262      4.2773    111.3010
   457.0000      0.0000    547.4540      4.2632    102.0441
   457.2500     -2.0000    520.0556      4.2567     89.2863
   457.5000     -2.0000    501.1040      4.2704     82.0695
   457.7500      2.0000    495.7849      4.2952     72.9183
   458.0000      0.0000    506.4754      4.3276     67.6996
   458.2500      0.0000    532.9579      4.3749     61.6075
   458.5000      0.0000    569.3591      4.4331     59.3159
   458.7500      0.0000    602.4621      4.4599     59.2080
   459.0000      0.0000    617.1399      4.3936     61.1285
   459.2500      0.0000    606.4423      4.2188     65.8573
   459.5000      0.0000    576.7951      3.9995     69.7025
   459.7500      0.0000    543.4650      3.8266     76.2503
   460.0000      0.0000    521.6749      3.7445     81.0204
   460.2500      0.0000    520.9254      3.7375     88.0656
   460.5000      0.0000    543.1657      3.7695     92.1406
   460.7500      0.0000    581.8812      3.8147     96.6278
   461.0000      0.0000    623.4625      3.8594     98.2953
   461.2500      0.0000    653.4771      3.8953     99.0110
   461.5000      0.0000    663.9176      3.9190     99.1060
   461.7500      0.0000    654.8364      3.9315    100.7512
   462.0000      0.0000    630.9498      3.9332    103.4821
   462.2500      0.0000    598.6488      3.9185    108.9098
   462.5000      0.0000    564.6097      3.8808    111.9499
   462.7500      0.0000    534.2898      3.8224    113.9933
   463.0000      0.0000    510.7036      3.7574    113.9500
   463.2500      0.0000    494.4202      3.7023    113.4559
   463.5000      0.0000    484.5159      3.6648    113.4551
   463.7500      0.0000    480.4232      3.6409    113.4439
   464.0000      0.0000    484.1864      3.6240    112.5834
   464.2500      0.0000    500.6452      3.6142    108.9787
   464.5000      0.0000    533.1307      3.6190    105.1669
   464.7500      0.0000    576.8337      3.6429     98.6233
   465.0000      0.0000    617.1390      3.6774     94.6293
   465.2500      0.0000    637.6497      3.7047     90.4129
   465.5000      0.0000    631.9025      3.7114     89.1517
   465.7500      0.0000    606.9603      3.7007     89.5119
   466.0000      0.0000    576.3689      3.6885     90.8227
   466.2500      0.0000    551.5535      3.6901     93.3342
   466.5000      0.0000    539.0342      3.7104     94.9688
   466.7500      0.0000    541.5242      3.7439     97.7346
   467.0000      0.0000    557.4956      3.7817    100.4703
   467.2500      0.0000    578.6521      3.8184    106.7158
   467.5000      0.0000    591.3081      3.8533    112.1414
   467.7500      0.0000    585.7214      3.8862    120.8390
   468.0000      0.0000    566.0489      3.9121    125.8912
   468.2500      0.0000    548.8184      3.9231    130.7434
   468.5000      0.0000    549.6519      3.9166    131.9806
   468.7500      0.0000    570.9919      3.9006    131.6954
   469.0000      0.0000    601.5807      3.8888    130.4160
   469.2500      0.0000    626.9019      3.8914    126.4089
   469.5000      0.0000    640.5964      3.9080    122.2470
   469.7500      0.0000    647.0130      3.9301    115.4162
   470.0000      0.0000    654.4535      3.9474    112.0313
   470.2500      0.0000    666.9998      3.9541    110.0626
   470.5000      0.0000    681.7253      3.9495    110.2314
   470.7500      0.0000    691.9136      3.9355    110.3916
   471.0000      0.0000    692.5961      3.9158    109.5112
   471.2500      0.0000    683.8489      3.8966    107.4646
   471.5000      0.0000    669.6546      3.8836    107.2438
   471.7500      0.0000    653.9136      3.8768    111.3819
   472.0000      0.0000    637.3445      3.8679    117.4617
   472.2500      0.0000    617.9938      3.8455    129.2844
   472.5000      0.0000    595.0601      3.8052    136.7346
   472.7500      0.0000    572.3906      3.7533    144.0996
   473.0000      0.0000    557.3853      3.7022    145.6184
   473.2500      0.0000    555.9064      3.6628    142.7641
   473.5000      0.0000    568.8259      3.6408    138.1087
   473.7500      0.0000    592.9998      3.6360    129.6251
   474.0000      0.0000    623.3857      3.6432    125.0555
   474.2500      0.0000    653.7346      3.6526    122.5401
   474.5000      0.0000    677.9763      3.6543    124.0158
   474.7500      0.0000    693.3666      3.6481    129.4905
   475.0000      0.0000    701.8947      3.6557    134.2485
   475.2500      0.0000    707.4552      3.7169    141.8217
   475.5000      0.0000    711.8376      3.8609    146.4549
   475.7500      0.0000    714.0460      4.0695    150.7737
   476.0000      0.0000    712.7981      4.2710    150.7477
   476.2500      0.0000    708.6595      4.3815    146.3150
   476.5000      0.0000    704.2023      4.3601    141.7807
   476.7500      0.0000    702.9300      4.2325    135.2748
   477.0000      0.0000    707.3342      4.0690    131.5678
   477.2500      0.0000    716.7631      3.9381    125.6484
   477.5000      0.0000    727.2650      3.8712    120.6882
   477.7500      0.0000    734.6735      3.8637    112.3919
   478.0000      0.0000    738.3484      3.8987    107.8839
   478.2500      0.0000    741.0458      3.9568    105.6934
   478.5000      0.0000    744.6004      4.0048    107.8448
   478.7500      0.0000    746.7263      3.9946    113.5746
   479.0000      0.0000    743.3235      3.8958    115.6696
   479.2500      0.0000    733.6935      3.7287    111.6773
   479.5000      0.0000    722.1256      3.5583    104.5036
   479.7500      0.0000    714.0651      3.4464     92.1519
   480.0000      0.0000    711.9750      3.4086     86.3793
   480.2500      0.0000    715.5181      3.4137     84.2527
   480.5000      0.0000    724.0018      3.4181     86.4909
   480.7500      0.0000    736.3520      3.3994     91.9626
   481.0000      0.0000    748.2978      3.3629     95.0729
   481.2500      0.0000    751.2690      3.3283     96.8573
   481.5000      0.0000    736.2551      3.3147     95.7956
   481.7500      0.0000    700.4899      3.3306     91.7479
   482.0000      0.0000    651.9965      3.3730     88.6937
   482.2500      0.0000    608.4432      3.4317     85.9539
   482.5000      0.0000    589.4453      3.4961     85.8806
   482.7500      0.0000    605.6226      3.5579     86.8472
   483.0000      0.0000    651.6035      3.6118     86.3390
   483.2500      0.0000    708.7349      3.6559     81.0966
   483.5000      0.0000    756.2169      3.6929     74.2407
   483.7500      0.0000    782.3646      3.7279     61.0588
   484.0000      0.0000    787.7364      3.7629     52.8987
   484.2500      0.0000    780.2148      3.7940     46.1343
   484.5000      0.0000    768.8330      3.8171     46.5526
   484.7500      0.0000    760.6439      3.8333     53.7270
   485.0000      0.0000    759.3366      3.8459     61.8519
   485.2500      0.0000    764.3387      3.8531     78.7412
   485.5000      0.0000    771.9147      3.8483     93.2603
   485.7500      0.0000    778.3413      3.8290    117.3754
   486.0000      0.0000    782.3395      3.8037    131.4332
   486.2500      0.0000    784.9488      3.7868    143.8534
   486.5000      0.0000    787.5510      3.7873    146.0821
