~Version Information
VERS.                      2.0: CWLS Log ASCII Standard - VERSION 2.0
WRAP.                       NO: One line per depth step
~Well Information Block
STRT.FT                -8.2500: 
STOP.FT              1119.7500: 
STEP.FT                 0.2500: 
NULL.                -999.2500: 
COMP.          Pioneer Natural Resources: COMPANY
WELL.             Linda T 32-3: WELL
FLD.           Purgatorie River: FIELD
LOC.           1350' FNL & 2290' FEL------: LOCATION
PROV.                       CO: PROVINCE
CNTY.               Las Animas: COUNTRY
SRVC.                         : SERVICE COMPANY
DATE.          Thu Feb 10 08:20:40 2005: LOG DATE
UWI.          005 071 08215   : UNIQUE WELL ID
~Curve Information Block
DEPT.FT            0 000 00 00: Depth
CCL.                          : Casing Collar Locator
TT3.usec                      : CBL 3' Travel Time
AMP3.mV                       : CBL 3' Amplitude
GR.GAPI                       : Gamma Ray
~Parameter Information Block
~A  Depth       CCL         TT3         AMP3         GR     
# ...
   963.2500      0.0000    407.3786      5.8630     80.9422
   963.5000      0.0000    395.7746      5.8471     85.1616
   963.7500      0.0000    385.6361      5.8487     88.8440
   964.0000      0.0000    382.6771      5.8691     90.1823
   964.2500      0.0000    393.9000      5.9325     88.8689
   964.5000      0.0000    424.4002      6.0464     86.0315
   964.7500      0.0000    472.9822      6.1957     82.8099
   965.0000      0.0000    529.9210      6.3602     79.4000
   965.2500      0.0000    579.5190      6.5154     75.5877
   965.5000      0.0000    606.1415      6.6254     71.8399
   965.7500      0.0000    600.6752      6.6703     69.3977
   966.0000      0.0000    565.3525      6.6812     69.2049
   966.2500      0.0000    513.8441      6.7182     71.0839
   966.5000      0.0000    463.9743      6.7976     74.1430
   966.7500      0.0000    427.4359      6.8600     77.8292
   967.0000      0.0000    405.4666      6.8314     82.3784
   967.2500      0.0000    393.0404      6.7112     88.1017
   967.5000      0.0000    385.5162      6.5848     94.2720
   967.7500      0.0000    381.5268      6.5412     99.0811
   968.0000      0.0000    381.4567      6.5761    100.8598
   968.2500      0.0000    384.8012      6.5895     99.2264
   968.5000      0.0000    389.5639      6.4916     95.2591
   968.7500      0.0000    393.6831      6.2923     90.9027
   969.0000      0.0000    396.3099      6.0689     87.9949
   969.2500      0.0000    397.6669      5.8625     87.3068
   969.5000      0.0000    398.2617      5.6537     88.1974
   969.7500      0.0000    398.4419      5.4353     89.1687
   970.0000      0.0000    398.3930      5.2538     88.9901
   970.2500      0.0000    398.2213      5.1588     87.5722
   970.5000      0.0000    397.9641      5.1479     85.7584
   970.7500      0.0000    397.5844      5.1848     84.2165
   971.0000      0.0000    397.0060      5.2475     82.7479
   971.2500      0.0000    396.1780      5.3392     80.8407
   971.5000      0.0000    395.1182      5.4544     78.5430
   971.7500      0.0000    393.9100      5.5543     76.5149
   972.0000      0.0000    392.6674      5.5812     75.2760
   972.2500      0.0000    391.4962      5.4976     74.4788
   972.5000      0.0000    390.4805      5.3138     73.0080
   972.7500      0.0000    389.7082      5.0908     70.1155
   973.0000      0.0000    389.3319      4.9091     66.7445
   973.2500      0.0000    389.8245      4.8153     65.4796
   973.5000      0.0000    392.6030      4.7880     68.5190
   973.7500      0.0000    401.0035      4.7638     75.4331
   974.0000      0.0000    420.4837      4.6941     83.2432
   974.2500      0.0000    456.0775      4.5700     88.8180
   974.5000      0.0000    507.3217      4.4038     90.9025
   974.7500      0.0000    565.5215      4.2171     90.0599
   975.0000      0.0000    618.0038      4.0512     87.5878
   975.2500      0.0000    656.1347      3.9623     84.9300
   975.5000      0.0000    679.1342      3.9786     83.4425
   975.7500      0.0000    691.3517      4.0703     83.8822
   976.0000      0.0000    697.5605      4.1816     85.8854
   976.2500      0.0000    700.4977      4.2886     88.0651
   976.5000      0.0000    701.1799      4.4141     88.7013
   976.7500      0.0000    700.4984      4.5924     86.5475
   977.0000      0.0000    700.1783      4.8275     81.4418
   977.2500      0.0000    702.1136      5.0862     74.6256
   977.5000      0.0000    706.8884      5.3310     68.5750
   977.7500      0.0000    713.2225      5.5506     65.9669
   978.0000      0.0000    718.7519      5.7513     67.9017
   978.2500      0.0000    721.0092      5.9224     72.6749
   978.5000      0.0000    717.2954      6.0197     76.6854
   978.7500      0.0000    704.0641      5.9993     77.2086
   979.0000      0.0000    678.1404      5.8741     74.6860
   979.2500      0.0000    640.5394      5.7214     72.5420
   979.5000      0.0000    599.3252      5.6197     74.6321
   979.7500      0.0000    567.2586      5.5891     82.2959
   980.0000      0.0000    555.4385      5.6044     93.3335
   980.2500      0.0000    568.0026      5.6458    103.6602
   980.5000      0.0000    600.3285      5.7101    110.0873
   980.7500      0.0000    640.7126      5.7817    111.9391
   981.0000      0.0000    675.8124      5.8233    110.5433
   981.2500      0.0000    697.6294      5.8068    107.6943
   981.5000      0.0000    706.6893      5.7462    104.7419
   981.7500      0.0000    709.1226      5.6903    102.5308
   982.0000      0.0000    711.0322      5.6699    101.2559
   982.2500      0.0000    714.8881      5.6549    100.1622
   982.5000      0.0000    719.6169      5.5785     97.9902
   982.7500      0.0000    722.8060      5.4069     94.2683
   983.0000      0.0000    722.3797      5.1671     90.2277
   983.2500      0.0000    717.2463      4.9138     88.0259
   983.5000      0.0000    708.2533      4.6927     88.7629
   983.7500      0.0000    699.2811      4.5294     91.5515
   984.0000      0.0000    695.7567      4.4340     94.7213
   984.2500      0.0000    700.2684      4.4152     97.4079
   984.5000      0.0000    710.0676      4.4849     99.7775
   984.7500      0.0000    719.8441      4.6280    102.5396
   985.0000      0.0000    726.2372      4.7825    106.6697
   985.2500      0.0000    729.1373      4.8875    112.8337
   985.5000      0.0000    729.9609      4.9520    120.4182
   985.7500      0.0000    729.9012      5.0406    127.3331
   986.0000      0.0000    729.4489      5.1841    131.0319
   986.2500      0.0000    728.6714      5.3271    130.0211
   986.5000      0.0000    727.5852      5.3764    124.8602
   986.7500      0.0000    726.3450      5.3019    117.7134
   987.0000      0.0000    725.1764      5.1826    110.6374
   987.2500      0.0000    724.2431      5.1367    104.4997
   987.5000      0.0000    723.5793      5.2196     99.5150
   987.7500      0.0000    723.1171      5.4095     95.8676
   988.0000      0.0000    722.7607      5.6570     93.3729
   988.2500      0.0000    722.4511      5.9038     91.2804
   988.5000      0.0000    722.1765      6.0719     88.9583
   988.7500      0.0000    721.9427      6.0930     86.4901
   989.0000      0.0000    721.7450      5.9608     84.3909
   989.2500      0.0000    721.5638      5.7434     82.9325
   989.5000      0.0000    721.3514      5.5377     81.9114
   989.7500      0.0000    720.9808      5.4138     81.1169
   990.0000      0.0000    720.1834      5.3916     80.8680
   990.2500      0.0000    718.6483      5.4395     81.6322
   990.5000      0.0000    716.4362      5.4756     83.0650
   990.7500      0.0000    714.3871      5.4012     83.9565
   991.0000      0.0000    713.7997      5.1808     83.3110
   991.2500      0.0000    715.3232      4.8900     81.1972
   991.5000      0.0000    718.1880      4.6701     78.5387
   991.7500      0.0000    720.5770      4.6264     76.2186
   992.0000      0.0000    720.5654      4.7508     74.3740
   992.2500      0.0000    716.9210      4.9312     72.5232
   992.5000      0.0000    709.8412      5.0499     70.2914
   992.7500      0.0000    701.3431      5.0768     67.7687
   993.0000      0.0000    694.5069      5.0612     65.2038
   993.2500      0.0000    691.7837      5.0550     62.6897
   993.5000      2.0000    693.5685      5.0676     60.2665
   993.7500      2.0000    697.4954      5.0825     58.2246
   994.0000      0.0000    698.3361      5.0899     57.2817
   994.2500      0.0000    689.4116      5.1011     58.3235
   994.5000      0.0000    666.8897      5.1440     61.6661
   994.7500      0.0000    635.2657      5.2345     66.5048
   995.0000      0.0000    607.8781      5.3426     71.3909
   995.2500      0.0000    598.4822      5.4098     75.4073
   995.5000      0.0000    610.5646      5.4108     78.6115
   995.7500      0.0000    635.9858      5.3763     81.1553
   996.0000      0.0000    663.3584      5.3500     82.4087
   996.2500      0.0000    685.2148      5.3375     81.5120
   996.5000      0.0000    698.6002      5.3031     78.7770
