~Version Information
VERS.                      2.0: CWLS Log ASCII Standard - VERSION 2.0
WRAP.                       NO: One line per depth step
~Well Information Block
STRT.FT               390.0000: 
STOP.FT               902.2000: 
STEP.FT                 0.1000: 
NULL.                -999.2500: 
COMP.          Pioneer Natural Resources: COMPANY
WELL.              Venom 32-22: WELL
FLD.           Purgatoire River: FIELD
LOC.           2307' FNL & 2024' FEL----: LOCATION
PROV.                 Colorado: PROVINCE
CNTY.               Las Animas: COUNTRY
SRVC.                Patterson: SERVICE COMPANY
DATE.          Wed May 11 08:31:39 2005: LOG DATE
UWI.           05 071 08361 00: UNIQUE WELL ID
~Curve Information Block
DEPT.FT            0 000 00 00: Depth
DCAL.in                       : CDL Caliper
RHOB.g/cc                     : CDL Bulk Density
RHOC.g/cc                     : CDL Density Correction
DPOR.pu                       : CDL Density Porosity
NPOR.pu                       : Neutron Porosity
GR.GAPI                       : Gamma Ray
~Parameter Information Block
~A  Depth       DCAL        RHOB        RHOC        DPOR        NPOR         GR     
   390.0000      8.1472      2.4824     -0.2147     10.1605     44.2407    112.1001
   390.1000      8.1472      2.4885     -0.2462      9.7849     42.7528    118.2446
   390.2000      8.1472      2.4842     -0.2362     10.0514     42.6789    122.2363
   390.3000      8.1474      2.4761     -0.2535     10.5389     44.6680    120.0365
   390.4000      8.1474      2.4771     -0.3123     10.4811     46.5766    114.9351
   390.5000      8.1496      2.4962     -0.1974      9.3232     46.5799    111.5178
   390.6000      8.1496      2.5215     -0.2523      7.7858     44.6575    109.6862
   390.7000      8.1496      2.5336     -0.2069      7.0574     42.7083    108.9513
   390.8000      8.1527      2.5209     -0.1837      7.8222     42.4943    110.6271
   390.9000      8.1527      2.4994     -0.2378      9.1246     43.2320    111.4431
   391.0000      8.1554      2.4950     -0.2528      9.3956     43.0781    107.8195
   391.1000      8.1554      2.5028     -0.2109      8.9226     42.4980    102.6800
   391.2000      8.1554      2.5066     -0.1998      8.6910     43.4435    102.9134
   391.3000      8.1557      2.5114     -0.2164      8.4030     45.5241    110.9571
   391.4000      8.1557      2.5218     -0.2377      7.7676     46.3340    118.6975
   391.5000      8.1538      2.5274     -0.1912      7.4284     45.2841    118.9171
   391.6000      8.1538      2.5196     -0.1842      7.9035     43.9336    114.9057
   391.7000      8.1538      2.5011     -0.2586      9.0247     43.4290    110.6323
   391.8000      8.1537      2.4828     -0.2485     10.1335     43.7658    106.1705
   391.9000      8.1537      2.4725     -0.2134     10.7549     43.9671    102.7735
   392.0000      8.1560      2.4707     -0.2285     10.8690     42.6833    101.1986
   392.1000      8.1560      2.4791     -0.2514     10.3583     40.4173    101.0568
   392.2000      8.1560      2.5023     -0.2164      8.9529     39.4913    100.8506
   392.3000      8.1566      2.5319     -0.1956      7.1587     40.3722     97.6254
   392.4000      8.1566      2.5508     -0.2474      6.0109     40.9235     91.7454
   392.5000      8.1561      2.5546     -0.2161      5.7798     40.1472     89.0676
   392.6000      8.1561      2.5488     -0.2167      6.1362     39.2457     90.5316
   392.7000      8.1561      2.5423     -0.2490      6.5251     38.8626     89.7395
   392.8000      8.1569      2.5535     -0.2581      5.8483     38.2251     85.7541
   392.9000      8.1569      2.5887     -0.2389      3.7126     37.5012     80.4983
   393.0000      8.1563      2.6261     -0.1941      1.4472     38.0503     74.9089
   393.1000      8.1563      2.6395     -0.1191      0.6348     40.0241     71.4962
   393.2000      8.1563      2.6282     -0.2292      1.3182     41.2538     71.2737
   393.3000      8.1542      2.6089     -0.1669      2.4914     39.5306     72.6097
   393.4000      8.1542      2.5868     -0.2022      3.8333     36.5877     75.5148
   393.5000      8.1541      2.5713     -0.2632      4.7715     36.1795     80.0311
   393.6000      8.1541      2.5719     -0.2059      4.7361     38.3797     84.9434
   393.7000      8.1541      2.5751     -0.2101      4.5417     39.5571     89.4703
   393.8000      8.1559      2.5717     -0.2700      4.7455     38.5600     91.8048
   393.9000      8.1559      2.5773     -0.2500      4.4056     38.4220     93.7457
   394.0000      8.1554      2.6018     -0.2214      2.9184     40.3524     97.4658
   394.1000      8.1554      2.6302     -0.1900      1.1974     41.5735    100.6596
   394.2000      8.1554      2.6466     -0.1642      0.2075     40.5188    102.2948
   394.3000      8.1529      2.6466     -0.1701      0.2053     38.9387    103.8934
   394.4000      8.1529      2.6372     -0.2104      0.7786     38.1901    106.1135
   394.5000      8.1521      2.6348     -0.2273      0.9218     38.5944    107.3580
   394.6000      8.1521      2.6422     -0.1537      0.4713     39.8620    106.3085
   394.7000      8.1521      2.6519     -0.2052     -0.1131     40.4086    104.5424
   394.8000      8.1536      2.6650     -0.2035     -0.9119     39.9953    104.8847
   394.9000      8.1536      2.6678     -0.1471     -1.0797     40.7065    108.8852
   395.0000      8.1544      2.6539     -0.2225     -0.2387     42.6740    112.3962
   395.1000      8.1544      2.6454     -0.1305      0.2772     43.0722    111.1476
   395.2000      8.1544      2.6422     -0.1566      0.4712     41.3410    107.5010
   395.3000      8.1525      2.6339     -0.1754      0.9762     40.0855    103.7532
   395.4000      8.1525      2.6237     -0.2059      1.5938     40.5373    101.2705
   395.5000      8.1503      2.6159     -0.2023      2.0656     41.6870     99.0602
   395.6000      8.1503      2.6082     -0.1789      2.5306     41.1048     95.3475
   395.7000      8.1503      2.5962     -0.2393      3.2632     38.0739     91.1973
   395.8000      8.1483      2.5866     -0.2456      3.8451     35.8082     85.5354
   395.9000      8.1483      2.5818     -0.2263      4.1332     36.3334     78.1664
   396.0000      8.1424      2.5762     -0.2406      4.4732     38.1490     72.7885
   396.1000      8.1424      2.5727     -0.2765      4.6826     38.5007     71.1471
   396.2000      8.1424      2.5754     -0.2709      4.5225     36.9335     69.6145
   396.3000      8.1411      2.5861     -0.2553      3.8712     36.0769     65.7115
   396.4000      8.1411      2.5990     -0.2195      3.0886     37.4377     61.0402
   396.5000      8.1443      2.5944     -0.2127      3.3697     39.3762     57.8368
   396.6000      8.1443      2.5712     -0.2692      4.7781     39.9204     57.8488
   396.7000      8.1443      2.5558     -0.3063      5.7066     39.4317     60.0286
   396.8000      8.1432      2.5615     -0.2762      5.3656     39.2858     62.4433
   396.9000      8.1432      2.5719     -0.1742      4.7352     39.2210     64.9045
   397.0000      8.1415      2.5749     -0.2465      4.5534     37.8487     66.4909
   397.1000      8.1415      2.5782     -0.2858      4.3520     35.6565     67.2517
   397.2000      8.1415      2.5828     -0.2775      4.0717     35.1344     68.2033
   397.3000      8.1396      2.5753     -0.2663      4.5302     37.1524     68.1064
   397.4000      8.1396      2.5464     -0.2651      6.2772     39.6520     67.4534
   397.5000      8.1354      2.5083     -0.2921      8.5852     39.8699     68.7236
   397.6000      8.1354      2.4908     -0.3662      9.6470     38.3773     68.2002
   397.7000      8.1354      2.5076     -0.3329      8.6288     38.0475     62.5334
   397.8000      8.1323      2.5322     -0.2638      7.1405     38.4368     59.2340
   397.9000      8.1323      2.5324     -0.2840      7.1287     37.5794     63.8453
   398.0000      8.1313      2.5145     -0.3154      8.2129     36.5960     68.3235
   398.1000      8.1313      2.5103     -0.3435      8.4652     37.2173     64.8446
   398.2000      8.1313      2.5312     -0.2658      7.2007     38.7506     57.8412
   398.3000      8.1309      2.5663     -0.3307      5.0704     38.6371     52.6945
   398.4000      8.1309      2.6073     -0.2154      2.5885     36.2756     48.7535
   398.5000      8.1319      2.6281     -0.1357      1.3296     34.5750     45.0612
   398.6000      8.1319      2.6113     -0.2203      2.3480     35.4800     42.1773
   398.7000      8.1319      2.5910     -0.2726      3.5753     37.1405     40.4053
   398.8000      8.1315      2.5912     -0.2669      3.5626     37.2665     39.4322
   398.9000      8.1315      2.5762     -0.2484      4.4729     36.9123     39.7371
   399.0000      8.1307      2.5180     -0.2703      8.0007     37.4755     42.1921
   399.1000      8.1307      2.4303     -0.2877     13.3160     39.1183     45.7450
   399.2000      8.1307      2.3313     -0.3209     19.3162     41.3880     47.0644
   399.3000      8.1303      2.2347     -0.3815     25.1704     42.3449     46.3813
   399.4000      8.1303      2.1571     -0.4116     29.8747     40.6285     46.7476
   399.5000      8.1281      2.1269     -0.5271     31.7003     37.9786     48.0523
