~Version Information
VERS.                      2.0: CWLS Log ASCII Standard - VERSION 2.0
WRAP.                       NO: One line per depth step
~Well Information Block
STRT.FT               300.0000: 
STOP.FT               871.2500: 
STEP.FT                 0.2500: 
NULL.                -999.2500: 
COMP.          Pioneer Natural Resources: COMPANY
WELL.            Hustler 12-17: WELL
FLD.           Purgatoire River: FIELD
LOC.           2150' FNL & 450' FWL: LOCATION
PROV.                 Colorado: PROVINCE
CNTY.               Las Animas: COUNTRY
SRVC.                Patterson: SERVICE COMPANY
DATE.          Mon Dec 20 09:25:34 2004: LOG DATE
UWI.           05 071 08236 00: UNIQUE WELL ID
~Curve Information Block
DEPT.FT            0 000 00 00: Depth
SN.Ohm-m                      : IEL Short Normal
SP.mV                         : IEL Spontaneous Potential
DIR.Ohm-m                     : IEL Induction Resistivity
GR.GAPI                       : Gamma Ray
~Parameter Information Block
~A  Depth        SN          SP         DIR          GR     
# ...
   668.5000    645.9807   -800.0005     19.2014    139.8626
   668.7500    645.9807   -800.0005     19.4595    139.8710
   669.0000    645.9807   -800.0005     19.6698    139.7980
   669.2500    645.9807   -800.0005     19.8131    139.4547
   669.5000    645.9807   -800.0005     19.8966    138.9446
   669.7500    645.9807   -800.0005     19.9474    138.8740
   670.0000    645.9807   -800.0005     19.9989    138.7988
   670.2500    645.9807   -800.0005     20.0753    138.1235
   670.5000    645.9807   -800.0005     20.1776    135.2011
   670.7500    645.9807   -800.0005     20.2788    131.9977
   671.0000    645.9807   -800.0005     20.3380    126.5861
   671.2500    645.9807   -800.0005     20.3272    123.6926
   671.5000    645.9807   -800.0005     20.2552    122.0151
   671.7500    645.9807   -800.0005     20.1687    122.9910
   672.0000    645.9807   -800.0005     20.1299    126.7741
   672.2500    645.9807   -800.0005     20.1874    129.7992
   672.5000    645.9807   -800.0005     20.3545    133.3274
   672.7500    645.9807   -800.0005     20.6017    134.4108
   673.0000    645.9807   -800.0005     20.8621    133.8676
   673.2500    645.9807   -800.0005     21.0507    132.1949
   673.5000    645.9807   -800.0005     21.0935    128.4977
   673.7500    645.9807   -800.0005     20.9557    126.1009
   674.0000    645.9807   -800.0005     20.6533    124.2353
   674.2500    645.9807   -800.0005     20.2447    124.5495
   674.5000    645.9807   -800.0005     19.8086    126.6368
   674.7500    645.9807   -800.0005     19.4202    128.3515
   675.0000    645.9807   -800.0005     19.1312    130.7009
   675.2500    645.9807   -800.0005     18.9620    132.1276
   675.5000    645.9807   -800.0005     18.9059    134.1485
   675.7500    645.9807   -800.0005     18.9429    135.2327
   676.0000    645.9807   -800.0005     19.0569    135.6638
   676.2500    645.9807   -800.0005     19.2473    134.5795
   676.5000    645.9807   -800.0005     19.5319    130.3676
   676.7500    645.9807   -800.0005     19.9402    126.0878
   677.0000    645.9807   -800.0005     20.5009    118.7661
   677.2500    645.9807   -800.0005     21.2280    114.1632
   677.5000    645.9807   -800.0005     22.1085    108.5336
   677.7500    645.9807   -800.0005     23.0957    105.5756
   678.0000    645.9807   -800.0005     24.1092    101.8433
   678.2500    645.9807   -800.0005     25.0443     99.7845
   678.5000    645.9807   -800.0005     25.7919     97.8334
   678.7500    645.9807   -800.0005     26.2662     97.5331
   679.0000    645.9807   -800.0005     26.4346     98.4255
   679.2500    645.9807   -800.0005     26.3337     99.6859
   679.5000    645.9807   -800.0005     26.0602    102.4781
   679.7500    645.9807   -800.0005     25.7386    104.9568
   680.0000    645.9807   -800.0005     25.4792    109.0283
   680.2500    645.9807   -800.0005     25.3454    111.1438
   680.5000    645.9807   -800.0005     25.3405    111.8794
   680.7500    645.9807   -800.0005     25.4141    110.4162
   681.0000    645.9807   -800.0005     25.4884    106.1649
   681.2500    645.9807   -800.0005     25.4970    102.9690
   681.5000    645.9807   -800.0005     25.4169     99.2718
   681.7500    645.9807   -800.0005     25.2734     98.2627
   682.0000    645.9807   -800.0005     25.1187     99.9960
   682.2500    645.9807   -800.0005     25.0018    103.7467
   682.5000    645.9807   -800.0005     24.9479    112.7973
   682.7500    645.9807   -800.0005     24.9501    119.7984
   683.0000    645.9807   -800.0005     24.9733    128.3944
   683.2500    645.9807   -800.0005     24.9686    131.1469
   683.5000    645.9807   -800.0005     24.8972    129.7326
   683.7500    645.9807   -800.0005     24.7554    125.6813
   684.0000    645.9807   -800.0005     24.5831    117.0646
   684.2500    645.9807   -800.0005     24.4481    110.7932
   684.5000    645.9807   -800.0005     24.4170    101.7666
   684.7500    645.9807   -800.0005     24.5304     96.3186
   685.0000    645.9807   -800.0005     24.7968     89.4289
   685.2500    645.9807   -800.0005     25.1998     85.9896
   685.5000    645.9807   -800.0005     25.7069     82.8517
   685.7500    645.9807   -800.0005     26.2693     81.9391
   686.0000    645.9807   -800.0005     26.8235     81.4656
   686.2500    645.9807   -800.0005     27.3005     81.1624
   686.5000    645.9807   -800.0005     27.6490     80.2635
   686.7500    645.9807   -800.0005     27.8548     79.5949
   687.0000    645.9807   -800.0005     27.9376     79.3727
   687.2500    645.9807   -800.0005     27.9276     80.1267
   687.5000    645.9807   -800.0005     27.8399     82.6267
   687.7500    645.9807   -800.0005     27.6660     84.9720
   688.0000    645.9807   -800.0005     27.3883     89.0694
   688.2500    645.9807   -800.0005     27.0068     91.8890
   688.5000    645.9807   -800.0005     26.5559     95.4486
   688.7500    645.9807   -800.0005     26.0959     96.8569
   689.0000    645.9807   -800.0005     25.6862     97.0714
   689.2500    645.9807   -800.0005     25.3629     96.0245
   689.5000    645.9807   -800.0005     25.1311     93.2075
   689.7500    645.9807   -800.0005     24.9738     91.0318
   690.0000    645.9807   -800.0005     24.8664     88.4561
   690.2500    645.9807   -800.0005     24.7896     87.6522
   690.5000    645.9807   -800.0005     24.7339     87.6513
   690.7500    645.9807   -800.0005     24.6993     87.9134
   691.0000    645.9807   -800.0005     24.6926     87.9610
   691.2500    645.9807   -800.0005     24.7246     87.9074
   691.5000    645.9807   -800.0005     24.8076     88.7444
   691.7500    645.9807   -800.0005     24.9532     90.3465
   692.0000    645.9807   -800.0005     25.1685     93.8853
   692.2500    645.9807   -800.0005     25.4545     96.2441
   692.5000    645.9807   -800.0005     25.8050     98.6106
   692.7500    645.9807   -800.0005     26.2051     99.1679
   693.0000    645.9807   -800.0005     26.6268     99.0310
   693.2500    645.9807   -800.0005     27.0300     99.0760
   693.5000    645.9807   -800.0005     27.3744    100.7337
   693.7500    645.9807   -800.0005     27.6376    103.1331
   694.0000    645.9807   -800.0005     27.8207    107.6060
   694.2500    645.9807   -800.0005     27.9300    110.0683
   694.5000    645.9807   -800.0005     27.9530    111.6510
   694.7500    645.9807   -800.0005     27.8510    111.3807
   695.0000    645.9807   -800.0005     27.5823    110.3256
   695.2500    645.9807   -800.0005     27.1370    109.9370
   695.5000    645.9807   -800.0005     26.5571    109.9528
   695.7500    645.9807   -800.0005     25.9215    109.9049
   696.0000    645.9807   -800.0005     25.3110    109.0916
   696.2500    645.9807   -800.0005     24.7786    108.0312
   696.5000    645.9807   -800.0005     24.3399    106.0360
   696.7500    645.9807   -800.0005     23.9816    104.7565
   697.0000    645.9807   -800.0005     23.6779    103.4454
   697.2500    645.9807   -800.0005     23.4064    103.1016
   697.5000    645.9807   -800.0005     23.1574    102.9853
   697.7500    645.9807   -800.0005     22.9378    102.6346
   698.0000    645.9807   -800.0005     22.7646    100.8392
   698.2500    645.9807   -800.0005     22.6528     98.7939
   698.5000    645.9807   -800.0005     22.6008     95.6742
   698.7500    645.9807   -800.0005     22.5848     94.5684
   699.0000    645.9807   -800.0005     22.5688     95.2752
   699.2500    645.9807   -800.0005     22.5244     97.0724
   699.5000    645.9807   -800.0005     22.4461    100.6358
   699.7500    645.9807   -800.0005     22.3469    103.0202
   700.0000    645.9807   -800.0005     22.2414    106.0117
   700.2500    645.9807   -800.0005     22.1298    107.2841
   700.5000    645.9807   -800.0005     21.9963    107.4574
   700.7500    645.9807   -800.0005     21.8245    106.3309
   701.0000    645.9807   -800.0005     21.6205    103.7524
   701.2500    645.9807   -800.0005     21.4230    102.3544
   701.5000    645.9807   -800.0005     21.2853    101.5468
   701.7500    645.9807   -800.0005     21.2371    101.5994
