~Version Information
 VERS.                                  2.0 : CWLS LAS VERSION
 WRAP.                                   NO : WRAPING MODE
 SWARE .                 MController 2.5.0J : SOFTWARE VERSION
~Well Information
 WELL.                        McLeod 09-42R : WELL
 COMP.                Petrogulf Corporation : COMPANY
 FLD.                      Purgatoire River : FIELD
 LOC.                SE/NE Sec 09 T33S R67W : LOCATION
 DATE.                          08/13-14/05 : DATE(S) LOGGED
 SRVC.       BLANCO Geological Services LLC : SERVICE COMPANY
 STAT.                                   CO : STATE
 CNTY.                           Las Animas : COUNTY
 CTRY.                                  USA : COUNTRY
 API.                       05 071 08092 00 : API NUMBER
 STRT.FT                               6.00 : START DEPTH
 STOP.FT                            1775.00 : STOP DEPTH
 STEP.FT                               1.00 : DEPTH INCREMENT
 NULL.                                -9999 : NULL VALUE
~Curve information
 DEPTH.FT                                   :
 ROP.MIN/FT                                 :
 GAS.UNITS                                  :
~ASCII Log data
         6.0     -9999.00          0.0 
         7.0         4.85          0.4 
         8.0         0.30          0.1 
         9.0         0.43          0.0 
        10.0         0.27          0.1 
        11.0         0.17          0.0 
        12.0         1.20          0.2 
        13.0         0.10          0.1 
        14.0         0.65          0.1 
        15.0         0.73          0.1 
        16.0         0.73          0.1 
        17.0         0.80          0.1 
        18.0         0.73          0.0 
        19.0         0.35          0.1 
        20.0         0.23          0.1 
        21.0         0.53          0.1 
        22.0         0.27          0.3 
        23.0         0.20          0.0 
        24.0         0.23          0.1 
        25.0         0.23          0.2 
        26.0         3.35          4.3 
        27.0         0.37          4.4 
        28.0         0.20          4.4 
        29.0         0.25          4.2 
        30.0         0.30          4.2 
        31.0         0.27          4.2 
        32.0         0.27          4.3 
        33.0         0.23          4.6 
        34.0         0.27          4.4 
        35.0         0.23          4.4 
        36.0         0.20          4.4 
        37.0         0.23          4.4 
        38.0         0.20          4.1 
        39.0         0.20          4.3 
        40.0         0.20          4.1 
        41.0         0.23          4.0 
        42.0         0.27          4.2 
        43.0         0.28          4.6 
        44.0         0.23          4.3 
        45.0         0.23          4.4 
        46.0         0.27          4.5 
        47.0         0.23          4.4 
        48.0         0.20          4.3 
        49.0         0.23          4.3 
        50.0         0.23          4.2 
        51.0         0.23          4.5 
        52.0         0.23          4.4 
        53.0         0.23          4.3 
        54.0         0.23          4.1 
        55.0         0.22          4.8 
        56.0         0.93          4.7 
        57.0         0.27          4.5 
        58.0         0.27          4.4 
        59.0         0.27          4.4 
        60.0         0.27          4.6 
        61.0         0.23          4.8 
        62.0         0.20          4.6 
        63.0         0.23          3.8 
        64.0         0.23          2.0 
        65.0         0.25          1.5 
        66.0         0.27          2.1 
        67.0         0.30         45.5 
        68.0         0.27        114.3 
        69.0         0.27        111.7 
        70.0         0.30         75.0 
        71.0         0.30         33.0 
        72.0         0.27         13.1 
        73.0         0.30          6.2 
        74.0         0.27          2.8 
        75.0         0.27          2.1 
        76.0         0.27          2.0 
        77.0         0.32          2.7 
        78.0         0.27          2.7 
        79.0         0.23          2.8 
        80.0         0.23          3.5 
        81.0         0.30          3.6 
        82.0         0.27          3.9 
        83.0         0.23          3.9 
        84.0         0.23          4.2 
        85.0         0.27          4.2 
        86.0         1.15          5.1 
        87.0         0.27          5.3 
        88.0         0.27          5.1 
        89.0         0.27          5.6 
        90.0         0.23          5.4 
        91.0         0.30          5.6 
        92.0         0.37          5.8 
        93.0         0.40          5.8 
        94.0         0.37          5.8 
        95.0         0.23          5.7 
        96.0         0.23          5.8 
        97.0         0.25          5.7 
        98.0         0.23          5.9 
        99.0         0.23          5.6 
       100.0         0.23          6.2 
       101.0         0.27          6.2 
       102.0         0.23          5.9 
       103.0         0.23          6.1 
       104.0         0.23          5.8 
       105.0         0.30          6.3 
       106.0         0.27          6.3 
       107.0         0.27          6.0 
       108.0         0.27          6.1 
       109.0         0.30          6.5 
       110.0         0.28          6.8 
       111.0         0.23          6.8 
       112.0         0.27          6.4 
       113.0         0.30          6.3 
       114.0         0.27          6.6 
       115.0         0.27          6.7 
       116.0         1.63          6.9 
       117.0         0.38          6.9 
       118.0         0.40          6.9 
       119.0         0.30          6.7 
       120.0         0.23          6.6 
       121.0         0.27          6.8 
       122.0         0.30          7.1 
       123.0         0.27          6.8 
       124.0         0.27          6.9 
       125.0         0.30          6.9 
       126.0         0.30          6.9 
       127.0         0.27          7.1 
       128.0         0.25          6.7 
       129.0         0.27          7.2 
       130.0         0.23          6.8 
       131.0         0.17          6.9 
       132.0         0.17          6.7 
       133.0         0.17          7.3 
       134.0         0.20          6.8 
       135.0         0.17          7.2 
       136.0         0.23          7.1 
       137.0         0.23          7.2 
       138.0         0.30          7.4 
       139.0         0.30          7.1 
       140.0         0.27          7.1 
       141.0         0.30          7.5 
       142.0         0.28          7.1 
       143.0         0.23          7.6 
       144.0         0.27          6.9 
       145.0         0.23          7.3 
       146.0         1.27          7.5 
       147.0         0.30          7.7 
       148.0         0.23          7.3 
       149.0         0.23          7.4 
       150.0         0.20          7.6 
       151.0         0.25          7.6 
       152.0         0.23          7.4 
       153.0         0.23          7.5 
       154.0         0.20          7.1 
       155.0         0.27          7.5 
       156.0         0.30          7.5 
       157.0         0.30          7.6 
       158.0         0.23          7.1 
       159.0         0.27          7.3 
       160.0         0.23          7.6 
       161.0         0.20          7.7 
       162.0         0.23          7.8 
       163.0         0.27          7.5 
       164.0         0.20          7.3 
       165.0         0.18          7.7 
       166.0         0.20          8.1 
       167.0         0.17          7.8 
       168.0         0.17          7.3 
       169.0         0.27          7.8 
       170.0         0.20          7.7 
       171.0         0.17          7.9 
       172.0         0.23          7.6 
       173.0         0.27          7.6 
       174.0         0.23          7.7 
       175.0         0.20          7.5 
       176.0         1.35          7.9 
       177.0         0.33          7.9 
       178.0         0.30          7.9 
       179.0         0.30          8.0 
       180.0         0.30          8.1 
       181.0         0.27          7.8 
       182.0         0.27          8.2 
       183.0         0.27          7.3 
       184.0         0.30          7.8 
       185.0         0.27          7.7 
       186.0         0.28          8.0 
       187.0         0.27          8.1 
       188.0         0.23          7.8 
       189.0         0.40          8.0 
       190.0         0.37          8.1 
       191.0         0.40          7.9 
       192.0         0.27          8.0 
       193.0         0.20          7.9 
       194.0         0.23          8.1 
       195.0         0.27          7.6 
       196.0         0.17          7.8 
       197.0         0.17          7.4 
       198.0         0.25          7.8 
       199.0         0.20          7.8 
       200.0         0.30          8.0 
       201.0         0.27          8.2 
       202.0         0.33          7.9 
       203.0         0.33          7.7 
       204.0         0.40          8.3 
       205.0         0.33          8.2 
