~Version Information
VERS.                      2.0: CWLS Log ASCII Standard - VERSION 2.0
WRAP.                       NO: One line per depth step
~Well Information Block
STRT.FT               840.0000: 
STOP.FT              2450.0000: 
STEP.FT                 0.1000: 
NULL.                -999.2500: 
COMP.          Petrogulf Corporation: COMPANY
WELL.             Leier 17-42V: WELL
FLD.           Purgatorie River: FIELD
LOC.           2309' FNL & 1062' FEL SENE 17 33S 67W: LOCATION
PROV.                 Colorado: PROVINCE
CNTY.               Las Animas: COUNTRY
SRVC.                Patterson: SERVICE COMPANY
DATE.          Thu Sep 22 09:35:36 2005: LOG DATE
UWI.           071 08409 : UNIQUE WELL ID
~Curve Information Block
DEPT.FT            0 000 00 00: Depth
DCAL.in                       : CDL Caliper
RHOB.g/cc                     : CDL Bulk Density
RHOC.g/cc                     : CDL Density Correction
DPOR.pu                       : CDL Density Porosity
GR.GAPI                       : Gamma Ray
NPOR.pu                       : Neutron Porosity
~Parameter Information Block
~A  Depth       DCAL        RHOB        RHOC        DPOR         GR         NPOR    
# ...
  1368.0000      8.1039      2.5755      0.1806      4.5131    183.7667     29.8551
  1368.1000      8.1039      2.5825      0.1390      4.0920    179.6104     29.8251
  1368.2000      8.1039      2.5954      0.1059      3.3100    175.6651     30.0101
  1368.3000      8.0584      2.6175      0.1171      1.9718    173.4629     30.0124
  1368.4000      8.0584      2.6349      0.1548      0.9162    176.8834     29.7148
  1368.5000      8.0375      2.6350      0.1513      0.9102    181.9250     29.3253
  1368.6000      8.0375      2.6176      0.1569      1.9615    180.9496     29.0795
  1368.7000      8.0375      2.5902      0.1053      3.6222    174.9098     29.1479
  1368.8000      8.0343      2.5643      0.0900      5.1944    172.9475     29.3786
  1368.9000      8.0343      2.5454      0.0780      6.3386    178.0379     29.5483
  1369.0000      8.0106      2.5306      0.0473      7.2377    182.9851     29.6329
  1369.1000      8.0106      2.5204      0.0102      7.8533    183.3118     29.5993
  1369.2000      8.0106      2.5190      0.0547      7.9375    180.8427     29.4381
  1369.3000      8.0065      2.5197      0.0583      7.8943    179.2071     29.2603
  1369.4000      8.0065      2.5093      0.0437      8.5243    182.0311     29.2149
  1369.5000      8.0209      2.4919      0.0232      9.5797    187.6487     29.3191
  1369.6000      8.0209      2.4854      0.0615      9.9787    189.6828     29.3461
  1369.7000      8.0209      2.4949      0.0770      9.4022    185.7604     29.2865
  1369.8000      8.1200      2.5148      0.0838      8.1938    180.0063     29.3562
  1369.9000      8.1200      2.5390      0.1016      6.7302    178.0250     29.4760
  1370.0000      8.1213      2.5633      0.1133      5.2518    176.7462     29.6210
  1370.1000      8.1213      2.5902      0.1527      3.6266    170.4557     29.7971
  1370.2000      8.1213      2.6171      0.1857      1.9952    163.6174     29.7868
  1370.3000      8.0492      2.6344      0.1967      0.9481    162.6568     29.6060
  1370.4000      8.0492      2.6377      0.1830      0.7477    165.3067     29.3196
  1370.5000      8.0595      2.6246      0.2292      1.5384    166.9636     28.9267
  1370.6000      8.0595      2.5961      0.1045      3.2637    166.6094     28.5979
  1370.7000      8.0595      2.5625      0.1059      5.3033    164.1454     28.4217
  1370.8000      8.0684      2.5311      0.0533      7.2065    158.8859     28.3468
  1370.9000      8.0684      2.5114      0.0494      8.4026    154.7125     28.3707
  1371.0000      8.0786      2.5112      0.0378      8.4112    159.7081     28.5405
  1371.1000      8.0786      2.5198      0.0772      7.8902    172.5382     28.7106
  1371.2000      8.0786      2.5201      0.0727      7.8737    181.8370     28.5004
  1371.3000      8.0902      2.5093      0.0657      8.5297    182.1489     27.9782
  1371.4000      8.0902      2.4903      0.0746      9.6813    178.3654     27.6756
  1371.5000      8.1091      2.4646      0.0850     11.2387    175.1586     27.6843
  1371.6000      8.1091      2.4367      0.0211     12.9286    172.6774     27.9356
  1371.7000      8.1091      2.4048      0.0773     14.8628    171.3156     28.4011
  1371.8000      8.1214      2.3528      0.0182     18.0100    173.1176     28.7471
  1371.9000      8.1214      2.2710      0.0369     22.9693    177.1762     28.6903
  1372.0000      8.1245      2.1713      0.0044     29.0149    178.4371     28.4359
  1372.1000      8.1245      2.0906     -0.0396     33.9038    175.1713     28.4079
  1372.2000      8.1245      2.0664     -0.0538     35.3713    169.9389     28.7502
  1372.3000      8.1008      2.0982      0.0606     33.4406    163.0151     29.0779
  1372.4000      8.1008      2.1541      0.0894     30.0533    152.7419     29.1181
  1372.5000      8.1022      2.2087      0.1262     26.7445    141.9020     29.1320
  1372.6000      8.1022      2.2629      0.1636     23.4592    135.6137     29.4363
  1372.7000      8.1022      2.3241      0.2163     19.7520    137.3489     30.2146
  1372.8000      8.1121      2.3799      0.2440     16.3683    145.6223     31.1925
  1372.9000      8.1121      2.4186      0.1859     14.0272    154.0390     31.8479
  1373.0000      8.0927      2.4500      0.1560     12.1191    158.0754     32.1560
  1373.1000      8.0927      2.4829      0.1624     10.1294    159.4152     32.1751
  1373.2000      8.0927      2.5098      0.1328      8.4969    161.5698     31.7055
  1373.3000      8.0975      2.5262      0.1370      7.5011    164.3144     31.0350
  1373.4000      8.0975      2.5346      0.2024      6.9966    166.3411     30.8097
  1373.5000      8.1217      2.5307      0.2219      7.2286    167.7773     30.9585
  1373.6000      8.1217      2.5141      0.1865      8.2363    166.9470     31.0268
  1373.7000      8.1217      2.4944      0.1335      9.4303    162.8109     31.0176
  1373.8000      8.1576      2.4655      0.2105     11.1825    158.1432     31.0001
  1373.9000      8.1576      2.4103      0.1261     14.5269    155.4438     30.9656
  1374.0000      8.1421      2.3363      0.1106     19.0138    152.3533     31.0570
  1374.1000      8.1421      2.2535      0.0425     24.0296    148.2323     31.2239
  1374.2000      8.1421      2.1566      0.0266     29.9052    145.3177     31.4062
  1374.3000      8.1354      2.0505      0.0305     36.3337    141.9969     31.7070
  1374.4000      8.1354      1.9694     -0.0439     41.2487    137.7492     32.0682
  1374.5000      8.0872      1.9432      0.0375     42.8342    134.2784     32.2683
  1374.6000      8.0872      1.9654      0.0167     41.4914    130.6571     32.2119
  1374.7000      8.0872      2.0157      0.0840     38.4422    126.7283     32.0973
  1374.8000      8.0500      2.0791      0.0927     34.6029    122.5878     32.2163
  1374.9000      8.0500      2.1524      0.1239     30.1559    116.3850     32.6978
  1375.0000      8.0254      2.2380      0.2359     24.9676    108.6274     33.1641
  1375.1000      8.0254      2.3226      0.2752     19.8397    105.7906     32.8783
  1375.2000      8.0254      2.3912      0.2295     15.6852    111.0013     31.6564
  1375.3000      7.9926      2.4468      0.1303     12.3176    117.4122     30.1937
  1375.4000      7.9926      2.4945      0.0841      9.4250    120.9598     29.1111
  1375.5000      7.9836      2.5278      0.0740      7.4052    126.3537     28.1957
  1375.6000      7.9836      2.5419      0.0752      6.5519    134.1111     27.1693
  1375.7000      7.9836      2.5444      0.0952      6.3991    137.8643     26.3108
  1375.8000      7.9767      2.5460      0.0673      6.3025    136.7401     25.8038
  1375.9000      7.9767      2.5506      0.0634      6.0241    136.5017     25.3414
  1376.0000      7.9759      2.5571      0.0785      5.6283    139.0009     24.8660
  1376.1000      7.9759      2.5596      0.1090      5.4814    142.9147     24.6912
  1376.2000      7.9759      2.5515      0.0554      5.9712    148.2695     24.8142
  1376.3000      7.9838      2.5357      0.0846      6.9285    154.0903     25.0100
  1376.4000      7.9838      2.5215      0.0385      7.7906    159.1648     25.1445
  1376.5000      7.9825      2.5215      0.0243      7.7906    160.2390     25.0853
  1376.6000      7.9825      2.5319      0.0844      7.1551    156.8183     24.9175
  1376.7000      7.9825      2.5383      0.0656      6.7676    155.2727     24.9716
  1376.8000      7.9792      2.5410      0.0499      6.6037    157.0267     25.3932
  1376.9000      7.9792      2.5422      0.0626      6.5342    159.4673     25.9724
  1377.0000      7.9707      2.5339      0.0847      7.0364    162.2019     26.2095
  1377.1000      7.9707      2.5138      0.0725      8.2550    164.5598     25.9891
  1377.2000      7.9707      2.4949      0.0297      9.3987    164.4701     25.8946
  1377.3000      7.9630      2.4907      0.0618      9.6547    162.4254     26.1474
  1377.4000      7.9630      2.4998      0.0384      9.1044    165.2757     26.3613
  1377.5000      7.9659      2.5100      0.0853      8.4842    174.4499     26.5429
