~Version Information
VERS.                      2.0: CWLS Log ASCII Standard - VERSION 2.0
WRAP.                       NO: One line per depth step
~Well Information Block
STRT.FT                -8.5000: 
STOP.FT              1968.0000: 
STEP.FT                 0.2500: 
NULL.                -999.2500: 
COMP.          Pioneer Natural Resources: COMPANY
WELL.           Firehawk 34-26: WELL
FLD.           Purgatorie River: FIELD
LOC.           1196' FSL & 1595' FEL--: LOCATION
STAT.                       CO: State
CNTY.               Las Animas: COUNTY
CTRY. USA : Country
SECT. 26 : Section
TOWN. 32S : Township
RANG. 66W : Range 
SRVC.          Patterson Wireline: SERVICE COMPANY
DATE.          Tue Oct 25 14:45:07 2005: LOG DATE
API.           05 071 08389 00: UNIQUE WELL ID
~Curve Information Block
DEPT.FT            0 000 00 00: Depth
CCL.                          : Casing Collar Locator
TT3.usec                      : CBL 3' Travel Time
AMP3.mV                       : CBL 3' Amplitude
GR.GAPI                       : Gamma Ray
~Parameter Information Block
~A  Depth       CCL         TT3         AMP3         GR     
# ...
  1030.0000      0.0000    675.6355      4.8934    120.8867
  1030.2500      0.0000    681.5240      4.8942    124.6496
  1030.5000      0.0000    684.5531      4.9156    128.0122
  1030.7500      0.0000    681.9746      4.9554    128.6314
  1031.0000      0.0000    676.3914      5.0076    125.2735
  1031.2500      0.0000    673.0695      5.0694    118.6751
  1031.5000      0.0000    674.7181      5.1406    111.1457
  1031.7500      0.0000    679.0011      5.2184    105.0517
  1032.0000      0.0000    681.0129      5.3009    101.5775
  1032.2500      0.0000    677.1636      5.3881    100.8073
  1032.5000      0.0000    667.0443      5.4736    102.5459
  1032.7500      0.0000    653.6285      5.5404    106.5858
  1033.0000      0.0000    642.3860      5.5721    112.2105
  1033.2500      0.0000    638.6533      5.5671    118.0972
  1033.5000      0.0000    644.2726      5.5386    123.0755
  1033.7500      0.0000    655.8798      5.5018    126.6188
  1034.0000      0.0000    666.5555      5.4642    128.4687
  1034.2500      0.0000    670.3600      5.4236    128.2499
  1034.5000      0.0000    666.0137      5.3725    125.5528
  1034.7500      0.0000    655.6137      5.3063    120.1783
  1035.0000      0.0000    640.6445      5.2308    112.6001
  1035.2500      0.0000    622.1983      5.1623    104.4214
  1035.5000      0.0000    605.3572      5.1214     97.9053
  1035.7500      0.0000    599.1131      5.1210     94.6245
  1036.0000      0.0000    608.8844      5.1572     94.4877
  1036.2500      0.0000    630.6694      5.2130     96.1804
  1036.5000      0.0000    654.3449      5.2705     98.4265
  1036.7500      0.0000    671.7870      5.3196    100.6327
  1037.0000      0.0000    680.9781      5.3571    102.6208
  1037.2500      0.0000    684.0292      5.3821    104.3263
  1037.5000      0.0000    683.3011      5.3958    105.7309
  1037.7500      0.0000    679.1392      5.4029    106.4968
  1038.0000      0.0000    669.9891      5.4092    105.6245
  1038.2500      0.0000    654.8115      5.4171    102.1196
  1038.5000      0.0000    636.6246      5.4256     96.3361
  1038.7500      0.0000    623.2931      5.4369     90.3265
  1039.0000      0.0000    622.4513      5.4610     86.4538
  1039.2500      0.0000    634.6340      5.5126     85.7044
  1039.5000      0.0000    652.6940      5.6008     87.4211
  1039.7500      0.0000    668.2891      5.7156     90.2024
  1040.0000      0.0000    677.7106      5.8233     92.6522
  1040.2500      0.0000    681.9302      5.8841     93.7469
  1040.5000      0.0000    683.4104      5.8764     93.2976
  1040.7500      0.0000    683.8772      5.8057     92.3335
  1041.0000      0.0000    684.0209      5.6916     92.5505
  1041.2500      0.0000    684.0029      5.5549     94.8692
  1041.5000      0.0000    683.8461      5.4163     98.4868
  1041.7500      0.0000    683.4684      5.3003    101.4352
  1042.0000      0.0000    682.5328      5.2283    102.0651
  1042.2500      0.0000    680.4871      5.2043    100.1183
  1042.5000      0.0000    677.0355      5.2105     96.7801
  1042.7500      0.0000    672.7972      5.2183     93.9999
  1043.0000      0.0000    669.2038      5.2034     93.6272
  1043.2500      0.0000    667.1547      5.1552     96.7625
  1043.5000      0.0000    665.6879      5.0792    103.4468
  1043.7500      0.0000    662.4918      4.9896    112.5122
  1044.0000      0.0000    655.6210      4.8974    121.6977
  1044.2500      0.0000    644.3206      4.8058    128.4304
  1044.5000      0.0000    628.7167      4.7182    131.0005
  1044.7500      0.0000    609.7767      4.6450    129.3456
  1045.0000      0.0000    589.6465      4.5988    124.9183
  1045.2500      0.0000    571.8465      4.5863    119.6870
  1045.5000      0.0000    561.4420      4.6118    114.8712
  1045.7500      0.0000    564.0283      4.6814    110.4300
  1046.0000      0.0000    582.0660      4.7941    105.6777
  1046.2500      0.0000    611.5516      4.9278    100.3976
  1046.5000      0.0000    643.8133      5.0415     95.5437
  1046.7500      0.0000    671.3732      5.0998     92.9315
  1047.0000      0.0000    691.6340      5.0996     93.9715
  1047.2500      0.0000    705.6309      5.0669     98.4071
  1047.5000      0.0000    714.8004      5.0255    104.4283
  1047.7500      0.0000    719.3356      4.9789    110.1094
  1048.0000      0.0000    718.4483      4.9244    114.5132
  1048.2500      0.0000    711.1294      4.8742    117.6034
  1048.5000      0.0000    696.8074      4.8520    119.8299
  1048.7500      0.0000    676.4590      4.8761    122.0593
  1049.0000      0.0000    653.5089      4.9478    125.3499
  1049.2500      0.0000    632.3565      5.0544    130.2040
  1049.5000      0.0000    614.9406      5.1764    135.7763
  1049.7500      0.0000    599.4656      5.2922    140.0242
  1050.0000      0.0000    583.0776      5.3803    141.1535
  1050.2500      0.0000    565.0257      5.4270    139.1938
  1050.5000      0.0000    547.0132      5.4287    136.0549
  1050.7500      0.0000    531.4769      5.3794    133.9838
  1051.0000      0.0000    519.8954      5.2569    133.8915
  1051.2500      0.0000    512.1356      5.0492    134.9820
  1051.5000      0.0000    506.8595      4.8106    136.0145
  1051.7500      0.0000    502.7141      4.6597    136.7762
  1052.0000      0.0000    499.3936      4.6697    137.7247
  1052.2500      0.0000    497.6028      4.7774    138.1240
  1052.5000      0.0000    497.9805      4.8538    135.5531
  1052.7500      0.0000    500.3472      4.8489    128.0721
  1053.0000      0.0000    504.2562      4.8146    116.7013
  1053.2500      0.0000    510.0469      4.8123    105.3104
  1053.5000      2.0000    519.2780      4.8535     97.9590
  1053.7500      0.0000    534.3817      4.9202     96.3906
  1054.0000      0.0000    557.3773      5.0081     99.8444
  1054.2500      0.0000    587.6204      5.1439    106.3859
  1054.5000      0.0000    620.6303      5.3586    113.7017
  1054.7500      0.0000    650.1674      5.6270    119.1372
  1055.0000      0.0000    671.8657      5.8553    120.3781
  1055.2500      0.0000    684.4291      5.9660    116.8991
  1055.5000      0.0000    688.2413      5.9782    110.4612
  1055.7500      0.0000    684.7942      5.9683    103.9152
  1056.0000      0.0000    677.9297      5.9762     99.5327
  1056.2500      0.0000    673.4141      5.9779     98.0219
  1056.5000      0.0000    674.5115      5.9351     98.3471
  1056.7500      0.0000    678.4661      5.8499     98.3566
  1057.0000      0.0000    680.0191      5.7698     96.2262
  1057.2500      0.0000    678.2474      5.7407     91.9307
  1057.5000      0.0000    677.3533      5.7632     87.4197
  1057.7500      0.0000    680.9745      5.7935     85.0651
  1058.0000      0.0000    688.6298      5.7666     85.7882
  1058.2500      0.0000    697.7529      5.6174     88.4311
  1058.5000      0.0000    705.9955      5.3143     90.4028
  1058.7500      0.0000    711.0991      4.9022     88.8663
  1059.0000      0.0000    711.6811      4.5057     82.2626
  1059.2500      0.0000    709.2980      4.2813     71.6521
  1059.5000      0.0000    707.8171      4.3499     60.6143
  1059.7500      0.0000    709.5921      4.7265     53.2213
  1060.0000      0.0000    713.1362      5.2626     51.3546
  1060.2500      0.0000    715.4752      5.6838     53.5945
  1060.5000      0.0000    716.3655      5.7595     56.6567
  1060.7500      0.0000    718.9644      5.4653     58.0299
  1061.0000      0.0000    725.8999      4.9653     57.5174
  1061.2500      0.0000    735.9271      4.4577     56.7570
  1061.5000      0.0000    745.5281      4.0601     57.4789
  1061.7500      0.0000    753.2849      3.8106     60.0153
  1062.0000      0.0000    761.4797      3.7130     63.4525
  1062.2500      0.0000    772.9102      3.7589     67.3061
  1062.5000      0.0000    786.3759      3.9212     72.5454
  1062.7500      0.0000    796.3967      4.1460     80.2675
  1063.0000      0.0000    798.4681      4.3637     89.5944
  1063.2500      0.0000    793.7417      4.5192     97.7721
