~Version Information
VERS.                      2.0: CWLS Log ASCII Standard - VERSION 2.0
WRAP.                       NO: One line per depth step
~Well Information Block
STRT.FT               294.0000: 
STOP.FT              1961.5000: 
STEP.FT                 0.2500: 
NULL.                -999.2500: 
COMP.          Pioneer Natural Resources: COMPANY
WELL.          Commander 43-26 Tr: WELL
FLD.           Purgatoire River: FIELD
LOC.           2439' FSL & 446' FEL: LOCATION
PROV.                 Colorado: PROVINCE
CNTY.               Las Animas: COUNTRY
SRVC.                Patterson: SERVICE COMPANY
DATE.          Thu Apr 14 18:26:07 2005: LOG DATE
UWI.           05 071 08341 00: UNIQUE WELL ID
~Curve Information Block
DEPT.FT            0 000 00 00: Depth
SN.Ohm-m                      : IEL Short Normal
SP.mV                         : IEL Spontaneous Potential
DIR.Ohm-m                     : IEL Induction Resistivity
GR.GAPI                       : Gamma Ray
~Parameter Information Block
~A  Depth        SN          SP         DIR          GR     
# ...
   394.5000   2000.0000   2000.0000     42.4880     96.5756
   394.7500   2000.0000   2000.0000     40.5506     95.3341
   395.0000   2000.0000   2000.0000     38.8222     93.1262
   395.2500   2000.0000   2000.0000     37.3463     91.4220
   395.5000   2000.0000   2000.0000     36.0868     88.7784
   395.7500   2000.0000   2000.0000     34.9748     87.2846
   396.0000   2000.0000   2000.0000     33.9410     85.7947
   396.2500   2000.0000   2000.0000     32.9257     85.3756
   396.5000   2000.0000   2000.0000     31.8815     86.1452
   396.7500   2000.0000   2000.0000     30.7919     88.3042
   397.0000   2000.0000   2000.0000     29.7031     95.0502
   397.2500   2000.0000   2000.0000     28.7368    101.6407
   397.5000   2000.0000   2000.0000     28.0554    112.3144
   397.7500   2000.0000   2000.0000     27.7922    117.9949
   398.0000   2000.0000   2000.0000     27.9859    121.7317
   398.2500   2000.0000   2000.0000     28.5495    120.5403
   398.5000   2000.0000   2000.0000     29.2909    113.9927
   398.7500   2000.0000   2000.0000     29.9893    107.3285
   399.0000   2000.0000   2000.0000     30.5002     95.4367
   399.2500   2000.0000   2000.0000     30.8152     87.1008
   399.5000   2000.0000   2000.0000     31.0313     75.4549
   399.7500   2000.0000   2000.0000     31.2657     69.0957
   400.0000   2000.0000   2000.0000     31.5919     62.6170
   400.2500   2000.0000   2000.0000     32.0307     60.3316
   400.5000   2000.0000   2000.0000     32.5788     59.0535
   400.7500   2000.0000   2000.0000     33.2321     58.9516
   401.0000   2000.0000   2000.0000     33.9854     59.0084
   401.2500   2000.0000   2000.0000     34.8169     58.8372
   401.5000   2000.0000   2000.0000     35.6855     57.9943
   401.7500   2000.0000   2000.0000     36.5377     57.1498
   402.0000   2000.0000   2000.0000     37.3071     56.0773
   402.2500   2000.0000   2000.0000     37.9070     55.9170
   402.5000   2000.0000   2000.0000     38.2389     56.8073
   402.7500   2000.0000   2000.0000     38.2377     57.9029
   403.0000   2000.0000   2000.0000     37.9275     59.4037
   403.2500   2000.0000   2000.0000     37.4293     59.9275
   403.5000   2000.0000   2000.0000     36.8942     60.1298
   403.7500   2000.0000   2000.0000     36.4090     60.2910
   404.0000   2000.0000   2000.0000     35.9537     61.0376
   404.2500   2000.0000   2000.0000     35.4578     61.6506
   404.5000   2000.0000   2000.0000     34.9107     61.8398
   404.7500   2000.0000   2000.0000     34.4288     61.1876
   405.0000   2000.0000   2000.0000     34.1976     59.3928
   405.2500   2000.0000   2000.0000     34.3385     58.0749
   405.5000   2000.0000   2000.0000     34.8036     56.5146
   405.7500   2000.0000   2000.0000     35.3682     56.1415
   406.0000   2000.0000   2000.0000     35.7471     57.6119
   406.2500   2000.0000   2000.0000     35.7778     60.4657
   406.5000   2000.0000   2000.0000     35.5070     67.2181
   406.7500   2000.0000   2000.0000     35.1006     72.2331
   407.0000   2000.0000   2000.0000     34.7003     78.0821
   407.2500   2000.0000   2000.0000     34.3716     80.0841
   407.5000   2000.0000   2000.0000     34.1345     80.6525
   407.7500   2000.0000   2000.0000     34.0070     80.1815
   408.0000   2000.0000   2000.0000     34.0224     79.2815
   408.2500   2000.0000   2000.0000     34.2362     78.8754
   408.5000   2000.0000   2000.0000     34.7197     78.7943
   408.7500   2000.0000   2000.0000     35.5300     78.9952
   409.0000   2000.0000   2000.0000     36.6637     78.9575
   409.2500   2000.0000   2000.0000     38.0196     78.2373
   409.5000   2000.0000   2000.0000     39.3881     76.1284
   409.7500   2000.0000   2000.0000     40.4850     74.6219
   410.0000   2000.0000   2000.0000     41.0404     73.3455
   410.2500   2000.0000   2000.0000     40.9274     73.3743
   410.5000   2000.0000   2000.0000     40.2189     74.2213
   410.7500   2000.0000   2000.0000     39.0915     74.7600
   411.0000   2000.0000   2000.0000     37.6841     74.6435
   411.2500   2000.0000   2000.0000     36.0690     73.6765
   411.5000   2000.0000   2000.0000     34.3363     71.1341
   411.7500   2000.0000   2000.0000     32.6488     69.3408
   412.0000   2000.0000   2000.0000     31.1866     68.2024
   412.2500   2000.0000   2000.0000     30.0436     69.4641
   412.5000   2000.0000   2000.0000     29.1667     75.0899
   412.7500   2000.0000   2000.0000     28.3771     80.8507
   413.0000   2000.0000   2000.0000     27.4669     90.7002
   413.2500   2000.0000   2000.0000     26.3314     97.1120
   413.5000   2000.0000   2000.0000     25.0315    105.8053
   413.7500   2000.0000   2000.0000     23.7270    111.0743
   414.0000   2000.0000   2000.0000     22.5571    118.7045
   414.2500   2000.0000   2000.0000     21.5775    123.8975
   414.5000   2000.0000   2000.0000     20.7725    131.9638
   414.7500   2000.0000   2000.0000     20.1000    137.2061
   415.0000   2000.0000   2000.0000     19.5285    143.6736
   415.2500   2000.0000   2000.0000     19.0511    146.3480
   415.5000   2000.0000   2000.0000     18.6745    147.6681
   415.7500   2000.0000   2000.0000     18.4002    147.4030
   416.0000   2000.0000   2000.0000     18.2124    146.8938
   416.2500   2000.0000   2000.0000     18.0801    146.9040
   416.5000   2000.0000   2000.0000     17.9720    146.7598
   416.7500   2000.0000   2000.0000     17.8686    145.8899
   417.0000   2000.0000   2000.0000     17.7672    143.1195
   417.2500   2000.0000   2000.0000     17.6739    140.7488
   417.5000   2000.0000   2000.0000     17.5923    137.6157
   417.7500   2000.0000   2000.0000     17.5173    136.3758
   418.0000   2000.0000   2000.0000     17.4401    136.1049
   418.2500   2000.0000   2000.0000     17.3584    136.7767
   418.5000   2000.0000   2000.0000     17.2813    138.5025
   418.7500   2000.0000   2000.0000     17.2207    140.0285
   419.0000   2000.0000   2000.0000     17.1750    143.2123
   419.2500   2000.0000   2000.0000     17.1235    146.0665
   419.5000   2000.0000   2000.0000     17.0401    150.8045
   419.7500   2000.0000   2000.0000     16.9145    153.4802
   420.0000   2000.0000   2000.0000     16.7612    155.8691
   420.2500   2000.0000   2000.0000     16.6078    156.4863
   420.5000   2000.0000   2000.0000     16.4757    156.5531
   420.7500   2000.0000   2000.0000     16.3733    156.1401
   421.0000   2000.0000   2000.0000     16.3005    154.9561
   421.2500   2000.0000   2000.0000     16.2540    154.2383
   421.5000   2000.0000   2000.0000     16.2261    154.3714
   421.7500   2000.0000   2000.0000     16.2022    155.4440
   422.0000   2000.0000   2000.0000     16.1651    157.4757
   422.2500   2000.0000   2000.0000     16.1056    158.1300
   422.5000   2000.0000   2000.0000     16.0304    157.1241
   422.7500   2000.0000   2000.0000     15.9581    155.4102
   423.0000   2000.0000   2000.0000     15.9089    152.6470
   423.2500   2000.0000   2000.0000     15.8954    151.3680
   423.5000   2000.0000   2000.0000     15.9223    150.6615
   423.7500   2000.0000   2000.0000     15.9920    150.8681
   424.0000   2000.0000   2000.0000     16.1084    151.8077
   424.2500   2000.0000   2000.0000     16.2763    152.5550
   424.5000   2000.0000   2000.0000     16.4964    153.2174
   424.7500   2000.0000   2000.0000     16.7640    153.0817
   425.0000   2000.0000   2000.0000     17.0717    151.9417
   425.2500   2000.0000   2000.0000     17.4127    150.6422
   425.5000   2000.0000   2000.0000     17.7859    148.1190
   425.7500   2000.0000   2000.0000     18.1972    146.3659
   426.0000   2000.0000   2000.0000     18.6543    144.6202
   426.2500   2000.0000   2000.0000     19.1505    144.6582
   426.5000   2000.0000   2000.0000     19.6529    146.5530
   426.7500   2000.0000   2000.0000     20.1101    148.0732
   427.0000   2000.0000   2000.0000     20.4824    148.3731
   427.2500   2000.0000   2000.0000     20.7673    146.6620
   427.5000   2000.0000   2000.0000     20.9937    142.5301
   427.7500   2000.0000   2000.0000     21.1930    140.1615
