~Version Information
VERS.                      2.0: CWLS Log ASCII Standard - VERSION 2.0
WRAP.                       NO: One line per depth step
~Well Information Block
STRT.FT               840.0000: 
STOP.FT              2448.5000: 
STEP.FT                 0.2500: 
NULL.                -999.2500: 
COMP.          Petrogulf Corporation: COMPANY
WELL.             Leier 17-42V: WELL
FLD.           Purgatorie River: FIELD
LOC.           2309' FNL & 1062' FEL SENE 17 33S 67W: LOCATION
PROV.                 Colorado: PROVINCE
CNTY.               Las Animas: COUNTRY
SRVC.                Patterson: SERVICE COMPANY
DATE.          Thu Sep 22 09:40:29 2005: LOG DATE
UWI.                 071 08409: UNIQUE WELL ID
~Curve Information Block
DEPT.FT            0 000 00 00: Depth
SP.mV                         : DIL Spontaneous Potential
RILD.Ohm-m                    : DIL Deep Resistivity
RILM.Ohm-m                    : DIL Medium Resistivity
RLL3.Ohm-m                    : DIL Shallow Resistivity
GR.GAPI                       : Gamma Ray
~Parameter Information Block
~A  Depth        SP         RILD        RILM        RLL3         GR     
# ...
  2296.0000    147.9220     14.6256     16.9205     27.5981     45.4621
  2296.2500    146.4553     13.9384     15.5620     22.1956     37.8819
  2296.5000    145.0946     13.2663     14.4160     17.7920     56.5227
  2296.7500    143.8364     12.9754     13.4741     14.9485     55.3319
  2297.0000    142.6628     12.6104     12.7686     13.0765     60.3746
  2297.2500    141.6630     12.1592     12.3350     12.8761     74.4680
  2297.5000    140.6492     11.6732     11.7420     13.2180     70.1808
  2297.7500    139.6554     11.2209     11.2631     12.9647     79.4933
  2298.0000    138.5504     10.6320     10.9462     12.6335     81.1269
  2298.2500    137.5255     10.7366     10.5365     12.3839     81.0412
  2298.5000    136.5673     10.8938     10.0463     12.0946     71.4733
  2298.7500    135.8014     11.2991      9.6223     11.0902     84.0076
  2299.0000    135.0914     11.6985      9.4073      9.5452     74.7794
  2299.2500    134.5748     12.2605      9.4708      8.3883     77.2319
  2299.5000    134.2404     12.7675     10.0266      8.5462     83.2971
  2299.7500    134.0540     13.5950     11.2524     13.8965     77.4572
  2300.0000    134.0912     14.1671     13.5408     35.8360     85.0291
  2300.2500    134.5815     14.9948     16.4130     91.6850     62.7913
  2300.5000    135.2231     15.8001     20.0601    197.7079     44.5754
  2300.7500    136.1382     16.6206     23.2498    352.9475     38.8026
  2301.0000    137.1105     17.2192     25.9410    576.2104     29.2034
  2301.2500    138.3082     18.0521     28.1276    901.1752     29.1500
  2301.5000    139.6707     20.3859     31.5137   1129.1392     31.7806
  2301.7500    141.0844     24.7006     37.8548   1078.8109     29.5251
  2302.0000    142.3358     25.9638     41.4408    991.7012     25.8096
  2302.2500    143.1868     29.1946     45.7746    974.6853     24.7815
  2302.5000    143.6819     33.4057     52.1125    972.0616     30.9773
  2302.7500    143.9301     34.9264     60.2565    909.9887     27.7958
  2303.0000    144.1725     31.3853     74.5473    822.6017     22.1096
  2303.2500    144.6176     36.2299    109.4302    744.9088     19.3522
  2303.5000    145.4163     32.1589    149.1485    717.2079     18.7259
  2303.7500    146.7092     28.5644    127.6049    698.5552     17.2698
  2304.0000    148.2747     25.7335     97.7431    577.4105      9.5615
  2304.2500    149.6836     23.4561     66.3206    413.7955     10.0647
  2304.5000    150.8993     20.3886     43.8499    280.4030     30.1854
  2304.7500    152.1185     19.7011     32.9424    155.6611     38.0971
  2305.0000    153.4196     19.6648     26.2070     70.3506     24.5737
  2305.2500    154.6119     19.3261     21.1260     25.0568     26.9171
  2305.5000    155.5789     19.0435     17.6400     12.3384     38.0340
  2305.7500    156.0487     18.7780     17.9355      9.9605     38.2354
  2306.0000    156.2347     18.2315     17.0717      9.7568     42.0489
  2306.2500    156.3669     18.1548     16.7810     10.3071     63.4211
  2306.5000    156.2990     17.5992     17.1136     11.8263     64.6776
  2306.7500    156.0138     17.2581     18.4113     13.3031     78.5503
  2307.0000    155.7803     16.9032     17.1545     14.3440     75.5282
  2307.2500    155.7082     16.9373     18.1723     14.9807     65.4372
  2307.5000    155.6322     17.1415     18.5151     14.9353     54.6641
  2307.7500    155.6297     17.9059     19.2811     14.5816     53.8339
  2308.0000    155.6394     18.8529     20.1620     14.3284     55.3409
  2308.2500    155.7042     18.5562     21.9434     14.7614     52.8136
  2308.5000    155.7002     18.8369     23.1125     15.2734     60.0795
  2308.7500    155.5763     19.8729     23.6170     16.1577     57.0035
  2309.0000    155.3062     20.2091     23.4639     16.3564     56.4719
  2309.2500    154.9848     19.6905     23.3925     15.0907     48.1832
  2309.5000    154.6010     18.7669     23.1750     12.8791     55.2181
  2309.7500    154.0379     17.8125     22.6628     11.4271     62.3615
  2310.0000    153.3875     16.5722     22.0994     10.6788     47.1469
  2310.2500    152.7156     15.8341     21.4584     10.4470     68.1047
  2310.5000    151.9472     14.7519     20.3707     10.5055    101.8009
  2310.7500    151.1269     13.6041     19.8368     11.6840     91.7056
  2311.0000    150.1780     12.4016     19.3709     18.1105     84.9866
  2311.2500    149.2737     11.1792     18.4533     36.3631     77.2839
  2311.5000    148.6904     10.2132     16.7432     64.9845     72.6084
  2311.7500    148.7248      9.2730     14.4535     74.9439     61.5192
  2312.0000    149.2668      8.5672     11.9867     51.3824     57.5107
  2312.2500    150.2585      7.9920      9.8165     23.4508     57.6992
  2312.5000    151.2801      7.5197      7.9809     11.1065     46.6558
  2312.7500    151.9449      7.1472      6.8108      7.7512     48.8646
  2313.0000    151.9565      6.8787      6.0969      6.9330     59.9314
  2313.2500    151.5836      6.6421      5.6228      7.1304     76.1787
  2313.5000    151.0375      6.5370      5.3154      6.9569     98.7717
  2313.7500    150.4916      6.4017      5.1295      7.0151    113.9421
  2314.0000    149.9318      6.2839      4.9911      6.8438    140.5778
  2314.2500    149.4070      6.2178      4.9513      6.8772    116.7801
  2314.5000    148.9044      6.2493      4.9849      7.1245    127.0842
  2314.7500    148.4323      6.3364      5.1172      7.8345    123.9503
  2315.0000    148.0066      6.4562      5.3531      8.1453    116.5161
  2315.2500    147.5570      6.6510      5.8005      7.9676    132.7436
  2315.5000    147.2650      6.8890      6.4105      9.4771    148.4705
  2315.7500    147.1507      7.1435      7.1796     15.4039    166.1696
  2316.0000    147.1385      7.5083      8.1110     28.3575    139.9971
  2316.2500    147.3919      7.9838      9.0977     46.4893    134.0769
  2316.5000    147.9039      8.6228     10.0967     68.3875     89.7878
  2316.7500    148.5849      9.3794     11.0741     71.9734     80.0349
  2317.0000    149.2889     10.2108     11.8943     43.0361     65.4359
  2317.2500    149.7659     11.1623     12.8224     25.4595     69.9747
  2317.5000    149.8149     11.9698     13.7331     20.4284     60.8914
  2317.7500    149.5834     12.9476     14.8396     18.9680     60.5511
  2318.0000    149.2023     13.8479     15.7952     18.5714     52.5826
  2318.2500    148.6555     14.3871     16.6944     18.8906     53.1586
  2318.5000    148.0288     14.4976     16.9727     19.0053     48.9260
  2318.7500    147.3755     14.3391     16.9490     18.5035     52.4792
  2319.0000    146.7408     13.9938     16.4315     17.0385     60.1923
  2319.2500    146.1091     13.5482     16.0792     15.7221     67.4192
  2319.5000    145.4794     12.9752     15.4063     15.4344     53.1746
  2319.7500    144.8768     12.7577     14.8448     16.2553     53.4385
  2320.0000    144.3834     12.3726     14.1947     17.5075     65.0113
  2320.2500    144.0152     12.2120     13.5368     17.1725     64.9073
  2320.5000    143.7569     12.1588     12.9661     14.8607     84.6457
  2320.7500    143.5862     11.8563     12.4519     12.1784     69.4376
  2321.0000    143.4619     11.5477     12.2497     11.8106     80.2583
  2321.2500    143.3834     11.8227     12.1226     13.6117    105.6057
  2321.5000    143.1732     11.5447     12.0813     15.0667    127.7632
  2321.7500    142.7624     11.9178     12.1180     13.9952    113.4964
  2322.0000    142.2728     11.8758     12.2403     12.8375    105.0510
  2322.2500    141.6491     11.9310     12.0548     13.3466     94.5593
  2322.5000    141.0665     11.8598     12.1820     14.5086     94.0319
  2322.7500    140.4992     11.8481     12.3381     14.1438     92.3137
  2323.0000    139.8727     11.8585     12.5849     13.4877     96.5090
  2323.2500    139.1612     12.0978     12.5937     14.5411     93.3218
  2323.5000    138.4599     12.2122     12.7942     16.0083     79.8276
  2323.7500    137.8563     12.2526     13.0130     15.4304     86.7248
