~Version Information
VERS.                      2.0: CWLS Log ASCII Standard - VERSION 2.0
WRAP.                       NO: One line per depth step
~Well Information Block
STRT.FT               765.4000: 
STOP.FT              2581.2000: 
STEP.FT                 0.1000: 
NULL.                -999.2500: 
COMP.          Petrogulf Corporation: COMPANY
WELL.            Montoya 7-12V: WELL
FLD.           Purgatorie River: FIELD
LOC.           728' FWL & 1764' FNL: LOCATION
CNTY.               Las Animas: COUNTY
SRVC.                         : SERVICE COMPANY
DATE.          Fri Feb 20 09:23:58 2004: LOG DATE
UWI.           05-071-07887-00: UNIQUE WELL ID
STAT.                 Colorado: STATE
~Curve Information Block
DEPT.FT            0 000 00 00: Depth
DCAL.in                       : CDL Caliper
RHOB.g/cc                     : CDL Bulk Density
RHOC.g/cc                     : CDL Density Correction
DPOR.pu                       : CDL Density Porosity
GR.GAPI                       : Gamma Ray
NPOR.pu                       : Neutron Porosity
~Parameter Information Block
~A  Depth       DCAL        RHOB        RHOC        DPOR         GR         NPOR    
# ...
  2215.0000      7.9869      2.5276      0.0786      7.4184     73.4416     23.1451
  2215.1000      7.9869      2.5163     -0.0207      8.1040     69.3282     23.0539
  2215.2000      7.9869      2.5080     -0.0673      8.6062     67.4678     22.6687
  2215.3000      7.9949      2.4999      0.0011      9.0972     73.8789     22.4821
  2215.4000      7.9949      2.4825      0.0089     10.1518     81.0923     22.6441
  2215.5000      8.0028      2.4645     -0.0687     11.2396     78.4496     22.9996
  2215.6000      8.0028      2.4701     -0.0553     10.9045     64.5385     23.4189
  2215.7000      8.0028      2.4995      0.0338      9.1222     49.4379     23.8309
  2215.8000      7.9974      2.5304      0.0788      7.2514     42.6679     24.0915
  2215.9000      7.9974      2.5478      0.0537      6.1943     46.1602     24.3364
  2216.0000      7.9443      2.5499      0.0289      6.0648     56.4679     24.1542
  2216.1000      7.9443      2.5337      0.1099      7.0482     68.5195     22.8904
  2216.2000      7.9443      2.5072      0.0092      8.6533     77.8929     21.3096
  2216.3000      7.9432      2.4934      0.0561      9.4902     80.5617     20.5628
  2216.4000      7.9432      2.4956      0.0268      9.3574     74.3387     20.7013
  2216.5000      7.9344      2.5129     -0.0363      8.3067     63.5891     21.1474
  2216.6000      7.9344      2.5477      0.0477      6.1999     56.8578     21.6275
  2216.7000      7.9344      2.5744      0.0428      4.5839     56.7305     22.0186
  2216.8000      7.9239      2.5708      0.0602      4.7980     54.6416     21.9946
  2216.9000      7.9239      2.5579      0.0133      5.5795     47.3107     21.7088
  2217.0000      7.9311      2.5617      0.0673      5.3530     41.0024     21.5583
  2217.1000      7.9311      2.5676      0.0679      4.9928     40.7632     21.4729
  2217.2000      7.9311      2.5592      0.0620      5.5003     46.7866     21.4685
  2217.3000      7.9074      2.5497      0.0253      6.0816     55.2854     21.4429
  2217.4000      7.9074      2.5436      0.0836      6.4483     61.9354     21.1484
  2217.5000      7.8904      2.5414     -0.0038      6.5795     64.9670     20.9045
  2217.6000      7.8904      2.5607      0.0664      5.4109     67.4355     21.1775
  2217.7000      7.8904      2.5887      0.0877      3.7125     70.6601     21.7215
  2217.8000      7.8633      2.5895      0.1028      3.6662     70.1473     21.8906
  2217.9000      7.8633      2.5598      0.0356      5.4679     64.7618     21.6003
  2218.0000      7.8763      2.5281      0.0351      7.3854     59.3585     21.3071
  2218.1000      7.8763      2.5180      0.0204      7.9985     56.2536     21.1467
  2218.2000      7.8763      2.5380      0.0321      6.7882     55.3825     21.1220
  2218.3000      7.9014      2.5814      0.0535      4.1547     58.3299     21.5890
  2218.4000      7.9014      2.6205      0.1452      1.7895     66.0516     22.3677
  2218.5000      7.9114      2.6248      0.1306      1.5290     73.9355     22.6275
  2218.6000      7.9114      2.5979      0.0365      3.1548     72.5898     22.4030
  2218.7000      7.9114      2.5711      0.0441      4.7835     61.6491     22.2753
  2218.8000      7.9028      2.5636      0.0727      5.2352     53.6043     22.1060
  2218.9000      7.9028      2.5793      0.0880      4.2869     57.1113     21.6469
  2219.0000      7.8991      2.6145      0.0943      2.1540     67.9313     21.0249
  2219.1000      7.8991      2.6510      0.1355     -0.0604     75.3105     20.2702
  2219.2000      7.8991      2.6606      0.0998     -0.6398     73.8267     19.4143
  2219.3000      7.9099      2.6390      0.0429      0.6644     65.9202     18.7990
  2219.4000      7.9099      2.6106      0.0250      2.3897     59.1280     18.5176
  2219.5000      7.9256      2.5939      0.0484      3.4015     58.8604     18.0203
  2219.6000      7.9256      2.5889      0.0383      3.7033     61.5831     17.3816
  2219.7000      7.9256      2.5791      0.0705      4.2941     62.4208     17.2366
  2219.8000      7.9189      2.5600     -0.0070      5.4527     62.8328     17.5656
  2219.9000      7.9189      2.5522      0.0145      5.9295     61.2364     18.0971
  2220.0000      7.9208      2.5618      0.0282      5.3463     53.2936     18.7917
  2220.1000      7.9208      2.5809      0.0315      4.1896     45.0359     19.2023
  2220.2000      7.9208      2.6127      0.0491      2.2608     47.5398     18.8330
  2220.3000      7.9251      2.6475      0.1266      0.1501     57.7788     17.9681
  2220.4000      7.9251      2.6554      0.0578     -0.3253     63.4161     17.3449
  2220.5000      7.9348      2.6346      0.0609      0.9359     62.9590     17.7127
  2220.6000      7.9348      2.6159      0.0381      2.0670     61.4609     18.6000
  2220.7000      7.9348      2.6150      0.1003      2.1205     60.4746     18.7814
  2220.8000      7.9368      2.6108      0.0815      2.3786     61.9641     18.4260
  2220.9000      7.9368      2.5921      0.0100      3.5063     65.8770     18.3944
  2221.0000      7.9364      2.5771      0.0529      4.4164     68.2756     18.6601
  2221.1000      7.9364      2.5685      0.1138      4.9391     67.8831     18.8236
  2221.2000      7.9364      2.5575      0.0560      5.6033     66.0893     18.7895
  2221.3000      7.9363      2.5510      0.0578      6.0003     64.4368     18.8038
  2221.4000      7.9363      2.5503      0.0490      6.0453     62.1164     19.0670
  2221.5000      7.9175      2.5415      0.0272      6.5766     59.5310     19.3862
  2221.6000      7.9175      2.5232     -0.0405      7.6819     60.5288     19.2568
  2221.7000      7.9175      2.5028     -0.0092      8.9185     65.2087     18.5982
  2221.8000      7.9190      2.4870     -0.0471      9.8790     68.0115     18.0396
  2221.9000      7.9190      2.4999      0.0204      9.0991     64.4943     18.1680
  2222.0000      7.8960      2.5489      0.0701      6.1277     58.2816     18.6617
  2222.1000      7.8960      2.6024      0.1622      2.8834     55.1268     18.8144
  2222.2000      7.8960      2.6303      0.1466      1.1955     57.8560     18.3694
  2222.3000      7.8891      2.6327      0.1322      1.0483     62.8818     17.3582
  2222.4000      7.8891      2.6306      0.0399      1.1745     61.0139     16.1193
  2222.5000      7.9097      2.6407      0.1263      0.5607     50.8901     15.2803
  2222.6000      7.9097      2.6585      0.0958     -0.5173     43.1051     15.3300
  2222.7000      7.9097      2.6700      0.1203     -1.2118     43.5758     15.9471
  2222.8000      7.8783      2.6590      0.1365     -0.5438     44.3421     15.8058
  2222.9000      7.8783      2.6282      0.0288      1.3220     42.1333     14.3653
  2223.0000      7.8957      2.5992      0.0423      3.0817     41.7249     12.8642
  2223.1000      7.8957      2.5804      0.0453      4.2167     42.5451     12.5953
  2223.2000      7.8957      2.5824     -0.0146      4.0972     42.1074     13.2132
  2223.3000      7.9200      2.6145      0.0210      2.1526     41.6779     13.6027
  2223.4000      7.9200      2.6520      0.0809     -0.1193     41.5271     13.8060
  2223.5000      7.9049      2.6583      0.0626     -0.5025     41.0032     14.2229
  2223.6000      7.9049      2.6387      0.0357      0.6828     43.1079     14.2399
  2223.7000      7.9049      2.6243      0.0882      1.5599     47.0318     13.5374
  2223.8000      7.8821      2.6217      0.0446      1.7140     48.3699     13.0586
  2223.9000      7.8821      2.6294      0.0334      1.2469     48.3832     13.2248
  2224.0000      7.8755      2.6433      0.0628      0.4061     49.2422     13.3358
  2224.1000      7.8755      2.6435      0.1746      0.3936     48.0656     13.2241
  2224.2000      7.8755      2.6248      0.0876      1.5283     45.9007     13.2681
  2224.3000      7.8741      2.6143      0.0197      2.1624     47.8875     13.4050
  2224.4000      7.8741      2.6228      0.1544      1.6472     52.3482     13.3700
  2224.5000      7.8783      2.6254      0.0768      1.4908     56.1072     13.2248
