~Version Information
 VERS.                                  2.0 : CWLS LAS VERSION
 WRAP.                                   NO : WRAPING MODE
 SWARE .                 MController 2.5.0J : SOFTWARE VERSION
~Well Information
 WELL.                  Great Plains 22-21V : WELL
 COMP.                Petrogulf Corporation : COMPANY
 FLD.                      Purgatoire River : FIELD
 LOC.                NE/NW Sec 22 T33S R67W : LOCATION
 DATE.                          08/29-30/05 : DATE(S) LOGGED
 SRVC.       Blanco Geological Services LLC : SERVICE COMPANY
 STAT.                                   CO : STATE
 CNTY.                           Las Animas : COUNTY
 CTRY.                                  USA : COUNTRY
 API.                       05-071-08346-00 : API NUMBER
 STRT.FT                              -2.00 : START DEPTH
 STOP.FT                            2090.00 : STOP DEPTH
 STEP.FT                               1.00 : DEPTH INCREMENT
 NULL.                                -9999 : NULL VALUE
~Curve information
 DEPTH.FT                                   :
 ROP.MIN/FT                                 :
 GAS.UNITS                                  :
~ASCII Log data
# ...
       198.0         0.30         11.5 
       199.0         0.27         11.8 
       200.0         0.27         12.0 
       201.0         0.27         11.9 
       202.0         0.27         12.0 
       203.0         0.23         11.8 
       204.0         0.27         11.9 
       205.0         0.33         12.0 
       206.0         1.25         12.2 
       207.0         0.47         12.3 
       208.0         0.27         12.2 
       209.0         0.23         12.2 
       210.0         0.27         12.3 
       211.0         0.40         12.2 
       212.0         0.27         12.3 
       213.0         0.27         12.6 
       214.0         0.18         12.5 
       215.0         0.23         12.5 
       216.0         0.23         12.2 
       217.0         0.23         12.5 
       218.0         0.27         12.5 
       219.0         0.17         12.2 
       220.0         0.13         12.6 
       221.0         0.23         12.5 
       222.0         0.23         12.7 
       223.0         0.23         12.6 
       224.0         0.33         12.6 
       225.0         0.27         12.7 
       226.0         0.27         12.6 
       227.0         0.27         12.9 
       228.0         0.32         12.9 
       229.0         0.30         12.8 
       230.0         0.27         12.8 
       231.0         0.27         12.9 
       232.0         0.27         12.8 
       233.0         0.27         12.5 
       234.0         0.23         13.1 
       235.0         0.27         12.9 
       236.0         1.32         13.2 
       237.0         0.30         13.2 
       238.0         0.27         13.0 
       239.0         0.27         13.0 
       240.0         0.27         13.0 
       241.0         0.23         13.1 
       242.0         0.30         12.9 
       243.0         0.30         13.0 
       244.0         0.27         13.0 
       245.0         0.30         13.0 
       246.0         0.32         13.0 
       247.0         0.27         13.0 
       248.0         0.30         13.0 
       249.0         0.30         13.1 
       250.0         0.30         13.2 
       251.0         0.33         13.4 
       252.0         0.27         13.2 
       253.0         0.30         13.5 
       254.0         0.30         12.8 
       255.0         0.27         13.3 
       256.0         0.23         13.3 
       257.0         0.23         13.4 
       258.0         0.25         13.3 
       259.0         0.27         13.5 
       260.0         0.23         12.7 
       261.0         0.27         13.6 
       262.0         0.30         13.6 
       263.0         0.27         13.3 
       264.0         0.30         14.4 
       265.0         0.27         14.2 
       266.0         1.48         14.0 
       267.0         0.20         13.3 
       268.0         0.27         13.8 
       269.0         0.27         13.5 
       270.0         0.20         13.7 
       271.0         0.13         13.6 
       272.0         0.13         13.6 
       273.0         0.13         13.5 
       274.0         0.13         13.2 
       275.0         0.17         13.6 
       276.0         0.27         12.8 
       277.0         0.30         13.5 
       278.0         0.27         13.3 
       279.0         0.20         13.7 
       280.0         0.32         13.7 
       281.0         0.23         13.8 
       282.0         0.33         13.8 
       283.0         0.27         13.7 
       284.0         0.30         13.8 
       285.0         0.33         13.9 
       286.0         0.33         13.9 
       287.0         0.30         13.7 
       288.0         0.27         13.8 
       289.0         0.30         13.9 
       290.0         0.30         13.6 
       291.0         0.30         14.0 
       292.0         0.32         14.2 
       293.0         0.30         14.0 
       294.0         0.33         14.2 
       295.0         0.30         13.8 
       296.0         2.18         15.0 
       297.0         0.33         13.7 
       298.0         0.37         14.2 
       299.0         0.27         13.8 
       300.0         0.30         14.2 
       301.0         0.23         14.2 
       302.0         0.23         14.1 
       303.0         0.37         14.3 
       304.0         0.33         14.3 
       305.0         0.30         14.3 
       306.0         0.33         14.1 
       307.0         0.32         14.1 
       308.0         0.27         13.3 
       309.0         0.23         14.1 
       310.0         0.13         13.8 
       311.0         0.13         13.7 
       312.0         0.17         14.2 
       313.0         0.30         14.2 
       314.0         0.33         14.1 
       315.0         0.27         14.2 
       316.0         0.27         14.0 
       317.0         0.33         14.4 
       318.0         0.37         14.4 
       319.0         0.32         14.4 
       320.0         0.30         13.9 
       321.0         0.27         13.9 
       322.0         0.30         14.1 
       323.0         0.27         14.3 
       324.0         0.30         14.2 
       325.0         0.30         14.3 
       326.0         1.98         14.8 
       327.0         0.43         14.4 
       328.0         0.30         14.7 
       329.0         0.30         14.4 
       330.0         0.30         14.9 
       331.0         0.33         14.9 
       332.0         0.30         14.7 
       333.0         0.20         15.0 
       334.0         0.27         14.9 
       335.0         0.23         15.0 
       336.0         0.22         15.0 
       337.0         0.13         14.2 
       338.0         0.10         13.9 
       339.0         0.20         14.2 
       340.0         0.27         14.6 
       341.0         0.23         14.7 
       342.0         0.13         14.4 
       343.0         0.17         14.8 
       344.0         0.17         14.7 
       345.0         0.20         14.1 
       346.0         0.33         14.9 
       347.0         0.30         14.8 
       348.0         0.33         15.0 
       349.0         0.27         15.2 
       350.0         0.32         15.1 
       351.0         0.23         14.1 
       352.0         0.27         14.7 
       353.0         0.27         14.2 
       354.0         0.23         14.3 
       355.0         0.20         14.5 
       356.0         1.93         16.0 
       357.0         0.18         15.2 
       358.0         0.20         15.0 
       359.0         0.27         14.5 
       360.0         0.23         15.2 
       361.0         0.27         14.4 
       362.0         0.27         14.9 
       363.0         0.27         15.1 
       364.0         0.27         15.2 
       365.0         0.27         15.3 
       366.0         0.23         14.5 
       367.0         0.23         15.3 
       368.0         0.27         15.5 
       369.0         0.25         15.3 
       370.0         0.17         15.3 
       371.0         0.13         14.5 
       372.0         0.30         15.3 
       373.0         0.30         15.3 
       374.0         0.33         15.4 
       375.0         0.37         15.4 
       376.0         0.33         15.3 
       377.0         0.30         15.2 
       378.0         0.33         15.4 
       379.0         0.30         14.9 
       380.0         0.38         15.5 
       381.0         0.27         15.2 
       382.0         0.30         15.4 
       383.0         0.30         15.5 
       384.0         0.27         15.4 
       385.0         0.27         15.7 
       386.0         1.60         15.8 
       387.0         0.22         15.7 
       388.0         0.27         15.7 
       389.0         0.27         15.6 
       390.0         0.30         15.6 
       391.0         0.27         15.7 
       392.0         0.27         15.5 
       393.0         0.27         15.5 
       394.0         0.23         15.8 
       395.0         0.17         15.6 
       396.0         0.27         15.5 
       397.0         0.20         15.5 
