~Version Information
 VERS.                                  2.0 : CWLS LAS VERSION
 WRAP.                                   NO : WRAPING MODE
 SWARE .                 MController 2.5.0N : SOFTWARE VERSION
~Well Information
 WELL.                                  N/A : WELL
 COMP.                                  N/A : COMPANY
 FLD.                                   N/A : FIELD
 LOC.                                   N/A : LOCATION
 DATE.                                  N/A : DATE(S) LOGGED
 SRVC.                                  N/A : SERVICE COMPANY
 STAT.                                  N/A : STATE
 CNTY.                                  N/A : COUNTY
 CTRY.                                  N/A : COUNTRY
 API.                                   N/A : API NUMBER
 STRT.FT                             445.00 : START DEPTH
 STOP.FT                            1905.00 : STOP DEPTH
 STEP.FT                               1.00 : DEPTH INCREMENT
 NULL.                                -9999 : NULL VALUE
~Curve information
 DEPTH.FT                                   :
 ROP.MIN/FT                                 :
 GAS.UNITS                                  :
~ASCII Log data
# ...
       845.0         0.30          5.8 
       846.0         0.20          6.1 
       847.0         0.10          5.6 
       848.0         0.10          5.1 
       849.0         0.10          5.3 
       850.0         0.13          5.3 
       851.0         0.20          6.5 
       852.0         0.17          5.4 
       853.0         0.30          5.7 
       854.0         0.23          6.0 
       855.0         0.17          6.9 
       856.0         0.17          6.7 
       857.0         0.17          6.7 
       858.0         0.20          6.4 
       859.0         0.17          6.0 
       860.0         0.23          4.7 
       861.0         0.23          4.6 
       862.0         0.18          5.0 
       863.0         0.13          4.4 
       864.0         0.13          5.4 
       865.0         0.17          5.4 
       866.0         3.58         10.9 
       867.0         0.47         12.7 
       868.0         0.47         13.6 
       869.0         0.23         13.8 
       870.0         0.20         14.2 
       871.0         0.23         15.3 
       872.0         0.17         16.2 
       873.0         0.13         16.2 
       874.0         0.20         15.5 
       875.0         0.17         15.4 
       876.0         0.20         15.8 
       877.0         0.22         17.6 
       878.0         0.20         16.7 
       879.0         0.20         18.5 
       880.0         0.20         20.3 
       881.0         0.13         19.0 
       882.0         0.20         21.5 
       883.0         0.13         20.7 
       884.0         0.13         20.7 
       885.0         0.23         21.7 
       886.0         0.20         24.8 
       887.0         0.17         24.8 
       888.0         0.23         25.2 
       889.0         0.23         26.5 
       890.0         0.20         25.7 
       891.0         0.17         25.4 
       892.0         0.20         28.1 
       893.0         0.13         27.2 
       894.0         0.20         28.7 
       895.0         0.22         29.0 
       896.0         1.07         31.1 
       897.0         0.10         27.0 
       898.0         0.10         27.0 
       899.0         0.40         27.8 
       900.0         0.37         25.8 
       901.0         0.23         25.5 
       902.0         0.10         25.6 
       903.0         0.17         25.6 
       904.0         0.27         24.8 
       905.0         0.23         24.7 
       906.0         0.17         23.7 
       907.0         0.18         23.6 
       908.0         0.20         23.2 
       909.0         0.20         22.7 
       910.0         0.17         22.1 
       911.0         0.17         21.5 
       912.0         0.13         23.0 
       913.0         0.10         23.0 
       914.0         0.30         23.5 
       915.0         0.27         24.2 
       916.0         0.20         25.1 
       917.0         0.20         22.6 
       918.0         0.20         24.7 
       919.0         0.17         24.7 
       920.0         0.20         24.4 
       921.0         0.17         24.4 
       922.0         0.20         25.9 
       923.0         0.23         25.9 
       924.0         0.22         25.5 
       925.0         0.20         23.9 
       926.0         2.10         24.9 
       927.0         0.70         23.7 
       928.0         0.35         22.1 
       929.0         0.23         22.2 
       930.0         0.23         22.6 
       931.0         0.23         21.6 
       932.0         0.20         21.1 
       933.0         0.20         20.0 
       934.0         0.20         20.8 
       935.0         0.20         22.2 
       936.0         0.23         21.9 
       937.0         0.27         21.9 
       938.0         0.20         23.6 
       939.0         0.17         23.6 
       940.0         0.20         23.9 
       941.0         0.17         22.8 
       942.0         0.33         22.9 
       943.0         0.22         24.6 
       944.0         0.17         23.6 
       945.0         0.17         23.3 
       946.0         0.30         24.7 
       947.0         0.20         23.8 
       948.0         0.20         24.6 
       949.0         0.20         24.6 
       950.0         0.23         25.1 
       951.0         0.20         26.2 
       952.0         0.17         26.2 
       953.0         0.20         26.5 
       954.0         0.23         24.7 
       955.0         0.50         25.0 
       956.0         0.88         25.7 
       957.0         0.40         24.3 
       958.0         0.40         22.2 
       959.0         0.30         23.0 
       960.0         0.27         23.2 
       961.0         0.27         22.7 
       962.0         0.20         22.2 
       963.0         0.23         22.3 
       964.0         0.23         19.8 
       965.0         0.27         18.4 
       966.0         0.20         17.1 
       967.0         0.22         16.4 
       968.0         0.30         18.3 
       969.0         0.20         20.7 
       970.0         0.27         21.2 
       971.0         0.23         21.2 
       972.0         0.23         20.2 
       973.0         0.20         20.3 
       974.0         0.23         19.5 
       975.0         0.20         21.5 
       976.0         0.20         21.4 
       977.0         0.17         20.9 
       978.0         0.13         21.7 
       979.0         0.17         22.6 
       980.0         0.13         21.3 
       981.0         0.13         21.0 
       982.0         0.10         20.7 
       983.0         0.13         20.7 
       984.0         0.27         20.1 
       985.0         0.32         20.4 
       986.0         3.48         20.4 
       987.0         0.27         17.3 
       988.0         0.57         18.4 
       989.0         0.20         18.4 
       990.0         0.30         18.6 
       991.0         0.37         18.3 
       992.0         0.30         18.0 
       993.0         0.27         16.3 
       994.0         0.27         16.8 
       995.0         0.17         16.8 
       996.0         0.20         16.5 
       997.0         0.25         16.8 
       998.0         0.20         16.6 
       999.0         0.20         16.4 
      1000.0         0.23         15.5 
      1001.0         0.23         15.6 
      1002.0         0.27         16.2 
      1003.0         0.23         16.0 
      1004.0         0.20         16.9 
      1005.0         0.20         16.2 
      1006.0         0.20         16.3 
      1007.0         0.20         17.8 
      1008.0         0.20         18.0 
      1009.0         0.23         16.9 
      1010.0         0.20         18.3 
      1011.0         0.20         17.5 
      1012.0         0.22         16.9 
      1013.0         0.20         16.8 
      1014.0         0.20         18.6 
      1015.0         0.17         18.1 
      1016.0         2.33         20.3 
      1017.0         0.23         17.3 
      1018.0         0.42         19.2 
      1019.0         0.30         17.5 
      1020.0         0.27         17.8 
      1021.0         0.23         17.7 
      1022.0         0.30         18.8 
      1023.0         0.30         18.4 
      1024.0         0.27         17.8 
      1025.0         0.17         17.6 
      1026.0         0.13         18.3 
      1027.0         0.13         18.9 
      1028.0         0.17         19.2 
      1029.0         0.13         17.4 
      1030.0         0.13         16.8 
      1031.0         0.17         16.6 
      1032.0         0.17         16.5 
      1033.0         0.13         17.4 
      1034.0         0.15         17.4 
      1035.0         0.20         16.9 
      1036.0         0.23         17.2 
      1037.0         0.23         16.6 
      1038.0         0.13         16.6 
      1039.0         0.23         16.6 
      1040.0         0.17         15.9 
      1041.0         0.13         15.9 
      1042.0         0.23         15.2 
      1043.0         0.20         15.4 
      1044.0         0.20         16.2 
