~Version Information
VERS.                      2.0: CWLS Log ASCII Standard - VERSION 2.0
WRAP.                       NO: One line per depth step
~Well Information Block
STRT.FT               259.0000: 
STOP.FT              2379.0000: 
STEP.FT                 0.2500: 
NULL.                -999.2500: 
COMP.          Pioneer Natural Resources: COMPANY
WELL.          Foothills 12-36: WELL
FLD.           Purgatoire River: FIELD
LOC.           2450' FNL & 201' FWL: LOCATION
PROV.                 Colorado: PROVINCE
CNTY.               Las Animas: COUNTRY
SRVC.                Patterson: SERVICE COMPANY
DATE.          Thu Apr 21 09:19:57 2005: LOG DATE
UWI.           05 071 08339 00: UNIQUE WELL ID
~Curve Information Block
DEPT.FT            0 000 00 00: Depth
DCAL.in                       : CDL Caliper
RHOB.g/cc                     : CDL Bulk Density
RHOC.g/cc                     : CDL Density Correction
DPOR.pu                       : CDL Density Porosity
GR.GAPI                       : Gamma Ray
NPOR.pu                       : Neutron Porosity
~Parameter Information Block
~A  Depth       DCAL        RHOB        RHOC        DPOR         GR         NPOR    
# ...
  1099.0000      8.1261      2.5245      0.1234      7.6082     98.6317     27.1392
  1099.2500      8.1214      2.4899      0.0119      9.7007     88.3483     28.3292
  1099.5000      8.0853      2.5418      0.0728      6.5595    107.8483     28.9926
  1099.7500      8.0182      2.5433      0.0648      6.4652    101.6218     29.6651
  1100.0000      7.9725      2.5992      0.1124      3.0818     80.6849     27.9556
  1100.2500      7.9627      2.6197      0.1437      1.8349     80.2877     26.7348
  1100.5000      7.9658      2.6150      0.0871      2.1193     61.5841     20.4592
  1100.7500      7.9737      2.5955      0.0845      3.3010     60.7680     19.5999
  1101.0000      7.9806      2.5931      0.0473      3.4512     65.2253     20.4503
  1101.2500      7.9793      2.6144      0.0661      2.1584     69.1372     19.0294
  1101.5000      7.9800      2.5937      0.0503      3.4151     70.3529     18.3012
  1101.7500      7.9784      2.5956      0.0593      3.2970     81.4062     18.5806
  1102.0000      7.9492      2.5774      0.0503      4.4020     81.5109     19.8750
  1102.2500      7.8994      2.5798      0.1010      4.2523     74.1863     21.4903
  1102.5000      7.8688      2.5918      0.0698      3.5299     66.5758     21.1723
  1102.7500      7.8603      2.5876      0.0768      3.7804     72.4165     22.8113
  1103.0000      7.8488      2.6241      0.1330      1.5687     72.3912     23.1661
  1103.2500      7.8355      2.6105      0.1087      2.3959     67.9452     22.5791
  1103.5000      7.8315      2.6083      0.0963      2.5278     68.1664     22.0687
  1103.7500      7.8388      2.5861      0.0740      3.8750     70.5201     23.9143
  1104.0000      7.8506      2.5860      0.1190      3.8759     68.3461     18.6084
  1104.2500      7.8633      2.5884      0.1288      3.7330     69.2483     19.5119
  1104.5000      7.8755      2.5867      0.0950      3.8373     65.6302     22.2180
  1104.7500      7.8845      2.5729      0.1310      4.6724     65.1811     22.8715
  1105.0000      7.8921      2.2896      0.0075     21.8398     66.1871     23.0419
  1105.2500      7.9063      2.0357      0.0016     37.2277     52.0163     23.5949
  1105.5000      7.9469      1.6414     -0.0759     61.1277     36.0561     30.2630
  1105.7500      8.0455      1.5227      0.0993     68.3235     25.0410     31.3575
  1106.0000      8.2046      1.3497      0.1024     78.8055     20.8132     34.3046
  1106.2500      8.3692      1.3051      0.1079     81.5112     20.2934     35.9487
  1106.5000      8.5005      1.2561      0.0657     84.4812     33.4826     35.7769
  1106.7500      8.5937      1.2705      0.0464     83.6047     36.1484     35.7555
  1107.0000      8.6277      1.4408      0.1294     73.2876     46.9912     35.5181
  1107.2500      8.6163      1.4957      0.0806     69.9554     63.4175     36.1286
  1107.5000      8.6283      1.7457      0.1586     54.8056     75.1006     33.8024
  1107.7500      8.6912      1.9754      0.1411     40.8834     80.2387     33.5369
  1108.0000      8.7685      2.2803      0.2305     22.4064     85.9768     33.2627
  1108.2500      8.6783      2.3767      0.1753     16.5654     96.2899     32.5241
  1108.5000      8.3608      2.4673      0.0677     11.0707     94.3875     30.8146
  1108.7500      8.1064      2.5473      0.1486      6.2228    101.1664     29.0109
  1109.0000      8.0032      2.5371      0.1231      6.8405    103.4401     29.1121
  1109.2500      7.9436      2.5435      0.1296      6.4566     97.0477     28.5153
  1109.5000      7.8950      2.4901      0.1343      9.6880    102.8669     30.3288
  1109.7500      7.8786      2.4453      0.0956     12.4050    107.7721     29.4695
  1110.0000      7.8841      2.4341      0.1255     13.0856    115.3660     29.5187
  1110.2500      7.8938      2.4673      0.1792     11.0732    118.7936     29.6246
  1110.5000      7.9201      2.5185      0.2094      7.9681    118.6189     29.6952
  1110.7500      7.9786      2.5622      0.2297      5.3217    116.3686     30.6690
  1111.0000      8.0579      2.5586      0.1565      5.5423    120.0372     31.8303
  1111.2500      8.0929      2.5431      0.1316      6.4813    117.6966     31.2714
  1111.5000      8.0579      2.4896      0.0544      9.7219    118.5125     29.8997
  1111.7500      8.0318      2.4726      0.0866     10.7495    116.7389     29.5871
  1112.0000      8.0406      2.3902     -0.0011     15.7453    125.6277     29.9462
  1112.2500      8.0564      2.3810      0.0372     16.3036    122.2496     29.6853
  1112.5000      8.0833      2.3708      0.0865     16.9204    128.9069     31.6200
  1112.7500      8.1291      2.3274      0.0781     19.5522    114.5311     32.8424
  1113.0000      8.1868      2.2859      0.0245     22.0659    126.9792     31.7625
  1113.2500      8.2418      2.4000      0.1287     15.1530    122.9117     31.7088
  1113.5000      8.2730      2.4740      0.2703     10.6657    110.0156     30.5276
  1113.7500      8.2839      2.4357      0.1926     12.9893    110.6104     32.0600
  1114.0000      8.3099      2.4848      0.1523     10.0134    118.3439     32.7398
  1114.2500      8.3677      2.6054      0.2887      2.7008    101.7958     31.4923
  1114.5000      8.4069      2.6880      0.3650     -2.3058     98.8193     30.4525
  1114.7500      8.3732      2.6851      0.2002     -2.1253    123.3930     30.9629
  1115.0000      8.2656      2.6881      0.0990     -2.3083    111.0498     28.1078
  1115.2500      8.1458      2.6715      0.0806     -1.3004     89.8066     29.5402
  1115.5000      8.0462      2.6952      0.0838     -2.7416     87.8517     29.4376
  1115.7500      7.9956      2.6873      0.0300     -2.2630     83.1381     29.8823
  1116.0000      7.9933      2.6741      0.0663     -1.4632     80.5511     30.2958
  1116.2500      8.0089      2.6504      0.0170     -0.0256     83.2291     27.8227
  1116.5000      8.0245      2.6236     -0.0024      1.5994     97.1207     27.4996
  1116.7500      8.0336      2.5927     -0.0208      3.4729     89.5636     28.6062
  1117.0000      8.0318      2.5803      0.0254      4.2215     86.3222     27.9820
  1117.2500      8.0197      2.5627      0.0601      5.2938     95.4008     26.1552
  1117.5000      8.0052      2.5700      0.0584      4.8513    102.3598     27.8367
  1117.7500      7.9914      2.6231      0.0855      1.6289     98.9357     28.1538
  1118.0000      7.9815      2.7028      0.1282     -3.2016     97.8386     25.2004
  1118.2500      7.9783      2.7064      0.0744     -3.4209     80.7339     25.8240
  1118.5000      7.9815      2.6627      0.0593     -0.7688     79.8192     27.3617
  1118.7500      7.9783      2.6648      0.0493     -0.8959     72.5872     25.7328
  1119.0000      7.9524      2.7992      0.1569     -9.0431     85.6195     26.5237
  1119.2500      7.9220      2.7881      0.1626     -8.3670     93.9274     25.4499
  1119.5000      7.9199      2.7795      0.1045     -7.8491    105.2893     25.4207
  1119.7500      7.9483      2.6923     -0.0030     -2.5625    108.1054     25.7358
  1120.0000      7.9939      2.6474      0.0263      0.1567     99.5631     26.5963
  1120.2500      8.0386      2.6268     -0.0194      1.4083    105.1685     27.9671
  1120.5000      8.0681      2.5843      0.0873      3.9829    107.1631     30.9895
  1120.7500      8.0787      2.5914      0.0537      3.5536    118.7340     30.1111
  1121.0000      8.0661      2.6217      0.0854      1.7150    120.7840     28.9228
  1121.2500      8.0336      2.6167      0.0965      2.0154    115.4553     30.1622
  1121.5000      8.0025      2.5642      0.0102      5.2025     98.9584     31.4134
  1121.7500      7.9871      2.5104      0.0102      8.4633     98.1439     29.0580
  1122.0000      8.0060      2.5940      0.1874      3.3930    117.0692     28.3662
  1122.2500      8.0323      2.6198      0.1441      1.8332    103.6089     29.4003
  1122.5000      8.0242      2.5849      0.1236      3.9431    100.3257     30.6141
  1122.7500      8.0099      2.5413      0.0366      6.5902    103.5215     30.0729
