~Version Information
 VERS.                                  2.0 : CWLS LAS VERSION
 WRAP.                                   NO : WRAPING MODE
 SWARE .                 MController 2.5.0J : SOFTWARE VERSION
~Well Information
 WELL.                   Flying Horse 12-11 : WELL
 COMP.    Pioneer Natural Resources USA Inc : COMPANY
 FLD.                      Purgatoire River : FIELD
 LOC.                SW/NW Sec 11 T32S R66W : LOCATION
 DATE.                           5/28-29/05 : DATE(S) LOGGED
 SRVC.       Blanco Geological Services LLC : SERVICE COMPANY
 STAT.                                   CO : STATE
 CNTY.                           Las Animas : COUNTY
 CTRY.                                  USA : COUNTRY
 API.                       05-071-08378-00 : API NUMBER
 STRT.FT                            1495.00 : START DEPTH
 STOP.FT                            2425.00 : STOP DEPTH
 STEP.FT                               1.00 : DEPTH INCREMENT
 NULL.                                -9999 : NULL VALUE
~Curve information
 DEPTH.FT                                   :
 ROP.MIN/FT                                 :
 GAS.UNITS                                  :
~ASCII Log data
# ...
      1895.0         0.17        958.3 
      1896.0         0.20        902.4 
      1897.0         0.17        845.1 
      1898.0         0.25        803.0 
      1899.0         0.20        751.1 
      1900.0         0.20        716.8 
      1901.0         0.23        693.5 
      1902.0         0.20        675.0 
      1903.0         0.17        662.2 
      1904.0         0.27        662.9 
      1905.0         0.27        667.3 
      1906.0         0.17        666.6 
      1907.0         0.17        659.2 
      1908.0         0.17        640.0 
      1909.0         0.17        620.4 
      1910.0         0.17        608.3 
      1911.0         0.17        607.3 
      1912.0         0.20        611.3 
      1913.0         0.20        611.3 
      1914.0         0.17        610.3 
      1915.0         0.28        603.6 
      1916.0         2.37        593.8 
      1917.0         0.47       1087.0 
      1918.0         0.48       1281.4 
      1919.0         0.27       1283.1 
      1920.0         0.20       1227.5 
      1921.0         0.20       1147.0 
      1922.0         0.20       1060.8 
      1923.0         0.40        975.9 
      1924.0         0.40        828.0 
      1925.0         0.30        726.5 
      1926.0         0.37        673.3 
      1927.0         0.30        639.3 
      1928.0         0.23        648.4 
      1929.0         0.32        660.9 
      1930.0         0.20        661.9 
      1931.0         0.20        654.4 
      1932.0         0.20        632.9 
      1933.0         0.20        606.6 
      1934.0         0.27        583.4 
      1935.0         0.17        572.9 
      1936.0         0.17        569.5 
      1937.0         0.20        553.7 
      1938.0         0.17        532.1 
      1939.0         0.20        521.0 
      1940.0         0.20        515.6 
      1941.0         0.23        526.4 
      1942.0         0.17        531.1 
      1943.0         0.20        529.8 
      1944.0         0.17        531.1 
      1945.0         0.13        530.1 
      1946.0         2.15        521.4 
      1947.0         0.37       1204.0 
      1948.0         0.27       1389.9 
      1949.0         0.23       1453.6 
      1950.0         0.30       1455.0 
      1951.0         0.27       1389.3 
      1952.0         0.22       1263.9 
      1953.0         0.40       1168.2 
      1954.0         0.37        979.9 
      1955.0         0.30        836.0 
      1956.0         0.30        755.9 
      1957.0         0.40        699.3 
      1958.0         0.40        651.1 
      1959.0         0.20        613.3 
      1960.0         0.17        615.0 
      1961.0         0.13        626.8 
      1962.0         0.20        643.0 
      1963.0         0.13        650.1 
      1964.0         0.18        655.8 
      1965.0         0.13        656.5 
      1966.0         0.17        653.4 
      1967.0         0.17        642.7 
      1968.0         0.13        633.6 
      1969.0         0.17        626.8 
      1970.0         0.17        617.1 
      1971.0         0.17        610.0 
      1972.0         0.17        599.2 
      1973.0         0.17        587.1 
      1974.0         0.27        583.7 
      1975.0         0.17        586.7 
      1976.0         2.95       1087.7 
      1977.0         0.33       1235.6 
      1978.0         0.17       1241.7 
      1979.0         0.20       1232.3 
      1980.0         0.20       1195.5 
      1981.0         0.27       1154.1 
      1982.0         0.20       1075.3 
      1983.0         0.17        998.4 
      1984.0         0.13        936.8 
      1985.0         0.17        890.0 
      1986.0         0.15        831.3 
      1987.0         0.17        794.6 
      1988.0         0.17        765.6 
      1989.0         0.13        740.7 
      1990.0         0.17        723.5 
      1991.0         0.13        703.6 
      1992.0         0.10        689.5 
      1993.0         0.17        678.0 
      1994.0         0.17        662.5 
      1995.0         0.13        655.8 
      1996.0         0.23        653.8 
      1997.0         0.17        652.8 
      1998.0         0.17        656.5 
      1999.0         0.13        658.5 
      2000.0         0.20        657.1 
      2001.0         0.27        655.8 
      2002.0         0.23        654.8 
      2003.0         0.30        654.8 
      2004.0         0.13        645.4 
      2005.0         0.15        631.5 
      2006.0         2.07        597.2 
      2007.0         0.30       1084.7 
      2008.0         0.27       1316.5 
      2009.0         0.23       1417.9 
      2010.0         0.20       1429.4 
      2011.0         0.17       1417.9 
      2012.0         0.18       1365.7 
      2013.0         0.20       1289.2 
      2014.0         0.20       1189.5 
      2015.0         0.20       1086.0 
      2016.0         0.17        991.7 
      2017.0         0.13        920.9 
      2018.0         0.17        868.7 
      2019.0         0.17        811.8 
      2020.0         0.23        760.9 
      2021.0         0.20        707.7 
      2022.0         0.30        676.3 
      2023.0         0.20        645.4 
      2024.0         0.20        633.2 
      2025.0         0.20        632.2 
      2026.0         0.20        636.6 
      2027.0         0.20        641.0 
      2028.0         0.20        643.0 
      2029.0         0.25        642.7 
      2030.0         0.20        641.6 
      2031.0         0.17        636.9 
      2032.0         0.20        634.2 
      2033.0         0.17        628.5 
      2034.0         0.17        619.7 
      2035.0         0.30        611.0 
      2036.0         3.08       1229.2 
      2037.0         0.30       1311.1 
      2038.0         0.27       1320.5 
      2039.0         0.30       1300.3 
      2040.0         0.37       1206.0 
      2041.0         0.23       1056.7 
      2042.0         0.20        968.5 
      2043.0         0.25        899.4 
      2044.0         0.20        830.0 
      2045.0         0.17        781.8 
      2046.0         0.13        745.8 
      2047.0         0.17        718.5 
      2048.0         0.13        680.7 
      2049.0         0.17        651.8 
      2050.0         0.17        630.2 
      2051.0         0.17        624.5 
      2052.0         0.17        626.5 
      2053.0         0.13        627.5 
      2054.0         0.13        626.8 
      2055.0         0.17        623.8 
      2056.0         0.17        617.1 
      2057.0         0.18        614.4 
      2058.0         0.17        618.4 
      2059.0         0.20        623.1 
      2060.0         0.17        623.5 
      2061.0         0.17        623.1 
      2062.0         0.17        617.7 
      2063.0         0.20        612.0 
      2064.0         0.27        604.6 
      2065.0         0.13        581.0 
      2066.0         2.52       1126.1 
      2067.0         0.27       1246.4 
      2068.0         0.23       1297.3 
      2069.0         0.27       1300.7 
      2070.0         0.27       1269.7 
      2071.0         0.20       1181.4 
      2072.0         0.20       1097.8 
      2073.0         0.20       1015.3 
      2074.0         0.20        942.8 
      2075.0         0.20        876.8 
      2076.0         0.20        819.9 
      2077.0         0.23        767.7 
      2078.0         0.22        713.4 
      2079.0         0.17        678.0 
      2080.0         0.17        655.5 
      2081.0         0.17        636.9 
      2082.0         0.17        628.5 
      2083.0         0.13        625.5 
      2084.0         0.17        625.1 
      2085.0         0.13        627.2 
      2086.0         0.17        631.5 
      2087.0         0.17        635.6 
      2088.0         0.20        636.9 
      2089.0         0.17        635.9 
      2090.0         0.13        633.6 
      2091.0         0.17        627.8 
      2092.0         0.17        621.1 
      2093.0         0.17        616.4 
      2094.0         0.17        615.7 
