~Version Information
VERS.                      2.0: CWLS Log ASCII Standard - VERSION 2.0
WRAP.                       NO: One line per depth step
~Well Information Block
STRT.FT                -6.7500: 
STOP.FT              1181.0000: 
STEP.FT                 0.2500: 
NULL.                -999.2500: 
COMP.          Pioneer Natural Resources: COMPANY
WELL.          Pacheco 33-27 Tr: WELL
FLD.           Purgatorie River: FIELD
LOC.           2251' FSL & 2342' FEL--: LOCATION
PROV.                       CO: PROVINCE
CNTY.               Las Animas: COUNTRY
SRVC.          Patterson Wireline: SERVICE COMPANY
DATE.          Wed Jun 15 10:58:02 2005: LOG DATE
UWI.           05 071 08384 00: UNIQUE WELL ID
~Curve Information Block
DEPT.FT            0 000 00 00: Depth
CCL.                          : Casing Collar Locator
TT3.usec                      : CBL 3' Travel Time
AMP3.mV                       : CBL 3' Amplitude
GR.GAPI                       : Gamma Ray
~Parameter Information Block
~A  Depth       CCL         TT3         AMP3         GR     
# ...
   663.2500      0.0000    841.7612      7.7387    113.5032
   663.5000      0.0000    827.6379      7.6333    110.8018
   663.7500      0.0000    816.6489      7.4660    107.7884
   664.0000      0.0000    811.1118      7.2419    104.4558
   664.2500      0.0000    810.7239      6.9675    101.4075
   664.5000      0.0000    813.6655      6.6481     99.4082
   664.7500      0.0000    817.8754      6.2903     98.8213
   665.0000      0.0000    821.6268      5.9132     99.6635
   665.2500      0.0000    823.6437      5.5613    101.7303
   665.5000      0.0000    823.4315      5.3031    104.2702
   665.7500      0.0000    821.5244      5.2065    105.9618
   666.0000      0.0000    819.0555      5.3009    105.9518
   666.2500      0.0000    817.0918      5.5576    104.9438
   666.5000      0.0000    816.4655      5.9047    104.7840
   666.7500      0.0000    817.9009      6.2611    106.7000
   667.0000      0.0000    821.7687      6.5625    110.0473
   667.2500      0.0000    827.4787      6.7679    112.8641
   667.5000      0.0000    833.3619      6.8587    113.6558
   667.7500      0.0000    837.5657      6.8393    112.6480
   668.0000      0.0000    839.0283      6.7313    111.3803
   668.2500      0.0000    837.5002      6.5616    111.1329
   668.5000      0.0000    833.2845      6.3506    111.8571
   668.7500      0.0000    827.5429      6.1095    112.5848
   669.0000      0.0000    822.3561      5.8438    112.6103
   669.2500      0.0000    819.7672      5.5609    112.0593
   669.5000      0.0000    820.6907      5.2824    111.3846
   669.7500      0.0000    824.7076      5.0514    110.4637
   670.0000      0.0000    830.6146      4.9251    108.2982
   670.2500      0.0000    837.0049      4.9506    103.5925
   670.5000      0.0000    842.3799      5.1405     95.8319
   670.7500      0.0000    845.1089      5.4618     86.1537
   671.0000      0.0000    843.9880      5.8470     77.1437
   671.2500      0.0000    839.2653      6.2186     71.4151
   671.5000      0.0000    832.8955      6.5153     70.2541
   671.7500      0.0000    827.2501      6.7020     73.6414
   672.0000      0.0000    823.4869      6.7690     81.0431
   672.2500      0.0000    821.5906      6.7315     91.3590
   672.5000      0.0000    821.8618      6.6252    102.2179
   672.7500      0.0000    825.1244      6.4898    110.5309
   673.0000      0.0000    830.9728      6.3463    114.6343
   673.2500      0.0000    837.1417      6.1884    115.7359
   673.5000      0.0000    841.5884      6.0006    116.8314
   673.7500      0.0000    844.2393      5.7894    120.0905
   674.0000      0.0000    845.8243      5.6016    125.2169
   674.2500      0.0000    845.8729      5.5090    130.0885
   674.5000      0.0000    842.9138      5.5662    132.6719
   674.7500      0.0000    836.4474      5.7739    132.2086
   675.0000      0.0000    828.0138      6.0802    129.1429
   675.2500      0.0000    820.1734      6.4140    124.7865
   675.5000      0.0000    814.7012      6.7167    120.9946
   675.7500      0.0000    811.8250      6.9499    119.4667
   676.0000      0.0000    810.8110      7.0869    120.9376
   676.2500      0.0000    810.8409      7.1085    124.7843
   676.5000      0.0000    811.4434      7.0075    129.3086
   676.7500      0.0000    812.5733      6.7934    132.7776
   677.0000      0.0000    814.4929      6.4936    134.4361
   677.2500      0.0000    817.3130      6.1557    134.3365
   677.5000      0.0000    820.4304      5.8498    132.3379
   677.7500      0.0000    822.5822      5.6562    127.9298
   678.0000      0.0000    822.5027      5.6337    121.1387
   678.2500      0.0000    819.4485      5.7867    113.0172
   678.5000      0.0000    813.7092      6.0602    105.0591
   678.7500      0.0000    807.5476      6.3683     98.4363
   679.0000      0.0000    805.0353      6.6330     93.7066
   679.2500      0.0000    809.2609      6.8076     90.9313
   679.5000      0.0000    819.2437      6.8790     90.0983
   679.7500      0.0000    830.1243      6.8584     91.5782
   680.0000      0.0000    836.4473      6.7649     96.0534
   680.2500      0.0000    835.7118      6.6110    103.8597
   680.5000      0.0000    830.1044      6.4046    114.2437
   680.7500      0.0000    825.2864      6.1716    125.1441
   681.0000      0.0000    826.2919      5.9706    133.9101
   681.2500      0.0000    833.6271      5.8729    138.7686
   681.5000      0.0000    843.5179      5.9177    139.9858
   681.7500      0.0000    851.7670      6.0859    139.8056
   682.0000      0.0000    856.7121      6.3173    140.9884
   682.2500      0.0000    858.9873      6.5483    144.7116
   682.5000      0.0000    859.8206      6.7349    149.5173
   682.7500      0.0000    860.0206      6.8533    152.4580
   683.0000      0.0000    859.8677      6.8938    151.3546
   683.2500      0.0000    859.2271      6.8540    146.1145
   683.5000      0.0000    857.7353      6.7366    138.3089
   683.7500      0.0000    855.3059      6.5467    129.7928
   684.0000      0.0000    852.7043      6.2954    121.7723
   684.2500      0.0000    851.2110      6.0105    115.0591
   684.5000      0.0000    851.2132      5.7476    110.6978
   684.7500      0.0000    851.2255      5.5785    109.6793
   685.0000      0.0000    848.8774      5.5535    111.8398
   685.2500      0.0000    843.3173      5.6708    115.4150
   685.5000      0.0000    836.6403      5.8821    118.0864
   685.7500      0.0000    832.1428      6.1268    118.6137
   686.0000      0.0000    830.2648      6.3582    117.5777
   686.2500      0.0000    826.8913      6.5471    116.7752
   686.5000      0.0000    817.0355      6.6740    117.8375
   686.7500      0.0000    800.3533      6.7246    120.9526
   687.0000      0.0000    782.1863      6.6882    124.7218
   687.2500      0.0000    768.8926      6.5516    127.6213
   687.5000      0.0000    762.9980      6.3019    129.6534
   687.7500      0.0000    763.7594      5.9553    131.9331
   688.0000      0.0000    771.1226      5.5911    134.5217
   688.2500      0.0000    785.9725      5.3352    135.5710
   688.5000      0.0000    805.8255      5.2794    133.3630
   688.7500      0.0000    823.5685      5.4133    128.8068
   689.0000      0.0000    832.8854      5.6434    125.2204
   689.2500      0.0000    833.8961      5.8678    125.6440
   689.5000     -2.0000    832.1027      6.0293    130.5278
   689.7500      0.0000    832.4561      6.1224    137.7301
   690.0000      0.0000    835.5897      6.1800    144.5077
   690.2500      0.0000    839.4018      6.2498    149.5224
   690.5000      0.0000    842.4382      6.3556    153.0398
   690.7500      0.0000    844.9182      6.4739    155.5579
   691.0000      0.0000    847.3361      6.5580    156.7313
   691.2500      0.0000    849.0472      6.5736    155.5854
   691.5000      0.0000    848.2632      6.5026    151.6527
   691.7500      0.0000    843.3259      6.3437    146.2778
   692.0000      0.0000    834.2996      6.1362    142.6371
   692.2500      0.0000    823.6910      5.9655    143.4738
   692.5000      0.0000    815.3314      5.9190    148.5174
   692.7500      0.0000    811.7936      6.0345    154.6763
   693.0000      0.0000    812.5494      6.2859    158.7652
   693.2500      0.0000    814.8087      6.6118    159.6868
   693.5000      0.0000    815.9428      6.9592    158.1430
   693.7500      0.0000    815.0831      7.3120    154.7931
   694.0000      0.0000    813.1432      7.6812    149.1342
   694.2500      0.0000    811.7955      8.0713    140.2733
   694.5000      0.0000    812.0106      8.4639    128.4405
   694.7500      0.0000    813.2352      8.8383    115.5339
   695.0000      0.0000    814.1306      9.2057    104.3973
   695.2500      0.0000    814.2073      9.6204     97.4034
   695.5000      0.0000    814.5117     10.1499     95.0831
   695.7500      0.0000    816.3451     10.8213     95.7400
   696.0000      0.0000    819.1041     11.5828     96.4467
   696.2500      0.0000    820.0760     12.3133     94.8308
   696.5000      0.0000    817.4057     12.8792     90.5014
