~Version Information
VERS.                      2.0: CWLS Log ASCII Standard - VERSION 2.0
WRAP.                       NO: One line per depth step
~Well Information Block
STRT.FT               758.7500: 
STOP.FT              2420.7500: 
STEP.FT                 0.2500: 
NULL.                -999.2500: 
COMP.          Petrogulf Corporation: COMPANY
WELL.            Montoya 7-21V: WELL
FLD.           Purgatorie River: FIELD
LOC.           738' FSL & 2070' FWL: LOCATION
CNTY.               Las Animas: COUNTY
SRVC.                         : SERVICE COMPANY
DATE.          Fri Aug 20 07:13:07 2004: LOG DATE
UWI.           05 071 08018 00: UNIQUE WELL ID
STAT.                 Colorado: STATE
~Curve Information Block
DEPT.FT            0 000 00 00: Depth
SP.mV                         : DIL Spontaneous Potential
RILD.Ohm-m                    : DIL Deep Resistivity
RILM.Ohm-m                    : DIL Medium Resistivity
RLL3.Ohm-m                    : DIL Shallow Resistivity
GR.GAPI                       : Gamma Ray
~Parameter Information Block
~A  Depth        SP         RILD        RILM        RLL3         GR     
# ...
  1010.7500    -30.6051     15.1321     17.4908     22.1669    161.6448
  1011.0000    -30.5502     15.0380     17.4581     22.4453    155.4780
  1011.2500    -30.5875     14.9205     17.4164     22.6060    151.7543
  1011.5000    -30.6296     14.8221     17.3752     22.5118    147.1806
  1011.7500    -30.5964     14.7944     17.3539     22.1359    144.9601
  1012.0000    -30.4349     14.8848     17.3800     21.5779    143.7375
  1012.2500    -30.1353     15.1237     17.4856     21.0181    144.9070
  1012.5000    -29.7411     15.5184     17.7042     20.6518    149.3821
  1012.7500    -29.3423     16.0556     18.0695     20.6600    153.0571
  1013.0000    -29.0527     16.7134     18.6149     21.2622    157.0056
  1013.2500    -28.9754     17.4777     19.3749     22.8412    157.4008
  1013.5000    -29.1712     18.3528     20.3851     26.0694    153.9887
  1013.7500    -29.6357     19.3572     21.6822     31.9004    149.5282
  1014.0000    -30.3001     20.5060     23.3023     41.3031    140.8215
  1014.2500    -31.0548     21.7893     25.2766     54.7442    133.8829
  1014.5000    -31.7905     23.1628     27.6261     71.6636    121.2042
  1014.7500    -32.4381     24.5587     30.3573     90.3315    111.1838
  1015.0000    -32.9947     25.9098     33.4592    108.3183     95.2237
  1015.2500    -33.5232     27.1737     36.9047    123.3692     85.3211
  1015.5000    -34.1235     28.3411     40.6552    134.1429     73.3924
  1015.7500    -34.8864     29.4335     44.6637    140.3854     67.8068
  1016.0000    -35.8472     30.4905     48.8691    142.5863     62.9082
  1016.2500    -36.9600     31.5521     53.1744    141.5063     61.6660
  1016.5000    -38.1048     32.6335     57.4220    137.8944     61.9891
  1016.7500    -39.1209     33.7045     61.3746    132.4066     63.1055
  1017.0000    -39.8521     34.6864     64.7264    125.5764     65.4795
  1017.2500    -40.1941     35.4757     67.1742    117.7761     67.3904
  1017.5000    -40.1218     35.9913     68.5192    109.2383     70.8402
  1017.7500    -39.6976     36.2103     68.7482    100.1925     73.7546
  1018.0000    -39.0578     36.1706     68.0441     91.0453     79.6267
  1018.2500    -38.3789     35.9409     66.7121     82.4653     84.8476
  1018.5000    -37.8337     35.5858     65.0807     75.2836     94.7552
  1018.7500    -37.5456     35.1560     63.4181     70.2581    102.3107
  1019.0000    -37.5607     34.6940     61.9090     67.8315    113.1588
  1019.2500    -37.8444     34.2499     60.6603     68.0176    118.5192
  1019.5000    -38.3013     33.8853     59.7271     70.4643    121.7482
  1019.7500    -38.8152     33.6689     59.1325     74.6240    120.7386
  1020.0000    -39.2806     33.6596     58.8877     79.9000    116.8360
  1020.2500    -39.6263     33.8906     58.9918     85.6733    114.2763
  1020.5000    -39.8148     34.3598     59.4327     91.2417    111.2497
  1020.7500    -39.8378     35.0311     60.1789     95.7982    108.8649
  1021.0000    -39.7065     35.8479     61.1770     98.5683    103.1634
  1021.2500    -39.4503     36.7531     62.3544     99.1012     98.1930
  1021.5000    -39.1179     37.7024     63.6297     97.5738     91.1455
  1021.7500    -38.7768     38.6719     64.9371     94.8926     87.8236
  1022.0000    -38.5072     39.6595     66.2394     92.4425     84.8491
  1022.2500    -38.3852     40.6900     67.5379     91.5339     83.1500
  1022.5000    -38.4638     41.8203     68.8701     92.8305     78.8978
  1022.7500    -38.7543     43.1417     70.2872     96.1028     74.1962
  1023.0000    -39.2205     44.7688     71.8332    100.4573     64.6142
  1023.2500    -39.7810     46.8314     73.5176    104.8700     57.6186
  1023.5000    -40.3276     49.4664     75.2875    108.6533     48.7932
  1023.7500    -40.7464     52.8040     77.0097    111.6010     45.0709
  1024.0000    -40.9408     56.9636     78.4655    113.8378     42.5593
  1024.2500    -40.8527     62.0535     79.3848    115.6100     41.9665
  1024.5000    -40.4741     68.1705     79.5120    117.2081     41.2295
  1024.7500    -39.8466     75.3482     78.6888    118.9979     40.6811
  1025.0000    -39.0505     83.3415     76.9150    121.3825     40.4002
  1025.2500    -38.1840     91.2593     74.3508    124.5718     41.0044
  1025.5000    -37.3437     97.3127     71.2685    128.2232     43.3914
  1025.7500    -36.6053     99.4397     67.9702    131.1940     45.8278
  1026.0000    -36.0154     96.8482     64.7375    131.6756     50.2390
  1026.2500    -35.5924     90.8025     61.7913    127.8259     53.5769
  1026.5000    -35.3297     83.5026     59.2783    118.7131     59.9126
  1026.7500    -35.1998     76.5645     57.2677    105.0816     65.8415
  1027.0000    -35.1511     70.5745     55.7385     89.4098     78.0459
  1027.2500    -35.1097     65.3817     54.5708     75.0831     87.6920
  1027.5000    -34.9844     60.5318     53.5421     65.0722    101.3029
  1027.7500    -34.6937     55.5947     52.3523     60.8256    107.7576
  1028.0000    -34.1949     50.3875     50.6905     61.8898    111.6401
  1028.2500    -33.5112     45.0393     48.3384     66.2918    110.7459
  1028.5000    -32.7320     39.8896     45.2685     71.3481    106.7283
  1028.7500    -31.9840     35.2879     41.6568     74.5219    103.9784
  1029.0000    -31.3822     31.4524     37.8038     74.0906    101.8215
  1029.2500    -30.9843     28.4385     34.0142     69.5179    102.3831
  1029.5000    -30.7773     26.1774     30.5167     61.4806    106.9553
  1029.7500    -30.6974     24.5335     27.4412     51.5345    112.5459
  1030.0000    -30.6760     23.3499     24.8353     41.5159    123.6089
  1030.2500    -30.6792     22.4804     22.6946     32.9128    131.5993
  1030.5000    -30.7208     21.8132     20.9875     26.4855    142.8936
  1030.7500    -30.8447     21.2816     19.6702     22.2656    149.4527
  1031.0000    -31.0911     20.8603     18.6977     19.8300    156.8109
  1031.2500    -31.4695     20.5511     18.0265     18.6272    159.2638
  1031.5000    -31.9534     20.3691     17.6179     18.2006    158.9295
  1031.7500    -32.4934     20.3356     17.4385     18.2849    156.9607
  1032.0000    -33.0433     20.4761     17.4612     18.8147    153.7667
  1032.2500    -33.5766     20.8153     17.6640     19.8761    152.2191
  1032.5000    -34.0866     21.3658     18.0298     21.6310    150.3229
  1032.7500    -34.5726     22.1111     18.5429     24.2459    148.6170
  1033.0000    -35.0203     22.9883     19.1840     27.8408    144.4020
  1033.2500    -35.3840     23.8825     19.9237     32.4557    140.2276
  1033.5000    -35.5836     24.6431     20.7157     38.0059    132.1542
  1033.7500    -35.5250     25.1241     21.4916     44.2168    126.2325
  1034.0000    -35.1324     25.2339     22.1642     50.5475    118.4115
  1034.2500    -34.3885     24.9616     22.6394     56.1591    114.9047
  1034.5000    -33.3574     24.3734     22.8376     60.0051    112.7653
  1034.7500    -32.1818     23.5812     22.7170     61.0940    113.0551
  1035.0000    -31.0476     22.7051     22.2861     58.8676    115.4162
  1035.2500    -30.1323     21.8409     21.6004     53.5144    118.5316
  1035.5000    -29.5559     21.0384     20.7441     46.0085    126.6891
  1035.7500    -29.3557     20.3005     19.8070     37.7955    134.6364
  1036.0000    -29.4895     19.5965     18.8677     30.2700    148.6425
  1036.2500    -29.8664     18.8884     17.9843     24.3292    157.5608
  1036.5000    -30.3893     18.1543     17.1934     20.2236    167.3837
  1036.7500    -30.9825     17.3989     16.5145     17.7147    170.6795
  1037.0000    -31.6035     16.6494     15.9543     16.3676    171.2457
  1037.2500    -32.2288     15.9438     15.5114     15.7915    169.9701
  1037.5000    -32.8285     15.3207     15.1799     15.7505    168.1286
  1037.7500    -33.3490     14.8141     14.9508     16.1689    167.8235
  1038.0000    -33.7187     14.4503     14.8136     17.0787    168.3756
  1038.2500    -33.8746     14.2456     14.7567     18.5389    168.3735
  1038.5000    -33.7962     14.2020     14.7683     20.5423    166.1140
