~Version Information
VERS.                      2.0: CWLS Log ASCII Standard - VERSION 2.0
WRAP.                       NO: One line per depth step
~Well Information Block
STRT.FT                -5.7500: 
STOP.FT              1965.7500: 
STEP.FT                 0.2500: 
NULL.                -999.2500: 
COMP.          Pioneer Natural Resources: COMPANY
WELL.          Easton 12-30 Tr: WELL
FLD.           Purgatorie River: FIELD
LOC.           549' FWL & 2416' FNL--: LOCATION
PROV.                       CO: PROVINCE
CNTY.               Las Animas: COUNTRY
SRVC.          Patterson Wireline: SERVICE COMPANY
DATE.          Mon Jun 06 16:13:03 2005: LOG DATE
UWI.           05 071 08379 00: UNIQUE WELL ID
~Curve Information Block
DEPT.FT            0 000 00 00: Depth
CCL.                          : Casing Collar Locator
TT3.usec                      : CBL 3' Travel Time
AMP3.mV                       : CBL 3' Amplitude
GR.GAPI                       : Gamma Ray
~Parameter Information Block
~A  Depth       CCL         TT3         AMP3         GR     
# ...
  1032.7500      0.0000    691.6147     10.4716    115.6132
  1033.0000      0.0000    661.3408     10.4922    123.5894
  1033.2500      0.0000    634.0374     10.5019    129.9567
  1033.5000      0.0000    607.5593     10.6092    136.0428
  1033.7500      0.0000    581.8838     10.8600    142.5042
  1034.0000      0.0000    563.1812     11.2185    148.2458
  1034.2500      0.0000    562.4237     11.5653    151.0030
  1034.5000      0.0000    586.8163     11.7575    149.3013
  1034.7500      0.0000    630.7750     11.7198    143.9939
  1035.0000      0.0000    677.8904     11.4830    137.4894
  1035.2500      0.0000    713.2695     11.1380    131.5472
  1035.5000      0.0000    732.7802     10.7608    126.5018
  1035.7500      0.0000    741.9978     10.3797    122.3095
  1036.0000      0.0000    749.7103      9.9956    119.2366
  1036.2500      0.0000    761.8342      9.6156    117.4518
  1036.5000      0.0000    778.9353      9.2602    116.8595
  1036.7500      0.0000    797.9982      8.9472    117.5302
  1037.0000      0.0000    815.7107      8.6780    119.6574
  1037.2500      0.0000    829.0170      8.4409    122.8239
  1037.5000      0.0000    833.7051      8.2246    125.8484
  1037.7500      0.0000    825.4226      8.0274    127.7081
  1038.0000      0.0000    803.6066      7.8541    128.2591
  1038.2500      0.0000    773.9631      7.7084    127.7532
  1038.5000      0.0000    746.0206      7.5889    126.0744
  1038.7500      0.0000    727.6529      7.4927    122.9650
  1039.0000      0.0000    721.7647      7.4208    118.9109
  1039.2500      0.0000    727.4995      7.3771    115.4818
  1039.5000      0.0000    743.0082      7.3624    114.5465
  1039.7500      0.0000    766.0730      7.3688    116.9291
  1040.0000      0.0000    792.9868      7.3826    121.6222
  1040.2500      0.0000    818.7192      7.3924    126.2460
  1040.5000      0.0000    838.9442      7.3932    128.5563
  1040.7500      0.0000    851.7455      7.3849    128.0285
  1041.0000      0.0000    857.6465      7.3711    126.3907
  1041.2500      0.0000    858.6425      7.3577    126.5118
  1041.5000      0.0000    857.1977      7.3518    130.0484
  1041.7500      0.0000    855.4018      7.3625    135.5239
  1042.0000      0.0000    854.3818      7.4037    139.0009
  1042.2500      0.0000    854.4099      7.4899    137.4533
  1042.5000      0.0000    855.3719      7.6268    131.6843
  1042.7500      0.0000    856.6921      7.8059    125.5309
  1043.0000      0.0000    856.8987      8.0103    122.0701
  1043.2500      0.0000    854.1778      8.2232    121.0090
  1043.5000      0.0000    848.2242      8.4303    119.8742
  1043.7500      0.0000    841.5331      8.6178    117.2043
  1044.0000      0.0000    837.8690      8.7722    114.0004
  1044.2500      0.0000    838.4846      8.8815    112.4116
  1044.5000      0.0000    840.4083      8.9398    113.7760
  1044.7500      0.0000    839.5396      8.9503    117.8551
  1045.0000      0.0000    834.9730      8.9240    123.1166
  1045.2500      0.0000    829.1417      8.8746    127.5785
  1045.5000      0.0000    824.4232      8.8128    130.0091
  1045.7500      0.0000    821.6747      8.7460    130.5508
  1046.0000      0.0000    821.8799      8.6747    130.0334
  1046.2500      0.0000    826.2726      8.5868    128.9061
  1046.5000      0.0000    833.3647      8.4620    127.0743
  1046.7500      0.0000    837.7750      8.2891    124.5736
  1047.0000      0.0000    833.6069      8.0834    122.0375
  1047.2500      0.0000    818.6792      7.8886    120.4638
  1047.5000      0.0000    795.3918      7.7560    120.5555
  1047.7500      0.0000    768.7332      7.7110    122.1420
  1048.0000      0.0000    744.3200      7.7325    124.1216
  1048.2500      0.0000    727.2443      7.7667    125.2133
  1048.5000      0.0000    720.7037      7.7643    125.1410
  1048.7500      0.0000    724.5624      7.7083    125.0500
  1049.0000      0.0000    735.3024      7.6149    126.4365
  1049.2500      0.0000    747.8666      7.5177    129.7395
  1049.5000      0.0000    758.2305      7.4541    134.1977
  1049.7500      0.0000    764.9373      7.4562    138.6148
  1050.0000      0.0000    768.8412      7.5428    141.7362
  1050.2500      0.0000    771.9610      7.7127    142.5653
  1050.5000      0.0000    776.5969      7.9417    141.2870
  1050.7500      0.0000    784.6669      8.1847    139.4746
  1051.0000      0.0000    796.4516      8.3859    138.5881
  1051.2500      0.0000    809.2242      8.4955    138.6182
  1051.5000      0.0000    817.7150      8.4868    138.5624
  1051.7500      0.0000    817.2078      8.3683    137.7792
  1052.0000      0.0000    807.0071      8.1853    136.6870
  1052.2500      0.0000    791.1496      8.0032    136.4341
  1052.5000      0.0000    776.1608      7.8721    137.9016
  1052.7500      0.0000    768.0994      7.7971    140.8684
  1053.0000      0.0000    770.1157      7.7407    144.1708
  1053.2500      0.0000    780.6057      7.6576    146.5312
  1053.5000      0.0000    793.2999      7.5273    147.1226
  1053.7500      0.0000    800.6721      7.3595    145.7944
  1054.0000      0.0000    798.7230      7.1757    143.1848
  1054.2500      0.0000    789.2136      6.9911    140.5403
  1054.5000      0.0000    777.7962      6.8140    139.1486
  1054.7500      0.0000    769.8254      6.6574    139.6729
  1055.0000      0.0000    767.0710      6.5424    141.7352
  1055.2500      0.0000    767.6384      6.4860    144.1845
  1055.5000      0.0000    768.3837      6.4838    146.0932
  1055.7500      0.0000    767.0479      6.5083    147.3724
  1056.0000      0.0000    762.8292      6.5250    148.1583
  1056.2500      0.0000    756.2655      6.5133    147.9871
  1056.5000      0.0000    749.0870      6.4767    146.0368
  1056.7500      0.0000    743.4749      6.4392    141.8055
  1057.0000      0.0000    740.6542      6.4266    135.1287
  1057.2500      0.0000    740.0040      6.4473    126.1364
  1057.5000      0.0000    739.7308      6.4865    115.8921
  1057.7500      0.0000    738.5328      6.5213    106.5025
  1058.0000      0.0000    736.5221      6.5413     99.7234
  1058.2500      0.0000    734.6553      6.5549     95.6870
  1058.5000      0.0000    733.7585      6.5784     93.4014
  1058.7500      0.0000    734.2910      6.6202     92.1279
  1059.0000      0.0000    736.5544      6.6767     91.7599
  1059.2500      0.0000    740.4787      6.7386     92.1488
  1059.5000      0.0000    745.0051      6.8015     92.6924
  1059.7500      0.0000    748.0959      6.8663     92.6204
  1060.0000      0.0000    748.0156      6.9303     91.3403
  1060.2500      0.0000    744.8121      6.9835     88.6469
  1060.5000      0.0000    740.2568      7.0166     85.0530
  1060.7500      0.0000    736.2695      7.0311     81.8332
  1061.0000      0.0000    733.6533      7.0366     80.1946
  1061.2500      0.0000    732.1788      7.0399     80.1211
  1061.5000      0.0000    731.3542      7.0392     80.0669
  1061.7500      0.0000    730.9377      7.0261     78.0127
  1062.0000      0.0000    731.0336      6.9916     73.1873
  1062.2500      0.0000    731.9312      6.9334     66.9406
  1062.5000      0.0000    733.7110      6.8603     61.9001
  1062.7500      0.0000    735.8439      6.7865     60.1704
  1063.0000      0.0000    737.4643      6.7237     62.1154
  1063.2500      0.0000    738.3194      6.6785     66.3609
  1063.5000      0.0000    739.1751      6.6582     70.5789
  1063.7500      0.0000    740.9238      6.6735     72.6926
  1064.0000      0.0000    743.6134      6.7301     72.0771
  1064.2500      0.0000    746.7352      6.8166     69.7744
  1064.5000      0.0000    750.1188      6.9056     67.3616
  1064.7500      0.0000    754.0186      6.9740     65.7077
  1065.0000      0.0000    758.3688      7.0199     64.7439
  1065.2500      0.0000    762.3627      7.0588     64.0102
  1065.5000      0.0000    764.9117      7.1052     63.2830
  1065.7500      0.0000    765.4132      7.1606     62.8927
  1066.0000      0.0000    764.1931      7.2175     63.4486
