~Version Information
 VERS.                                  2.0 : CWLS LAS VERSION
 WRAP.                                   NO : WRAPING MODE
 SWARE .                 MController 2.5.0J : SOFTWARE VERSION
~Well Information
 WELL.                        HARRIER 44-33 : WELL
 COMP.    PIONEER NATURAL RESOURCES USA INC : COMPANY
 FLD.                      PURGATOIRE RIVER : FIELD
 LOC.                SE/SE SEC 33 T32S R66W : LOCATION
 DATE.                          06/19-20/05 : DATE(S) LOGGED
 SRVC.       BLANCO GEOLOGICAL SERVICES LLC : SERVICE COMPANY
 STAT.                             COLORADO : STATE
 CNTY.                           LAS ANIMAS : COUNTY
 CTRY.                                  USA : COUNTRY
 API.                       05-071-08398-00 : API NUMBER
 STRT.FT                             665.00 : START DEPTH
 STOP.FT                            2381.00 : STOP DEPTH
 STEP.FT                               1.00 : DEPTH INCREMENT
 NULL.                                -9999 : NULL VALUE
~Curve information
 DEPTH.FT                                   :
 ROP.MIN/FT                                 :
 GAS.UNITS                                  :
~ASCII Log data
# ...
       865.0         0.23         17.4 
       866.0         1.92         17.9 
       867.0         0.30         17.3 
       868.0         0.27         17.7 
       869.0         0.37         18.0 
       870.0         0.27         17.4 
       871.0         0.23         17.3 
       872.0         0.22         17.4 
       873.0         0.23         17.6 
       874.0         0.23         17.6 
       875.0         0.20         17.5 
       876.0         0.23         17.5 
       877.0         0.20         17.2 
       878.0         0.17         17.5 
       879.0         0.17         17.7 
       880.0         0.20         17.6 
       881.0         0.17         16.7 
       882.0         0.17         17.4 
       883.0         0.17         16.9 
       884.0         0.17         17.6 
       885.0         0.17         17.6 
       886.0         0.17         17.0 
       887.0         0.20         17.7 
       888.0         0.20         17.7 
       889.0         0.25         17.7 
       890.0         0.13         17.8 
       891.0         0.13         18.2 
       892.0         0.13         18.4 
       893.0         0.13         19.1 
       894.0         0.13         19.3 
       895.0         0.13         19.7 
       896.0         2.07         19.6 
       897.0         0.10         18.3 
       898.0         0.45         18.6 
       899.0         0.33         18.2 
       900.0         0.40         18.0 
       901.0         0.23         18.2 
       902.0         0.33         18.0 
       903.0         0.20         17.4 
       904.0         0.20         17.8 
       905.0         0.17         17.7 
       906.0         0.17         17.7 
       907.0         0.33         17.9 
       908.0         0.17         17.5 
       909.0         0.17         18.1 
       910.0         0.17         18.0 
       911.0         0.17         17.9 
       912.0         0.22         17.8 
       913.0         0.23         17.9 
       914.0         0.17         17.0 
       915.0         0.20         17.7 
       916.0         0.20         17.6 
       917.0         0.20         17.6 
       918.0         0.17         17.5 
       919.0         0.17         17.3 
       920.0         0.20         18.2 
       921.0         0.27         18.5 
       922.0         0.23         18.4 
       923.0         0.17         18.1 
       924.0         0.20         18.6 
       925.0         0.20         19.4 
       926.0         1.42         23.5 
       927.0         0.17         22.5 
       928.0         0.20         24.7 
       929.0         0.30         31.4 
       930.0         0.23         34.1 
       931.0         0.27         33.6 
       932.0         0.23         30.2 
       933.0         0.17         26.0 
       934.0         0.17         23.9 
       935.0         0.23         21.2 
       936.0         0.17         20.0 
       937.0         0.13         19.7 
       938.0         0.18         18.9 
       939.0         0.20         18.3 
       940.0         0.23         17.1 
       941.0         0.17         17.4 
       942.0         0.27         19.9 
       943.0         0.20         21.5 
       944.0         0.20         21.1 
       945.0         0.23         20.7 
       946.0         0.20         18.9 
       947.0         0.20         18.0 
       948.0         0.20         17.4 
       949.0         0.23         18.1 
       950.0         0.20         18.4 
       951.0         0.17         18.3 
       952.0         0.17         18.5 
       953.0         0.17         18.1 
       954.0         0.20         17.6 
       955.0         0.22         18.1 
       956.0         1.07         18.1 
       957.0         0.20         18.0 
       958.0         0.37         19.8 
       959.0         0.63         21.3 
       960.0         0.40         20.0 
       961.0         0.27         18.4 
       962.0         0.28         18.0 
       963.0         0.10         17.7 
       964.0         0.17         17.5 
       965.0         0.20         18.3 
       966.0         0.20         17.8 
       967.0         0.20         18.2 
       968.0         0.17         17.9 
       969.0         0.20         17.1 
       970.0         0.17         17.4 
       971.0         0.13         17.5 
       972.0         0.10         16.7 
       973.0         0.20         17.6 
       974.0         0.17         17.6 
       975.0         0.13         17.5 
       976.0         0.13         17.6 
       977.0         0.23         17.4 
       978.0         0.17         17.8 
       979.0         0.13         17.0 
       980.0         0.13         17.5 
       981.0         0.13         17.3 
       982.0         0.13         17.5 
       983.0         0.15         17.6 
       984.0         0.23         17.5 
       985.0         0.30         17.6 
       986.0         0.67         17.6 
       987.0         0.13         17.6 
       988.0         0.23         18.1 
       989.0         0.23         19.0 
       990.0         0.27         20.0 
       991.0         0.30         21.4 
       992.0         0.23         20.9 
       993.0         0.27         20.4 
       994.0         0.23         18.6 
       995.0         0.22         18.3 
       996.0         0.23         17.9 
       997.0         0.17         17.6 
       998.0         0.20         17.4 
       999.0         0.23         17.1 
      1000.0         0.17         17.4 
      1001.0         0.17         17.3 
      1002.0         0.20         17.4 
      1003.0         0.13         17.3 
      1004.0         0.20         17.6 
      1005.0         0.10         16.7 
      1006.0         0.13         17.3 
      1007.0         0.13         16.8 
      1008.0         0.13         17.0 
      1009.0         0.20         17.7 
      1010.0         0.23         17.4 
      1011.0         0.17         17.4 
      1012.0         0.30         17.4 
      1013.0         0.25         17.6 
      1014.0         0.23         17.7 
      1015.0         0.23         17.5 
      1016.0         0.87         17.8 
      1017.0         0.30         20.2 
      1018.0         0.17         22.9 
      1019.0         0.30         27.3 
      1020.0         0.20         29.1 
      1021.0         0.27         29.4 
      1022.0         0.20         32.3 
      1023.0         0.27         45.6 
      1024.0         0.23         50.6 
      1025.0         0.22         50.7 
      1026.0         0.20         47.7 
      1027.0         0.23         41.5 
      1028.0         0.23         31.1 
      1029.0         0.27         24.4 
      1030.0         0.23         19.4 
      1031.0         0.20         17.6 
      1032.0         0.20         17.1 
      1033.0         0.20         16.4 
      1034.0         0.20         16.7 
      1035.0         0.30         16.9 
      1036.0         0.20         16.9 
      1037.0         0.23         16.9 
      1038.0         0.20         17.0 
      1039.0         0.20         17.0 
      1040.0         0.25         17.1 
      1041.0         0.27         16.5 
      1042.0         0.23         17.1 
      1043.0         0.20         17.4 
      1044.0         0.40         17.6 
      1045.0         0.27         17.4 
      1046.0         1.57         24.2 
      1047.0         0.25         36.5 
      1048.0         0.13         43.5 
      1049.0         0.27         65.1 
      1050.0         0.23         80.8 
      1051.0         0.23         81.9 
      1052.0         0.17         77.9 
      1053.0         0.20         68.4 
      1054.0         0.17         55.8 
      1055.0         0.17         47.5 
      1056.0         0.23         42.1 
      1057.0         0.23         37.3 
      1058.0         0.20         33.6 
      1059.0         0.20         31.5 
      1060.0         0.23         30.6 
      1061.0         0.20         29.7 
      1062.0         0.23         28.3 
      1063.0         0.20         28.4 
      1064.0         0.25         28.4 
