~Version Information
VERS.                      2.0: CWLS Log ASCII Standard - VERSION 2.0
WRAP.                       NO: One line per depth step
~Well Information Block
STRT.FT               360.0000: 
STOP.FT              1622.7500: 
STEP.FT                 0.2500: 
NULL.                -999.2500: 
COMP.          Pioneer Natural Resources: COMPANY
WELL.                Eric 42-9: WELL
FLD.           Purgatoire River: FIELD
LOC.           2050' FNL & 850' FEL: LOCATION
PROV.                 Colorado: PROVINCE
CNTY.               Las Animas: COUNTRY
SRVC.                Patterson: SERVICE COMPANY
DATE.          Sun Oct 31 17:26:46 2004: LOG DATE
UWI.           05 071 07999 00: UNIQUE WELL ID
~Curve Information Block
DEPT.FT            0 000 00 00: Depth
SN.Ohm-m                      : IEL Short Normal
SP.mV                         : IEL Spontaneous Potential
DIR.Ohm-m                     : IEL Induction Resistivity
GR.GAPI                       : Gamma Ray
~Parameter Information Block
~A  Depth        SN          SP         DIR          GR     
# ...
   427.0000   2000.0000   2100.0000     15.5221    115.4633
   427.2500   2000.0000   2100.0000     15.5998    115.5032
   427.5000   2000.0000   2100.0000     15.6825    114.7791
   427.7500   2000.0000   2100.0000     15.7566    113.2233
   428.0000   2000.0000   2100.0000     15.8059    109.1049
   428.2500   2000.0000   2100.0000     15.8234    105.6841
   428.5000   2000.0000   2100.0000     15.8182    100.8248
   428.7500   2000.0000   2100.0000     15.8096     98.3370
   429.0000   2000.0000   2100.0000     15.8140     96.1082
   429.2500   2000.0000   2100.0000     15.8338     95.4871
   429.5000   2000.0000   2100.0000     15.8562     95.2227
   429.7500   2000.0000   2100.0000     15.8594     95.1894
   430.0000   2000.0000   2100.0000     15.8232     95.3420
   430.2500   2000.0000   2100.0000     15.7370     95.7596
   430.5000   2000.0000   2100.0000     15.6050     97.1256
   430.7500   2000.0000   2100.0000     15.4464     98.6206
   431.0000   2000.0000   2100.0000     15.2887    101.8082
   431.2500   2000.0000   2100.0000     15.1564    104.4909
   431.5000   2000.0000   2100.0000     15.0591    108.9050
   431.7500   2000.0000   2100.0000     14.9873    111.6796
   432.0000   2000.0000   2100.0000     14.9194    114.8508
   432.2500   2000.0000   2100.0000     14.8347    116.0895
   432.5000   2000.0000   2100.0000     14.7262    116.8275
   432.7500   2000.0000   2100.0000     14.6046    116.9156
   433.0000   2000.0000   2100.0000     14.4938    116.8525
   433.2500   2000.0000   2100.0000     14.4218    116.5047
   433.5000   2000.0000   2100.0000     14.4148    114.7348
   433.7500   2000.0000   2100.0000     14.4923    112.5528
   434.0000   2000.0000   2100.0000     14.6615    108.6265
   434.2500   2000.0000   2100.0000     14.9115    106.3645
   434.5000   2000.0000   2100.0000     15.2130    104.1912
   434.7500   2000.0000   2100.0000     15.5256    103.3638
   435.0000   2000.0000   2100.0000     15.8102    102.3694
   435.2500   2000.0000   2100.0000     16.0390    101.7991
   435.5000   2000.0000   2100.0000     16.1952    101.8803
   435.7500   2000.0000   2100.0000     16.2696    103.1865
   436.0000   2000.0000   2100.0000     16.2587    107.3352
   436.2500   2000.0000   2100.0000     16.1722    111.0900
   436.5000   2000.0000   2100.0000     16.0377    116.6596
   436.7500   2000.0000   2100.0000     15.8952    119.2880
   437.0000   2000.0000   2100.0000     15.7793    120.1344
   437.2500   2000.0000   2100.0000     15.7033    118.3677
   437.5000   2000.0000   2100.0000     15.6562    113.1643
   437.7500   2000.0000   2100.0000     15.6123    109.0551
   438.0000   2000.0000   2100.0000     15.5427    103.4731
   438.2500   2000.0000   2100.0000     15.4202    100.4686
   438.5000   2000.0000   2100.0000     15.2174     96.9043
   438.7500   2000.0000   2100.0000     14.9053     95.2654
   439.0000   2000.0000   2100.0000     14.4597     95.2646
   439.2500   2000.0000   2100.0000     13.8740     98.0208
   439.5000   2000.0000   2100.0000     13.1672    106.8328
   439.7500   2000.0000   2100.0000     12.3808    114.6376
   440.0000   2000.0000   2100.0000     11.5645    125.6051
   440.2500   2000.0000   2100.0000     10.7640    130.6625
   440.5000   2000.0000   2100.0000     10.0147    133.9113
   440.7500   2000.0000   2100.0000      9.3411    133.6546
   441.0000   2000.0000   2100.0000      8.7590    131.1070
   441.2500   2000.0000   2100.0000      8.2750    128.7212
   441.5000   2000.0000   2100.0000      7.8861    124.8688
   441.7500   2000.0000   2100.0000      7.5801    122.4116
   442.0000   2000.0000   2100.0000      7.3401    119.6004
   442.2500   2000.0000   2100.0000      7.1515    118.6989
   442.5000   2000.0000   2100.0000      7.0053    118.7719
   442.7500   2000.0000   2100.0000      6.8966    119.3509
   443.0000   2000.0000   2100.0000      6.8192    120.3137
   443.2500   2000.0000   2100.0000      6.7630    120.9184
   443.5000   2000.0000   2100.0000      6.7156    122.0713
   443.7500   2000.0000   2100.0000      6.6670    123.1510
   444.0000   2000.0000   2100.0000      6.6142    124.9013
   444.2500   2000.0000   2100.0000      6.5609    125.7087
   444.5000   2000.0000   2100.0000      6.5145    125.9554
   444.7500   2000.0000   2100.0000      6.4813    125.6676
   445.0000   2000.0000   2100.0000      6.4638    125.3389
   445.2500   2000.0000   2100.0000      6.4603    125.5644
   445.5000   2000.0000   2100.0000      6.4656    126.5545
   445.7500   2000.0000   2100.0000      6.4724    127.2176
   446.0000   2000.0000   2100.0000      6.4721    127.4177
   446.2500   2000.0000   2100.0000      6.4587    126.9966
   446.5000   2000.0000   2100.0000      6.4327    126.2688
   446.7500   2000.0000   2100.0000      6.4016    126.1001
   447.0000   2000.0000   2100.0000      6.3758    126.2097
   447.2500   2000.0000   2100.0000      6.3625    126.2437
   447.5000   2000.0000   2100.0000      6.3625    126.2588
   447.7500   2000.0000   2100.0000      6.3715    126.5914
   448.0000   2000.0000   2100.0000      6.3843    127.9324
   448.2500   2000.0000   2100.0000      6.3987    129.1190
   448.5000   2000.0000   2100.0000      6.4156    130.3715
   448.7500   2000.0000   2100.0000      6.4368    130.4370
   449.0000   2000.0000   2100.0000      6.4631    129.4581
   449.2500   2000.0000   2100.0000      6.4942    128.5832
   449.5000   2000.0000   2100.0000      6.5315    127.8686
   449.7500   2000.0000   2100.0000      6.5797    127.8414
   450.0000   2000.0000   2100.0000      6.6454    127.4962
   450.2500   2000.0000   2100.0000      6.7344    126.4420
   450.5000   2000.0000   2100.0000      6.8496    123.7394
   450.7500   2000.0000   2100.0000      6.9915    122.0285
   451.0000   2000.0000   2100.0000      7.1597    121.2887
   451.2500   2000.0000   2100.0000      7.3539    122.3569
   451.5000   2000.0000   2100.0000      7.5724    125.1273
   451.7500   2000.0000   2100.0000      7.8086    126.4881
   452.0000   2000.0000   2100.0000      8.0496    126.1897
   452.2500   2000.0000   2100.0000      8.2775    124.2008
   452.5000   2000.0000   2100.0000      8.4731    118.8967
   452.7500   2000.0000   2100.0000      8.6150    114.1852
   453.0000   2000.0000   2100.0000      8.6795    106.3743
   453.2500   2000.0000   2100.0000      8.6455    101.6110
   453.5000   2000.0000   2100.0000      8.5079     97.0112
   453.7500   2000.0000   2100.0000      8.2881     96.4800
   454.0000   2000.0000   2100.0000      8.0290     99.7757
   454.2500   2000.0000   2100.0000      7.7755    104.0602
   454.5000   2000.0000   2100.0000      7.5567    111.5297
   454.7500   2000.0000   2100.0000      7.3815    115.9440
   455.0000   2000.0000   2100.0000      7.2462    120.5127
   455.2500   2000.0000   2100.0000      7.1463    122.2179
   455.5000   2000.0000   2100.0000      7.0834    123.4467
   455.7500   2000.0000   2100.0000      7.0655    123.5627
   456.0000   2000.0000   2100.0000      7.1010    122.2444
   456.2500   2000.0000   2100.0000      7.1946    120.1509
   456.5000   2000.0000   2100.0000      7.3443    115.9365
   456.7500   2000.0000   2100.0000      7.5417    113.3412
   457.0000   2000.0000   2100.0000      7.7709    110.9018
   457.2500   2000.0000   2100.0000      8.0052    110.2818
   457.5000   2000.0000   2100.0000      8.2070    110.5125
   457.7500   2000.0000   2100.0000      8.3348    111.4551
   458.0000   2000.0000   2100.0000      8.3591    114.3278
   458.2500   2000.0000   2100.0000      8.2764    117.1142
   458.5000   2000.0000   2100.0000      8.1096    121.7716
   458.7500   2000.0000   2100.0000      7.8965    124.6208
   459.0000   2000.0000   2100.0000      7.6769    127.7746
   459.2500   2000.0000   2100.0000      7.4855    128.8326
   459.5000   2000.0000   2100.0000      7.3494    128.6054
   459.7500   2000.0000   2100.0000      7.2883    127.3436
   460.0000   2000.0000   2100.0000      7.3145    124.2709
   460.2500   2000.0000   2100.0000      7.4333    121.6956
