~Version Information
 VERS.                                  2.0 : CWLS LAS VERSION
 WRAP.                                   NO : WRAPING MODE
 SWARE .                 MController 2.5.0J : SOFTWARE VERSION
~Well Information
 WELL.                           Ywam 7-23V : WELL
 COMP.                       Petrogulf Corp : COMPANY
 FLD.                      Purgatorie River : FIELD
 LOC.                 NE/SW Sec 7 T33S R67W : LOCATION
 DATE.                          10/29-30/04 : DATE(S) LOGGED
 SRVC.       Blanco Geological Services LLC : SERVICE COMPANY
 STAT.                                   CO : STATE
 CNTY.                           Las Animas : COUNTY
 CTRY.                                  USA : COUNTRY
 API.                       05-071-08227-00 : API NUMBER
 STRT.FT                             634.00 : START DEPTH
 STOP.FT                            2611.00 : STOP DEPTH
 STEP.FT                               1.00 : DEPTH INCREMENT
 NULL.                                -9999 : NULL VALUE
~Curve information
 DEPTH.FT                                   :
 ROP.MIN/FT                                 :
 GAS.UNITS                                  :
~ASCII Log data
# ...
      1634.0         0.20         18.6 
      1635.0         0.20         18.7 
      1636.0         0.20         18.9 
      1637.0         0.20         17.8 
      1638.0         0.20         17.8 
      1639.0         0.20         17.8 
      1640.0         0.20         17.8 
      1641.0         0.25         18.9 
      1642.0         0.23         19.8 
      1643.0         0.23         18.9 
      1644.0         0.20         19.2 
      1645.0         0.23         19.2 
      1646.0         0.20         18.9 
      1647.0         0.23         19.7 
      1648.0         0.30         23.3 
      1649.0         0.23         18.6 
      1650.0         0.27         20.1 
      1651.0         0.40         20.8 
      1652.0         0.43         20.5 
      1653.0         0.30         20.1 
      1654.0         0.33         20.7 
      1655.0         0.27         20.2 
      1656.0         0.32         19.0 
      1657.0         0.30         19.6 
      1658.0         0.23         20.0 
      1659.0         0.20         19.2 
      1660.0         0.20         18.8 
      1661.0         0.20         19.0 
      1662.0         0.23         19.7 
      1663.0         0.17         19.7 
      1664.0         0.20         19.0 
      1665.0         0.13         19.3 
      1666.0         0.17         19.3 
      1667.0         0.20         18.7 
      1668.0         0.27         20.0 
      1669.0         0.23         19.0 
      1670.0         0.27         20.8 
      1671.0         0.18         21.7 
      1672.0         0.40         22.3 
      1673.0         0.27         23.6 
      1674.0         0.20         22.6 
      1675.0         0.30         23.0 
      1676.0         0.23         22.9 
      1677.0         0.20         25.8 
      1678.0         0.23         25.8 
      1679.0         0.27         28.3 
      1680.0         0.17         25.9 
      1681.0         0.35         26.3 
      1682.0         0.27         23.4 
      1683.0         0.30         22.6 
      1684.0         0.33         21.7 
      1685.0         0.30         21.3 
      1686.0         0.27         20.4 
      1687.0         0.30         20.4 
      1688.0         0.33         20.0 
      1689.0         0.23         18.8 
      1690.0         0.27         19.3 
      1691.0         0.23         18.7 
      1692.0         0.20         19.2 
      1693.0         0.22         19.7 
      1694.0         0.20         19.1 
      1695.0         0.17         19.8 
      1696.0         0.17         19.3 
      1697.0         0.20         19.7 
      1698.0         0.17         18.6 
      1699.0         0.20         19.0 
      1700.0         0.17         18.8 
      1701.0         0.20         19.0 
      1702.0         0.17         18.8 
      1703.0         0.20         18.6 
      1704.0         0.17         18.9 
      1705.0         0.17         18.6 
      1706.0         0.20         18.4 
      1707.0         0.23         20.9 
      1708.0         0.17         20.9 
      1709.0         0.27         21.9 
      1710.0         0.28         23.4 
      1711.0         0.22         25.5 
      1712.0         0.23         27.0 
      1713.0         0.30         25.7 
      1714.0         0.33         24.1 
      1715.0         0.40         21.3 
      1716.0         0.40         21.2 
      1717.0         0.33         19.5 
      1718.0         0.33         20.1 
      1719.0         0.23         18.1 
      1720.0         0.30         18.1 
      1721.0         0.27         18.3 
      1722.0         0.25         19.5 
      1723.0         0.23         20.0 
      1724.0         0.20         20.2 
      1725.0         0.20         20.2 
      1726.0         0.20         20.8 
      1727.0         0.23         20.1 
      1728.0         0.30         20.4 
      1729.0         0.30         19.2 
      1730.0         0.30         18.8 
      1731.0         0.27         18.4 
      1732.0         0.23         19.5 
      1733.0         0.27         17.9 
      1734.0         0.40         19.2 
      1735.0         0.28         19.3 
      1736.0         0.23         18.8 
      1737.0         0.23         19.6 
      1738.0         0.20         23.8 
      1739.0         0.30         24.9 
      1740.0         0.37         24.5 
      1741.0         0.40         23.3 
      1742.0         0.33         20.7 
      1743.0         0.27         19.1 
      1744.0         0.32         20.5 
      1745.0         0.27         20.0 
      1746.0         0.33         19.6 
      1747.0         0.37         19.2 
      1748.0         0.27         19.4 
      1749.0         0.30         19.0 
      1750.0         0.20         19.0 
      1751.0         0.23         19.3 
      1752.0         0.23         19.1 
      1753.0         0.23         19.2 
      1754.0         0.23         18.7 
      1755.0         0.20         18.8 
      1756.0         0.20         18.8 
      1757.0         0.18         18.3 
      1758.0         0.20         18.3 
      1759.0         0.20         18.1 
      1760.0         0.27         18.8 
      1761.0         0.23         18.5 
      1762.0         0.20         18.9 
      1763.0         0.20         19.0 
      1764.0         0.20         18.6 
      1765.0         0.17         19.0 
      1766.0         0.20         19.0 
      1767.0         0.17         24.0 
      1768.0         0.20         24.0 
      1769.0         0.30         25.8 
      1770.0         0.27         25.3 
      1771.0         0.33         21.7 
      1772.0         0.33         20.1 
      1773.0         0.37         18.2 
      1774.0         0.23         18.3 
      1775.0         0.20         17.7 
      1776.0         0.17         63.0 
      1777.0         0.17         63.0 
      1778.0         0.23         63.9 
      1779.0         0.20         50.8 
      1780.0         0.30         33.9 
      1781.0         0.23         24.3 
      1782.0         0.20         20.9 
      1783.0         0.30         18.1 
      1784.0         0.32         18.1 
      1785.0         0.30         18.5 
      1786.0         0.27         17.6 
      1787.0         0.23         17.9 
      1788.0         0.13         18.8 
      1789.0         0.17         18.8 
      1790.0         0.20         18.4 
      1791.0         0.27         19.6 
      1792.0         0.27         19.7 
      1793.0         0.23         20.2 
      1794.0         0.23         19.9 
      1795.0         0.23         19.5 
      1796.0         0.23         19.0 
      1797.0         0.23         24.2 
      1798.0         0.22         24.2 
      1799.0         0.23         24.8 
      1800.0         0.27         25.4 
      1801.0         0.43         24.8 
      1802.0         0.40         23.7 
      1803.0         0.37         22.5 
      1804.0         0.37         21.0 
      1805.0         0.43         21.7 
      1806.0         0.30         20.3 
      1807.0         0.30         19.2 
      1808.0         0.35         19.0 
      1809.0         0.27         19.3 
      1810.0         0.30         19.0 
      1811.0         0.30         19.3 
      1812.0         0.23         18.8 
      1813.0         0.27         18.8 
      1814.0         0.27         19.0 
      1815.0         0.27         19.4 
      1816.0         0.23         18.2 
      1817.0         0.30         17.7 
      1818.0         0.27         18.5 
      1819.0         0.23         19.0 
      1820.0         0.22         19.0 
      1821.0         0.23         18.4 
      1822.0         0.23         18.1 
      1823.0         0.23         17.9 
      1824.0         0.27         19.0 
      1825.0         0.37         17.9 
      1826.0         0.30         18.1 
      1827.0         0.27         17.9 
      1828.0         0.23         31.1 
      1829.0         0.27         19.4 
      1830.0         0.27         19.2 
      1831.0         0.27         20.9 
      1832.0         0.33         20.6 
      1833.0         0.33         19.8 
