~Version Information
VERS.                      2.0: CWLS Log ASCII Standard - VERSION 2.0
WRAP.                       NO: One line per depth step
~Well Information Block
STRT.FT               825.0000: 
STOP.FT              2446.5000: 
STEP.FT                 0.2500: 
NULL.                -999.2500: 
COMP.          Petrogulf Corporation: COMPANY
WELL.            Kraft 17-23 V: WELL
FLD.           Purgatorie River: FIELD
LOC.           1500' FSL & 1773' FWL: LOCATION
CNTY.               Las Animas: COUNTY
SRVC.                         : SERVICE COMPANY
DATE.          Thu Nov 20 06:35:41 2003: LOG DATE
UWI.                          : UNIQUE WELL ID
STAT.                 Colorado: STATE
~Curve Information Block
DEPT.FT            0 000 00 00: Depth
SN.Ohm-m                      : IEL Short Normal
SP.mV                         : IEL Spontaneous Potential
DIR.Ohm-m                     : IEL Induction Resistivity
GR.GAPI                       : Gamma Ray
~Parameter Information Block
~A  Depth        SN          SP         DIR          GR     
# ...
  1763.0000     13.0617     -6.4913      8.0197     90.0068
  1763.2500     13.6815     -6.7097      8.0723     89.3265
  1763.5000     13.8393     -6.6297      8.1207     94.3610
  1763.7500     13.3664     -6.2979      8.1472    100.9852
  1764.0000     12.7768     -5.8031      8.1354    112.5655
  1764.2500     12.5118     -5.2758      8.0755    119.4512
  1764.5000     12.3723     -4.8559      7.9694    127.0124
  1764.7500     12.1126     -4.5793      7.8308    130.5171
  1765.0000     11.8995     -4.2817      7.6801    135.1126
  1765.2500     11.8584     -3.7341      7.5382    138.7169
  1765.5000     11.7595     -2.9405      7.4228    145.5320
  1765.7500     11.3736     -2.1945      7.3472    150.3553
  1766.0000     10.7291     -1.7581      7.3199    155.7966
  1766.2500      9.9348     -1.5818      7.3447    157.1813
  1766.5000      9.1472     -1.4272      7.4194    155.5988
  1766.7500      8.7094     -1.2154      7.5374    152.6923
  1767.0000      8.8865     -1.2082      7.6901    147.0091
  1767.2500      9.5836     -1.8473      7.8699    143.0135
  1767.5000     10.5682     -3.3704      8.0708    137.1983
  1767.7500     11.7227     -5.5356      8.2849    133.4357
  1768.0000     12.9837     -7.7175      8.4999    127.9279
  1768.2500     14.0329     -9.2874      8.7041    124.5421
  1768.5000     14.2175     -9.9589      8.8974    120.5617
  1768.7500     13.5179     -9.8365      9.0986    118.9307
  1769.0000     13.2204     -9.2133      9.3394    117.9726
  1769.2500     14.2953     -8.3784      9.6458    118.2065
  1769.5000     15.9531     -7.5645     10.0178    120.0209
  1769.7500     16.8732     -6.9438     10.4162    122.3514
  1770.0000     16.7688     -6.6043     10.7668    127.0904
  1770.2500     16.2975     -6.5376     10.9852    130.2410
  1770.5000     15.9811     -6.6472     11.0134    133.1618
  1770.7500     15.6724     -6.7534     10.8463    133.4373
  1771.0000     15.1361     -6.6103     10.5288    132.4664
  1771.2500     14.6689     -5.9955     10.1309    132.1802
  1771.5000     14.8064     -4.8617      9.7216    133.5197
  1771.7500     15.5506     -3.4074      9.3514    135.2739
  1772.0000     16.2104     -1.9816      9.0472    137.9715
  1772.2500     16.1177     -0.8999      8.8127    139.5716
  1772.5000     15.1397     -0.3012      8.6337    142.3858
  1772.7500     13.5937     -0.1017      8.4888    144.8994
  1773.0000     12.2130     -0.0771      8.3633    148.8484
  1773.2500     11.6690     -0.0216      8.2585    150.6060
  1773.5000     11.8660      0.1557      8.1900    151.1264
  1773.7500     12.2168      0.4619      8.1763    150.4691
  1774.0000     12.3352      0.8801      8.2242    149.0318
  1774.2500     12.2678      1.3790      8.3236    148.0386
  1774.5000     12.2764      1.9080      8.4518    146.5423
  1774.7500     12.4414      2.3874      8.5856    145.5225
  1775.0000     12.6177      2.6959      8.7155    143.6087
  1775.2500     12.6560      2.7273      8.8500    141.6076
  1775.5000     12.5060      2.5118      9.0107    136.9693
  1775.7500     12.2519      2.2306      9.2186    133.1384
  1776.0000     11.9504      2.0497      9.4818    128.0430
  1776.2500     11.4365      1.9665      9.7841    125.9971
  1776.5000     10.7131      1.8700     10.0851    124.7965
  1776.7500     10.3656      1.7439     10.3347    124.2191
  1777.0000     10.9453      1.7556     10.5025    122.0965
  1777.2500     12.2606      2.1253     10.6005    119.7156
  1777.5000     13.7568      2.9370     10.6796    115.4002
  1777.7500     15.0094      4.0939     10.7990    112.5059
  1778.0000     15.7875      5.4193     10.9988    109.1757
  1778.2500     16.2258      6.7696     11.2893    108.4371
  1778.5000     16.7056      8.0512     11.6615    110.1562
  1778.7500     17.4326      9.1627     12.1079    112.4630
  1779.0000     18.3951      9.9700     12.6375    115.2333
  1779.2500     19.4521     10.3986     13.2764    115.5062
  1779.5000     20.4333     10.5422     14.0490    113.1039
  1779.7500     21.3720     10.5790     14.9517    110.0058
  1780.0000     22.4449     10.5221     15.9301    104.2198
  1780.2500     23.6924     10.1609     16.8740    100.3762
  1780.5000     25.0804      9.3687     17.6420     96.0119
  1780.7500     26.6964      8.3633     18.1187     94.6458
  1781.0000     28.6630      7.5237     18.2712     94.9882
  1781.2500     30.9641      7.0216     18.1637     96.0780
  1781.5000     33.4595      6.7443     17.9156     96.8342
  1781.7500     35.9781      6.5011     17.6338     95.5902
  1782.0000     38.2614      6.2053     17.3571     90.3102
  1782.2500     40.0349      5.8876     17.0413     84.7714
  1782.5000     41.1646      5.6153     16.5867     74.5048
  1782.7500     41.3987      5.4272     15.9010     67.1308
  1783.0000     40.2928      5.3067     14.9696     56.9191
  1783.2500     37.7778      5.1845     13.8759     51.7562
  1783.5000     34.3837      4.9746     12.7560     47.9287
  1783.7500     30.6254      4.6407     11.7311     48.3250
  1784.0000     26.7473      4.2501     10.8725     53.3802
  1784.2500     23.2048      3.9568     10.1999     59.7884
  1784.5000     20.5363      3.8926      9.6954     73.9882
  1784.7500     18.7418      4.0296      9.3205     86.0194
  1785.0000     17.4517      4.1571      9.0285    105.6967
  1785.2500     16.4211      4.0276      8.7780    118.0592
  1785.5000     15.4496      3.5449      8.5426    132.5703
  1785.7500     14.2718      2.8262      8.3149    138.7456
  1786.0000     12.8007      2.1179      8.1007    143.3012
  1786.2500     11.2985      1.6556      7.9097    144.1485
  1786.5000     10.3078      1.5630      7.7470    143.7889
  1786.7500     10.1804      1.8354      7.6132    143.2665
  1787.0000     10.6930      2.3868      7.5073    142.9821
  1787.2500     11.4282      3.0928      7.4322    143.2095
  1787.5000     12.2465      3.8183      7.3926    143.6664
  1787.7500     13.2580      4.4753      7.3939    143.7353
  1788.0000     14.3205      5.0777      7.4417    143.4698
  1788.2500     14.7218      5.7169      7.5478    143.3185
  1788.5000     14.0619      6.4901      7.7361    143.5245
  1788.7500     13.0576      7.4602      8.0426    143.8338
  1789.0000     12.7229      8.6394      8.5050    143.8147
  1789.2500     13.5123      9.9714      9.1412    143.0480
  1789.5000     15.1918     11.3451      9.9169    140.4370
  1789.7500     16.8279     12.6459     10.7176    137.7507
  1790.0000     17.6262     13.7908     11.3613    132.3911
  1790.2500     17.8274     14.7257     11.6876    127.8577
  1790.5000     18.0586     15.4217     11.6692    119.5410
  1790.7500     18.5167     15.8881     11.4242    113.3472
  1791.0000     19.0987     16.1818     11.1201    104.5694
  1791.2500     19.5577     16.3916     10.8852    100.1347
  1791.5000     19.5697     16.5998     10.7829     97.1848
  1791.7500     19.0368     16.8396     10.8243     98.1306
  1792.0000     18.1707     17.0845     10.9825    103.0874
  1792.2500     17.2491     17.2914     11.2001    107.3407
  1792.5000     16.4431     17.4525     11.3967    112.7903
  1792.7500     15.8331     17.5956     11.4936    115.4237
  1793.0000     15.4690     17.7522     11.4510    118.6012
  1793.2500     15.3419     17.9486     11.2951    120.5111
  1793.5000     15.3570     18.2214     11.1047    122.7413
  1793.7500     15.5029     18.6097     10.9693    123.5576
  1794.0000     16.0526     19.0916     10.9513    123.9470
  1794.2500     17.3090     19.4977     11.0722    123.9890
  1794.5000     18.9588     19.5339     11.3165    124.2008
  1794.7500     20.1212     19.0050     11.6446    124.5225
  1795.0000     20.4127     18.0518     12.0062    124.9813
  1795.2500     20.3439     17.0915     12.3508    124.7998
  1795.5000     20.4585     16.4741     12.6339    122.7895
  1795.7500     20.9105     16.2015     12.8166    120.0772
  1796.0000     21.7234     15.9769     12.8686    114.7664
  1796.2500     22.7754     15.5054     12.7745    111.1805
