~Version Information
 VERS.                                  2.0 : CWLS LAS VERSION
 WRAP.                                   NO : WRAPING MODE
 SWARE .                 MController 2.5.0J : SOFTWARE VERSION
~Well Information
 WELL.                      Bucksnort 41-35 : WELL
 COMP.   Pioneer Natural Resources USA Inc. : COMPANY
 FLD.                      Purgatoire River : FIELD
 LOC.                NE/NE Sec 35 T32S R66W : LOCATION
 DATE.                              7/22/05 : DATE(S) LOGGED
 SRVC.       BLANCO Geological Services LLC : SERVICE COMPANY
 STAT.                             Colorado : STATE
 CNTY.                           Las Animas : COUNTY
 CTRY.                               U.S.A. : COUNTRY
 API.                                   N/A : API NUMBER
 STRT.FT                             581.00 : START DEPTH
 STOP.FT                            2010.00 : STOP DEPTH
 STEP.FT                               1.00 : DEPTH INCREMENT
 NULL.                                -9999 : NULL VALUE
~Curve information
 DEPTH.FT                                   :
 ROP.MIN/FT                                 :
 GAS.UNITS                                  :
~ASCII Log data
# ...
      1781.0         0.17        219.0 
      1782.0         0.17        219.6 
      1783.0         0.20        214.7 
      1784.0         0.20        183.5 
      1785.0         0.30        134.6 
      1786.0         0.27         73.1 
      1787.0         0.20         43.0 
      1788.0         0.27         29.2 
      1789.0         0.23         15.4 
      1790.0         0.23         10.2 
      1791.0         0.20         17.4 
      1792.0         0.23         32.9 
      1793.0         0.28         50.9 
      1794.0         0.23         63.8 
      1795.0         0.27         67.9 
      1796.0         0.27         66.3 
      1797.0         0.33         55.4 
      1798.0         0.23         41.9 
      1799.0         0.30         35.0 
      1800.0         0.23         27.8 
      1801.0         6.17        122.4 
      1802.0         0.43        155.9 
      1803.0         0.33        180.1 
      1804.0         0.37        201.3 
      1805.0         0.40        214.9 
      1806.0         0.20        218.7 
      1807.0         0.22        222.6 
      1808.0         0.47        238.6 
      1809.0         0.50        277.9 
      1810.0         0.43        278.5 
      1811.0         0.53        179.9 
      1812.0         0.47         54.0 
      1813.0         0.47         20.9 
      1814.0         0.62         20.6 
      1815.0         0.57          9.6 
      1816.0         0.53          1.7 
      1817.0         0.50          2.8 
      1818.0         0.43          4.1 
      1819.0         0.37          6.9 
      1820.0         0.47         10.0 
      1821.0         0.55         15.8 
      1822.0         0.47         21.5 
      1823.0         0.50         27.0 
      1824.0         0.60         32.5 
      1825.0         0.60         37.9 
      1826.0         0.20         39.2 
      1827.0         0.17         40.4 
      1828.0         0.27         41.8 
      1829.0         0.13         42.6 
      1830.0         0.13         43.3 
      1831.0         5.30        219.0 
      1832.0         0.27        223.3 
      1833.0         0.43        228.3 
      1834.0         0.47        228.5 
      1835.0         0.45        224.0 
      1836.0         0.57        227.3 
      1837.0         0.47        215.0 
      1838.0         0.63         93.5 
      1839.0         0.73         58.4 
      1840.0         0.85         70.2 
      1841.0         0.77         24.7 
      1842.0         0.63          2.8 
      1843.0         0.73          1.8 
      1844.0         0.67          4.7 
      1845.0         0.58          9.7 
      1846.0         0.57         15.0 
      1847.0         0.70         24.4 
      1848.0         0.70         30.7 
      1849.0         0.30         34.4 
      1850.0         0.30         36.7 
      1851.0         0.63         42.4 
      1852.0         0.52         49.8 
      1853.0         0.53         53.9 
      1854.0         0.47         59.3 
      1855.0         0.40         62.3 
      1856.0         0.47         62.4 
      1857.0         0.47         63.1 
      1858.0         0.62         67.9 
      1859.0         0.67         70.5 
      1860.0         0.40         70.3 
      1861.0        11.05        293.4 
      1862.0         0.30        237.7 
      1863.0         0.23        236.6 
      1864.0         0.20        234.4 
      1865.0         0.37        231.2 
      1866.0         0.58        222.5 
      1867.0         0.37        209.6 
      1868.0         0.33        224.8 
      1869.0         0.30        241.3 
      1870.0         0.27        235.2 
      1871.0         0.30        175.9 
      1872.0         0.33        101.1 
      1873.0         0.20         47.6 
      1874.0         0.13         33.2 
      1875.0         0.33         26.2 
      1876.0         0.42         16.6 
      1877.0         0.40          6.7 
      1878.0         0.33          5.5 
      1879.0         0.37         10.8 
      1880.0         0.40         19.3 
      1881.0         0.33         33.3 
      1882.0         0.43         50.4 
      1883.0         0.40         59.3 
      1884.0         0.42         63.1 
      1885.0         0.47         62.9 
      1886.0         0.47         52.3 
      1887.0         0.40         36.4 
      1888.0         0.37         28.1 
      1889.0         0.50         21.8 
      1890.0         0.47         15.5 
      1891.0         3.78        148.3 
      1892.0         0.78        189.2 
      1893.0         0.90        231.8 
      1894.0         0.60        270.5 
      1895.0         0.67        342.2 
      1896.0         0.58        343.1 
      1897.0         0.70        317.6 
      1898.0         0.87        288.8 
      1899.0         0.88        391.7 
      1900.0         0.80        389.7 
      1901.0         0.88         95.1 
      1902.0         0.67          7.8 
      1903.0         0.80          3.6 
      1904.0         0.63         10.5 
      1905.0         0.73         22.7 
      1906.0         0.78         35.3 
      1907.0         0.73         44.1 
      1908.0         0.60         51.8 
      1909.0         0.53         60.1 
      1910.0         0.50         66.2 
      1911.0         0.82         72.2 
      1912.0         0.83         78.8 
      1913.0         0.57         80.1 
      1914.0         0.40         80.0 
      1915.0         0.50         79.7 
      1916.0         0.43         81.2 
      1917.0         0.52         82.8 
      1918.0         0.63         83.8 
      1919.0         0.53         83.8 
      1920.0         0.70         83.9 
      1921.0         4.83        190.3 
      1922.0         0.77        231.7 
      1923.0         0.47        266.8 
      1924.0         0.53        301.7 
      1925.0         0.67        304.2 
      1926.0         0.50        281.3 
      1927.0         0.58        263.7 
      1928.0         0.60        253.2 
      1929.0         0.67        251.3 
      1930.0         0.87        372.9 
      1931.0         1.02        367.5 
      1932.0         0.93         40.0 
      1933.0         0.57          4.1 
      1934.0         0.53          3.1 
      1935.0         0.57          7.5 
      1936.0         0.50         13.5 
      1937.0         0.55         21.0 
      1938.0         0.43         26.9 
      1939.0         0.43         31.6 
      1940.0         0.47         35.6 
      1941.0         0.53         37.6 
      1942.0         0.43         38.3 
      1943.0         0.40         37.9 
      1944.0         0.42         36.9 
      1945.0         0.43         34.9 
      1946.0         0.53         32.8 
      1947.0         0.47         35.0 
      1948.0         0.40         40.4 
      1949.0         0.57         45.9 
      1950.0         0.33         48.1 
      1951.0        11.07        291.5 
      1952.0         0.73        305.8 
      1953.0         0.60        294.8 
      1954.0         0.80        252.7 
      1955.0         0.60        105.2 
      1956.0         0.42         25.6 
      1957.0         0.37          9.6 
      1958.0         0.33          4.1 
      1959.0         0.37          2.0 
      1960.0         0.37          2.9 
      1961.0         0.37          5.1 
      1962.0         0.37          7.6 
      1963.0         0.40         10.8 
      1964.0         0.42         13.6 
      1965.0         0.37         15.5 
      1966.0         0.37         17.2 
      1967.0         0.37         17.9 
      1968.0         0.40         18.1 
      1969.0         0.37         17.1 
      1970.0         0.80         18.4 
      1971.0         0.92         18.3 
      1972.0         0.43         19.4 
      1973.0         0.53         20.0 
      1974.0         0.67         20.7 
      1975.0         0.60         20.0 
      1976.0         0.43         20.4 
      1977.0         0.45         20.3 
      1978.0         0.50         21.6 
      1979.0         0.43         22.4 
      1980.0         0.50         23.3 
