~Version Information
VERS.                      2.0: CWLS Log ASCII Standard - VERSION 2.0
WRAP.                       NO: One line per depth step
~Well Information Block
STRT.FT               450.0000: 
STOP.FT              1739.2500: 
STEP.FT                 0.2500: 
NULL.                -999.2500: 
COMP.          Pioneer Natural Resources: COMPANY
WELL.            Harlee L 34-9: WELL
FLD.           Purgatoire River: FIELD
LOC.           600' FSL & 2125' FEL: LOCATION
PROV.                 Colorado: PROVINCE
CNTY.               Las Animas: COUNTRY
SRVC.                Patterson: SERVICE COMPANY
DATE.          Wed Jan 26 02:00:08 2005: LOG DATE
UWI.           05 071 08009 00: UNIQUE WELL ID
~Curve Information Block
DEPT.FT            0 000 00 00: Depth
SN.Ohm-m                      : IEL Short Normal
SP.mV                         : IEL Spontaneous Potential
DIR.Ohm-m                     : IEL Induction Resistivity
GR.GAPI                       : Gamma Ray
~Parameter Information Block
~A  Depth        SN          SP         DIR          GR     
# ...
  1019.5000     30.0757   -184.8804     20.8900     93.7041
  1019.7500     30.5390   -184.6294     21.3101     93.6655
  1020.0000     30.9344   -184.3457     21.5299     94.1301
  1020.2500     31.2215   -184.0437     21.6400     94.1780
  1020.5000     31.3616   -183.7378     21.7245     93.1066
  1020.7500     31.3639   -183.4411     21.8446     91.6475
  1021.0000     31.2827   -183.1633     22.0347     88.7660
  1021.2500     31.1851   -182.9088     22.2981     86.7150
  1021.5000     31.1152   -182.6784     22.6063     83.9934
  1021.7500     31.0742   -182.4707     22.9116     82.4958
  1022.0000     31.0356   -182.2857     23.1714     80.4895
  1022.2500     30.9883   -182.1258     23.3701     79.3109
  1022.5000     30.9578   -181.9957     23.5224     78.1577
  1022.7500     30.9815   -181.9008     23.6596     77.8521
  1023.0000     31.0736   -181.8443     23.8132     77.5687
  1023.2500     31.2250   -181.8256     24.0036     77.1560
  1023.5000     31.4274   -181.8393     24.2346     76.0593
  1023.7500     31.6808   -181.8751     24.4933     75.0595
  1024.0000     31.9776   -181.9199     24.7566     73.2803
  1024.2500     32.2933   -181.9599     25.0041     72.1682
  1024.5000     32.6018   -181.9837     25.2274     71.4023
  1024.7500     32.8944   -181.9845     25.4314     71.7723
  1025.0000     33.1796   -181.9606     25.6258     73.3459
  1025.2500     33.4704   -181.9150     25.8170     74.6564
  1025.5000     33.7721   -181.8541     26.0036     76.4424
  1025.7500     34.0779   -181.7864     26.1791     77.2706
  1026.0000     34.3724   -181.7227     26.3387     77.6494
  1026.2500     34.6421   -181.6766     26.4844     77.3674
  1026.5000     34.8882   -181.6640     26.6233     76.7401
  1026.7500     35.1291   -181.7014     26.7611     76.5144
  1027.0000     35.3882   -181.8020     26.8979     76.4100
  1027.2500     35.6806   -181.9720     27.0347     76.2740
  1027.5000     36.0097   -182.2095     27.1825     75.9286
  1027.7500     36.3725   -182.5033     27.3626     75.7960
  1028.0000     36.7603   -182.8354     27.5956     75.9902
  1028.2500     37.1530   -183.1824     27.8872     76.2989
  1028.5000     37.5171   -183.5187     28.2257     76.4034
  1028.7500     37.8144   -183.8207     28.5893     75.7129
  1029.0000     38.0173   -184.0692     28.9563     73.1821
  1029.2500     38.1212   -184.2509     29.3115     70.9666
  1029.5000     38.1475   -184.3560     29.6430     68.2694
  1029.7500     38.1369   -184.3731     29.9355     67.3555
  1030.0000     38.1325   -184.2859     30.1675     66.9790
  1030.2500     38.1572   -184.0756     30.3173     66.9808
  1030.5000     38.1987   -183.7292     30.3709     67.2761
  1030.7500     38.2157   -183.2531     30.3249     67.9384
  1031.0000     38.1627   -182.6836     30.1825     69.6635
  1031.2500     38.0160   -182.0865     29.9519     70.8062
  1031.5000     37.7821   -181.5435     29.6492     71.6610
  1031.7500     37.4852   -181.1280     29.3046     71.7456
  1032.0000     37.1556   -180.8818     28.9625     71.9735
  1032.2500     36.8301   -180.8022     28.6767     72.4589
  1032.5000     36.5517   -180.8469     28.4992     73.5376
  1032.7500     36.3564   -180.9515     28.4648     74.4240
  1033.0000     36.2579   -181.0535     28.5743     76.1969
  1033.2500     36.2412   -181.1105     28.7858     77.6520
  1033.5000     36.2683   -181.1088     29.0258     79.5309
  1033.7500     36.2970   -181.0610     29.2242     80.0132
  1034.0000     36.3090   -180.9973     29.3506     79.1962
  1034.2500     36.3227   -180.9541     29.4267     77.8645
  1034.5000     36.3737   -180.9633     29.5064     75.4257
  1034.7500     36.4883   -181.0435     29.6419     73.9262
  1035.0000     36.6750   -181.1967     29.8511     72.4704
  1035.2500     36.9311   -181.4086     30.1018     72.1606
  1035.5000     37.2469   -181.6530     30.3217     72.2027
  1035.7500     37.6046   -181.8989     30.4383     72.0171
  1036.0000     37.9753   -182.1171     30.4253     70.7149
  1036.2500     38.3215   -182.2849     30.3190     69.1254
  1036.5000     38.6058   -182.3897     30.1928     66.2049
  1036.7500     38.8043   -182.4290     30.1129     64.4310
  1037.0000     38.9171   -182.4088     30.1119     62.7707
  1037.2500     38.9683   -182.3401     30.1897     62.3981
  1037.5000     38.9924   -182.2341     30.3301     62.6208
  1037.7500     39.0162   -182.0990     30.5191     63.2204
  1038.0000     39.0460   -181.9384     30.7450     65.0201
  1038.2500     39.0675   -181.7530     30.9858     66.8083
  1038.5000     39.0557   -181.5437     31.1992     69.6213
  1038.7500     38.9890   -181.3143     31.3335     70.9246
  1039.0000     38.8627   -181.0730     31.3549     71.3798
  1039.2500     38.6939   -180.8297     31.2701     70.9021
  1039.5000     38.5150   -180.5938     31.1251     70.1831
  1039.7500     38.3597   -180.3701     30.9818     70.3786
  1040.0000     38.2511   -180.1585     30.8872     72.0020
  1040.2500     38.1993   -179.9554     30.8525     73.5857
  1040.5000     38.2056   -179.7577     30.8519     75.6154
  1040.7500     38.2650   -179.5666     30.8454     76.2208
  1041.0000     38.3680   -179.3882     30.8134     75.7469
  1041.2500     38.5035   -179.2317     30.7803     74.7393
  1041.5000     38.6655   -179.1046     30.8079     72.9563
  1041.7500     38.8577   -179.0092     30.9653     71.9874
  1042.0000     39.0896   -178.9411     31.2929     71.0690
  1042.2500     39.3659   -178.8910     31.7780     70.6468
  1042.5000     39.6796   -178.8498     32.3512     69.8855
  1042.7500     40.0129   -178.8120     32.9093     69.1320
  1043.0000     40.3431   -178.7783     33.3638     67.4080
  1043.2500     40.6492   -178.7540     33.6852     65.7430
  1043.5000     40.9169   -178.7448     33.9018     62.8281
  1043.7500     41.1387   -178.7520     34.0507     61.4171
  1044.0000     41.3109   -178.7706     34.1312     61.8677
  1044.2500     41.4326   -178.7909     34.1078     64.3050
  1044.5000     41.5062   -178.8034     33.9561     70.0328
  1044.7500     41.5361   -178.8029     33.6948     73.8295
  1045.0000     41.5263   -178.7899     33.3696     77.2589
  1045.2500     41.4777   -178.7692     33.0104     77.4627
  1045.5000     41.3881   -178.7453     32.6045     75.1539
  1045.7500     41.2566   -178.7206     32.1118     72.7401
  1046.0000     41.0908   -178.6939     31.5171     69.4143
  1046.2500     40.9095   -178.6629     30.8829     68.0029
  1046.5000     40.7376   -178.6264     30.3489     67.2633
  1046.7500     40.5949   -178.5865     30.0634     67.3856
  1047.0000     40.4871   -178.5483     30.0950     67.7358
  1047.2500     40.4056   -178.5187     30.3876     67.7449
  1047.5000     40.3356   -178.5038     30.7877     67.3384
  1047.7500     40.2675   -178.5067     31.1298     66.9303
  1048.0000     40.2020   -178.5267     31.3210     66.1867
  1048.2500     40.1472   -178.5607     31.3597     65.5500
  1048.5000     40.1093   -178.6047     31.2895     64.7204
  1048.7500     40.0887   -178.6548     31.1483     64.7331
  1049.0000     40.0801   -178.7083     30.9605     66.0442
  1049.2500     40.0779   -178.7629     30.7592     67.4226
  1049.5000     40.0791   -178.8177     30.6008     69.0479
  1049.7500     40.0851   -178.8729     30.5420     69.4155
  1050.0000     40.1002   -178.9304     30.5996     69.2142
  1050.2500     40.1286   -178.9934     30.7252     69.0730
  1050.5000     40.1732   -179.0661     30.8273     69.3889
  1050.7500     40.2351   -179.1523     30.8302     69.9453
  1051.0000     40.3145   -179.2557     30.7245     70.9135
  1051.2500     40.4109   -179.3798     30.5615     71.2879
  1051.5000     40.5229   -179.5295     30.4068     71.0434
  1051.7500     40.6492   -179.7125     30.2958     70.5977
  1052.0000     40.7884   -179.9410     30.2306     70.6622
  1052.2500     40.9382   -180.2307     30.2093     71.6665
  1052.5000     41.0953   -180.5985     30.2532     74.2002
  1052.7500     41.2538   -181.0562     30.3964     75.8283
