~Version Information
VERS.                      2.0: CWLS Log ASCII Standard - VERSION 2.0
WRAP.                       NO: One line per depth step
~Well Information Block
STRT.FT               964.0000: 
STOP.FT              2440.0000: 
STEP.FT                 0.2500: 
NULL.                -999.2500: 
COMP.          Petrogulf Corporation: COMPANY
WELL.              Hand 8-44 V: WELL
FLD.           Purgatorie River: FIELD
LOC.           1076' FEL & 820' FSL: LOCATION
CNTY.               Las Animas: COUNTY
SRVC.                         : SERVICE COMPANY
DATE.          Fri Nov 21 11:54:17 2003: LOG DATE
UWI.                          : UNIQUE WELL ID
STAT.                 Colorado: STATE
~Curve Information Block
DEPT.FT            0 000 00 00: Depth
SP.mV                         : IEL Spontaneous Potential
DIR.Ohm-m                     : IEL Induction Resistivity
GR.GAPI                       : Gamma Ray
~Parameter Information Block
~A  Depth        SP         DIR          GR     
# ...
  1548.5000     -3.4839     10.1218    182.0574
  1548.7500     -3.4907     10.1850    186.2968
  1549.0000     -3.4974     10.2475    192.4638
  1549.2500     -3.5036     10.2980    195.3712
  1549.5000     -3.5090     10.3358    196.1298
  1549.7500     -3.5130     10.3705    193.9624
  1550.0000     -3.5158     10.4136    187.7215
  1550.2500     -3.5174     10.4705    182.3258
  1550.5000     -3.5184     10.5416    172.7280
  1550.7500     -3.5200     10.6271    165.2236
  1551.0000     -3.5231     10.7311    153.1571
  1551.2500     -3.5277     10.8572    145.9714
  1551.5000     -3.5318     10.9998    139.2017
  1551.7500     -3.5331     11.1394    138.1302
  1552.0000     -3.5304     11.2464    140.7459
  1552.2500     -3.5243     11.2926    143.8769
  1552.5000     -3.5172     11.2634    148.4209
  1552.7500     -3.5117     11.1635    150.7218
  1553.0000     -3.5092     11.0119    152.9537
  1553.2500     -3.5100     10.8319    153.8383
  1553.5000     -3.5132     10.6427    154.8614
  1553.7500     -3.5174     10.4580    155.6098
  1554.0000     -3.5210     10.2895    156.7265
  1554.2500     -3.5228     10.1492    157.1494
  1554.5000     -3.5224     10.0481    156.8828
  1554.7500     -3.5206      9.9929    156.1649
  1555.0000     -3.5184      9.9840    154.8157
  1555.2500     -3.5174     10.0163    154.0163
  1555.5000     -3.5186     10.0811    153.1517
  1555.7500     -3.5224     10.1679    152.8966
  1556.0000     -3.5286     10.2646    153.3413
  1556.2500     -3.5358     10.3579    154.3068
  1556.5000     -3.5426     10.4353    156.3952
  1556.7500     -3.5483     10.4887    157.7270
  1557.0000     -3.5523     10.5181    158.8934
  1557.2500     -3.5549     10.5309    158.9378
  1557.5000     -3.5567     10.5351    157.8467
  1557.7500     -3.5584     10.5346    156.3481
  1558.0000     -3.5608     10.5301    153.1323
  1558.2500     -3.5644     10.5277    150.5580
  1558.5000     -3.5684     10.5429    146.5121
  1558.7500     -3.5721     10.5975    144.1593
  1559.0000     -3.5758     10.7095    142.3271
  1559.2500     -3.5808     10.8860    142.7660
  1559.5000     -3.5890     11.1198    145.8408
  1559.7500     -3.6007     11.3916    149.0033
  1560.0000     -3.6150     11.6747    154.4891
  1560.2500     -3.6296     11.9422    158.1894
  1560.5000     -3.6421     12.1751    162.7653
  1560.7500     -3.6513     12.3676    164.1877
  1561.0000     -3.6564     12.5278    162.0923
  1561.2500     -3.6575     12.6722    157.4558
  1561.5000     -3.6555     12.8201    146.7576
  1561.7500     -3.6519     12.9916    138.6310
  1562.0000     -3.6486     13.2096    127.9253
  1562.2500     -3.6466     13.4958    123.1716
  1562.5000     -3.6463     13.8597    120.5619
  1562.7500     -3.6470     14.2883    121.4241
  1563.0000     -3.6481     14.7479    124.9688
  1563.2500     -3.6490     15.1975    127.8561
  1563.5000     -3.6491     15.6049    131.7957
  1563.7500     -3.6478     15.9530    133.7944
  1564.0000     -3.6446     16.2356    135.8629
  1564.2500     -3.6398     16.4501    137.0240
  1564.5000     -3.6343     16.5929    139.3297
  1564.7500     -3.6292     16.6592    141.4129
  1565.0000     -3.6253     16.6490    144.7469
  1565.2500     -3.6227     16.5741    146.5061
  1565.5000     -3.6212     16.4595    147.4437
  1565.7500     -3.6196     16.3356    146.4046
  1566.0000     -3.6170     16.2290    141.8351
  1566.2500     -3.6121     16.1584    137.0261
  1566.5000     -3.6047     16.1362    128.6249
  1566.7500     -3.5952     16.1723    123.3858
  1567.0000     -3.5846     16.2734    117.9560
  1567.2500     -3.5732     16.4362    116.8023
  1567.5000     -3.5609     16.6369    119.2063
  1567.7500     -3.5475     16.8283    122.8242
  1568.0000     -3.5334     16.9518    128.7004
  1568.2500     -3.5200     16.9618    131.6509
  1568.5000     -3.5087     16.8447    134.0916
  1568.7500     -3.5006     16.6174    134.6860
  1569.0000     -3.4959     16.3147    134.5752
  1569.2500     -3.4947     15.9828    134.0699
  1569.5000     -3.4966     15.6814    132.6378
  1569.7500     -3.5009     15.4811    130.7770
  1570.0000     -3.5068     15.4471    126.0730
  1570.2500     -3.5137     15.6177    122.3157
  1570.5000     -3.5219     15.9914    118.0932
  1570.7500     -3.5318     16.5280    117.1180
  1571.0000     -3.5436     17.1661    118.2809
  1571.2500     -3.5568     17.8474    120.3855
  1571.5000     -3.5703     18.5368    124.9112
  1571.7500     -3.5827     19.2282    128.1207
  1572.0000     -3.5923     19.9359    131.0681
  1572.2500     -3.5977     20.6817    130.5605
  1572.5000     -3.5983     21.4859    125.2834
  1572.7500     -3.5947     22.3645    119.2852
  1573.0000     -3.5889     23.3292    108.6656
  1573.2500     -3.5837     24.3876    101.7115
  1573.5000     -3.5815     25.5380     92.3567
  1573.7500     -3.5837     26.7632     86.6695
  1574.0000     -3.5898     28.0244     78.4676
  1574.2500     -3.5970     29.2641     73.3102
  1574.5000     -3.6023     30.4191     67.0023
  1574.7500     -3.6037     31.4402     64.3768
  1575.0000     -3.6014     32.3033     63.0804
  1575.2500     -3.5971     33.0045     63.5870
  1575.5000     -3.5937     33.5415     65.4487
  1575.7500     -3.5934     33.8980     66.9895
  1576.0000     -3.5977     34.0400     69.3301
  1576.2500     -3.6064     33.9256     70.9091
  1576.5000     -3.6180     33.5197     73.7805
  1576.7500     -3.6304     32.8063     76.3506
  1577.0000     -3.6420     31.7969     81.2200
  1577.2500     -3.6525     30.5285     84.8194
  1577.5000     -3.6626     29.0559     89.8377
  1577.7500     -3.6728     27.4463     92.2656
  1578.0000     -3.6833     25.7764     93.6565
  1578.2500     -3.6933     24.1258     93.1977
  1578.5000     -3.7017     22.5648     92.0107
  1578.7500     -3.7077     21.1415     92.2141
  1579.0000     -3.7111     19.8770     95.7145
  1579.2500     -3.7117     18.7708    100.2955
  1579.5000     -3.7099     17.8092    109.3149
  1579.7500     -3.7060     16.9743    115.8127
  1580.0000     -3.7007     16.2497    125.1273
  1580.2500     -3.6944     15.6220    130.6478
  1580.5000     -3.6874     15.0803    137.5430
  1580.7500     -3.6802     14.6128    141.3779
  1581.0000     -3.6732     14.2055    146.9816
  1581.2500     -3.6670     13.8424    151.1640
  1581.5000     -3.6622     13.5086    157.5683
  1581.7500     -3.6591     13.1931    160.4683
  1582.0000     -3.6581     12.8895    160.0086
  1582.2500     -3.6593     12.5945    156.2328
  1582.5000     -3.6629     12.3060    147.9988
  1582.7500     -3.6683     12.0218    142.9341
  1583.0000     -3.6747     11.7394    137.9980
  1583.2500     -3.6806     11.4552    136.4045
  1583.5000     -3.6846     11.1656    135.5057
  1583.7500     -3.6857     10.8681    135.3605
  1584.0000     -3.6841     10.5633    135.1864
  1584.2500     -3.6803     10.2560    134.8072
  1584.5000     -3.6755      9.9547    133.7432
  1584.7500     -3.6708      9.6696    133.1580
  1585.0000     -3.6674      9.4109    134.1528
  1585.2500     -3.6666      9.1875    137.0877
  1585.5000     -3.6694      9.0065    145.4704
  1585.7500     -3.6757      8.8730    153.0615
  1586.0000     -3.6840      8.7905    165.1340
  1586.2500     -3.6927      8.7613    172.1154
  1586.5000     -3.7002      8.7874    178.9536
  1586.7500     -3.7059      8.8708    180.5948
  1587.0000     -3.7095      9.0126    179.1081
  1587.2500     -3.7113      9.2132    176.0853
  1587.5000     -3.7122      9.4727    169.3333
  1587.7500     -3.7142      9.7924    163.7359
  1588.0000     -3.7196     10.1780    154.6962
  1588.2500     -3.7300     10.6409    149.0187
  1588.5000     -3.7450     11.1955    141.9493
  1588.7500     -3.7621     11.8533    138.0979
  1589.0000     -3.7786     12.6135    132.4286
  1589.2500     -3.7918     13.4588    128.0189
  1589.5000     -3.8005     14.3554    120.4181
  1589.7500     -3.8040     15.2553    115.3690
  1590.0000     -3.8025     16.1012    108.9718
