~Version Information
VERS.                      2.0: CWLS Log ASCII Standard - VERSION 2.0
WRAP.                       NO: One line per depth step
~Well Information Block
STRT.FT               750.0000: 
STOP.FT              2431.5000: 
STEP.FT                 0.1000: 
NULL.                -999.2500: 
COMP.          Petrogulf Corporation: COMPANY
WELL.           McDaniel 9-34V: WELL
FLD.           Purgatorie River: FIELD
LOC.           620' FSL & 1800' FEL: LOCATION
PROV.                 Colorado: PROVINCE
CNTY.               Las Animas: COUNTRY
SRVC.                Patterson: SERVICE COMPANY
DATE.          Wed Sep 28 07:18:04 2005: LOG DATE
UWI.                          : UNIQUE WELL ID
~Curve Information Block
DEPT.FT            0 000 00 00: Depth
DCAL.in                       : CDL Caliper
RHOB.g/cc                     : CDL Bulk Density
RHOC.g/cc                     : CDL Density Correction
DPOR.pu                       : CDL Density Porosity
GR.GAPI                       : Gamma Ray
NPOR.pu                       : Neutron Porosity
~Parameter Information Block
~A  Depth       DCAL        RHOB        RHOC        DPOR         GR         NPOR    
# ...
  2295.6000      7.9556      2.4215      0.0459     13.8505     68.3677     18.8192
  2295.7000      7.9556      2.4213      0.0050     13.8589     69.3627     18.5757
  2295.8000      7.9581      2.4299      0.0221     13.3421     68.8956     17.9499
  2295.9000      7.9581      2.4474      0.0626     12.2767     66.7785     17.4594
  2296.0000      7.9642      2.4595      0.0637     11.5447     64.1126     17.5920
  2296.1000      7.9642      2.4552      0.0547     11.8070     62.8361     18.3454
  2296.2000      7.9642      2.4404      0.0448     12.7053     63.1581     19.0548
  2296.3000      7.9628      2.4297      0.0153     13.3506     62.5735     19.2948
  2296.4000      7.9628      2.4229      0.0479     13.7658     59.8014     19.5742
  2296.5000      7.9674      2.4030      0.0340     14.9683     56.6095     20.1749
  2296.6000      7.9674      2.3726     -0.0188     16.8151     54.2021     20.4571
  2296.7000      7.9674      2.3587     -0.0757     17.6541     54.0282     20.0033
  2296.8000      7.9604      2.3792     -0.0481     16.4147     57.5714     19.2233
  2296.9000      7.9604      2.4167      0.0535     14.1422     61.0637     18.5968
  2297.0000      7.9630      2.4442      0.0413     12.4719     61.7921     18.3804
  2297.1000      7.9630      2.4585      0.0507     11.6060     62.4480     18.6789
  2297.2000      7.9630      2.4635      0.0473     11.3047     64.6066     19.3161
  2297.3000      7.9672      2.4618      0.0304     11.4061     66.9222     19.9736
  2297.4000      7.9672      2.4633      0.0470     11.3138     67.3029     20.3907
  2297.5000      7.9657      2.4724      0.0930     10.7623     66.2986     20.5348
  2297.6000      7.9657      2.4868      0.0331      9.8882     66.0733     20.5985
  2297.7000      7.9657      2.5004      0.0773      9.0666     66.1102     20.7002
  2297.8000      7.9656      2.5017      0.0258      8.9880     65.7016     20.5560
  2297.9000      7.9656      2.4971      0.0245      9.2695     65.1194     19.8945
  2298.0000      7.9668      2.4994      0.0401      9.1250     63.2126     18.9614
  2298.1000      7.9668      2.5000      0.0592      9.0894     60.7451     18.1464
  2298.2000      7.9668      2.4951      0.0190      9.3854     60.2636     17.6605
  2298.3000      7.9671      2.4983      0.0421      9.1962     62.2220     17.4955
  2298.4000      7.9671      2.5077      0.0621      8.6226     64.7110     17.6096
  2298.5000      7.9612      2.5136      0.0109      8.2678     65.4163     18.0301
  2298.6000      7.9612      2.5181      0.0479      7.9938     64.1129     18.4813
  2298.7000      7.9612      2.5211      0.0418      7.8112     64.5657     18.6941
  2298.8000      7.9619      2.5212      0.0310      7.8077     69.5368     18.7000
  2298.9000      7.9619      2.5213      0.0250      7.7982     75.2111     18.3165
  2299.0000      7.9642      2.5165      0.0756      8.0902     76.1780     17.5410
  2299.1000      7.9642      2.5015      0.0537      9.0030     72.7791     16.6608
  2299.2000      7.9642      2.4818      0.0459     10.1959     69.3867     15.8632
  2299.3000      7.9500      2.4653      0.0307     11.1917     67.6227     15.4677
  2299.4000      7.9500      2.4614      0.0248     11.4319     66.6880     15.6373
  2299.5000      7.9461      2.4760      0.0338     10.5454     66.9995     15.9822
  2299.6000      7.9461      2.5001      0.0882      9.0871     67.5704     16.1714
  2299.7000      7.9461      2.5141      0.0865      8.2356     67.2440     16.1674
  2299.8000      7.9459      2.5082      0.0906      8.5933     69.1413     16.1589
  2299.9000      7.9459      2.4935      0.0449      9.4874     74.4761     16.2841
  2300.0000      7.9397      2.4869      0.0494      9.8870     78.5092     16.4774
  2300.1000      7.9397      2.4901      0.0552      9.6925     77.9309     16.7485
  2300.2000      7.9397      2.4933      0.0676      9.4952     73.4919     17.2601
  2300.3000      7.9440      2.4877      0.0441      9.8363     68.5821     18.0114
  2300.4000      7.9440      2.4704      0.0336     10.8832     65.9027     18.6572
  2300.5000      7.9395      2.4496      0.0131     12.1440     64.3866     18.9139
  2300.6000      7.9395      2.4390      0.0173     12.7904     61.9129     19.1372
  2300.7000      7.9395      2.4444     -0.0080     12.4632     59.7733     19.5201
  2300.8000      7.9452      2.4601      0.0225     11.5070     60.1648     19.7310
  2300.9000      7.9452      2.4726      0.0309     10.7496     62.4632     19.6682
  2301.0000      7.9479      2.4744      0.0617     10.6415     63.9924     19.5807
  2301.1000      7.9479      2.4746      0.0078     10.6302     62.8873     19.5957
  2301.2000      7.9479      2.4850      0.0438     10.0007     60.9830     19.6199
  2301.3000      7.9469      2.5007      0.0378      9.0515     62.3647     19.6564
  2301.4000      7.9469      2.5063      0.0778      8.7065     66.2956     19.9116
  2301.5000      7.9471      2.4889      0.0379      9.7657     69.0122     20.4595
  2301.6000      7.9471      2.4541      0.0196     11.8727     69.6757     20.9578
  2301.7000      7.9471      2.4330     -0.0442     13.1542     69.1428     20.9824
  2301.8000      7.9631      2.4469     -0.0029     12.3113     67.4901     20.7800
  2301.9000      7.9631      2.4736      0.0722     10.6910     65.0077     20.6565
  2302.0000      7.9558      2.4793      0.0401     10.3483     63.8052     20.4392
  2302.1000      7.9558      2.4719     -0.0136     10.7923     63.1731     20.0996
  2302.2000      7.9558      2.4801      0.0242     10.2963     60.6891     19.8804
  2302.3000      7.9514      2.5031      0.0822      8.9047     57.8519     19.9029
  2302.4000      7.9514      2.5205      0.0964      7.8483     56.7787     20.0546
  2302.5000      7.9507      2.5218      0.0995      7.7684     57.3034     20.1754
  2302.6000      7.9507      2.5082      0.0526      8.5939     58.6958     20.2034
  2302.7000      7.9507      2.4868      0.0221      9.8907     60.9092     20.1405
  2302.8000      7.9484      2.4669      0.0472     11.0964     64.1088     20.1630
  2302.9000      7.9484      2.4566      0.0254     11.7208     66.7756     20.4503
  2303.0000      7.9460      2.4543      0.0373     11.8616     67.3808     20.6929
  2303.1000      7.9460      2.4495      0.0234     12.1521     66.3079     20.5175
  2303.2000      7.9460      2.4365      0.0272     12.9386     64.2542     20.1760
  2303.3000      7.9443      2.4197      0.0075     13.9581     62.0477     19.9791
  2303.4000      7.9443      2.4161     -0.0172     14.1738     60.7560     19.8038
  2303.5000      7.9344      2.4350      0.0384     13.0273     59.9952     19.6195
  2303.6000      7.9344      2.4626      0.0426     11.3586     59.6251     19.5937
  2303.7000      7.9344      2.4822      0.0710     10.1702     59.7081     19.4165
  2303.8000      7.9367      2.4888      0.0373      9.7668     59.5938     18.5806
  2303.9000      7.9367      2.4932      0.0206      9.5009     59.7074     17.3350
  2304.0000      7.9418      2.5051      0.0489      8.7795     60.7947     16.3981
  2304.1000      7.9418      2.5108      0.0904      8.4335     63.8110     16.1248
  2304.2000      7.9418      2.4996      0.0039      9.1123     68.2565     16.3361
  2304.3000      7.9461      2.4848      0.0162     10.0108     71.2666     16.7398
  2304.4000      7.9461      2.4721      0.0467     10.7812     72.5588     17.1704
  2304.5000      7.9432      2.4575     -0.0019     11.6683     73.7662     17.3004
  2304.6000      7.9432      2.4550     -0.0143     11.8205     73.6149     17.1342
  2304.7000      7.9432      2.4691      0.0296     10.9618     70.8726     17.2418
  2304.8000      7.9410      2.4750      0.0402     10.6039     68.6301     17.7451
  2304.9000      7.9410      2.4626     -0.0015     11.3552     68.5679     18.0732
  2305.0000      7.9383      2.4501      0.0144     12.1140     68.2615     17.8045
  2305.1000      7.9383      2.4499      0.0245     12.1292     67.2950     17.1136
