~Version Information
VERS.                      2.0: CWLS Log ASCII Standard - VERSION 2.0
WRAP.                       NO: One line per depth step
~Well Information Block
STRT.FT                -7.5000: 
STOP.FT              2339.2500: 
STEP.FT                 0.2500: 
NULL.                -999.2500: 
COMP.          Pioneer Natural Resources: COMPANY
WELL.            Harrier 44-33: WELL
FLD.           Purgatorie River: FIELD
LOC.           456' FSL & 930' FEL--: LOCATION
PROV.                       CO: PROVINCE
CNTY.               Las Animas: COUNTRY
SRVC.          Patterson Wireline: SERVICE COMPANY
DATE.          Wed Jun 29 11:08:51 2005: LOG DATE
UWI.           05 071 08398 00: UNIQUE WELL ID
~Curve Information Block
DEPT.FT            0 000 00 00: Depth
CCL.                          : Casing Collar Locator
TT3.usec                      : CBL 3' Travel Time
AMP3.mV                       : CBL 3' Amplitude
GR.GAPI                       : Gamma Ray
~Parameter Information Block
~A  Depth       CCL         TT3         AMP3         GR     
# ...
   461.5000      0.0000    763.2858      4.3047    104.4594
   461.7500      0.0000    767.5607      4.1844    107.7786
   462.0000      0.0000    773.7414      4.0921    110.2234
   462.2500      0.0000    779.7526      4.0015    111.4041
   462.5000      0.0000    783.2238      3.8977    111.2744
   462.7500      0.0000    783.0076      3.7817    109.7700
   463.0000      0.0000    779.8420      3.6604    107.1408
   463.2500      0.0000    775.3262      3.5410    104.3607
   463.5000      0.0000    770.5040      3.4329    102.4591
   463.7500      0.0000    765.5170      3.3490    101.3258
   464.0000      0.0000    760.2135      3.3009     99.6969
   464.2500      0.0000    754.7118      3.2922     96.5710
   464.5000      0.0000    749.5668      3.3170     92.3277
   464.7500      0.0000    745.8453      3.3678     88.2068
   465.0000      0.0000    745.1013      3.4424     84.9217
   465.2500      0.0000    748.8314      3.5419     82.0907
   465.5000      0.0000    757.4844      3.6654     78.8792
   465.7500      0.0000    769.6562      3.8074     74.9167
   466.0000      0.0000    781.9843      3.9584     70.6852
   466.2500      0.0000    790.0579      4.1039     67.0853
   466.5000      0.0000    790.5070      4.2273     64.6919
   466.7500      0.0000    783.5192      4.3131     63.6318
   467.0000      0.0000    773.6827      4.3530     64.0787
   467.2500      0.0000    767.5082      4.3533     66.4114
   467.5000      0.0000    769.0256      4.3362     70.6084
   467.7500      0.0000    777.0786      4.3292     75.6371
   468.0000      0.0000    786.4971      4.3474     79.8994
   468.2500      0.0000    791.8433      4.3848     82.5351
   468.5000      0.0000    790.5380      4.4208     83.9649
   468.7500      0.0000    783.3197      4.4363     85.0476
   469.0000      0.0000    772.6196      4.4248     86.3306
   469.2500      0.0000    760.9312      4.3929     88.3241
   469.5000      0.0000    750.2523      4.3526     91.5934
   469.7500      0.0000    742.0369      4.3142     96.0475
   470.0000      0.0000    737.0292      4.2843    100.5774
   470.2500      0.0000    735.2830      4.2654    103.6520
   470.5000      0.0000    736.5208      4.2542    104.1511
   470.7500      0.0000    740.2405      4.2431    101.7789
   471.0000      0.0000    745.3811      4.2263     97.0249
   471.2500      0.0000    750.2808      4.2049     90.8884
   471.5000      0.0000    753.3293      4.1837     84.5681
   471.7500      0.0000    753.3277      4.1630     79.2285
   472.0000      0.0000    748.9435      4.1399     75.8311
   472.2500      0.0000    738.8046      4.1161     74.9909
   472.5000      0.0000    723.5881      4.1040     76.8023
   472.7500      0.0000    708.0584      4.1237     80.7533
   473.0000      0.0000    699.6204      4.1965     85.8472
   473.2500      0.0000    703.7249      4.3341     90.8677
   473.5000      0.0000    720.1262      4.5259     94.5335
   473.7500      0.0000    742.8607      4.7382     95.6072
   474.0000      0.0000    763.5686      4.9306     93.4475
   474.2500      0.0000    776.2200      5.0786     89.0092
   474.5000      0.0000    780.6078      5.1802     84.9381
   474.7500      0.0000    781.6227      5.2481     83.9075
   475.0000      0.0000    784.5312      5.2967     86.7098
   475.2500      0.0000    790.9974      5.3344     92.0872
   475.5000      0.0000    799.3441      5.3629     98.0910
   475.7500      0.0000    806.8873      5.3782    103.3161
   476.0000      0.0000    811.1629      5.3692    107.0359
   476.2500      0.0000    810.3892      5.3174    108.6856
   476.5000      0.0000    804.2981      5.2079    107.8348
   476.7500      0.0000    794.5574      5.0473    104.9610
   477.0000      0.0000    783.9732      4.8695    101.7965
   477.2500      0.0000    775.0844      4.7138    100.2574
   477.5000      0.0000    769.1085      4.5948    100.9149
   477.7500      0.0000    765.8336      4.4962    102.6883
   478.0000      0.0000    764.2894      4.3928    104.0172
   478.2500      0.0000    763.4171      4.2767    104.1633
   478.5000      0.0000    762.2445      4.1608    103.3314
   478.7500      0.0000    759.8595      4.0656    101.9662
   479.0000      0.0000    755.7930      4.0055    100.4822
   479.2500      0.0000    750.7325      3.9834     99.4970
   479.5000      0.0000    746.4783      3.9906     99.5686
   479.7500      0.0000    744.4519      4.0123    100.3828
   480.0000      0.0000    744.1321      4.0375    100.6046
   480.2500      0.0000    743.4232      4.0620     99.0400
   480.5000      0.0000    740.5002      4.0837     95.9631
   480.7500      0.0000    734.9277      4.0981     92.9421
   481.0000      0.0000    727.4413      4.0977     91.3216
   481.2500      0.0000    719.3795      4.0763     91.2203
   481.5000      0.0000    712.1094      4.0390     92.0054
   481.7500      0.0000    706.2599      4.0147     93.2909
   482.0000      0.0000    701.3544      4.0475     95.3407
   482.2500      0.0000    696.7210      4.1634     98.6616
   482.5000      0.0000    692.9814      4.3400    103.1267
   482.7500      0.0000    692.0349      4.5132    107.2811
   483.0000      0.0000    695.0906      4.6165    108.8564
   483.2500      0.0000    701.0551      4.6237    106.6824
   483.5000      0.0000    707.1863      4.5635    102.0175
   483.7500      0.0000    711.0065      4.4929     97.2868
   484.0000      0.0000    711.3725      4.4470     93.5816
   484.2500      0.0000    708.5408      4.4161     90.1606
   484.5000      0.0000    704.2913      4.3725     86.2886
   484.7500      0.0000    701.8608      4.3130     82.4965
   485.0000      0.0000    704.5131      4.2714     79.7299
   485.2500      0.0000    713.3080      4.2919     78.1807
   485.5000      0.0000    726.2234      4.3929     77.6655
   485.7500      0.0000    739.4633      4.5525     78.6952
   486.0000      0.0000    749.5601      4.7223     82.3151
   486.2500      0.0000    754.7802      4.8583     88.5974
   486.5000      0.0000    755.5207      4.9458     95.7074
   486.7500      0.0000    753.8774      4.9988    100.9391
   487.0000      0.0000    752.3584      5.0366    102.7982
   487.2500      0.0000    752.1636      5.0667    102.0125
   487.5000      0.0000    752.5492      5.0858    100.4160
   487.7500      0.0000    752.1595      5.0896     99.0549
   488.0000      0.0000    750.8387      5.0824     97.7416
   488.2500      0.0000    749.6504      5.0772     96.2388
   488.5000      0.0000    749.2308      5.0858     94.9891
   488.7500      0.0000    748.9592      5.1072     94.2757
   489.0000      0.0000    747.9967      5.1307     93.3244
   489.2500      0.0000    746.3087      5.1507     90.8946
   489.5000      0.0000    744.1484      5.1722     86.6565
   489.7500      0.0000    741.2734      5.2003     81.6166
   490.0000      0.0000    737.2502      5.2317     77.2479
   490.2500      0.0000    732.1993      5.2574     74.4459
   490.5000      0.0000    727.0638      5.2722     73.2909
   490.7500      0.0000    723.4491      5.2779     73.4296
   491.0000      0.0000    723.1175      5.2783     74.4016
   491.2500      0.0000    727.1174      5.2760     75.6608
   491.5000      0.0000    734.9714      5.2715     76.5705
   491.7500      0.0000    744.6065      5.2622     76.6716
   492.0000      0.0000    753.4174      5.2457     76.0184
   492.2500      0.0000    759.7737      5.2265     75.1311
   492.5000      0.0000    763.6702      5.2175     74.6719
   492.7500      0.0000    766.2100      5.2279     75.3443
   493.0000      0.0000    768.8912      5.2516     77.8303
   493.2500      0.0000    773.4198      5.2728     82.1766
   493.5000      0.0000    781.4946      5.2812     87.0427
   493.7500      0.0000    793.8708      5.2767     90.0299
   494.0000      0.0000    809.2024      5.2633     89.3030
   494.2500      0.0000    824.0452      5.2455     85.0528
   494.5000      0.0000    834.2258      5.2300     79.3228
   494.7500      0.0000    836.3882      5.2261     74.4938
