~Version Information
VERS.                      2.0: CWLS Log ASCII Standard - VERSION 2.0
WRAP.                       NO: One line per depth step
~Well Information Block
STRT.FT                37.7500: 
STOP.FT              1898.5000: 
STEP.FT                 0.2500: 
NULL.                -999.2500: 
COMP.          Petrogulf Corporation: COMPANY
WELL.           Montoya 12-41R: WELL
FLD.           Purgatorie River: FIELD
LOC.           1086' FNL & 610' FEL--: LOCATION
PROV.                       CO: PROVINCE
CNTY.               Las Animas: COUNTRY
SRVC.                         : SERVICE COMPANY
DATE.          Wed Feb 09 11:45:45 2005: LOG DATE
UWI.         005 071 08241 : UNIQUE WELL ID
~Curve Information Block
DEPT.FT            0 000 00 00: Depth
CCL.                          : Casing Collar Locator
TT3.usec                      : CBL 3' Travel Time
AMP3.mV                       : CBL 3' Amplitude
GR.GAPI                       : Gamma Ray
~Parameter Information Block
~A  Depth       CCL         TT3         AMP3         GR     
# ...
  1511.7500      0.0000    666.6625      5.4723    149.2222
  1512.0000      0.0000    652.7584      5.7029    144.0145
  1512.2500      0.0000    641.9017      6.0200    135.3603
  1512.5000      0.0000    636.5599      6.3421    126.5730
  1512.7500      0.0000    636.1816      6.6055    120.8193
  1513.0000      0.0000    639.5144      6.7989    119.0521
  1513.2500      0.0000    645.6094      6.9466    120.7858
  1513.5000      0.0000    652.3791      7.0884    125.4521
  1513.7500      0.0000    655.9703      7.2696    132.3198
  1514.0000      0.0000    653.1195      7.5164    139.7498
  1514.2500      0.0000    644.8324      7.8079    145.6469
  1514.5000      0.0000    637.7617      8.0782    149.0485
  1514.7500      0.0000    640.4575      8.2553    150.6543
  1515.0000      0.0000    656.6346      8.2956    151.3220
  1515.2500      0.0000    682.2874      8.1882    150.5406
  1515.5000      0.0000    709.2983      7.9494    146.8282
  1515.7500      0.0000    730.7150      7.6259    139.3195
  1516.0000      0.0000    742.9995      7.2922    128.6970
  1516.2500      0.0000    746.0076      7.0160    116.9762
  1516.5000      0.0000    742.5302      6.8114    106.7872
  1516.7500      0.0000    737.1003      6.6360    100.5468
  1517.0000      0.0000    733.8759      6.4515     99.4563
  1517.2500      0.0000    734.9154      6.2731    102.5657
  1517.5000      0.0000    739.9673      6.1471    106.9646
  1517.7500      0.0000    747.0366      6.0851    109.7922
  1518.0000      0.0000    752.6797      6.0337    110.4210
  1518.2500      0.0000    752.8747      5.9052    110.2538
  1518.5000      0.0000    745.6597      5.6362    110.4531
  1518.7500      0.0000    733.3395      5.2252    110.5764
  1519.0000      0.0000    720.8492      4.7263    109.4580
  1519.2500      0.0000    711.5775      4.2200    106.6785
  1519.5000      0.0000    705.5948      3.7831    103.0127
  1519.7500      0.0000    701.6235      3.4589     99.8571
  1520.0000      0.0000    699.2182      3.2419     98.1073
  1520.2500      0.0000    698.5911      3.0962     97.2997
  1520.5000      0.0000    699.4100      2.9972     96.1551
  1520.7500      0.0000    700.5989      2.9546     94.0788
  1521.0000      0.0000    701.0728      2.9797     91.6772
  1521.2500      0.0000    700.3482      3.0399     89.7550
  1521.5000      0.0000    698.7092      3.0751     88.4341
  1521.7500      0.0000    697.0027      3.0635     87.3688
  1522.0000      0.0000    696.0198      3.0437     86.3906
  1522.2500      0.0000    695.9391      3.0702     85.8830
  1522.5000      0.0000    696.7567      3.1749     86.4874
  1522.7500      0.0000    699.3090      3.3717     88.2531
  1523.0000      0.0000    705.1639      3.6601     90.2915
  1523.2500      0.0000    715.1726      4.0031     91.5065
  1523.5000      0.0000    728.3186      4.3187     91.2864
  1523.7500      0.0000    741.7798      4.5209     89.4595
  1524.0000      0.0000    752.0376      4.5770     86.4898
  1524.2500      0.0000    756.9138      4.5217     84.0664
  1524.5000      0.0000    757.0428      4.4213     84.4869
  1524.7500      0.0000    754.5070      4.3302     88.4813
  1525.0000      0.0000    749.5551      4.2826     93.9743
  1525.2500      0.0000    739.6267      4.3067     97.7228
  1525.5000      0.0000    722.2032      4.4271     98.0889
  1525.7500      0.0000    698.5305      4.6439     95.9847
  1526.0000      0.0000    674.9788      4.9156     93.8956
  1526.2500      0.0000    660.9261      5.1676     94.5945
  1526.5000      0.0000    663.3362      5.3225     99.9318
  1526.7500      0.0000    681.0462      5.3337    109.5024
  1527.0000      0.0000    704.5064      5.2069    120.2260
  1527.2500      0.0000    722.4322      4.9964    128.1678
  1527.5000      0.0000    728.9338      4.7750    131.4732
  1527.7500      0.0000    724.8195      4.6014    131.2991
  1528.0000      0.0000    713.8843      4.5030    129.7389
  1528.2500      0.0000    699.4188      4.4776    127.5611
  1528.5000      0.0000    684.2673      4.5063    124.5770
  1528.7500      0.0000    672.7521      4.5690    121.3867
  1529.0000      0.0000    669.7411      4.6632    119.4751
  1529.2500      0.0000    676.3156      4.8088    119.4923
  1529.5000      0.0000    687.7869      5.0293    120.1170
  1529.7500      0.0000    697.7006      5.3277    118.8473
  1530.0000      0.0000    702.9321      5.6936    114.0520
  1530.2500      0.0000    703.8750      6.1187    106.4508
  1530.5000      0.0000    700.8089      6.5754     98.4834
  1530.7500      0.0000    692.3112      6.9817     92.1746
  1531.0000      0.0000    678.2718      7.2244     87.9787
  1531.2500      0.0000    663.6133      7.2208     85.5278
  1531.5000      0.0000    656.6586      6.9503     84.5823
  1531.7500      0.0000    662.2842      6.4561     84.8742
  1532.0000      0.0000    677.6921      5.8521     85.8028
  1532.2500      0.0000    695.7462      5.2945     86.8479
  1532.5000      0.0000    710.6263      4.8892     87.7488
  1532.7500      0.0000    719.5532      4.6186     87.8825
  1533.0000      0.0000    721.7543      4.3849     86.1689
  1533.2500      0.0000    717.9863      4.1249     82.2531
  1533.5000     -2.0000    710.2678      3.8609     77.5003
  1533.7500      0.0000    700.7971      3.6524     74.2035
  1534.0000      0.0000    691.2355      3.5426     73.6091
  1534.2500      0.0000    683.2445      3.5548     74.8119
  1534.5000      0.0000    678.8440      3.6967     75.7233
  1534.7500      0.0000    679.4602      3.9454     75.0860
  1535.0000      0.0000    684.5994      4.2419     73.3741
  1535.2500      0.0000    691.8275      4.5179     71.8371
  1535.5000      0.0000    698.2715      4.7286     71.2244
  1535.7500      0.0000    702.3255      4.8540     71.6111
  1536.0000      0.0000    704.2557      4.8777     72.8535
  1536.2500      0.0000    705.7147      4.7802     74.5324
  1536.5000      0.0000    708.8848      4.5641     75.6432
  1536.7500      0.0000    715.3345      4.2727     75.1214
  1537.0000      0.0000    724.4913      3.9636     72.9885
  1537.2500      0.0000    733.0403      3.6636     70.6334
  1537.5000      0.0000    737.0613      3.3615     69.5926
  1537.7500      0.0000    735.7157      3.0412     70.1847
  1538.0000      0.0000    732.0186      2.7099     71.5823
  1538.2500      0.0000    728.9864      2.3980     72.9741
  1538.5000      0.0000    725.7378      2.1431     74.1603
  1538.7500      0.0000    718.6330      1.9692     75.1030
  1539.0000      0.0000    705.4914      1.8783     75.5897
  1539.2500      0.0000    687.5543      1.8646     75.6075
  1539.5000      0.0000    668.6826      1.9311     75.5858
  1539.7500      0.0000    654.5365      2.0757     75.9585
  1540.0000      0.0000    650.8633      2.2669     76.8663
  1540.2500      0.0000    659.3384      2.4585     78.4125
  1540.5000      0.0000    675.1208      2.6275     80.5930
  1540.7500      0.0000    690.1296      2.7764     82.6479
  1541.0000      0.0000    698.4102      2.9076     83.0315
  1541.2500      0.0000    698.0932      3.0197     80.6126
  1541.5000      0.0000    690.3734      3.1135     75.8645
  1541.7500      0.0000    678.4173      3.1786     70.6819
  1542.0000      0.0000    665.9615      3.1857     66.9607
  1542.2500      0.0000    654.4029      3.1117     65.4210
  1542.5000      0.0000    640.7128      2.9674     65.6824
  1542.7500      0.0000    620.1934      2.7846     67.0301
  1543.0000      0.0000    593.1606      2.5899     68.8011
  1543.2500      0.0000    568.8423      2.4038     70.3175
  1543.5000      0.0000    560.9291      2.2586     70.8884
  1543.7500      0.0000    577.0818      2.1920     70.1011
  1544.0000      0.0000    611.7899      2.2155     68.3143
  1544.2500      0.0000    650.2137      2.3046     66.8473
  1544.5000      0.0000    679.0876      2.4372     67.2077
  1544.7500      0.0000    693.2866      2.6356     69.7724
  1545.0000      0.0000    693.7096      2.9447     73.4863
