~Version Information
VERS.                      2.0: CWLS Log ASCII Standard - VERSION 2.0
WRAP.                       NO: One line per depth step
~Well Information Block
STRT.FT               -14.2500: 
STOP.FT              2177.5000: 
STEP.FT                 0.2500: 
NULL.                -999.2500: 
COMP.          Evergreen Operating Corp.: COMPANY
WELL.            Triumph 13-10: WELL
FLD.           Purgatorie River: FIELD
LOC.           1551' FSL & 522' FWL--: LOCATION
PROV.                       CO: PROVINCE
CNTY.               Las Animas: COUNTRY
SRVC.                         : SERVICE COMPANY
DATE.          Sat Aug 21 09:27:32 2004: LOG DATE
UWI.           005 071 08108 : UNIQUE WELL ID
~Curve Information Block
DEPT.FT            0 000 00 00: Depth
CCL.                          : Casing Collar Locator
TT3.usec                      : CBL 3' Travel Time
AMP3.mV                       : CBL 3' Amplitude
GR.GAPI                       : Gamma Ray
~Parameter Information Block
~A  Depth       CCL         TT3         AMP3         GR     
# ...
  1426.2500      0.0000    622.1823      3.4867     94.0286
  1426.5000      0.0000    620.5578      3.6087     93.2986
  1426.7500      0.0000    619.4257      3.7920     93.4225
  1427.0000      0.0000    618.9489      3.9350     93.7909
  1427.2500      0.0000    618.6711      3.9733     94.5761
  1427.5000      0.0000    617.6895      3.9085     97.0001
  1427.7500      0.0000    614.2094      3.7938    102.3226
  1428.0000      0.0000    605.6486      3.6882    110.0663
  1428.2500      0.0000    590.3923      3.6167    117.6842
  1428.5000      0.0000    570.4299      3.5796    122.8767
  1428.7500      0.0000    551.4808      3.5823    126.0980
  1429.0000      0.0000    538.8353      3.6261    130.0415
  1429.2500      0.0000    533.2349      3.6669    136.8517
  1429.5000      0.0000    532.6692      3.6166    146.4108
  1429.7500      0.0000    537.9795      3.4166    156.9158
  1430.0000      0.0000    553.4589      3.1057    166.2357
  1430.2500      0.0000    580.5209      2.7972    172.6120
  1430.5000      0.0000    613.6176      2.5846    174.8821
  1430.7500      0.0000    644.4393      2.4657    172.8023
  1431.0000      0.0000    668.2715      2.3538    167.2048
  1431.2500      0.0000    684.9718      2.1755    159.4236
  1431.5000      0.0000    695.9141      1.9640    150.5143
  1431.7500      0.0000    702.1461      1.8345    141.0071
  1432.0000      0.0000    705.0404      1.8622    130.9311
  1432.2500      0.0000    706.6838      2.0084    119.9866
  1432.5000      0.0000    708.5748      2.1661    108.3039
  1432.7500      0.0000    710.3497      2.2448     97.1575
  1433.0000      0.0000    710.8152      2.2007     88.2600
  1433.2500      0.0000    710.3105      2.0286     82.1172
  1433.5000      0.0000    711.0185      1.7671     77.6447
  1433.7500      0.0000    714.2156      1.5103     73.8204
  1434.0000      0.0000    717.9567      1.3717     71.5325
  1434.2500      0.0000    718.6732      1.4041     73.1830
  1434.5000      0.0000    714.9207      1.5684     80.2105
  1434.7500      0.0000    708.6666      1.7965     91.4894
  1435.0000      0.0000    703.1224      2.0579    104.5182
  1435.2500      0.0000    700.0671      2.3412    117.3468
  1435.5000      0.0000    699.0387      2.6108    128.7066
  1435.7500      0.0000    698.5986      2.8292    137.2174
  1436.0000      0.0000    698.3900      3.0095    141.7315
  1436.2500      0.0000    699.8508      3.1970    142.3638
  1436.5000      0.0000    704.4944      3.3873    140.6762
  1436.7500      0.0000    711.3804      3.4962    138.8981
  1437.0000      0.0000    716.5316      3.4497    138.9403
  1437.2500      0.0000    715.0425      3.2925    141.6577
  1437.5000      0.0000    704.1495      3.1576    146.5439
  1437.7500     -2.0000    684.4366      3.1226    152.0695
  1438.0000     -2.0000    658.4171      3.1519    156.8223
  1438.2500      0.0000    629.3659      3.1990    160.5535
  1438.5000      0.0000    602.6674      3.3032    163.7050
  1438.7500      0.0000    586.5894      3.5330    165.8921
  1439.0000      0.0000    587.9139      3.8707    165.8422
  1439.2500      0.0000    605.2687      4.1985    163.0429
  1439.5000      0.0000    628.6248      4.3940    158.3310
  1439.7500      0.0000    646.2273      4.4217    152.5158
  1440.0000      0.0000    651.0605      4.3457    145.4106
  1440.2500      0.0000    642.3197      4.2665    136.7671
  1440.5000      0.0000    624.4559      4.2387    127.6528
  1440.7500      0.0000    605.6113      4.2400    120.2687
  1441.0000      0.0000    594.3502      4.2155    116.2451
  1441.2500      0.0000    595.4067      4.1374    115.3321
  1441.5000      0.0000    607.1988      4.0196    116.1439
  1441.7500      0.0000    622.6028      3.8909    118.0822
  1442.0000      0.0000    632.9678      3.7748    121.8037
  1442.2500      0.0000    633.6133      3.6910    127.5644
  1442.5000      0.0000    626.2887      3.6595    133.9326
  1442.7500      0.0000    616.4620      3.6893    138.5822
  1443.0000      0.0000    609.2925      3.7623    139.8615
  1443.2500      0.0000    608.1530      3.8412    137.6003
  1443.5000      0.0000    613.3204      3.9003    133.1335
  1443.7500      0.0000    619.1990      3.9386    128.6312
  1444.0000      0.0000    615.3861      3.9595    125.9539
  1444.2500      0.0000    594.6182      3.9568    125.9253
  1444.5000      0.0000    559.5665      3.9331    128.1638
  1444.7500      0.0000    520.6051      3.9053    131.0290
  1445.0000      0.0000    488.6637      3.8712    132.2743
  1445.2500      0.0000    470.8243      3.7902    130.6648
  1445.5000      0.0000    468.6739      3.6276    126.8772
  1445.7500      0.0000    476.9880      3.4100    122.5018
  1446.0000      0.0000    485.1401      3.2151    118.4709
  1446.2500      0.0000    483.7299      3.1108    114.7875
  1446.5000      0.0000    471.5156      3.1141    111.4352
  1446.7500      0.0000    455.2648      3.1974    108.8758
  1447.0000      0.0000    442.9037      3.3151    107.4439
  1447.2500      0.0000    437.6975      3.4283    106.6632
  1447.5000      0.0000    438.0730      3.5219    105.5823
  1447.7500      0.0000    440.9931      3.6050    103.8266
  1448.0000      0.0000    444.6931      3.6893    101.9214
  1448.2500      0.0000    448.7888      3.7653    100.2991
  1448.5000      0.0000    452.8165      3.7981     98.4900
  1448.7500      0.0000    455.8474      3.7432     95.8561
  1449.0000      0.0000    457.8456      3.5724     92.7088
  1449.2500      0.0000    460.5070      3.2960     90.0403
  1449.5000      0.0000    465.8617      2.9605     88.3438
  1449.7500      0.0000    473.9291      2.6200     87.1468
  1450.0000      0.0000    481.9920      2.3098     85.5880
  1450.2500      0.0000    486.7729      2.0473     83.2777
  1450.5000      0.0000    488.1786      1.8518     80.7239
  1450.7500      0.0000    490.7823      1.7587     78.9468
  1451.0000      0.0000    500.4883      1.8069     78.6160
  1451.2500      0.0000    519.1526      2.0014     79.6029
  1451.5000      0.0000    542.7841      2.2821     81.3409
  1451.7500      0.0000    564.9566      2.5513     83.3836
  1452.0000      0.0000    581.1588      2.7520     85.4377
  1452.2500      0.0000    589.6566      2.9073     87.0104
  1452.5000      0.0000    589.4935      3.0678     87.4377
  1452.7500      0.0000    579.0730      3.2413     86.4024
  1453.0000      0.0000    557.1710      3.3937     84.1516
  1453.2500      0.0000    525.6704      3.4919     81.2100
  1453.5000      0.0000    490.9606      3.5204     78.2813
  1453.7500      0.0000    461.2573      3.4703     76.3845
  1454.0000      0.0000    441.7375      3.3420     76.5020
  1454.2500      0.0000    432.4752      3.1700     78.8605
  1454.5000      0.0000    430.4789      3.0251     82.8411
  1454.7500      0.0000    432.5399      2.9656     87.5815
  1455.0000      0.0000    436.5273      2.9824     92.3076
  1455.2500      0.0000    442.0711      3.0205     96.1743
  1455.5000      0.0000    451.4160      3.0655     98.3536
  1455.7500      0.0000    468.8606      3.1745     98.4860
  1456.0000      0.0000    497.7645      3.3915     96.9605
  1456.2500      0.0000    537.4824      3.6620     94.8670
  1456.5000      0.0000    583.1502      3.8606     93.7060
  1456.7500      0.0000    627.9365      3.8846     94.7332
  1457.0000      0.0000    665.5758      3.7074     98.1908
  1457.2500      0.0000    692.2682      3.3706    103.1142
  1457.5000      0.0000    707.7683      2.9578    107.8942
  1457.7500      0.0000    715.0167      2.5735    111.1442
  1458.0000      0.0000    718.0610      2.3232    112.3390
  1458.2500      0.0000    719.5429      2.2862    111.7785
  1458.5000      0.0000    719.8781      2.4874    109.9007
  1458.7500      0.0000    718.6314      2.8798    106.8681
  1459.0000      0.0000    715.9636      3.3541    103.0678
  1459.2500      0.0000    712.3818      3.7780     99.5948
  1459.5000      0.0000    707.7243      4.0526     97.6862
