~Version Information
VERS.                      2.0: CWLS Log ASCII Standard - VERSION 2.0
WRAP.                       NO: One line per depth step
~Well Information Block
STRT.FT                -7.5000: 
STOP.FT              1702.2500: 
STEP.FT                 0.2500: 
NULL.                -999.2500: 
COMP.          Pioneer Natural Resources: COMPANY
WELL.          Warrior 33-1 Tr: WELL
FLD.           Purgatoire River: FIELD
LOC.           2648' FSL & 2341' FEL--: LOCATION
PROV.                 Colorado: PROVINCE
CNTY.               Las Animas: COUNTRY
SRVC.                Patterson: SERVICE COMPANY
DATE.          Wed Jun 22 12:18:08 2005: LOG DATE
UWI.           05 071 08412 00: UNIQUE WELL ID
~Curve Information Block
DEPT.FT            0 000 00 00: Depth
CCL.                          : Casing Collar Locator
TT3.usec                      : CBL 3' Travel Time
AMP3.mV                       : CBL 3' Amplitude
GR.GAPI                       : Gamma Ray
~Parameter Information Block
~A  Depth       CCL         TT3         AMP3         GR     
# ...
    93.0000      0.0000    776.9211     12.8486     47.8512
    93.2500      0.0000    778.4202     12.7577     48.1147
    93.5000      0.0000    781.5476     12.6393     47.1633
    93.7500      0.0000    786.2943     12.5124     44.5683
    94.0000      0.0000    791.2927     12.4154     41.4017
    94.2500      0.0000    794.5947     12.3881     39.4506
    94.5000      0.0000    795.6246     12.4421     39.7294
    94.7500      0.0000    795.6263     12.5453     41.8964
    95.0000      0.0000    795.5463     12.6425     44.8378
    95.2500      0.0000    794.4831     12.6958     47.5748
    95.5000      0.0000    791.1874     12.7056     49.7457
    95.7500      0.0000    786.1878     12.6948     51.3788
    96.0000      0.0000    781.4015     12.6832     52.2658
    96.2500      0.0000    778.2228     12.6798     51.8588
    96.5000      0.0000    776.7253     12.6901     50.1068
    96.7500      0.0000    776.2795     12.7135     48.1510
    97.0000      0.0000    776.2764     12.7353     47.5220
    97.2500      0.0000    776.3749     12.7335     48.4810
    97.5000      0.0000    776.4610     12.6958     49.6386
    97.7500      0.0000    776.6196     12.6289     49.3800
    98.0000      0.0000    777.1661     12.5541     47.3312
    98.2500      0.0000    778.7109     12.4965     44.4604
    98.5000      0.0000    781.9802     12.4753     42.1566
    98.7500      0.0000    787.1377     12.4979     41.1619
    99.0000      0.0000    793.1319     12.5586     41.0618
    99.2500      0.0000    798.1376     12.6405     40.8100
    99.5000      0.0000    800.8574     12.7172     39.8645
    99.7500      0.0000    800.9462     12.7610     38.7964
   100.0000      0.0000    798.3677     12.7589     38.8397
   100.2500      0.0000    793.4172     12.7180     40.8345
   100.5000      0.0000    787.3923     12.6554     44.3779
   100.7500      0.0000    782.1162     12.5849     47.9475
   101.0000      0.0000    778.5026     12.5155     50.0644
   101.2500      0.0000    776.0276     12.4568     50.4789
   101.5000      0.0000    773.6364     12.4175     50.1874
   101.7500      0.0000    771.2103     12.4004     50.3242
   102.0000      0.0000    770.4374     12.3999     51.2193
   102.2500      0.0000    773.6629     12.4056     52.5177
   102.5000      0.0000    780.6786     12.4128     53.8720
   102.7500      0.0000    786.9464     12.4343     55.2090
   103.0000      0.0000    786.7310     12.4953     56.4004
   103.2500      0.0000    778.3779     12.6051     57.0624
   103.5000      0.0000    765.5698     12.7311     57.0254
   103.7500      0.0000    753.8598     12.8091     56.8921
   104.0000      0.0000    747.1799     12.7878     57.6919
   104.2500      0.0000    746.8719     12.6701     59.7467
   104.5000      0.0000    751.9625     12.5128     62.1778
   104.7500      0.0000    759.6932     12.3905     63.7681
   105.0000      0.0000    766.6821     12.3544     63.9800
   105.2500      0.0000    770.5627     12.4125     62.9177
   105.5000      0.0000    771.0057     12.5325     60.8663
   105.7500      0.0000    769.4250     12.6590     58.3812
   106.0000      0.0000    767.5158     12.7427     56.3417
   106.2500      0.0000    765.5959     12.7665     55.2219
   106.5000      0.0000    762.3812     12.7464     54.5866
   106.7500      0.0000    756.7181     12.7069     53.9700
   107.0000      0.0000    749.3991     12.6601     53.9873
   107.2500      0.0000    742.9359     12.6050     55.7306
   107.5000      0.0000    739.7549     12.5330     59.0225
   107.7500      0.0000    740.7960     12.4232     62.0886
   108.0000      0.0000    745.3557     12.2409     63.3409
   108.2500      0.0000    751.6471     11.9677     63.0865
   108.5000      0.0000    757.6331     11.6433     63.2732
   108.7500      0.0000    762.7004     11.3384     65.8307
   109.0000      0.0000    769.4537     11.0491     71.3084
   109.2500      0.0000    782.0701     10.6750     78.6705
   109.5000      0.0000    800.5889     10.1641     86.0469
   109.7500      0.0000    818.8773      9.6237     91.7632
   110.0000      0.0000    830.8770      9.2152     94.9405
   110.2500     -2.0000    835.7380      8.9902     95.6271
   110.5000      2.0000    834.6194      8.8886     94.8972
   110.7500      0.0000    827.2874      8.8536     94.7791
   111.0000      0.0000    814.7806      8.9087     97.2286
   111.2500      0.0000    801.2856      9.1450    102.4066
   111.5000      0.0000    790.8423      9.6456    107.9767
   111.7500      0.0000    784.1608     10.3908    110.6695
   112.0000      0.0000    779.3624     11.2383    108.8309
   112.2500      0.0000    774.5929     12.0256    103.3770
   112.5000      0.0000    769.6263     12.6624     96.5676
   112.7500      0.0000    765.4312     13.1030     90.5359
   113.0000      0.0000    762.7361     13.2979     86.8785
   113.2500      0.0000    761.4634     13.2326     86.6182
   113.5000      0.0000    761.1807     12.9789     89.7985
   113.7500      0.0000    761.6349     12.6651     95.1339
   114.0000      0.0000    762.8040     12.4052    100.3390
   114.2500      0.0000    764.2749     12.2607    103.1892
   114.5000      0.0000    764.6696     12.2443    102.6548
   114.7500      0.0000    762.2952     12.3336     99.2177
   115.0000      0.0000    756.8238     12.4849     94.2906
   115.2500      0.0000    750.2081     12.6472     89.5370
   115.5000      0.0000    745.7256     12.7724     86.3402
   115.7500      0.0000    745.8502     12.8174     85.3473
   116.0000      0.0000    750.5620     12.7546     86.4348
   116.2500      0.0000    757.2389     12.5970     89.0581
   116.5000      0.0000    762.2062     12.4063     92.3917
   116.7500      0.0000    762.9883     12.2585     95.3604
   117.0000      0.0000    759.6984     12.1958     96.9746
   117.2500      0.0000    754.4703     12.2087     96.6829
   117.5000      0.0000    749.4122     12.2554     94.4220
   117.7500      0.0000    745.1253     12.2933     90.6401
   118.0000      0.0000    741.2003     12.3033     86.2985
   118.2500      0.0000    737.5393     12.2933     82.5099
   118.5000      0.0000    734.6093     12.2789     80.0519
   118.7500      0.0000    732.7405     12.2633     79.3090
   119.0000      0.0000    731.7728     12.2432     80.5643
   119.2500      0.0000    731.3360     12.2267     84.0906
   119.5000      0.0000    731.1516     12.2308     89.8381
   119.7500      0.0000    731.0634     12.2607     97.0597
   120.0000      0.0000    730.9718     12.3048    104.3143
   120.2500      0.0000    730.8360     12.3542    110.1102
   120.5000      0.0000    730.7442     12.4178    113.9041
   120.7500      0.0000    731.0706     12.5076    116.4163
   121.0000      0.0000    732.6563     12.6111    118.5646
   121.2500      0.0000    736.7916     12.6870    120.0585
   121.5000      0.0000    744.4069     12.6955    119.4792
   121.7500      0.0000    754.3945     12.6339    115.9142
   122.0000      0.0000    762.7612     12.5383    110.1113
   122.2500      0.0000    764.8329     12.4517    103.7619
   122.5000      0.0000    759.3038     12.3955     98.0414
   122.7500      0.0000    749.5341     12.3684     93.2343
   123.0000      0.0000    740.4019     12.3640     89.3350
   123.2500      0.0000    734.5739     12.3856     86.1921
   123.5000      0.0000    731.8764     12.4414     83.0344
   123.7500      0.0000    730.9594     12.5228     78.6118
   124.0000      0.0000    730.7283     12.5896     72.3463
   124.2500      0.0000    730.6830     12.5845     65.1363
   124.5000      0.0000    730.6971     12.4721     58.6767
   124.7500      0.0000    730.8054     12.2687     54.0135
   125.0000      0.0000    731.1768     12.0375     50.8706
   125.2500      0.0000    732.2386     11.8527     48.2067
   125.5000      0.0000    734.6466     11.7605     45.3312
   125.7500      0.0000    738.7439     11.7636     42.5583
   126.0000      0.0000    743.6636     11.8332     40.6570
   126.2500      0.0000    747.2136     11.9355     39.7037
