~Version Information
VERS.                      2.0: CWLS Log ASCII Standard - VERSION 2.0
WRAP.                       NO: One line per depth step
~Well Information Block
STRT.FT               -11.0000: 
STOP.FT              1523.2500: 
STEP.FT                 0.2500: 
NULL.                -999.2500: 
COMP.          Petrogulf Corporation: COMPANY
WELL.             State 16-43R: WELL
FLD.           Purgatorie River: FIELD
LOC.           2538' FSL & 716' FEL--: LOCATION
PROV.                       CO: PROVINCE
CNTY.               Las Animas: COUNTRY
SRVC.          Patterson Wireline: SERVICE COMPANY
DATE.          Fri Sep 09 13:13:52 2005: LOG DATE
UWI.           05 071 08338 00: UNIQUE WELL ID
~Curve Information Block
DEPT.FT            0 000 00 00: Depth
CCL.                          : Casing Collar Locator
TT3.usec                      : CBL 3' Travel Time
AMP3.mV                       : CBL 3' Amplitude
GR.GAPI                       : Gamma Ray
~Parameter Information Block
~A  Depth       CCL         TT3         AMP3         GR     
# ...
  1295.5000      0.0000    733.4936      8.0484    136.0306
  1295.7500      0.0000    761.7914      7.9405    130.0720
  1296.0000      0.0000    791.5964      7.8876    125.0798
  1296.2500      0.0000    817.0305      7.8026    123.8823
  1296.5000      2.0000    838.5080      7.6383    127.7329
  1296.7500      0.0000    856.9885      7.4217    135.2088
  1297.0000      0.0000    867.3030      7.2077    143.2026
  1297.2500      0.0000    862.1491      7.0299    149.1731
  1297.5000      0.0000    842.1230      6.8897    152.1456
  1297.7500      0.0000    817.6155      6.7790    151.8778
  1298.0000      0.0000    799.5411      6.7124    148.2086
  1298.2500      0.0000    790.5150      6.7290    141.5958
  1298.5000      0.0000    786.0768      6.8480    133.3526
  1298.7500      0.0000    782.1473      7.0395    124.7204
  1299.0000      0.0000    778.6310      7.2554    116.3465
  1299.2500      0.0000    776.2330      7.4700    109.0756
  1299.5000      0.0000    772.9484      7.6769    104.3936
  1299.7500      0.0000    765.5158      7.8636    103.4231
  1300.0000      0.0000    753.2842      8.0099    105.9036
  1300.2500      0.0000    739.0029      8.1055    110.4801
  1300.5000      0.0000    725.7614      8.1598    115.6340
  1300.7500      0.0000    714.5197      8.1935    120.1064
  1301.0000      0.0000    705.0972      8.2260    122.7704
  1301.2500      0.0000    698.1582      8.2659    122.7180
  1301.5000      0.0000    694.9985      8.3115    119.8712
  1301.7500      0.0000    696.3444      8.3550    115.3054
  1302.0000      0.0000    702.0966      8.3839    110.6087
  1302.2500      0.0000    710.8220      8.3791    106.9529
  1302.5000      0.0000    718.7390      8.3204    104.8787
  1302.7500      0.0000    721.3132      8.1996    104.8672
  1303.0000      0.0000    717.2830      8.0319    107.9208
  1303.2500      0.0000    709.6078      7.8501    115.2745
  1303.5000      0.0000    701.9109      7.6904    126.9156
  1303.7500      0.0000    695.8784      7.5786    140.0598
  1304.0000      0.0000    692.1746      7.5226    149.7819
  1304.2500      0.0000    691.2609      7.5128    152.2646
  1304.5000      0.0000    692.5137      7.5291    147.7287
  1304.7500      0.0000    694.4034      7.5516    139.7544
  1305.0000      0.0000    696.1155      7.5686    131.8474
  1305.2500      0.0000    697.5682      7.5841    125.2644
  1305.5000      0.0000    697.7110      7.6164    119.9335
  1305.7500      0.0000    694.7192      7.6848    116.2270
  1306.0000      0.0000    688.5347      7.7940    115.0150
  1306.2500      0.0000    681.9272      7.9331    116.4883
  1306.5000      0.0000    678.2773      8.0869    119.7678
  1306.7500      0.0000    678.7106      8.2445    123.4818
  1307.0000      0.0000    681.4091      8.3980    125.9581
  1307.2500      0.0000    683.4288      8.5388    125.2478
  1307.5000      0.0000    683.2704      8.6616    120.1481
  1307.7500      0.0000    681.6202      8.7718    111.5381
  1308.0000      0.0000    679.5733      8.8849    102.2292
  1308.2500      0.0000    676.8660      9.0126     95.2660
  1308.5000      0.0000    672.4356      9.1464     92.2446
  1308.7500      0.0000    666.2126      9.2575     92.8724
  1309.0000      0.0000    659.8699      9.3158     95.9124
  1309.2500      0.0000    656.1489      9.3086    100.6032
  1309.5000      0.0000    657.5408      9.2421    107.2803
  1309.7500      0.0000    664.6928      9.1334    116.6421
  1310.0000      0.0000    675.1390      9.0055    128.4489
  1310.2500      0.0000    684.0160      8.8849    140.9916
  1310.5000      0.0000    687.3139      8.7981    151.8331
  1310.7500      0.0000    684.8625      8.7634    158.9534
  1311.0000      0.0000    679.7725      8.7820    161.3319
  1311.2500      0.0000    675.3348      8.8379    159.0273
  1311.5000      0.0000    673.0369      8.9097    153.1575
  1311.7500      0.0000    673.0552      8.9814    145.7441
  1312.0000      0.0000    675.4311      9.0455    139.1744
  1312.2500      0.0000    680.1356      9.0963    135.2758
  1312.5000      0.0000    686.3264      9.1257    134.5082
  1312.7500      0.0000    692.2970      9.1233    136.0145
  1313.0000      0.0000    696.5941      9.0843    138.4628
  1313.2500      0.0000    699.0210      9.0161    140.8612
  1313.5000      0.0000    700.3231      8.9384    142.9836
  1313.7500      0.0000    700.9258      8.8733    145.4077
  1314.0000      0.0000    700.0503      8.8343    148.8189
  1314.2500      0.0000    696.3809      8.8210    152.8152
  1314.5000      0.0000    689.8678      8.8252    155.8092
  1314.7500      0.0000    682.4114      8.8413    156.7366
  1315.0000      0.0000    676.4093      8.8716    156.4378
  1315.2500      0.0000    673.0638      8.9195    156.5961
  1315.5000      0.0000    672.2704      8.9765    157.6589
  1315.7500      0.0000    673.4518      9.0145    158.5750
  1316.0000      0.0000    675.9144      8.9989    158.2726
  1316.2500      0.0000    678.7516      8.9147    156.6835
  1316.5000      0.0000    681.2959      8.7823    154.3853
  1316.7500      0.0000    684.1216      8.6455    151.6540
  1317.0000      0.0000    688.9973      8.5401    148.0204
  1317.2500      0.0000    697.1420      8.4708    142.7820
  1317.5000      0.0000    707.8587      8.4129    135.6908
  1317.7500      0.0000    719.2202      8.3347    126.9536
  1318.0000      0.0000    729.1040      8.2162    117.0670
  1318.2500      0.0000    734.9599      8.0487    107.2368
  1318.5000      0.0000    734.1202      7.8185     99.4826
  1318.7500      0.0000    725.8149      7.4976     95.4394
  1319.0000      0.0000    712.2775      7.0585     94.9027
  1319.2500      0.0000    697.3345      6.5056     95.9935
  1319.5000      0.0000    684.5869      5.8959     96.9969
  1319.7500      0.0000    676.9467      5.3260     98.0826
  1320.0000      0.0000    676.6254      4.8881    101.1038
  1320.2500      0.0000    684.2902      4.6232    107.4928
  1320.5000      0.0000    697.7271      4.5076    116.3103
  1320.7500      0.0000    711.9068      4.4830    124.6185
  1321.0000      0.0000    721.5425      4.5061    129.7716
  1321.2500      0.0000    724.1959      4.5804    131.0515
  1321.5000      0.0000    721.0717      4.7538    129.2721
  1321.7500      0.0000    715.4380      5.0881    125.5632
  1322.0000      0.0000    710.3224      5.6159    120.8848
  1322.2500      0.0000    706.6373      6.3083    116.3209
  1322.5000      0.0000    703.0904      7.0755    113.2151
  1322.7500      0.0000    698.5839      7.8060    112.4752
  1323.0000      0.0000    694.5898      8.4117    113.5141
  1323.2500      0.0000    694.1674      8.8484    114.2991
  1323.5000      0.0000    698.4020      9.1128    113.0782
  1323.7500      0.0000    704.6985      9.2320    110.0267
  1324.0000      0.0000    709.3195      9.2524    106.9119
  1324.2500      0.0000    711.3381      9.2229    105.4207
  1324.5000      0.0000    713.2559      9.1796    106.0580
  1324.7500      0.0000    717.7208      9.1407    108.1268
  1325.0000      0.0000    724.5696      9.1089    110.1146
  1325.2500      0.0000    731.3517      9.0761    110.3013
  1325.5000      0.0000    735.7044      9.0302    107.7343
  1325.7500      0.0000    736.4253      8.9670    102.9652
  1326.0000      0.0000    732.8729      8.9003     97.7984
  1326.2500      0.0000    724.6130      8.8513     94.2706
  1326.5000      0.0000    712.2709      8.8265     93.5509
  1326.7500      0.0000    698.3046      8.8074     95.2584
  1327.0000      0.0000    686.0579      8.7682     97.7238
  1327.2500      0.0000    677.6975      8.6996     99.3109
  1327.5000      0.0000    673.2366      8.6127     99.5761
  1327.7500      0.0000    671.4288      8.5237     99.1529
  1328.0000      0.0000    671.1705      8.4405     98.9348
  1328.2500      0.0000    671.9828      8.3642     99.6627
  1328.5000      0.0000    673.5325      8.2978    101.8309
  1328.7500      0.0000    675.1332      8.2469    105.3700
