~Version Information
VERS.                      2.0: CWLS Log ASCII Standard - VERSION 2.0
WRAP.                       NO: One line per depth step
~Well Information Block
STRT.FT               292.0000: 
STOP.FT               801.0000: 
STEP.FT                 0.1000: 
NULL.                -999.2500: 
COMP.          Pioneer Natural Resources: COMPANY
WELL.          HG Duran 34-27 Tr: WELL
FLD.           Purgatoire River: FIELD
LOC.           1076' FSL & 1465' FEL: LOCATION
PROV.                 Colorado: PROVINCE
CNTY.               Las Animas: COUNTRY
SRVC.                Patterson: SERVICE COMPANY
DATE.          Wed Apr 13 08:36:06 2005: LOG DATE
UWI.           05 071 08218 00: UNIQUE WELL ID
~Curve Information Block
DEPT.FT            0 000 00 00: Depth
DCAL.in                       : CDL Caliper
RHOB.g/cc                     : CDL Bulk Density
RHOC.g/cc                     : CDL Density Correction
DPOR.pu                       : CDL Density Porosity
GR.GAPI                       : Gamma Ray
NPOR.pu                       : Neutron Porosity
~Parameter Information Block
~A  Depth       DCAL        RHOB        RHOC        DPOR         GR         NPOR    
# ...
   522.4000      7.8587      2.3987      0.0193     15.2311     35.4756     13.5496
   522.5000      7.9053      2.3939     -0.0247     15.5188     35.4500     13.6510
   522.6000      7.9053      2.4286     -0.0023     13.4183     37.1393     13.7468
   522.7000      7.9053      2.4704      0.0579     10.8855     37.7310     13.7467
   522.8000      7.9199      2.4840      0.0513     10.0623     37.3604     13.4622
   522.9000      7.9199      2.4749     -0.0314     10.6115     38.2909     13.0097
   523.0000      7.9165      2.4668      0.0097     11.1035     41.0914     12.8535
   523.1000      7.9165      2.4591      0.0630     11.5700     44.8181     12.9901
   523.2000      7.9165      2.4419      0.0138     12.6123     47.3498     13.1193
   523.3000      7.8961      2.4169      0.0415     14.1289     47.6202     13.1660
   523.4000      7.8961      2.3845      0.0370     16.0882     46.7269     13.0484
   523.5000      7.8886      2.3493     -0.0312     18.2219     45.2834     12.7091
   523.6000      7.8886      2.3273     -0.0086     19.5604     43.6793     12.4424
   523.7000      7.8886      2.3234     -0.0430     19.7928     44.1862     12.5229
   523.8000      7.8838      2.3306      0.0031     19.3572     46.8140     12.8511
   523.9000      7.8838      2.3335      0.0325     19.1799     48.1478     13.2096
   524.0000      7.9032      2.3262     -0.0258     19.6252     47.3181     13.4192
   524.1000      7.9032      2.3372     -0.0646     18.9555     45.4553     13.4656
   524.2000      7.9032      2.3794      0.0256     16.4020     43.2854     13.5392
   524.3000      7.8945      2.4093      0.0495     14.5879     42.9121     13.6369
   524.4000      7.8945      2.3933      0.0014     15.5566     44.8878     13.3995
   524.5000      7.9146      2.3500     -0.0418     18.1833     47.1888     12.7666
   524.6000      7.9146      2.3163     -0.0384     20.2265     48.2906     12.3180
   524.7000      7.9146      2.3006      0.0124     21.1771     48.3085     12.4968
   524.8000      7.8947      2.2848     -0.0264     22.1356     48.8919     12.9578
   524.9000      7.8947      2.2685     -0.0442     23.1193     49.7779     13.1611
   525.0000      7.8962      2.2703     -0.0428     23.0110     48.6812     13.1270
   525.1000      7.8962      2.2880      0.0108     21.9402     44.7674     13.0916
   525.2000      7.8962      2.3034     -0.0280     21.0078     40.7551     13.1046
   525.3000      7.8966      2.3134     -0.0059     20.3977     41.8301     13.2776
   525.4000      7.8966      2.3302     -0.0323     19.3842     46.7485     13.6401
   525.5000      7.8815      2.3509      0.0851     18.1274     49.1631     13.8626
   525.6000      7.8815      2.3588      0.0365     17.6481     48.4904     13.7343
   525.7000      7.8815      2.3674      0.0060     17.1302     46.6862     13.4121
   525.8000      7.8810      2.3929      0.0616     15.5811     43.6085     13.1143
   525.9000      7.8810      2.4148      0.1641     14.2553     40.3815     13.1552
   526.0000      7.8804      2.4201      0.0662     13.9307     38.6228     13.5543
   526.1000      7.8804      2.4151      0.1218     14.2337     38.7594     14.0702
   526.2000      7.8804      2.3986      0.0614     15.2382     40.9399     14.6790
   526.3000      7.8890      2.3900      0.0251     15.7563     44.2220     15.0256
   526.4000      7.8890      2.4209      0.0130     13.8836     47.2441     14.7117
   526.5000      7.8713      2.4687      0.1362     10.9879     50.3029     14.2109
   526.6000      7.8713      2.4796      0.0670     10.3257     54.0718     14.1847
   526.7000      7.8713      2.4574      0.0147     11.6746     56.2483     14.6042
   526.8000      7.8777      2.4336      0.0566     13.1157     54.7732     14.8844
   526.9000      7.8777      2.4116      0.0694     14.4507     52.6753     14.8906
   527.0000      7.8755      2.3983      0.0384     15.2575     53.4594     14.9973
   527.1000      7.8755      2.4064      0.0504     14.7644     55.1204     15.4076
   527.2000      7.8755      2.4310      0.0703     13.2698     54.9217     15.8584
   527.3000      7.8622      2.4573      0.0628     11.6783     53.3842     15.7947
   527.4000      7.8622      2.4700      0.0815     10.9065     52.2856     15.2626
   527.5000      7.8725      2.4658      0.0541     11.1651     50.8862     14.8266
   527.6000      7.8725      2.4526      0.0476     11.9636     47.4316     14.8249
   527.7000      7.8725      2.4308      0.0556     13.2868     43.7036     15.4964
   527.8000      7.8798      2.4077     -0.0516     14.6875     44.2889     16.6144
   527.9000      7.8798      2.4061     -0.0287     14.7799     50.4389     17.1520
   528.0000      7.8906      2.4244      0.0355     13.6756     58.4907     16.9126
   528.1000      7.8906      2.4370      0.0378     12.9115     65.5714     16.7185
   528.2000      7.8906      2.4425      0.0088     12.5734     72.5480     16.8139
   528.3000      7.8673      2.4584      0.0033     11.6147     77.8225     16.7151
   528.4000      7.8673      2.4711      0.0608     10.8422     76.2245     16.2097
   528.5000      7.8609      2.4536      0.0055     11.9004     69.3160     15.7651
   528.6000      7.8609      2.4180     -0.0308     14.0583     64.2376     15.7701
   528.7000      7.8609      2.3962     -0.0661     15.3830     63.2039     16.0654
   528.8000      7.8541      2.3892     -0.0163     15.8056     64.8865     16.0079
   528.9000      7.8541      2.3792     -0.0369     16.4117     66.2456     15.3259
   529.0000      7.8650      2.3773     -0.0071     16.5300     64.0747     14.6147
   529.1000      7.8650      2.3969      0.0067     15.3415     60.5928     14.3082
   529.2000      7.8650      2.4204     -0.0037     13.9130     58.8552     14.3554
   529.3000      7.8868      2.4287      0.0143     13.4128     57.7371     14.6270
   529.4000      7.8868      2.4226      0.0324     13.7846     55.7457     14.9006
   529.5000      7.8959      2.4106      0.0630     14.5102     54.6549     14.9387
   529.6000      7.8959      2.3900      0.0380     15.7549     55.5472     15.0060
   529.7000      7.8959      2.3732      0.0167     16.7758     56.1058     15.3447
   529.8000      7.8850      2.3811      0.0537     16.2968     55.1600     15.4413
   529.9000      7.8850      2.4051      0.0734     14.8395     54.1980     15.0611
   530.0000      7.8711      2.4228      0.0569     13.7725     54.2950     14.7419
   530.1000      7.8711      2.4300      0.0407     13.3342     54.3475     14.6607
   530.2000      7.8711      2.4275      0.0754     13.4854     51.9579     14.5204
   530.3000      7.8665      2.4143      0.0016     14.2871     47.9758     14.3469
   530.4000      7.8665      2.4035      0.1234     14.9393     45.3728     14.2128
   530.5000      7.8663      2.4054      0.0731     14.8227     45.0044     13.8772
   530.6000      7.8663      2.4239      0.0852     13.7035     46.1933     13.4276
   530.7000      7.8663      2.4546      0.0694     11.8402     47.1084     13.4458
   530.8000      7.8684      2.4830      0.1005     10.1186     45.4179     14.0194
   530.9000      7.8684      2.4989      0.0888      9.1589     42.3084     14.7737
   531.0000      7.8712      2.4941      0.0950      9.4458     40.7405     15.4692
   531.1000      7.8712      2.4662      0.0625     11.1391     41.5995     15.8269
   531.2000      7.8712      2.4299      0.0967     13.3383     43.0963     15.6610
   531.3000      7.8824      2.4130     -0.0779     14.3629     42.6860     15.1006
   531.4000      7.8824      2.4304      0.0419     13.3086     40.6293     14.6059
   531.5000      7.8789      2.4513      0.0595     12.0408     38.3717     14.4451
   531.6000      7.8789      2.4420      0.0607     12.6051     37.0978     14.3547
   531.7000      7.8789      2.4115     -0.0084     14.4541     38.4153     14.1939
   531.8000      7.8827      2.3913      0.0012     15.6795     42.6210     14.2009
   531.9000      7.8827      2.3869      0.0076     15.9471     47.5489     14.3743
