~Version Information
VERS.                      2.0: CWLS Log ASCII Standard - VERSION 2.0
WRAP.                       NO: One line per depth step
~Well Information Block
STRT.FT               898.0000: 
STOP.FT              2360.0000: 
STEP.FT                 0.2500: 
NULL.                -999.2500: 
COMP.          Pioneer Natural Resources: COMPANY
WELL.             Trimax 44-23: WELL
FLD.           Purgatoire River: FIELD
LOC.           527' FSL & 1064' FEL: LOCATION
PROV.                 Colorado: PROVINCE
CNTY.               Las Animas: COUNTRY
SRVC.                Patterson: SERVICE COMPANY
DATE.          Sun Mar 13 04:57:04 2005: LOG DATE
UWI.           05 071 08326 00: UNIQUE WELL ID
~Curve Information Block
DEPT.FT            0 000 00 00: Depth
SN.Ohm-m                      : IEL Short Normal
SP.mV                         : IEL Spontaneous Potential
DIR.Ohm-m                     : IEL Induction Resistivity
GR.GAPI                       : Gamma Ray
~Parameter Information Block
~A  Depth        SN          SP         DIR          GR     
# ...
  1869.5000     14.4710    -42.8720     13.6451    111.5327
  1869.7500     15.4070    -42.7530     14.1514    104.9082
  1870.0000     16.5067    -42.6637     14.7362     93.5689
  1870.2500     17.7369    -42.5833     15.4031     86.1675
  1870.5000     19.0762    -42.5037     16.1392     76.3264
  1870.7500     20.5283    -42.4345     16.9304     70.4762
  1871.0000     22.0434    -42.3975     17.7652     61.8934
  1871.2500     23.4660    -42.4122     18.6260     55.9356
  1871.5000     24.6311    -42.4831     19.4816     46.8393
  1871.7500     25.4993    -42.6022     20.2866     41.2039
  1872.0000     26.1394    -42.7625     20.9901     34.4832
  1872.2500     26.6147    -42.9661     21.5526     31.5601
  1872.5000     26.9427    -43.2214     21.9674     29.3515
  1872.7500     27.1356    -43.5332     22.2725     28.7604
  1873.0000     27.2230    -43.8935     22.5326     28.0675
  1873.2500     27.2281    -44.2772     22.7995     27.4258
  1873.5000     27.1505    -44.6482     23.0804     26.4825
  1873.7500     27.0067    -44.9772     23.3394     26.2411
  1874.0000     26.8770    -45.2541     23.5303     26.8315
  1874.2500     26.8422    -45.4896     23.6279     27.7848
  1874.5000     26.8669    -45.7054     23.6376     29.6115
  1874.7500     26.8375    -45.9231     23.5891     30.8307
  1875.0000     26.7125    -46.1530     23.5282     32.3368
  1875.2500     26.5618    -46.3879     23.5103     32.9266
  1875.5000     26.4715    -46.6074     23.5804     32.7542
  1875.7500     26.4634    -46.7868     23.7428     31.7939
  1876.0000     26.5054    -46.9057     23.9412     29.4669
  1876.2500     26.5628    -46.9560     24.0694     27.8857
  1876.5000     26.6210    -46.9496     24.0240     26.3804
  1876.7500     26.6767    -46.9194     23.7672     26.1076
  1877.0000     26.7167    -46.9090     23.3436     26.3682
  1877.2500     26.7024    -46.9533     22.8403     26.6437
  1877.5000     26.5947    -47.0657     22.3402     27.0430
  1877.7500     26.3921    -47.2378     21.9090     27.4629
  1878.0000     26.1289    -47.4485     21.6006     28.5395
  1878.2500     25.8414    -47.6692     21.4481     29.4328
  1878.5000     25.5470    -47.8693     21.4413     30.6514
  1878.7500     25.2456    -48.0256     21.5188     31.3138
  1879.0000     24.9485    -48.1297     21.5933     32.1930
  1879.2500     24.6951    -48.1837     21.5962     32.7018
  1879.5000     24.5157    -48.1915     21.5092     33.2464
  1879.7500     24.3942    -48.1570     21.3629     33.5264
  1880.0000     24.2807    -48.0863     21.2138     34.1727
  1880.2500     24.1267    -47.9860     21.1150     34.9330
  1880.5000     23.9160    -47.8562     21.0931     36.5878
  1880.7500     23.6887    -47.6896     21.1391     37.8871
  1881.0000     23.5330    -47.4778     21.2188     39.8561
  1881.2500     23.5275    -47.2208     21.2934     41.2270
  1881.5000     23.6902    -46.9288     21.3385     43.8579
  1881.7500     23.9871    -46.6187     21.3515     46.1782
  1882.0000     24.3628    -46.3116     21.3506     49.8597
  1882.2500     24.7502    -46.0340     21.3711     51.5453
  1882.5000     25.0826    -45.8111     21.4571     51.5774
  1882.7500     25.3239    -45.6531     21.6470     49.8336
  1883.0000     25.4872    -45.5461     21.9572     45.5653
  1883.2500     25.6125    -45.4586     22.3716     42.4758
  1883.5000     25.7335    -45.3547     22.8406     38.7569
  1883.7500     25.8756    -45.2029     23.2934     37.3035
  1884.0000     26.0822    -44.9817     23.6625     36.5657
  1884.2500     26.4196    -44.6837     23.9082     36.6033
  1884.5000     26.9256    -44.3197     24.0242     36.6874
  1884.7500     27.5529    -43.9164     24.0157     36.5621
  1885.0000     28.2010    -43.5062     23.8696     36.1313
  1885.2500     28.7908    -43.1111     23.5453     35.7413
  1885.5000     29.2718    -42.7310     22.9991     35.0003
  1885.7500     29.5927    -42.3474     22.2252     34.4023
  1886.0000     29.6747    -41.9398     21.2759     33.7382
  1886.2500     29.3878    -41.5002     20.2428     34.1841
  1886.5000     28.6001    -41.0353     19.2153     38.4381
  1886.7500     27.2957    -40.5620     18.2505     45.1452
  1887.0000     25.6009    -40.1016     17.3706     62.2159
  1887.2500     23.7127    -39.6770     16.5777     77.3967
  1887.5000     21.8284    -39.3076     15.8699    101.8130
  1887.7500     20.0573    -39.0047     15.2467    116.4655
  1888.0000     18.3938    -38.7711     14.7071    133.0935
  1888.2500     16.8331    -38.6038     14.2473    140.3514
  1888.5000     15.4645    -38.4887     13.8619    146.6166
  1888.7500     14.4297    -38.3973     13.5464    148.5813
  1889.0000     13.8280    -38.2989     13.2970    149.3271
  1889.2500     13.6581    -38.1790     13.1103    148.7440
  1889.5000     13.8216    -38.0389     12.9841    146.6687
  1889.7500     14.1707    -37.8829     12.9195    144.5827
  1890.0000     14.5765    -37.7143     12.9204    140.1207
  1890.2500     14.9691    -37.5412     12.9910    135.9230
  1890.5000     15.3341    -37.3744     13.1323    127.6175
  1890.7500     15.7033    -37.2191     13.3410    121.1929
  1891.0000     16.1487    -37.0684     13.6108    111.9383
  1891.2500     16.7262    -36.9057     13.9335    107.2836
  1891.5000     17.3902    -36.7103     14.2991    104.3062
  1891.7500     18.0179    -36.4663     14.6962    105.2293
  1892.0000     18.5262    -36.1715     15.1155    109.6608
  1892.2500     18.8916    -35.8446     15.5519    113.1320
  1892.5000     19.1064    -35.5218     16.0014    116.2407
  1892.7500     19.1833    -35.2423     16.4498    115.6689
  1893.0000     19.1484    -35.0296     16.8639    110.4370
  1893.2500     19.0245    -34.8788     17.1979    104.9699
  1893.5000     18.8631    -34.7604     17.4163     96.3517
  1893.7500     18.7554    -34.6400     17.5143     91.4031
  1894.0000     18.7609    -34.5033     17.5192     85.4278
  1894.2500     18.8461    -34.3630     17.4726     81.9409
  1894.5000     18.9296    -34.2455     17.4125     76.5821
  1894.7500     18.9650    -34.1690     17.3652     72.6118
  1895.0000     18.9589    -34.1320     17.3443     65.9184
  1895.2500     18.9406    -34.1183     17.3492     61.1554
  1895.5000     18.9309    -34.1115     17.3662     54.4254
  1895.7500     18.9206    -34.1116     17.3757     50.8640
  1896.0000     18.8830    -34.1403     17.3656     47.5798
  1896.2500     18.8130    -34.2286     17.3412     46.6044
  1896.5000     18.7346    -34.3944     17.3212     46.0663
  1896.7500     18.6797    -34.6248     17.3243     45.9248
  1897.0000     18.6662    -34.8806     17.3583     45.9342
  1897.2500     18.6826    -35.1168     17.4186     46.0633
  1897.5000     18.7047    -35.3037     17.4944     46.0816
  1897.7500     18.7293    -35.4352     17.5732     45.8233
  1898.0000     18.7668    -35.5262     17.6431     45.2631
  1898.2500     18.8246    -35.6032     17.6959     44.9900
  1898.5000     18.9006    -35.6890     17.7294     44.7292
  1898.7500     18.9722    -35.7884     17.7455     44.5390
  1899.0000     19.0194    -35.8834     17.7467     44.2857
  1899.2500     19.0589    -35.9430     17.7357     44.2747
  1899.5000     19.1185    -35.9366     17.7196     44.4723
  1899.7500     19.1935    -35.8444     17.7134     44.5840
  1900.0000     19.2616    -35.6602     17.7359     44.6213
  1900.2500     19.3386    -35.3922     17.8036     44.6904
  1900.5000     19.4977    -35.0674     17.9265     45.1107
  1900.7500     19.7852    -34.7421     18.1077     45.6027
  1901.0000     20.1449    -34.5003     18.3438     46.3613
  1901.2500     20.4862    -34.4280     18.6243     46.5940
  1901.5000     20.7667    -34.5716     18.9323     46.1389
  1901.7500     20.9915    -34.9129     19.2499     45.3162
  1902.0000     21.2030    -35.3830     19.5674     43.7201
  1902.2500     21.4651    -35.8998     19.8892     42.6102
  1902.5000     21.8209    -36.4000     20.2315     40.7639
  1902.7500     22.2801    -36.8531     20.6119     39.2426
