~Version Information
VERS.                      2.0: CWLS Log ASCII Standard - VERSION 2.0
WRAP.                       NO: One line per depth step
~Well Information Block
STRT.FT                -3.5000: 
STOP.FT              1841.0000: 
STEP.FT                 0.2500: 
NULL.                -999.2500: 
COMP.          Pioneer Natural Resources: COMPANY
WELL.          Corkscrew 33-12 Tr: WELL
FLD.           Purgatorie River: FIELD
LOC.           1870' FSL  & 1706' FEL--------: LOCATION
PROV.                       CO: PROVINCE
CNTY.               Las Animas: COUNTRY
SRVC.          Patterson Wireline: SERVICE COMPANY
DATE.          Mon Apr 04 10:07:45 2005: LOG DATE
UWI.           05 071 08295 00: UNIQUE WELL ID
~Curve Information Block
DEPT.FT            0 000 00 00: Depth
CCL.                          : Casing Collar Locator
TT3.usec                      : CBL 3' Travel Time
AMP3.mV                       : CBL 3' Amplitude
GR.GAPI                       : Gamma Ray
~Parameter Information Block
~A  Depth       CCL         TT3         AMP3         GR     
# ...
   130.5000      0.0000    941.6673      8.3280    107.7265
   130.7500      0.0000    932.4011      8.2080    105.6516
   131.0000      0.0000    918.3329      8.0311    102.9834
   131.2500      0.0000    903.0907      7.9107    100.2094
   131.5000      0.0000    884.7462      7.8721     97.5567
   131.7500      0.0000    861.1447      7.8700     95.2942
   132.0000      0.0000    836.0690      7.8600     93.4557
   132.2500      0.0000    817.7606      7.8380     91.4684
   132.5000      0.0000    812.2747      7.8247     88.5464
   132.7500      0.0000    819.7571      7.8349     84.5979
   133.0000      0.0000    836.5107      7.8640     80.5074
   133.2500      0.0000    858.9475      7.8944     77.2655
   133.5000      0.0000    884.5862      7.9135     74.9596
   133.7500      0.0000    909.8686      7.9299     72.9210
   134.0000      0.0000    929.0575      7.9597     70.6783
   134.2500      0.0000    937.8319      7.9961     68.4258
   134.5000      0.0000    938.4468      8.0077     66.7103
   134.7500      0.0000    938.9064      7.9739     65.9314
   135.0000      0.0000    945.3174      7.9076     66.1413
   135.2500      0.0000    955.9186      7.8406     67.1694
   135.5000      0.0000    963.5079      7.7963     68.7730
   135.7500      0.0000    962.7525      7.7791     70.5631
   136.0000      0.0000    954.0159      7.7816     71.7984
   136.2500      0.0000    940.9340      7.7951     71.4483
   136.5000      0.0000    925.9422      7.8138     68.8430
   136.7500      0.0000    908.9602      7.8330     64.4455
   137.0000      0.0000    889.8990      7.8511     59.7823
   137.2500      0.0000    870.9824      7.8679     56.3637
   137.5000      0.0000    855.5756      7.8777     54.6046
   137.7500      0.0000    845.1756      7.8711     53.7750
   138.0000      0.0000    838.2932      7.8483     52.8629
   138.2500      0.0000    832.1084      7.8240     51.2644
   138.5000      0.0000    824.8624      7.8178     48.8087
   138.7500      0.0000    816.9457      7.8472     45.7002
   139.0000      0.0000    810.2215      7.9208     42.5926
   139.2500      0.0000    806.6567      8.0277     40.2276
   139.5000      0.0000    807.6070      8.1387     38.7525
   139.7500      0.0000    813.7144      8.2279     37.6230
   140.0000      0.0000    824.3203      8.2888     36.3368
   140.2500      0.0000    836.5324      8.3309     35.1168
   140.5000      0.0000    845.6697      8.3688     34.6319
   140.7500      0.0000    847.7592      8.4143     35.0542
   141.0000      0.0000    842.0886      8.4673     35.7363
   141.2500      0.0000    831.4169      8.5145     35.9054
   141.5000      0.0000    819.9037      8.5418     35.3343
   141.7500      0.0000    810.7188      8.5464     34.2388
   142.0000      0.0000    804.9374      8.5385     32.9842
   142.2500      0.0000    801.9534      8.5312     32.1776
   142.5000      0.0000    800.6070      8.5281     32.7119
   142.7500      0.0000    800.0215      8.5222     35.2396
   143.0000      0.0000    799.7715      8.5078     39.4142
   143.2500      0.0000    799.6992      8.4862     43.7914
   143.5000      0.0000    799.7815      8.4617     46.7146
   143.7500      0.0000    800.1688      8.4385     47.4504
   144.0000      0.0000    801.3203      8.4185     46.4788
   144.2500      0.0000    804.0231      8.3943     44.7211
   144.5000      0.0000    808.9848      8.3508     42.6926
   144.7500      0.0000    816.0830      8.2804     40.5283
   145.0000      0.0000    824.0084      8.1898     38.5331
   145.2500      0.0000    830.9424      8.0927     37.2876
   145.5000      0.0000    835.7543      8.0023     37.1513
   145.7500      0.0000    838.5473      7.9263     37.8743
   146.0000      0.0000    840.2246      7.8639     38.8920
   146.2500      0.0000    841.8409      7.8129     39.9677
   146.5000      0.0000    844.2999      7.7783     41.4948
   146.7500      0.0000    848.2216      7.7682     44.3490
   147.0000      0.0000    853.7942      7.7822     49.4989
   147.2500      0.0000    860.8684      7.8092     57.3806
   147.5000      0.0000    869.2443      7.8349     67.3086
   147.7500      0.0000    878.4674      7.8507     77.4694
   148.0000      0.0000    887.1673      7.8583     85.5100
   148.2500      0.0000    893.1695      7.8676     89.5690
   148.5000      0.0000    894.9362      7.8918     89.6474
   148.7500      0.0000    892.9179      7.9406     88.1903
   149.0000      0.0000    889.1712      8.0124     88.5278
   149.2500      0.0000    885.6736      8.0935     92.3583
   149.5000      0.0000    883.2346      8.1654     98.8955
   149.7500      0.0000    881.7739      8.2101    106.0826
   150.0000      0.0000    881.0305      8.2150    112.1437
   150.2500      0.0000    880.6367      8.1823    116.4511
   150.5000      0.0000    879.5966      8.1319    119.5971
   150.7500      0.0000    876.1909      8.0858    122.3371
   151.0000      0.0000    869.1947      8.0492    124.0501
   151.2500      0.0000    859.7592      8.0111    122.8711
   151.5000      0.0000    851.7443      7.9664    117.9850
   151.7500      0.0000    849.3172      7.9295    111.1967
   152.0000      0.0000    853.7198      7.9167    105.6046
   152.2500      0.0000    862.3855      7.9223    103.1881
   152.5000      0.0000    871.1512      7.9272    103.8843
   152.7500      0.0000    877.0774      7.9255    106.1126
   153.0000      0.0000    879.3116      7.9218    107.8067
   153.2500      0.0000    878.1512      7.9156    107.7679
   153.5000      0.0000    874.2117      7.9086    106.5779
   153.7500      0.0000    868.5192      7.9115    105.9259
   154.0000      0.0000    862.5500      7.9251    106.8090
   154.2500      0.0000    857.3231      7.9360    108.5334
   154.5000      0.0000    852.4927      7.9376    109.4447
   154.7500      0.0000    846.8726      7.9342    108.4421
   155.0000      0.0000    840.0107      7.9247    106.0166
   155.2500      0.0000    833.1170      7.9081    104.1700
   155.5000      0.0000    828.4583      7.8982    104.9820
   155.7500      0.0000    827.6831      7.9046    108.6099
   156.0000      0.0000    830.4462      7.9110    112.8355
   156.2500      0.0000    834.6472      7.8935    115.0698
   156.5000      0.0000    838.0100      7.8468    114.6036
   156.7500      0.0000    839.3271      7.7790    112.6539
   157.0000      0.0000    838.5707      7.7026    110.7645
   157.2500      0.0000    836.6185      7.6354    109.5395
   157.5000      0.0000    835.2068      7.5885    108.4018
   157.7500      0.0000    836.4966      7.5532    106.2487
   158.0000      0.0000    841.7074      7.5140    102.8117
   158.2500      0.0000    849.7517      7.4630     99.4238
   158.5000      0.0000    857.4293      7.3931     97.8341
   158.7500      0.0000    861.4023      7.2994     98.2325
   159.0000      0.0000    860.4056      7.1947     99.0630
   159.2500      0.0000    855.8408      7.1070     98.8516
   159.5000      0.0000    850.3808      7.0566     97.6406
   159.7500      0.0000    846.0898      7.0392     96.3874
   160.0000      0.0000    843.7234      7.0285     95.5414
   160.2500      0.0000    843.3017      6.9987     94.8375
   160.5000      0.0000    844.7739      6.9476     94.1610
   160.7500      0.0000    847.9658      6.8920     93.8779
   161.0000      0.0000    852.1006      6.8434     94.3043
   161.2500      0.0000    855.7113      6.8005     95.3704
   161.5000      0.0000    857.3132      6.7553     96.8295
   161.7500      0.0000    856.2797      6.6942     98.3939
   162.0000      0.0000    853.0910      6.6012     99.6797
   162.2500      0.0000    848.6948      6.4757    100.3210
   162.5000      0.0000    843.4460      6.3412    100.1708
   162.7500      0.0000    836.6320      6.2353     99.3068
   163.0000      0.0000    827.2891      6.1939     97.9765
   163.2500      0.0000    815.6818      6.2323     96.5837
   163.5000      0.0000    803.7452      6.3297     95.4669
   163.7500      0.0000    793.9418      6.4391     94.5148
