~Version Information
VERS.                      2.0: CWLS Log ASCII Standard - VERSION 2.0
WRAP.                       NO: One line per depth step
~Well Information Block
STRT.FT               298.0000: 
STOP.FT              1302.0000: 
STEP.FT                 0.1000: 
NULL.                -999.2500: 
COMP.          Pioneer Natural Resources: COMPANY
WELL.          Bouncer 41-27 Tr: WELL
FLD.           Purgatoire River: FIELD
LOC.           292' FNL & 222' FEL: LOCATION
PROV.                 Colorado: PROVINCE
CNTY.               Las Animas: COUNTRY
SRVC.                Patterson: SERVICE COMPANY
DATE.          Mon Feb 07 12:55:19 2005: LOG DATE
UWI.           05 071 08291 00: UNIQUE WELL ID
~Curve Information Block
DEPT.FT            0 000 00 00: Depth
DCAL.in                       : CDL Caliper
RHOB.g/cc                     : CDL Bulk Density
RHOC.g/cc                     : CDL Density Correction
DPOR.pu                       : CDL Density Porosity
GR.GAPI                       : Gamma Ray
NPOR.pu                       : Neutron Porosity
~Parameter Information Block
~A  Depth       DCAL        RHOB        RHOC        DPOR         GR         NPOR    
# ...
   893.2000      7.9110      2.5901      0.2056      3.6323     77.5225     23.7557
   893.3000      7.8974      2.6164      0.1444      2.0337     78.3832     23.9829
   893.4000      7.8974      2.6277      0.1288      1.3509     81.7896     24.4359
   893.5000      7.8867      2.6215      0.1138      1.7245     90.2929     25.0348
   893.6000      7.8867      2.5948      0.1279      3.3440    102.1537     25.2727
   893.7000      7.8867      2.5653      0.0693      5.1327    112.8799     25.1903
   893.8000      7.8795      2.5573      0.0679      5.6181    118.7618     25.3390
   893.9000      7.8795      2.5657      0.0999      5.1091    120.2187     25.9925
   894.0000      7.8806      2.5701      0.0727      4.8441    122.3687     26.5631
   894.1000      7.8806      2.5676      0.0479      4.9920    129.5402     26.5507
   894.2000      7.8806      2.5610      0.0748      5.3939    139.6884     26.2600
   894.3000      7.9047      2.5428      0.0792      6.4964    146.0651     26.1198
   894.4000      7.9047      2.5209      0.0748      7.8231    146.7477     26.3544
   894.5000      7.9507      2.5158      0.0942      8.1318    149.6809     26.9004
   894.6000      7.9507      2.5247      0.1078      7.5930    158.2527     27.5846
   894.7000      7.9507      2.5384      0.1058      6.7615    162.7982     28.0325
   894.8000      7.9237      2.5622      0.1439      5.3196    157.1872     27.9582
   894.9000      7.9237      2.5903      0.1690      3.6181    148.8260     27.6568
   895.0000      7.9082      2.5986      0.1650      3.1173    144.0815     27.4761
   895.1000      7.9082      2.5811      0.1311      4.1755    142.1409     27.2989
   895.2000      7.9082      2.5564      0.1162      5.6757    145.5907     26.9996
   895.3000      7.8982      2.5331      0.0966      7.0864    154.8792     27.1322
   895.4000      7.8982      2.5037      0.1321      8.8651    159.4820     27.8933
   895.5000      7.9115      2.4641      0.0448     11.2657    153.7093     28.4929
   895.6000      7.9115      2.4298     -0.0147     13.3475    148.5560     28.5379
   895.7000      7.9115      2.4210     -0.0068     13.8775    151.4860     28.3900
   895.8000      7.9127      2.4319      0.0723     13.2169    155.9615     28.4955
   895.9000      7.9127      2.4428      0.0114     12.5597    157.4685     28.8970
   896.0000      7.9420      2.4529      0.0420     11.9479    157.1099     29.3845
   896.1000      7.9420      2.4712      0.0805     10.8363    152.4998     29.7374
   896.2000      7.9420      2.4910      0.1345      9.6364    144.2074     30.1036
   896.3000      7.9689      2.4991      0.1230      9.1429    137.6133     30.6559
   896.4000      7.9689      2.5012      0.1358      9.0190    132.7402     30.9689
   896.5000      7.9952      2.5118      0.1586      8.3766    129.3859     30.5552
   896.6000      7.9952      2.5411      0.1143      6.5982    128.6074     29.6455
   896.7000      7.9952      2.5863      0.2141      3.8596    126.7031     28.9201
   896.8000      7.8897      2.6273      0.2227      1.3779    121.5163     28.6248
   896.9000      7.8897      2.6589      0.1860     -0.5384    115.6654     28.2242
   897.0000      7.8112      2.6878      0.1985     -2.2911    110.7208     27.3994
   897.1000      7.8112      2.7058      0.2207     -3.3805    106.9263     26.5733
   897.2000      7.8112      2.7032      0.2028     -3.2271    105.4711     25.9676
   897.3000      7.8092      2.6876      0.1535     -2.2777    106.2311     25.5442
   897.4000      7.8092      2.6750      0.1744     -1.5175    105.0731     25.3061
   897.5000      7.8594      2.6674      0.1522     -1.0550    102.8878     25.2044
   897.6000      7.8594      2.6481      0.1263      0.1151    105.6364     25.2520
   897.7000      7.8594      2.6081      0.0580      2.5415    110.9640     25.3835
   897.8000      7.8710      2.5738      0.0091      4.6191    113.3059     25.4366
   897.9000      7.8710      2.5744      0.0358      4.5821    114.4034     25.4658
   898.0000      7.8844      2.5939      0.0698      3.4006    118.3134     25.6675
   898.1000      7.8844      2.5977      0.0713      3.1709    123.8854     26.0107
   898.2000      7.8844      2.5763      0.0520      4.4659    125.9150     26.1310
   898.3000      7.8931      2.5376      0.0808      6.8119    125.8549     25.7451
   898.4000      7.8931      2.4868      0.0497      9.8887    127.9385     25.1749
   898.5000      7.8775      2.4354     -0.0170     13.0041    129.4066     24.9526
   898.6000      7.8775      2.3971      0.0012     15.3246    127.9682     24.9357
   898.7000      7.8775      2.3920     -0.0241     15.6383    125.3895     24.9808
   898.8000      7.8859      2.4426      0.0348     12.5727    123.1771     25.2451
   898.9000      7.8859      2.5369      0.1430      6.8557    122.8247     25.7089
   899.0000      7.8206      2.6330      0.1869      1.0297    124.6044     26.2408
   899.1000      7.8206      2.6937      0.2975     -2.6493    127.2197     26.7103
   899.2000      7.8206      2.7065      0.2734     -3.4253    129.5428     27.2710
   899.3000      7.7708      2.6902      0.2465     -2.4342    130.0970     27.5846
   899.4000      7.7708      2.6656      0.2229     -0.9460    128.4162     27.1203
   899.5000      7.7361      2.6409      0.1292      0.5504    127.5011     26.4798
   899.6000      7.7361      2.6265      0.0901      1.4241    128.0719     26.2663
   899.7000      7.7361      2.6313      0.0791      1.1342    128.8817     26.1949
   899.8000      7.7315      2.6496      0.0596      0.0233    130.8179     26.1763
   899.9000      7.7315      2.6631      0.1675     -0.7932    133.6484     26.4103
   900.0000      7.8960      2.6543      0.0771     -0.2627    134.4360     26.8184
   900.1000      7.8960      2.6262      0.0599      1.4408    130.9692     27.3485
   900.2000      7.8960      2.5960      0.0680      3.2751    127.0096     27.8849
   900.3000      7.9406      2.5727      0.0824      4.6875    128.0738     27.9163
   900.4000      7.9406      2.5549      0.0792      5.7624    135.4555     27.2694
   900.5000      7.9443      2.5396      0.0738      6.6914    145.6896     26.4727
   900.6000      7.9443      2.5268      0.0272      7.4647    152.7216     26.0124
   900.7000      7.9443      2.5206      0.0026      7.8420    153.9111     26.0296
   900.8000      7.9282      2.5231      0.0118      7.6923    153.4989     26.4134
   900.9000      7.9282      2.5265      0.1007      7.4851    158.4345     26.8816
   901.0000      7.9189      2.5237      0.0434      7.6575    168.2479     27.2499
   901.1000      7.9189      2.5214      0.0926      7.7936    176.5840     27.5018
   901.2000      7.9189      2.5278      0.0547      7.4067    179.4176     27.3522
   901.3000      7.9242      2.5478      0.0661      6.1943    179.0481     26.8964
   901.4000      7.9242      2.5654      0.1809      5.1278    178.0296     26.7649
   901.5000      7.9085      2.5534      0.0913      5.8531    174.4664     27.1574
   901.6000      7.9085      2.5271      0.0097      7.4470    172.0375     27.6318
   901.7000      7.9085      2.5175      0.0486      8.0285    175.3694     27.6414
   901.8000      7.9161      2.5167      0.0446      8.0803    177.2383     27.4491
   901.9000      7.9161      2.5068      0.0270      8.6814    169.0880     27.6579
   902.0000      7.9513      2.5004      0.0190      9.0690    156.7963     27.9723
   902.1000      7.9513      2.5142      0.0100      8.2283    150.5839     28.0514
   902.2000      7.9513      2.5398      0.0782      6.6791    148.8900     28.1181
   902.3000      7.9414      2.5617      0.0762      5.3503    146.9793     28.1355
   902.4000      7.9414      2.5796      0.0914      4.2683    146.7058     28.1443
   902.5000      7.9248      2.5905      0.1310      3.6033    150.4526     28.3175
   902.6000      7.9248      2.5894      0.0590      3.6701    157.7574     28.5503
   902.7000      7.9248      2.5847      0.0562      3.9573    162.2932     28.6808
