~Version Information
VERS.                      2.0: CWLS Log ASCII Standard - VERSION 2.0
WRAP.                       NO: One line per depth step
~Well Information Block
STRT.FT                -6.7500: 
STOP.FT              2058.2500: 
STEP.FT                 0.2500: 
NULL.                -999.2500: 
COMP.          Petrogulf Corporation: COMPANY
WELL.           Schedler 9-23R: WELL
FLD.           Purgatorie River: FIELD
LOC.           2084' FSL & 2331' FWL--: LOCATION
PROV.                       CO: PROVINCE
CNTY.               Las Animas: COUNTRY
SRVC.                         : SERVICE COMPANY
DATE.          Fri Nov 12 13:22:46 2004: LOG DATE
UWI.       005 071 08040 : UNIQUE WELL ID
~Curve Information Block
DEPT.FT            0 000 00 00: Depth
GR.GAPI                       : Gamma Ray
CCL.                          : Casing Collar Locator
TT3.usec                      : CBL 3' Travel Time
AMP3.mV                       : CBL 3' Amplitude
~Parameter Information Block
~A  Depth        GR         CCL         TT3         AMP3    
# ...
  1232.7500    149.2792      0.0000    731.3120      6.4996
  1233.0000    151.4562      0.0000    743.6653      5.7577
  1233.2500    153.9321      0.0000    761.4852      4.9548
  1233.5000    154.5563      0.0000    785.7777      4.1497
  1233.7500    150.8399      0.0000    814.7291      3.3974
  1234.0000    141.4353      0.0000    842.8351      2.7447
  1234.2500    126.9010      0.0000    863.4433      2.2332
  1234.5000    109.7682      0.0000    872.5717      1.8886
  1234.7500     94.0454      0.0000    870.5547      1.7015
  1235.0000     83.8656      0.0000    860.9204      1.6326
  1235.2500     81.6791      0.0000    848.1597      1.6446
  1235.5000     87.0984      0.0000    835.4940      1.7185
  1235.7500     97.0166      0.0000    822.8802      1.8371
  1236.0000    107.0920      0.0000    807.2602      1.9694
  1236.2500    114.0559      0.0000    787.2415      2.0895
  1236.5000    117.3678      0.0000    767.8420      2.2066
  1236.7500    118.7285      0.0000    757.5165      2.3601
  1237.0000    120.0578      0.0000    759.6593      2.5792
  1237.2500    122.0524      0.0000    769.4390      2.8508
  1237.5000    124.3538      0.0000    779.1193      3.1297
  1237.7500    126.6155      0.0000    784.2048      3.3736
  1238.0000    129.2189      0.0000    784.6329      3.5732
  1238.2500    133.0361      0.0000    782.7009      3.7623
  1238.5000    138.5381      0.0000    780.7322      4.0046
  1238.7500    145.0585      0.0000    779.4397      4.3584
  1239.0000    150.7281      0.0000    777.7057      4.8425
  1239.2500    153.4060      0.0000    774.1444      5.4314
  1239.5000    152.4397      0.0000    768.8542      6.0763
  1239.7500    149.6254      0.0000    763.3776      6.7195
  1240.0000    147.7982      0.0000    759.2558      7.2875
  1240.2500    148.2830      0.0000    757.0171      7.6871
  1240.5000    150.0937      0.0000    756.4573      7.8278
  1240.7500    151.3524      0.0000    757.4736      7.6606
  1241.0000    150.9188      0.0000    760.8373      7.1918
  1241.2500    148.8356      0.0000    768.8097      6.4642
  1241.5000    145.7558      0.0000    784.6100      5.5463
  1241.7500    141.7885      0.0000    809.2975      4.5420
  1242.0000    135.7083      0.0000    837.6856      3.5808
  1242.2500    125.6525      0.0000    858.7664      2.7704
  1242.5000    110.9328      0.0000    862.6841      2.1571
  1242.7500     93.2873      0.0000    848.3629      1.7328
  1243.0000     76.3369      0.0000    823.9064      1.4640
  1243.2500     63.5318      0.0000    798.8701      1.3118
  1243.5000     56.1323      0.0000    776.1262      1.2355
  1243.7500     52.8375      0.0000    752.2433      1.2021
  1244.0000     51.2021      0.0000    725.4841      1.2003
  1244.2500     49.4682      0.0000    700.8382      1.2453
  1244.5000     47.3945      0.0000    686.2360      1.3595
  1244.7500     45.9558      0.0000    685.5645      1.5450
  1245.0000     46.4404      0.0000    696.1401      1.7779
  1245.2500     49.3385      0.0000    711.5593      2.0235
  1245.5000     53.6772      0.0000    726.5363      2.2498
  1245.7500     57.5479      0.0000    739.5574      2.4286
  1246.0000     59.4277      0.0000    751.8813      2.5434
  1246.2500     58.9359      0.0000    765.9330      2.6059
  1246.5000     56.5275      0.0000    785.0651      2.6545
  1246.7500     52.9139      0.0000    811.8807      2.7320
  1247.0000     49.0002      0.0000    844.4043      2.8564
  1247.2500     46.1379      0.0000    875.5842      2.9994
  1247.5000     45.8389      2.0000    898.3206      3.0903
  1247.7500     48.6690     -1.9287    910.1295      3.0610
  1248.0000     53.2934      0.0000    912.4650      2.8968
  1248.2500     57.1794      0.0000    907.4656      2.6438
  1248.5000     58.8429      0.0000    897.1056      2.3817
  1248.7500     59.4034      0.0000    884.5335      2.1940
  1249.0000     61.6885      0.0000    873.6296      2.1377
  1249.2500     67.8537      0.0000    865.7670      2.2108
  1249.5000     77.7799      0.0000    858.4146      2.3587
  1249.7500     89.3412      0.0000    848.5110      2.5377
  1250.0000     99.9177      0.0000    837.0056      2.7710
  1250.2500    107.9891      0.0000    829.4949      3.1271
  1250.5000    113.7973      0.0000    832.1837      3.6459
  1250.7500    118.7105      0.0000    846.2787      4.3057
  1251.0000    124.0763      0.0000    865.5807      5.0675
  1251.2500    130.7052      0.0000    880.0331      5.9242
  1251.5000    138.7584      0.0000    882.8541      6.8866
  1251.7500    147.3574      0.0000    875.6732      7.9322
  1252.0000    154.5673      0.0000    867.4096      8.9808
  1252.2500    158.5099      0.0000    867.0094      9.9152
  1252.5000    158.6657      0.0000    875.6957     10.6226
  1252.7500    156.1563      0.0000    885.7303     11.0357
  1253.0000    152.9239      0.0000    886.5263     11.1509
  1253.2500    150.5411      0.0000    872.1627     11.0192
  1253.5000    149.7044      0.0000    845.0255     10.7205
  1253.7500    150.7520      0.0000    813.9747     10.3295
  1254.0000    154.1778      0.0000    788.4943      9.8786
  1254.2500    159.9658      0.0000    773.4301      9.3466
  1254.5000    166.3306      0.0000    768.3969      8.6951
  1254.7500    169.8107      0.0000    770.5220      7.9184
  1255.0000    167.2103      0.0000    776.8873      7.0603
  1255.2500    157.3372      0.0000    785.7723      6.1941
  1255.5000    141.0823      0.0000    797.2588      5.3980
  1255.7500    120.9628      0.0000    812.7133      4.7353
  1256.0000    100.9054      0.0000    832.9929      4.2357
  1256.2500     85.0777      0.0000    856.6755      3.8882
  1256.5000     75.6013      0.0000    879.9966      3.6560
  1256.7500     71.4262      0.0000    898.7998      3.5060
  1257.0000     69.7471      0.0000    910.9554      3.4283
  1257.2500     68.3688      0.0000    916.9595      3.4330
  1257.5000     66.8171      0.0000    918.3326      3.5265
  1257.7500     65.7703      0.0000    915.5784      3.6862
  1258.0000     65.8025      0.0000    907.7023      3.8524
  1258.2500     66.5808      0.0000    894.1883      3.9504
  1258.5000     67.0714      0.0000    878.1688      3.9363
  1258.7500     66.2792      0.0000    866.8684      3.8288
  1259.0000     63.6730      0.0000    866.7648      3.6889
  1259.2500     59.2737      0.0000    877.4186      3.5628
  1259.5000     53.8904      0.0000    891.0461      3.4486
  1259.7500     49.1589      0.0000    898.0759      3.3156
  1260.0000     46.8102      0.0000    892.8711      3.1407
  1260.2500     47.7695      0.0000    876.4077      2.9239
  1260.5000     51.8820      0.0000    855.8951      2.6839
  1260.7500     58.1139      0.0000    839.6251      2.4469
  1261.0000     64.9499      0.0000    828.6132      2.2342
  1261.2500     71.1331      0.0000    814.6250      2.0552
  1261.5000     76.3440      0.0000    789.9095      1.9094
  1261.7500     80.9233      0.0000    757.9053      1.7956
  1262.0000     84.9814      0.0000    731.3444      1.7216
  1262.2500     88.3351      0.0000    720.5043      1.7069
  1262.5000     91.3526      0.0000    725.5585      1.7777
  1262.7500     95.2123      0.0000    739.1876      1.9530
  1263.0000    101.0537      0.0000    753.3489      2.2302
  1263.2500    109.1302      0.0000    763.2933      2.5822
  1263.5000    118.5470      0.0000    768.4321      2.9734
  1263.7500    127.3564      0.0000    771.8950      3.3884
  1264.0000    133.2366      0.0000    778.3886      3.8475
  1264.2500    135.0017      0.0000    790.0071      4.3890
  1264.5000    133.7554      0.0000    803.2084      5.0284
  1264.7500    132.1363      0.0000    810.8181      5.7332
  1265.0000    132.1693      0.0000    808.0280      6.4384
  1265.2500    134.0242      0.0000    796.3289      7.0860
  1265.5000    136.5964      0.0000    781.5983      7.6542
  1265.7500    138.6560      0.0000    769.2542      8.1614
  1266.0000    139.5809      0.0000    761.4650      8.6504
