~Version Information
VERS.                      2.0: CWLS Log ASCII Standard - VERSION 2.0
WRAP.                       NO: One line per depth step
~Well Information Block
STRT.FT               238.0000: 
STOP.FT              1377.0000: 
STEP.FT                 0.1000: 
NULL.                -999.2500: 
COMP.          Pioneer Natural Resources: COMPANY
WELL.             Raptor 44-26: WELL
FLD.           Purgatoire River: FIELD
LOC.           180' FSL & 812' FEL: LOCATION
PROV.                 Colorado: PROVINCE
CNTY.               Las Animas: COUNTRY
SRVC.                Patterson: SERVICE COMPANY
DATE.          Tue Mar 22 15:28:33 2005: LOG DATE
UWI.           05 071 08187 00: UNIQUE WELL ID
~Curve Information Block
DEPT.FT            0 000 00 00: Depth
DCAL.in                       : CDL Caliper
RHOB.g/cc                     : CDL Bulk Density
RHOC.g/cc                     : CDL Density Correction
DPOR.pu                       : CDL Density Porosity
GR.GAPI                       : Gamma Ray
NPOR.pu                       : Neutron Porosity
~Parameter Information Block
~A  Depth       DCAL        RHOB        RHOC        DPOR         GR         NPOR    
# ...
  1207.6000      7.7654      2.5594      0.0716      5.4910     85.0798     15.6955
  1207.7000      7.7654      2.5586      0.0485      5.5396     81.1831     15.5009
  1207.8000      7.7558      2.5304      0.0475      7.2457     84.4595     15.9754
  1207.9000      7.7558      2.5031      0.0008      8.9039     91.2112     16.3581
  1208.0000      7.7485      2.5076      0.0211      8.6294     93.2594     16.6031
  1208.1000      7.7485      2.5414      0.0252      6.5793     91.3421     17.1587
  1208.2000      7.7485      2.5675      0.1060      4.9993     90.5307     17.4350
  1208.3000      7.7620      2.5624      0.0665      5.3092     90.9773     17.1772
  1208.4000      7.7620      2.5439      0.0373      6.4274     90.2591     17.3237
  1208.5000      7.7502      2.5302      0.0639      7.2587     88.4546     18.2467
  1208.6000      7.7502      2.5205      0.0295      7.8475     86.4590     19.3420
  1208.7000      7.7502      2.5121      0.0550      8.3556     82.7488     19.8831
  1208.8000      7.7659      2.5061     -0.0076      8.7238     78.4346     19.7107
  1208.9000      7.7659      2.5150     -0.0035      8.1829     78.3867     19.4212
  1209.0000      7.7502      2.5417      0.0553      6.5613     82.8063     19.3400
  1209.1000      7.7502      2.5584      0.0664      5.5493     87.4423     18.9823
  1209.2000      7.7502      2.5478      0.0092      6.1965     88.6034     18.4131
  1209.3000      7.7663      2.5261      0.0568      7.5081     87.4118     18.2490
  1209.4000      7.7663      2.5134      0.0198      8.2787     87.4789     18.2704
  1209.5000      7.8115      2.5187      0.0769      7.9553     87.9207     18.0707
  1209.6000      7.8115      2.5398      0.0420      6.6769     85.6487     17.4387
  1209.7000      7.8115      2.5655      0.0794      5.1212     81.1535     16.2013
  1209.8000      7.7936      2.5802      0.0654      4.2329     77.1063     14.9909
  1209.9000      7.7936      2.5741      0.0451      4.5985     73.9958     15.0454
  1210.0000      7.7867      2.5543      0.0253      5.8025     72.2383     16.6366
  1210.1000      7.7867      2.5443      0.0331      6.4065     74.0283     18.4538
  1210.2000      7.7867      2.5555      0.0950      5.7272     80.5294     19.3270
  1210.3000      7.8107      2.5619      0.1016      5.3382     88.6936     19.2429
  1210.4000      7.8107      2.5456      0.0626      6.3292     93.5659     18.5075
  1210.5000      7.7634      2.5243      0.0181      7.6170     94.8248     17.8616
  1210.6000      7.7634      2.5168      0.0479      8.0724     95.2716     18.0569
  1210.7000      7.7634      2.5244      0.0114      7.6111     95.0737     18.8219
  1210.8000      7.7944      2.5388      0.0440      6.7371     93.7909     19.4233
  1210.9000      7.7944      2.5460      0.0705      6.3057     92.1071     19.5430
  1211.0000      7.8089      2.5349      0.0492      6.9774     92.2565     19.0757
  1211.1000      7.8089      2.5088      0.0425      8.5593     95.8638     18.1875
  1211.2000      7.8089      2.4905     -0.0051      9.6685     98.9224     17.4876
  1211.3000      7.8178      2.4986      0.0458      9.1752     96.7202     17.4741
  1211.4000      7.8178      2.5219      0.0767      7.7622     89.7407     17.3509
  1211.5000      7.8057      2.5364      0.0985      6.8851     83.9619     16.4550
  1211.6000      7.8057      2.5371      0.0034      6.8423     85.0081     16.0455
  1211.7000      7.8057      2.5426      0.0711      6.5102     88.8345     16.7895
  1211.8000      7.8047      2.5651      0.0314      5.1431     88.7090     17.5874
  1211.9000      7.8047      2.5950      0.0738      3.3351     85.3795     17.8277
  1212.0000      7.8089      2.6106      0.1271      2.3861     82.5436     18.0494
  1212.1000      7.8089      2.6015      0.1103      2.9417     80.7279     18.6518
  1212.2000      7.8089      2.5757      0.0864      4.5058     79.5263     18.8996
  1212.3000      7.7922      2.5526      0.0278      5.9013     76.8368     18.4152
  1212.4000      7.7922      2.5380      0.0734      6.7905     70.9231     18.0484
  1212.5000      7.7762      2.5218      0.0272      7.7692     65.5234     18.3251
  1212.6000      7.7762      2.5128      0.0335      8.3139     64.3310     18.7005
  1212.7000      7.7762      2.5211      0.0362      7.8139     66.0669     18.2674
  1212.8000      7.7867      2.5421      0.0233      6.5389     69.8206     16.9224
  1212.9000      7.7867      2.5724      0.0725      4.7028     74.5918     15.4729
  1213.0000      7.7994      2.6031      0.1279      2.8431     76.8676     14.9024
  1213.1000      7.7994      2.6182      0.1668      1.9258     75.0574     15.4159
  1213.2000      7.7994      2.6156      0.1125      2.0875     71.4198     16.3432
  1213.3000      7.7978      2.6123      0.1070      2.2855     69.8286     16.8707
  1213.4000      7.7978      2.6163      0.0781      2.0450     72.2144     16.8632
  1213.5000      7.7427      2.6164      0.1500      2.0343     75.6829     17.0866
  1213.6000      7.7427      2.6140      0.0680      2.1841     76.4059     17.9494
  1213.7000      7.7427      2.6257      0.0878      1.4732     75.6441     18.6766
  1213.8000      7.7507      2.6397      0.1311      0.6236     77.6872     18.8364
  1213.9000      7.7507      2.6259      0.1230      1.4624     82.5076     18.8907
  1214.0000      7.7626      2.5874      0.0625      3.7920     85.6255     18.7462
  1214.1000      7.7626      2.5534      0.0908      5.8552     86.0476     18.2089
  1214.2000      7.7626      2.5383      0.0602      6.7723     86.3073     17.7968
  1214.3000      7.7616      2.5444      0.0228      6.4024     87.6388     17.8489
  1214.4000      7.7616      2.5696      0.0853      4.8753     91.5390     18.1095
  1214.5000      7.7790      2.5908      0.1526      3.5882     99.9226     18.4351
  1214.6000      7.7790      2.5869      0.0619      3.8227    107.3982     18.8946
  1214.7000      7.7790      2.5695      0.0566      4.8811    106.7866     19.1383
  1214.8000      7.7818      2.5588      0.0436      5.5268     99.6132     18.7369
  1214.9000      7.7818      2.5560      0.0959      5.6941     90.6642     17.9691
  1215.0000      7.7722      2.5507      0.0625      6.0211     83.8428     17.3569
  1215.1000      7.7722      2.5366      0.0886      6.8744     81.7085     17.0900
  1215.2000      7.7722      2.5171      0.0430      8.0552     81.6301     16.9552
  1215.3000      7.7813      2.5020      0.0442      8.9670     80.7432     16.8187
  1215.4000      7.7813      2.4953      0.0627      9.3760     79.0789     16.8265
  1215.5000      7.7754      2.4943      0.0535      9.4341     76.8629     16.8964
  1215.6000      7.7754      2.4906      0.0710      9.6618     75.0623     16.4916
  1215.7000      7.7754      2.4782     -0.0079     10.4101     73.6687     15.2504
  1215.8000      7.7893      2.4681     -0.0456     11.0221     73.8662     14.1797
  1215.9000      7.7893      2.4674      0.0156     11.0644     77.4419     14.1956
  1216.0000      7.7922      2.4654      0.0313     11.1904     79.4934     14.7950
  1216.1000      7.7922      2.4557      0.0391     11.7772     76.0625     15.6211
  1216.2000      7.7922      2.4461      0.0602     12.3589     72.4745     16.6092
  1216.3000      7.7801      2.4438      0.0237     12.4955     73.1369     17.0221
  1216.4000      7.7801      2.4492      0.0203     12.1691     74.7110     16.4632
  1216.5000      7.7721      2.4612     -0.0096     11.4402     74.4742     15.5111
  1216.6000      7.7721      2.4750      0.0539     10.6086     72.6401     14.9261
  1216.7000      7.7721      2.4747      0.0622     10.6222     69.7591     14.9427
  1216.8000      7.7662      2.4587      0.0196     11.5919     69.8957     15.3100
  1216.9000      7.7662      2.4524      0.0206     11.9778     75.7009     15.7552
  1217.0000      7.7667      2.4723      0.0051     10.7690     81.7818     15.9596
  1217.1000      7.7667      2.5035      0.0870      8.8804     83.4635     15.9350
