~Version Information
VERS.                      2.0: CWLS Log ASCII Standard - VERSION 2.0
WRAP.                       NO: One line per depth step
~Well Information Block
STRT.FT               580.0000: 
STOP.FT              1756.0000: 
STEP.FT                 0.1000: 
NULL.                -999.2500: 
COMP.          Pioneer Natural Resources: COMPANY
WELL.          Lookout Point 31-23 Tr: WELL
FLD.           Purgatoire River: FIELD
LOC.           541' FNL & 1768' FEL: LOCATION
PROV.                 Colorado: PROVINCE
CNTY.               Las Animas: COUNTRY
SRVC.                Patterson: SERVICE COMPANY
DATE.          Mon Jan 24 07:20:20 2005: LOG DATE
UWI.           05 071 08260 00: UNIQUE WELL ID
~Curve Information Block
DEPT.FT            0 000 00 00: Depth
DCAL.in                       : CDL Caliper
DPOR.pu                       : CDL Density Porosity
GR.GAPI                       : Gamma Ray
NPOR.pu                       : Neutron Porosity
RHOB.g/cc                     : CDL Bulk Density
RHOC.g/cc                     : CDL Density Correction
~Parameter Information Block
~A  Depth       DCAL        DPOR         GR         NPOR        RHOB        RHOC    
# ...
   964.0000      7.9709      0.2130     85.9650     25.8786      2.6465      0.0943
   964.1000      7.9709     -0.0494     82.4508     26.3776      2.6508      0.0762
   964.2000      7.9709     -0.3255     80.6342     26.5253      2.6554      0.0860
   964.3000      7.9703     -0.8740     83.6369     26.4800      2.6644      0.0654
   964.4000      7.9703     -1.5002     87.3969     26.6474      2.6748      0.1056
   964.5000      7.9675     -1.1690     85.8376     26.9432      2.6693      0.1089
   964.6000      7.9675      0.6348     82.8007     26.8042      2.6395      0.0813
   964.7000      7.9675      2.5730     82.5022     26.3369      2.6075      0.0136
   964.8000      7.9653      2.4784     81.6458     26.1968      2.6091      0.0286
   964.9000      7.9653      0.2074     79.0463     25.8878      2.6466      0.0670
   965.0000      7.9634     -1.9508     76.5389     24.9111      2.6822      0.0966
   965.1000      7.9634     -2.5470     75.6387     24.0968      2.6920      0.0642
   965.2000      7.9634     -2.4357     77.4702     24.1458      2.6902      0.0676
   965.3000      7.9619     -2.4079     79.8099     24.9762      2.6897      0.0538
   965.4000      7.9619     -2.3162     79.0960     26.0215      2.6882      0.0352
   965.5000      7.9608     -2.3385     76.7210     26.5529      2.6886      0.0530
   965.6000      7.9608     -2.9766     76.4972     26.4285      2.6991      0.0252
   965.7000      7.9608     -4.1961     78.6186     26.1219      2.7192      0.0593
   965.8000      7.9579     -5.6019     81.5169     25.9624      2.7424      0.0667
   965.9000      7.9579     -7.0619     83.6405     26.0519      2.7665      0.1238
   966.0000      7.9594     -8.7042     84.0655     26.2662      2.7936      0.0902
   966.1000      7.9594    -10.3635     83.7621     26.2767      2.8210      0.1248
   966.2000      7.9594    -11.0137     84.1509     26.0570      2.8317      0.1749
   966.3000      7.9643    -10.2704     81.6053     25.6873      2.8195      0.0974
   966.4000      7.9643     -9.0896     74.0256     25.1045      2.8000      0.0993
   966.5000      7.9693     -7.9867     68.4180     24.6379      2.7818      0.0691
   966.6000      7.9693     -6.9593     69.0146     24.6902      2.7648      0.0501
   966.7000      7.9693     -5.8319     70.6220     25.2714      2.7462      0.0377
   966.8000      7.9712     -4.3956     70.4942     26.0650      2.7225      0.0091
   966.9000      7.9712     -2.8814     73.3331     26.5945      2.6975      0.0203
   967.0000      7.9698     -1.6341     79.2400     26.5643      2.6770      0.0183
   967.1000      7.9698     -1.0170     81.4867     26.2657      2.6668      0.0391
   967.2000      7.9698     -1.1011     79.8554     26.0960      2.6682      0.0503
   967.3000      7.9678     -0.9461     82.0456     26.0892      2.6656      0.0836
   967.4000      7.9678      0.4468     87.7898     26.1913      2.6426      0.0147
   967.5000      7.9638      2.8519     88.8143     26.4512      2.6029      0.0340
   967.6000      7.9638      5.2902     84.6484     26.8852      2.5627     -0.0416
   967.7000      7.9638      6.8531     80.3504     27.2422      2.5369     -0.0336
   967.8000      7.9586      7.4376     77.1492     27.3141      2.5273     -0.0148
   967.9000      7.9586      7.3345     77.0412     27.2123      2.5290     -0.0182
   968.0000      7.9567      6.3131     81.3518     27.0598      2.5458     -0.0297
   968.1000      7.9567      4.5006     85.7916     27.1536      2.5757      0.0624
   968.2000      7.9567      2.9972     87.3831     27.8317      2.6005      0.0504
   968.3000      7.9583      2.1383     87.3171     28.4259      2.6147      0.0242
   968.4000      7.9583      1.0011     85.8185     28.1634      2.6335      0.0113
   968.5000      7.9616     -0.7516     83.2871     27.3313      2.6624      0.0622
   968.6000      7.9616     -2.4231     80.6092     26.4645      2.6900      0.0832
   968.7000      7.9616     -3.4083     78.2537     25.9195      2.7062      0.1177
   968.8000      7.9655     -3.7006     78.5693     25.7244      2.7111      0.1026
   968.9000      7.9655     -4.3438     80.8085     25.5331      2.7217      0.0255
   969.0000      7.9668     -6.0124     79.9775     25.3308      2.7492      0.0730
   969.1000      7.9668     -7.3721     76.8432     25.4376      2.7716      0.1159
   969.2000      7.9668     -6.6735     76.3746     26.0453      2.7601      0.0942
   969.3000      7.9663     -4.0363     78.7603     26.8855      2.7166      0.0354
   969.4000      7.9663     -1.5401     79.7087     27.1253      2.6754      0.0089
   969.5000      7.9668     -0.5191     77.5499     26.4627      2.6586      0.0642
   969.6000      7.9668     -0.0251     76.4158     25.7772      2.6504      0.0255
   969.7000      7.9668      0.8846     77.2077     25.9633      2.6354      0.0088
   969.8000      7.9661      1.9893     76.2615     26.6455      2.6172      0.0012
   969.9000      7.9661      2.9536     75.7897     27.0324      2.6013      0.0252
   970.0000      7.9621      3.8798     81.2243     27.3777      2.5860      0.0592
   970.1000      7.9621      4.8546     88.0584     27.9228      2.5699      0.0044
   970.2000      7.9621      5.6543     88.3041     28.0869      2.5567      0.0742
   970.3000      7.9595      5.8552     84.7164     27.6694      2.5534      0.0085
   970.4000      7.9595      5.0187     84.5434     27.2504      2.5672      0.0310
   970.5000      7.9605      3.4980     87.3959     27.1344      2.5923      0.0766
   970.6000      7.9605      2.0099     87.7639     27.4505      2.6168      0.0940
   970.7000      7.9605      1.2558     83.8501     28.1998      2.6293      0.1259
   970.8000      7.9657      1.7835     80.6903     28.8113      2.6206      0.1366
   970.9000      7.9657      2.9501     80.9177     28.7516      2.6013      0.0673
   971.0000      7.9771      3.3435     81.0494     27.8620      2.5948      0.0635
   971.1000      7.9771      2.4789     79.8484     26.3463      2.6091      0.0307
   971.2000      7.9771      0.8031     80.4041     25.3435      2.6367      0.0858
   971.3000      7.9847     -0.7649     83.9740     25.6765      2.6626      0.1074
   971.4000      7.9847     -1.3425     86.0303     26.6936      2.6722      0.0917
   971.5000      7.9746     -1.1367     82.5776     27.5049      2.6688      0.0532
   971.6000      7.9746     -1.0528     77.2131     27.7746      2.6674      0.0900
   971.7000      7.9746     -1.3942     76.2129     27.4260      2.6730      0.1161
   971.8000      7.9615     -1.6200     78.5613     27.0367      2.6767      0.1174
   971.9000      7.9615     -0.7673     78.8231     27.1736      2.6627      0.1221
   972.0000      7.9551      0.7314     78.5224     27.3985      2.6379      0.0406
   972.1000      7.9551      0.6009     81.2440     27.1294      2.6401      0.0091
   972.2000      7.9551     -1.0071     85.6327     26.5164      2.6666      0.0724
   972.3000      7.9536     -1.2173     88.3287     26.3408      2.6701      0.0715
   972.4000      7.9536      0.2792     86.1995     26.6216      2.6454      0.0476
   972.5000      7.9557      1.2926     78.7819     26.5807      2.6287      0.0605
   972.6000      7.9557      1.1281     71.4300     26.0232      2.6314      0.0881
   972.7000      7.9557      0.7428     69.1824     25.5482      2.6377      0.0880
   972.8000      7.9582      0.6808     70.1912     25.4293      2.6388      0.0720
   972.9000      7.9582      0.7248     70.6648     25.2726      2.6380      0.0485
   973.0000      7.9583      0.8147     69.4222     24.7134      2.6366      0.0821
   973.1000      7.9583      1.4679     68.5857     24.0753      2.6258      0.0924
   973.2000      7.9583      2.4030     69.3645     23.9506      2.6104      0.0337
   973.3000      7.9589      2.5049     68.6871     24.2050      2.6087      0.0857
   973.4000      7.9589      1.8519     65.9362     23.9933      2.6194      0.0700
   973.5000      7.9620      1.3227     63.9788     22.9434      2.6282      0.1014
