~Version Information
VERS.                      2.0: CWLS Log ASCII Standard - VERSION 2.0
WRAP.                       NO: One line per depth step
~Well Information Block
STRT.FT               698.9000: 
STOP.FT              2459.5000: 
STEP.FT                 0.1000: 
NULL.                -999.2500: 
COMP.          Petrogulf Corporation: COMPANY
WELL.             State 16-23V: WELL
FLD.           Purgatorie River: FIELD
LOC.           2414' FSL & 2215' FWL: LOCATION
PROV.                 Colorado: PROVINCE
CNTY.               Las Animas: COUNTRY
SRVC.                         : SERVICE COMPANY
DATE.          Mon Jun 09 12:47:39 2003: LOG DATE
UWI.           05 071 07865 00: UNIQUE WELL ID
~Curve Information Block
DEPT.FT            0 000 00 00: Depth
SP.mV                         : DIL Spontaneous Potential
RILD.Ohm-m                    : DIL Deep Resistivity
RILM.Ohm-m                    : DIL Medium Resistivity
RLL3.Ohm-m                    : DIL Shallow Resistivity
GR.GAPI                       : Gamma Ray
~Parameter Information Block
~A  Depth        SP         RILD        RILM        RLL3         GR     
# ...
  1281.3000     11.6367     13.8013     11.8802     16.8823    142.9697
  1281.4000     11.6367     13.8013     11.8802     16.8823    144.6352
  1281.5000     11.5236     14.0513     12.0792     17.2713    146.1517
  1281.6000     11.5236     14.0513     12.0792     17.2713    147.4791
  1281.7000     11.5236     14.0513     12.0792     17.2713    148.5983
  1281.8000     11.3905     14.3051     12.2982     17.6050    149.5048
  1281.9000     11.3905     14.3051     12.2982     17.6050    150.2019
  1282.0000     11.2325     14.5819     12.5516     17.8951    150.6941
  1282.1000     11.2325     14.5819     12.5516     17.8951    150.9839
  1282.2000     11.2325     14.5819     12.5516     17.8951    151.0788
  1282.3000     11.0429     14.8892     12.8416     18.1748    150.9880
  1282.4000     11.0429     14.8892     12.8416     18.1748    150.7341
  1282.5000     10.8224     15.2219     13.1594     18.5124    150.3474
  1282.6000     10.8224     15.2219     13.1594     18.5124    149.8689
  1282.7000     10.8224     15.2219     13.1594     18.5124    149.3430
  1282.8000     10.5752     15.5706     13.4964     18.9724    148.8090
  1282.9000     10.5752     15.5706     13.4964     18.9724    148.2974
  1283.0000     10.3058     15.9271     13.8510     19.5557    147.8288
  1283.1000     10.3058     15.9271     13.8510     19.5557    147.4074
  1283.2000     10.3058     15.9271     13.8510     19.5557    147.0356
  1283.3000     10.0288     16.2904     14.2282     20.1671    146.7073
  1283.4000     10.0288     16.2904     14.2282     20.1671    146.4197
  1283.5000      9.7636     16.6736     14.6338     20.6832    146.1684
  1283.6000      9.7636     16.6736     14.6338     20.6832    145.9532
  1283.7000      9.7636     16.6736     14.6338     20.6832    145.7709
  1283.8000      9.5132     17.0999     15.0721     21.0920    145.6134
  1283.9000      9.5132     17.0999     15.0721     21.0920    145.4701
  1284.0000      9.2625     17.5904     15.5457     21.5264    145.3293
  1284.1000      9.2625     17.5904     15.5457     21.5264    145.1759
  1284.2000      9.2625     17.5904     15.5457     21.5264    145.0014
  1284.3000      8.9969     18.1558     16.0551     22.1527    144.8035
  1284.4000      8.9969     18.1558     16.0551     22.1527    144.5839
  1284.5000      8.7143     18.7891     16.5948     23.0502    144.3527
  1284.6000      8.7143     18.7891     16.5948     23.0502    144.1230
  1284.7000      8.7143     18.7891     16.5948     23.0502    143.9101
  1284.8000      8.4150     19.4615     17.1512     24.1507    143.7288
  1284.9000      8.4150     19.4615     17.1512     24.1507    143.5909
  1285.0000      8.0958     20.1357     17.7107     25.2703    143.5107
  1285.1000      8.0958     20.1357     17.7107     25.2703    143.5034
  1285.2000      8.0958     20.1357     17.7107     25.2703    143.5888
  1285.3000      7.7634     20.7911     18.2729     26.2371    143.7882
  1285.4000      7.7634     20.7911     18.2729     26.2371    144.1229
  1285.5000      7.4393     21.4269     18.8481     26.9794    144.6055
  1285.6000      7.4393     21.4269     18.8481     26.9794    145.2327
  1285.7000      7.4393     21.4269     18.8481     26.9794    145.9785
  1285.8000      7.1446     22.0300     19.4409     27.5171    146.7916
  1285.9000      7.1446     22.0300     19.4409     27.5171    147.6044
  1286.0000      6.8941     22.5475     20.0543     27.9734    148.3365
  1286.1000      6.8941     22.5475     20.0543     27.9734    148.9105
  1286.2000      6.8941     22.5475     20.0543     27.9734    149.2624
  1286.3000      6.6933     22.9009     20.7264     28.6521    149.3469
  1286.4000      6.6933     22.9009     20.7264     28.6521    149.1383
  1286.5000      6.5276     23.0391     21.5562     30.0656    148.6239
  1286.6000      6.5276     23.0391     21.5562     30.0656    147.7987
  1286.7000      6.5276     23.0391     21.5562     30.0656    146.6533
  1286.8000      6.3672     22.9852     22.6729     32.8935    145.1764
  1286.9000      6.3672     22.9852     22.6729     32.8935    143.3534
  1287.0000      6.1876     22.8369     24.1741     38.0221    141.1729
  1287.1000      6.1876     22.8369     24.1741     38.0221    138.6352
  1287.2000      6.1876     22.8369     24.1741     38.0221    135.7594
  1287.3000      5.9807     22.7375     26.0872     46.5404    132.5811
  1287.4000      5.9807     22.7375     26.0872     46.5404    129.1512
  1287.5000      5.7483     22.8570     28.3627     59.3042    125.5260
  1287.6000      5.7483     22.8570     28.3627     59.3042    121.7640
  1287.7000      5.7483     22.8570     28.3627     59.3042    117.9137
  1287.8000      5.5019     23.3663     30.8673     76.0004    114.0167
  1287.9000      5.5019     23.3663     30.8673     76.0004    110.1042
  1288.0000      5.2662     24.3755     33.3738     94.4341    106.2003
  1288.1000      5.2662     24.3755     33.3738     94.4341    102.3259
  1288.2000      5.2662     24.3755     33.3738     94.4341     98.5026
  1288.3000      5.0647     25.8531     35.6205    111.0828     94.7512
  1288.4000      5.0647     25.8531     35.6205    111.0828     91.0958
  1288.5000      4.9010     27.5970     37.4796    122.7072     87.5643
  1288.6000      4.9010     27.5970     37.4796    122.7072     84.1818
  1288.7000      4.9010     27.5970     37.4796    122.7072     80.9740
  1288.8000      4.7632     29.3318     39.1031    127.5678     77.9657
  1288.9000      4.7632     29.3318     39.1031    127.5678     75.1734
  1289.0000      4.6432     30.9025     40.8922    125.7740     72.6098
  1289.1000      4.6432     30.9025     40.8922    125.7740     70.2741
  1289.2000      4.6432     30.9025     40.8922    125.7740     68.1567
  1289.3000      4.5467     32.3833     43.3335    119.9042     66.2385
  1289.4000      4.5467     32.3833     43.3335    119.9042     64.4910
  1289.5000      4.4895     33.9675     46.8666    115.9161     62.8813
  1289.6000      4.4895     33.9675     46.8666    115.9161     61.3735
  1289.7000      4.4895     33.9675     46.8666    115.9161     59.9317
  1289.8000      4.4843     35.7229     51.8265    121.5850     58.5257
  1289.9000      4.4843     35.7229     51.8265    121.5850     57.1289
  1290.0000      4.5280     37.4001     58.3922    141.4195     55.7187
  1290.1000      4.5280     37.4001     58.3922    141.4195     54.2831
  1290.2000      4.5280     37.4001     58.3922    141.4195     52.8157
  1290.3000      4.6087     38.4835     66.4571    172.7500     51.3202
  1290.4000      4.6087     38.4835     66.4571    172.7500     49.8108
  1290.5000      4.7231     38.5725     75.3953    207.3325     48.3108
  1290.6000      4.7231     38.5725     75.3953    207.3325     46.8492
  1290.7000      4.7231     38.5725     75.3953    207.3325     45.4564
  1290.8000      4.8756     37.7791     83.8840    236.2493     44.1630
  1290.9000      4.8756     37.7791     83.8840    236.2493     42.9907
  1291.0000      5.0653     36.6218     90.2350    253.9149     41.9541
  1291.1000      5.0653     36.6218     90.2350    253.9149     41.0591
  1291.2000      5.0653     36.6218     90.2350    253.9149     40.3041
  1291.3000      5.2874     35.5385     93.3791    259.1401     39.6855
  1291.4000      5.2874     35.5385     93.3791    259.1401     39.2029
  1291.5000      5.5359     34.6010     93.4156    252.9005     38.8627
  1291.6000      5.5359     34.6010     93.4156    252.9005     38.6816
  1291.7000      5.5359     34.6010     93.4156    252.9005     38.6843
  1291.8000      5.8049     33.6263     90.8543    236.0771     38.9049
  1291.9000      5.8049     33.6263     90.8543    236.0771     39.3795
  1292.0000      6.0938     32.4640     85.7686    210.5392     40.1420
  1292.1000      6.0938     32.4640     85.7686    210.5392     41.2219
  1292.2000      6.0938     32.4640     85.7686    210.5392     42.6345
  1292.3000      6.4150     31.1424     78.1608    180.5945     44.3865
  1292.4000      6.4150     31.1424     78.1608    180.5945     46.4727
