~Version Information
VERS.                      2.0: CWLS Log ASCII Standard - VERSION 2.0
WRAP.                       NO: One line per depth step
~Well Information Block
STRT.FT                -6.7500: 
STOP.FT              1181.0000: 
STEP.FT                 0.2500: 
NULL.                -999.2500: 
COMP.          Pioneer Natural Resources: COMPANY
WELL.          Pacheco 33-27 Tr: WELL
FLD.           Purgatorie River: FIELD
LOC.           2251' FSL & 2342' FEL--: LOCATION
PROV.                       CO: PROVINCE
CNTY.               Las Animas: COUNTRY
SRVC.          Patterson Wireline: SERVICE COMPANY
DATE.          Wed Jun 15 10:58:02 2005: LOG DATE
UWI.           05 071 08384 00: UNIQUE WELL ID
~Curve Information Block
DEPT.FT            0 000 00 00: Depth
CCL.                          : Casing Collar Locator
TT3.usec                      : CBL 3' Travel Time
AMP3.mV                       : CBL 3' Amplitude
GR.GAPI                       : Gamma Ray
~Parameter Information Block
~A  Depth       CCL         TT3         AMP3         GR     
# ...
   227.7500      0.0000    755.3005     10.2341     66.8886
   228.0000      0.0000    764.2016     10.2299     66.3866
   228.2500      0.0000    766.2461     10.2716     66.3511
   228.5000      0.0000    759.6362     10.3618     65.8461
   228.7500      0.0000    747.8868     10.4699     64.6845
   229.0000      0.0000    736.9227     10.5433     63.2133
   229.2500      0.0000    730.9703     10.5379     61.9803
   229.5000      0.0000    730.9294     10.4445     61.3252
   229.7500      0.0000    735.3839     10.2901     61.1170
   230.0000      0.0000    742.5981     10.1210     61.0409
   230.2500      0.0000    751.8635      9.9825     61.1836
   230.5000      0.0000    762.6715      9.9061     62.0172
   230.7500      0.0000    772.3242      9.9069     63.5782
   231.0000      0.0000    775.6248      9.9876     64.9608
   231.2500      0.0000    768.6934     10.1380     65.1004
   231.5000      0.0000    752.9295     10.3227     63.9035
   231.7500      0.0000    734.0298     10.4860     62.2670
   232.0000      0.0000    716.9883     10.5855     61.0827
   232.2500      0.0000    702.8376     10.6140     60.4453
   232.5000      0.0000    690.0224     10.5771     59.8066
   232.7500      0.0000    677.8095     10.4692     58.6803
   233.0000      0.0000    667.4550     10.2995     57.0728
   233.2500      0.0000    660.3358     10.1271     55.4466
   233.5000      0.0000    656.3245     10.0384     54.4752
   233.7500      0.0000    654.8724     10.0766     54.7981
   234.0000      0.0000    656.9872     10.2041     56.7605
   234.2500      0.0000    664.6860     10.3412     60.1365
   234.5000      0.0000    678.1726     10.4358     64.0171
   234.7500      0.0000    694.2885     10.4853     67.1455
   235.0000      0.0000    707.5463     10.4981     68.6176
   235.2500      0.0000    711.1697     10.4651     68.4661
   235.5000      0.0000    697.4083     10.3820     67.6652
   235.7500      0.0000    660.5457     10.2803     67.5393
   236.0000      0.0000    603.6328     10.2142     68.8479
   236.2500      0.0000    542.6994     10.2136     71.0959
   236.5000      0.0000    500.4593     10.2549     72.8413
   236.7500      0.0000    491.0944     10.2809     73.0461
   237.0000      0.0000    508.3127     10.2571     72.1596
   237.2500      0.0000    528.8273     10.2183     71.6056
   237.5000      0.0000    530.6082     10.2538     72.1258
   237.7500      0.0000    509.3867     10.4255     72.9152
   238.0000      0.0000    477.0327     10.7024     72.6338
   238.2500      0.0000    446.6962     10.9804     71.1347
   238.5000      0.0000    423.5513     11.1629     69.9057
   238.7500      0.0000    407.2449     11.2188     70.6457
   239.0000      0.0000    396.6733     11.1749     73.5578
   239.2500      0.0000    390.8249     11.0744     77.2666
   239.5000      0.0000    388.1977     10.9500     80.1553
   239.7500      0.0000    387.2685     10.8304     81.2690
   240.0000      0.0000    387.4281     10.7427     80.2407
   240.2500      0.0000    389.5230     10.6865     77.2705
   240.5000      0.0000    395.9836     10.6183     73.2867
   240.7500      0.0000    409.6005     10.4918     69.5579
   241.0000      0.0000    429.9046     10.3085     66.9705
   241.2500      0.0000    449.7620     10.1176     65.7333
   241.5000      0.0000    458.2425      9.9756     65.4120
   241.7500      0.0000    449.9668      9.9101     65.0649
   242.0000      0.0000    430.5992      9.9014     63.8959
   242.2500      0.0000    411.5466      9.8912     62.2334
   242.5000      0.0000    401.4556      9.8323     61.5184
   242.7500      0.0000    404.7611      9.7411     62.8860
   243.0000      0.0000    425.5226      9.6830     65.8662
   243.2500      0.0000    467.4811      9.7008     68.7116
   243.5000      0.0000    527.7950      9.7740     69.9459
   243.7500      0.0000    591.9913      9.8519     69.4632
   244.0000      0.0000    639.2870      9.9031     68.4023
   244.2500      0.0000    656.2291      9.9252     68.4348
   244.5000      0.0000    646.5167      9.9236     71.0918
   244.7500      0.0000    628.2777      9.8808     77.0029
   245.0000      0.0000    622.2256      9.7368     85.1590
   245.2500      0.0000    640.5411      9.4096     93.1556
   245.5000      0.0000    682.5714      8.8681     98.6788
   245.7500      0.0000    736.8683      8.1843    100.8021
   246.0000      0.0000    786.9348      7.4963     99.8504
   246.2500      0.0000    817.8786      6.9271     96.5396
   246.5000      0.0000    820.5086      6.5461     91.6117
   246.7500      0.0000    791.2043      6.3697     86.0098
   247.0000      0.0000    731.7386      6.3662     81.0061
   247.2500     -2.0000    653.4585      6.4692     78.0366
   247.5000      0.0000    579.7827      6.6168     78.1058
   247.7500      0.0000    538.1240      6.8077     80.8776
   248.0000      0.0000    544.7866      7.1227     84.3281
   248.2500      0.0000    593.4088      7.6581     85.8957
   248.5000      0.0000    654.4269      8.4091     84.3844
   248.7500      0.0000    689.1025      9.2361     80.6404
   249.0000      0.0000    672.5907      9.9623     76.3772
   249.2500      0.0000    608.7133     10.4836     72.7220
   249.5000      0.0000    523.9076     10.7907     69.9387
   249.7500      0.0000    447.5278     10.9332     67.9654
   250.0000      0.0000    395.9970     10.9802     66.6838
   250.2500      0.0000    370.3011     10.9896     65.7632
   250.5000      0.0000    363.0390     10.9997     64.7147
   250.7500      0.0000    365.7543     11.0349     63.3593
   251.0000      0.0000    371.9209     11.1001     62.0445
   251.2500      0.0000    377.1960     11.1747     61.1486
   251.5000      0.0000    379.7400     11.2337     60.4552
   251.7500      0.0000    381.0249     11.2726     59.2294
   252.0000      0.0000    386.3353     11.2960     56.8959
   252.2500      0.0000    404.0017     11.2848     53.6297
   252.5000      0.0000    441.6630     11.1924     50.3843
   252.7500      0.0000    499.6918     10.9878     48.3556
   253.0000      0.0000    567.3496     10.6993     48.1610
   253.2500      0.0000    628.0800     10.4027     49.3365
   253.5000      0.0000    670.6821     10.1586     50.6930
   253.7500      0.0000    695.4867      9.9738     51.2325
   254.0000      0.0000    711.2476      9.8277     50.6799
   254.2500      0.0000    728.2898      9.7198     49.2879
   254.5000      0.0000    753.2601      9.6765     47.5210
   254.7500      0.0000    786.2072      9.7230     46.1120
   255.0000      0.0000    820.1473      9.8598     45.9686
   255.2500      0.0000    844.2396     10.0571     47.4313
   255.5000      0.0000    849.8006     10.2560     49.6644
   255.7500      0.0000    835.7195     10.3801     51.1710
   256.0000      0.0000    809.4489     10.3616     50.9792
   256.2500      0.0000    782.2280     10.1709     49.3085
   256.5000      0.0000    762.1583      9.8356     47.3969
   256.7500      0.0000    750.9377      9.4415     46.8846
   257.0000      0.0000    745.9149      9.1014     48.8572
   257.2500      0.0000    744.0668      8.9021     52.8873
   257.5000      0.0000    744.5863      8.8731     57.1521
   257.7500      0.0000    749.2054      8.9991     59.8258
   258.0000      0.0000    760.4105      9.2427     60.2705
   258.2500      0.0000    778.9348      9.5449     58.9689
   258.5000      0.0000    803.0884      9.8263     56.8740
   258.7500      0.0000    830.1325     10.0178     54.9547
   259.0000      0.0000    856.5781     10.0902     53.9205
   259.2500      0.0000    877.6094     10.0539     54.1687
   259.5000      0.0000    889.5051      9.9425     56.0309
   259.7500      0.0000    893.4382      9.8021     59.9561
   260.0000      0.0000    894.1899      9.6739     66.3353
   260.2500      0.0000    894.8462      9.5767     75.0608
   260.5000      0.0000    895.2164      9.5178     85.0852
   260.7500      0.0000    894.9756      9.5199     94.4240
   261.0000      0.0000    895.3637      9.6101    101.0573
