~Version Information
VERS.                      2.0: CWLS Log ASCII Standard - VERSION 2.0
WRAP.                       NO: One line per depth step
~Well Information Block
STRT.FT               245.0000: 
STOP.FT              2464.2000: 
STEP.FT                 0.1000: 
NULL.                -999.2500: 
COMP.          Pioneer Natural Resources: COMPANY
WELL.          Oink Oink 14-36: WELL
FLD.           Purgatoire River: FIELD
LOC.           216' FSL & 263' FWL--: LOCATION
PROV.                 Colorado: PROVINCE
CNTY.               Las Animas: COUNTRY
SRVC.                Patterson: SERVICE COMPANY
DATE.          Wed Jun 08 16:53:09 2005: LOG DATE
UWI.           05 071 08394 00: UNIQUE WELL ID
~Curve Information Block
DEPT.FT            0 000 00 00: Depth
DCAL.in                       : CDL Caliper
RHOB.g/cc                     : CDL Bulk Density
RHOC.g/cc                     : CDL Density Correction
DPOR.pu                       : CDL Density Porosity
NPOR.pu                       : Neutron Porosity
GR.GAPI                       : Gamma Ray
~Parameter Information Block
~A  Depth       DCAL        RHOB        RHOC        DPOR        NPOR         GR     
# ...
  1848.2000      7.9955      2.5485      0.0330      6.1500     24.1736    114.3414
  1848.3000      7.9938      2.5198      0.0033      7.8912     24.7365    118.9652
  1848.4000      7.9938      2.5091     -0.0154      8.5366     25.0264    119.5790
  1848.5000      7.9928      2.5142      0.0444      8.2291     24.5991    117.3291
  1848.6000      7.9928      2.5112      0.0192      8.4107     23.7629    118.5583
  1848.7000      7.9928      2.4915      0.0203      9.6085     23.5176    123.4724
  1848.8000      7.9924      2.4639     -0.0020     11.2803     23.9728    126.5580
  1848.9000      7.9924      2.4425      0.0029     12.5758     24.0688    124.8394
  1849.0000      7.9920      2.4374      0.0179     12.8856     23.4152    122.4828
  1849.1000      7.9920      2.4429      0.0227     12.5510     22.6388    124.3756
  1849.2000      7.9920      2.4445      0.0403     12.4530     22.3285    126.7570
  1849.3000      7.9924      2.4397     -0.0235     12.7428     22.3046    125.0852
  1849.4000      7.9924      2.4353      0.0058     13.0104     21.7444    122.9093
  1849.5000      7.9894      2.4227      0.0045     13.7783     20.5170    122.1235
  1849.6000      7.9894      2.3863      0.0424     15.9802     19.5120    120.6005
  1849.7000      7.9894      2.3424     -0.0074     18.6396     19.2962    117.9460
  1849.8000      7.9792      2.3515     -0.0061     18.0901     19.6039    115.1827
  1849.9000      7.9792      2.4728      0.0398     10.7416     20.0325    115.1128
  1850.0000      7.9672      2.7039      0.1930     -3.2659     20.6352    117.2904
  1850.1000      7.9672      2.9669      0.3315    -19.2084     25.3687    116.0356
  1850.2000      7.9672      3.1819      0.3872    -32.2386     27.0262    110.7150
  1850.3000      7.9615      3.3265      0.4409    -41.0013     29.0770    103.8592
  1850.4000      7.9615      3.3975      0.4455    -45.3042     31.2747     94.6503
  1850.5000      7.9658      3.3954      0.3170    -45.1774     33.5204     84.2410
  1850.6000      7.9658      3.3360      0.2779    -41.5743     35.8428     78.1282
  1850.7000      7.9658      3.2384      0.0858    -35.6624     37.7797     78.2630
  1850.8000      7.9756      3.1314     -0.0776    -29.1741     38.9329     78.2113
  1850.9000      7.9756      3.0303     -0.0583    -23.0473     39.9455     73.2890
  1851.0000      7.9850      2.9247     -0.1614    -16.6500     41.1819     66.2159
  1851.1000      7.9850      2.8183     -0.2845    -10.1975     41.9163     62.3164
  1851.2000      7.9850      2.7227     -0.2016     -4.4055     41.7642     64.8481
  1851.3000      7.9897      2.6285     -0.2321      1.3047     41.1868     72.7118
  1851.4000      7.9897      2.5495     -0.2314      6.0931     40.3588     80.5238
  1851.5000      7.9912      2.5218     -0.2019      7.7680     39.1539     81.9744
  1851.6000      7.9912      2.5267      0.0257      7.4749     37.7327     79.4332
  1851.7000      7.9912      2.5223     -0.0057      7.7405     35.8416     82.4429
  1851.8000      7.9952      2.5262      0.0022      7.5027     33.1787     91.8325
  1851.9000      7.9952      2.5530      0.1418      5.8764     30.7767     99.5500
  1852.0000      8.0051      2.5721      0.1107      4.7215     29.4942    103.5053
  1852.1000      8.0051      2.5725      0.1234      4.6989     28.8047    107.9689
  1852.2000      8.0051      2.5711      0.1264      4.7796     28.1366    113.1816
  1852.3000      8.0155      2.5744      0.0966      4.5798     27.6861    115.6212
  1852.4000      8.0155      2.5708      0.1373      4.7975     27.5969    114.3946
  1852.5000      8.0195      2.5576      0.0632      5.5996     27.5632    112.3953
  1852.6000      8.0195      2.5521      0.0822      5.9328     27.4379    111.3965
  1852.7000      8.0195      2.5536      0.1254      5.8427     27.2866    112.2674
  1852.8000      8.0185      2.5414      0.0757      6.5796     27.1878    116.0959
  1852.9000      8.0185      2.5139      0.0508      8.2506     27.1009    119.2709
  1853.0000      8.0163      2.4845      0.0484     10.0278     26.9023    116.0760
  1853.1000      8.0163      2.4569      0.0658     11.7043     26.6413    107.4991
  1853.2000      8.0163      2.4303      0.0423     13.3173     26.2988    102.9028
  1853.3000      8.0156      2.4083      0.0628     14.6489     25.7655    107.4994
  1853.4000      8.0156      2.3900      0.0335     15.7556     25.1961    116.1164
  1853.5000      8.0164      2.3780      0.0140     16.4845     24.6032    122.1542
  1853.6000      8.0164      2.3788      0.0655     16.4372     23.8623    121.9079
  1853.7000      8.0164      2.3922      0.0790     15.6227     23.0741    116.5864
  1853.8000      8.0175      2.4214      0.0919     13.8554     22.5035    113.1541
  1853.9000      8.0175      2.4702      0.1628     10.8975     22.1834    114.6066
  1854.0000      8.0174      2.5261      0.2327      7.5096     21.9814    116.2764
  1854.1000      8.0174      2.5715      0.2007      4.7563     21.9819    115.8700
  1854.2000      8.0174      2.6016      0.2057      2.9327     22.2350    116.6958
  1854.3000      8.0114      2.6162      0.2086      2.0510     22.5967    120.5336
  1854.4000      8.0114      2.6173      0.1870      1.9822     22.8598    125.0563
  1854.5000      7.9995      2.6140      0.1260      2.1808     22.9771    127.2196
  1854.6000      7.9995      2.6073      0.1517      2.5904     23.0513    123.3147
  1854.7000      7.9995      2.5889      0.0948      3.7026     23.1933    112.6123
  1854.8000      7.9911      2.5680      0.0877      4.9697     23.6868    102.4024
  1854.9000      7.9911      2.5610      0.0696      5.3932     24.5112     98.6944
  1855.0000      7.9884      2.5656      0.0617      5.1142     25.0440     98.5136
  1855.1000      7.9884      2.5694      0.0351      4.8851     24.8212     98.1697
  1855.2000      7.9884      2.5683      0.0627      4.9538     24.2269     96.3563
  1855.3000      7.9894      2.5658      0.0821      5.1000     23.8790     93.1452
  1855.4000      7.9894      2.5690      0.0370      4.9081     23.7997     89.8121
  1855.5000      7.9907      2.5807      0.0545      4.2009     23.7733     85.6070
  1855.6000      7.9907      2.5902      0.0866      3.6219     23.8180     80.9854
  1855.7000      7.9907      2.5895      0.0542      3.6638     23.6676     78.6832
  1855.8000      7.9904      2.5805      0.0595      4.2133     22.9926     78.5499
  1855.9000      7.9904      2.5652      0.0524      5.1399     22.3755     79.9788
  1856.0000      7.9900      2.5571      0.0316      5.6290     22.4544     83.2713
  1856.1000      7.9900      2.5695      0.0746      4.8795     22.7826     86.0091
  1856.2000      7.9900      2.5901      0.1013      3.6330     22.7237     86.1810
  1856.3000      7.9901      2.6030      0.1130      2.8468     22.3558     84.3104
  1856.4000      7.9901      2.6089      0.0904      2.4903     22.0014     79.4313
  1856.5000      7.9908      2.6157      0.0761      2.0801     21.8216     72.5840
  1856.6000      7.9908      2.6251      0.1062      1.5088     21.9882     67.4398
  1856.7000      7.9908      2.6257      0.0968      1.4705     22.5117     65.3972
  1856.8000      7.9916      2.6072      0.0669      2.5919     23.1567     66.6544
  1856.9000      7.9916      2.5748      0.0629      4.5575     23.9495     69.9447
  1857.0000      7.9900      2.5407      0.0308      6.6245     24.8185     72.9317
  1857.1000      7.9900      2.5153      0.0419      8.1613     25.3503     76.3212
  1857.2000      7.9900      2.5059      0.0180      8.7359     25.3974     81.2670
  1857.3000      7.9878      2.5116      0.0230      8.3870     25.4598     86.2403
  1857.4000      7.9878      2.5269      0.0394      7.4586     25.7031     90.1771
  1857.5000      7.9874      2.5491      0.0734      6.1176     25.5604     93.6732
  1857.6000      7.9874      2.5727      0.0949      4.6867     25.1986     97.0389
  1857.7000      7.9874      2.5841      0.0718      3.9926     25.2236    100.8759
