~Version Information
VERS.                      2.0: CWLS Log ASCII Standard - VERSION 2.0
WRAP.                       NO: One line per depth step
~Well Information Block
STRT.FT                -7.7500: 
STOP.FT              2394.2500: 
STEP.FT                 0.2500: 
NULL.                -999.2500: 
COMP.      PIONEER NATURAL RESOURCES  : COMPANY
WELL.         NOMAD 32-10  : WELL
FLD.                          : FIELD
LOC.      SWNE 10 32S 66W 6PM : LOCATION
PROV.                         : PROVINCE
CNTY.                         : COUNTRY
SRVC.                         : SERVICE COMPANY
DATE.          Thu Aug 26 13:45:47 2004: LOG DATE
UWI.      005 071 08127  : UNIQUE WELL ID
~Curve Information Block
DEPT.FT            0 000 00 00: Depth
CCL.                          : Casing Collar Locator
TT3.usec                      : CBL 3' Travel Time
AMP3.mV                       : CBL 3' Amplitude
GR.GAPI                       : Gamma Ray
~Parameter Information Block
~A  Depth       CCL         TT3         AMP3         GR     
# ...
   293.7500      0.0000    583.6746     10.0658     65.0034
   294.0000      0.0000    558.9465     10.8336     67.2824
   294.2500      0.0000    569.3445     10.9914     68.3829
   294.5000      0.0000    607.0346     10.6557     67.6721
   294.7500      0.0000    656.5137     10.1079     65.1798
   295.0000      0.0000    702.7673      9.5820     62.1258
   295.2500      0.0000    736.3139      9.2124     60.4540
   295.5000      0.0000    755.8574      9.0622     61.4328
   295.7500      0.0000    766.5092      9.1256     64.8124
   296.0000      0.0000    774.2586      9.3135     69.6774
   296.2500      0.0000    781.6963      9.4760     75.8389
   296.5000      0.0000    788.0509      9.4719     83.7122
   296.7500      0.0000    791.6620      9.2491     92.9447
   297.0000      0.0000    791.8616      8.8768    102.1037
   297.2500      0.0000    789.5338      8.5033    109.7286
   297.5000      0.0000    786.7582      8.2663    114.9052
   297.7500      0.0000    785.7778      8.2158    116.9543
   298.0000      0.0000    787.4963      8.2974    115.5144
   298.2500      0.0000    790.9116      8.4003    111.1949
   298.5000      0.0000    794.2316      8.4342    105.7864
   298.7500      0.0000    796.3728      8.3912    101.3754
   299.0000      0.0000    797.2847      8.3506     98.8978
   299.2500      0.0000    797.2512      8.4143     97.4607
   299.5000      0.0000    796.1642      8.6101     95.4026
   299.7500      0.0000    793.3469      8.8501     92.0730
   300.0000      0.0000    788.0583      9.0034     88.1911
   300.2500      0.0000    780.4369      9.0207     84.3868
   300.5000      0.0000    772.0413      8.9814     80.0920
   300.7500      0.0000    765.1893      9.0105     74.4610
   301.0000      0.0000    761.6240      9.1526     68.0712
   301.2500      0.0000    761.7955      9.3258     62.9774
   301.5000      0.0000    764.9711      9.3951     60.9513
   301.7500      0.0000    769.4005      9.2945     61.9720
   302.0000      0.0000    772.6289      9.0837     64.4481
   302.2500      0.0000    772.7073      8.8875     66.6234
   302.5000      0.0000    769.6188      8.7766     67.7060
   302.7500      0.0000    765.1573      8.7112     67.9165
   303.0000      0.0000    761.2228      8.5967     67.7809
   303.2500      0.0000    758.4839      8.3901     67.4433
   303.5000      0.0000    756.5593      8.1500     66.6913
   303.7500      0.0000    754.9307      7.9837     65.5089
   304.0000      0.0000    753.4516      7.9382     64.2002
   304.2500      0.0000    752.2587      7.9425     62.8344
   304.5000      0.0000    751.5237      7.8700     61.0685
   304.7500      0.0000    751.3374      7.6708     58.8560
   305.0000      0.0000    751.7198      7.4354     57.0472
   305.2500      0.0000    752.7056      7.3153     56.9976
   305.5000      0.0000    754.5104      7.3779     59.5947
   305.7500      0.0000    757.5958      7.5432     64.5250
   306.0000      0.0000    762.2012      7.6655     70.1252
   306.2500      0.0000    767.4619      7.6758     74.1231
   306.5000      0.0000    771.2602      7.6462     75.2124
   306.7500      0.0000    771.6646      7.7131     74.0485
   307.0000      0.0000    768.7346      7.9395     72.2771
   307.2500      0.0000    764.5834      8.2496     70.6629
   307.5000      0.0000    761.5532      8.4956     68.5634
   307.7500      0.0000    760.3572      8.5885     65.0552
   308.0000      0.0000    759.7537      8.5703     60.1300
   308.2500      0.0000    757.9474      8.5645     54.8675
   308.5000      0.0000    754.5848      8.6552     50.7825
   308.7500      0.0000    751.2989      8.8139     48.9503
   309.0000      0.0000    750.0063      8.9414     49.4789
   309.2500      0.0000    750.9644      8.9840     51.8106
   309.5000      0.0000    752.5142      9.0038     55.5392
   309.7500      0.0000    751.9378      9.1260     60.5639
   310.0000      0.0000    745.8948      9.4152     66.1948
   310.2500      0.0000    731.3810      9.8054     70.6533
   310.5000      0.0000    709.1124     10.1467     72.2230
   310.7500      0.0000    686.6694     10.3184     70.9293
   311.0000      0.0000    674.3687     10.3135     68.4771
   311.2500      0.0000    673.5615     10.2366     66.3750
   311.5000      0.0000    670.2902     10.2218     64.6832
   311.7500      0.0000    645.1237     10.3316     62.7689
   312.0000      0.0000    591.2900     10.5100     60.5511
   312.2500      0.0000    523.0383     10.6267     58.5166
   312.5000      0.0000    467.2555     10.5799     56.9049
   312.7500      0.0000    447.6872     10.3754     55.3832
   313.0000      0.0000    473.8494     10.1213     53.5804
   313.2500      0.0000    537.7917      9.9481     51.8046
   313.5000      0.0000    617.8005      9.9188     51.1114
   313.7500      0.0000    689.5578      9.9872     52.4586
   314.0000      0.0000    739.1880     10.0306     55.7179
   314.2500      0.0000    767.2437      9.9391     59.6738
   314.5000      0.0000    781.6220      9.7006     62.9485
   314.7500      0.0000    789.1769      9.4173     64.6682
   315.0000      0.0000    793.2919      9.2353     64.4638
   315.2500      0.0000    795.4077      9.2431     62.5018
   315.5000      0.0000    796.3771      9.4145     59.6427
   315.7500      0.0000    796.7109      9.6281     57.1509
   316.0000      0.0000    796.6259      9.7410     55.9676
   316.2500      0.0000    796.2237      9.6709     56.1205
   316.5000      0.0000    795.6735      9.4418     56.6439
   316.7500      0.0000    795.2164      9.1675     56.1777
   317.0000      0.0000    795.0486      8.9843     54.0839
   317.2500      0.0000    795.2019      8.9762     51.2650
   317.5000      0.0000    795.5341      9.1361     49.7087
   317.7500      0.0000    795.8461      9.3789     50.8413
   318.0000      0.0000    795.9757      9.5879     54.2519
   318.2500      0.0000    795.7382      9.6654     58.2156
   318.5000      0.0000    794.7623      9.5715     61.3910
   318.7500      0.0000    792.4936      9.3399     63.6622
   319.0000      0.0000    788.5356      9.0685     65.3278
   319.2500      0.0000    783.0983      8.8777     66.0704
   319.5000      0.0000    777.0426      8.8510     65.2276
   319.7500      0.0000    771.5209      8.9893     62.9616
   320.0000      0.0000    767.6760      9.2081     60.7374
   320.2500      0.0000    766.3666      9.3802     60.3804
   320.5000      0.0000    767.5241      9.4009     62.6252
   320.7500      0.0000    769.7251      9.2433     66.6855
   321.0000      0.0000    770.9688      8.9757     71.2748
   321.2500      0.0000    770.2491      8.7264     75.8082
   321.5000      0.0000    768.4460      8.6157     80.4862
   321.7500      0.0000    767.7349      8.6938     85.4345
   322.0000      0.0000    770.0077      8.9203     89.9402
   322.2500      0.0000    775.5140      9.1883     92.4781
   322.5000      0.0000    782.7005      9.3779     91.4621
   322.7500      0.0000    789.3336      9.4080     86.1720
   323.0000      0.0000    793.8965      9.2669     77.4257
   323.2500      0.0000    796.0649      9.0104     67.6294
   323.5000      0.0000    796.0621      8.7374     59.7201
   323.7500      0.0000    793.8431      8.5552     55.3990
   324.0000      0.0000    789.0807      8.5404     54.2637
   324.2500      0.0000    782.0441      8.7035     54.7134
   324.5000      0.0000    774.4451      8.9764     55.3507
   324.7500      0.0000    769.1313      9.2345     55.4456
   325.0000      0.0000    768.5126      9.3551     54.7757
   325.2500      0.0000    772.9097      9.2888     53.5836
   325.5000      0.0000    780.2312      9.0988     52.3969
   325.7500      0.0000    787.2676      8.9239     51.4154
   326.0000      0.0000    791.4474      8.8837     50.2420
   326.2500      0.0000    791.6634      8.9994     48.6039
   326.5000      0.0000    788.1852      9.1878     47.0753
   326.7500      0.0000    782.5199      9.3175     46.6119
   327.0000      0.0000    777.1425      9.2849     47.6928
