~Version Information
VERS.                      2.0: CWLS Log ASCII Standard - VERSION 2.0
WRAP.                       NO: One line per depth step
~Well Information Block
STRT.FT               553.0000: 
STOP.FT              1576.5000: 
STEP.FT                 0.2500: 
NULL.                -999.2500: 
COMP.          Pioneer Natural Resources: COMPANY
WELL.           Telna 24-22 Tr: WELL
FLD.           Purgatoire River: FIELD
LOC.           748' FSL & 1931' FWL: LOCATION
PROV.                 Colorado: PROVINCE
CNTY.               Las Animas: COUNTRY
SRVC.                Patterson: SERVICE COMPANY
DATE.          Mon May 02 07:15:29 2005: LOG DATE
UWI.           05 071 08304 00: UNIQUE WELL ID
~Curve Information Block
DEPT.FT            0 000 00 00: Depth
DCAL.in                       : CDL Caliper
RHOB.g/cc                     : CDL Bulk Density
RHOC.g/cc                     : CDL Density Correction
DPOR.pu                       : CDL Density Porosity
GR.GAPI                       : Gamma Ray
NPOR.pu                       : Neutron Porosity
~Parameter Information Block
~A  Depth       DCAL        RHOB        RHOC        DPOR         GR         NPOR    
# ...
  1081.0000      7.8575      2.5068      0.0575      8.6788    106.1005     21.3453
  1081.2500      7.8576      2.5151      0.0441      8.1749    119.8637     22.9593
  1081.5000      7.8581      2.5063     -0.0003      8.7107    122.3567     23.9233
  1081.7500      7.8594      2.4937      0.0041      9.4752    126.3891     25.2102
  1082.0000      7.8602      2.5011      0.0237      9.0234    120.0178     24.6741
  1082.2500      7.8594      2.5325      0.0512      7.1206    112.2866     23.9537
  1082.5000      7.8584      2.5203      0.0790      7.8613    124.3696     23.3363
  1082.7500      7.8581      2.4522      0.0134     11.9887    134.4428     24.1496
  1083.0000      7.8590      2.3699      0.0085     16.9773    121.6039     24.5198
  1083.2500      7.8601      2.2687     -0.0778     23.1100    123.1051     24.3765
  1083.5000      7.8602      2.1586     -0.0252     29.7833    119.4942     24.3457
  1083.7500      7.8610      2.0502      0.0071     36.3510    114.8011     28.0820
  1084.0000      7.8668      1.7035     -0.0458     57.3661     91.9467     29.6610
  1084.2500      7.8753      1.5229     -0.0915     68.3064     83.1811     30.1611
  1084.5000      7.8805      1.3336     -0.0717     79.7807     67.2319     29.9993
  1084.7500      7.8847      1.3434     -0.0072     79.1874     56.0901     32.2649
  1085.0000      7.8927      1.4245      0.0911     74.2724     54.6835     33.4636
  1085.2500      7.9079      1.3612     -0.0370     78.1094     56.3007     33.5256
  1085.5000      7.9220      1.3408     -0.0276     79.3425     63.5601     34.8274
  1085.7500      7.9336      1.4726     -0.0400     71.3564     67.7138     35.0105
  1086.0000      7.9542      1.8403      0.1651     49.0721     70.6810     33.1993
  1086.2500      7.9344      2.1207      0.2504     32.0773     80.6960     30.7389
  1086.5000      7.8569      2.4094      0.1917     14.5821     97.4154     28.3602
  1086.7500      7.7980      2.4794      0.0790     10.3393    103.6678     29.0784
  1087.0000      7.8747      2.5374      0.1120      6.8261    106.3493     22.7994
  1087.2500      7.8673      2.5228      0.0337      7.7102     96.5763     19.0148
  1087.5000      7.8657      2.5560      0.0545      5.6996     85.4779     15.2602
  1087.7500      7.8708      2.5603      0.0593      5.4378     75.7809     13.3676
  1088.0000      7.8749      2.5372      0.0517      6.8365     77.5741     15.0976
  1088.2500      7.8761      2.5240      0.0227      7.6346     76.3075     15.9081
  1088.5000      7.8766      2.5324      0.0183      7.1246     71.8323     15.3045
  1088.7500      7.8765      2.5214      0.0064      7.7915     73.7391     14.6744
  1089.0000      7.8760      2.5152      0.0013      8.1724     82.3614     16.8741
  1089.2500      7.8766      2.5463      0.0753      6.2851     91.9470     17.7873
  1089.5000      7.8803      2.6256      0.1476      1.4786     97.8831     23.8062
  1089.7500      7.8861      2.6080      0.0545      2.5483     91.8499     25.2397
  1090.0000      7.8895      2.6046      0.0248      2.7513     96.9115     26.2390
  1090.2500      7.8907      2.5847     -0.0157      3.9571    102.9528     25.8942
  1090.5000      7.8912      2.6087      0.0264      2.5013    106.8354     24.3322
  1090.7500      7.8907      2.6261      0.0352      1.4475    108.5920     23.8758
  1091.0000      7.8897      2.6968      0.0499     -2.8342    117.9251     21.9356
  1091.2500      7.8890      2.7017      0.0674     -3.1361    116.4219     22.4369
  1091.5000      7.8886      2.5596     -0.0891      5.4794    113.3915     23.0056
  1091.7500      7.8888      2.5298     -0.0165      7.2869    124.1435     21.9912
  1092.0000      7.8896      2.4530      0.0063     11.9369    128.8068     23.6226
  1092.2500      7.8901      2.4344      0.0265     13.0638    130.7577     22.1732
  1092.5000      7.8900      2.5020      0.0223      8.9718    136.2353     25.9056
  1092.7500      7.8895      2.5026      0.1064      8.9359    130.5626     24.0050
  1093.0000      7.8893      2.4055     -0.0015     14.8200    133.7733     23.8401
  1093.2500      7.8904      2.4121     -0.0086     14.4176    136.1234     24.7320
  1093.5000      7.8921      2.4661      0.0213     11.1483    143.6936     24.5677
  1093.7500      7.8928      2.5135      0.1165      8.2729    137.1784     24.5348
  1094.0000      7.8925      2.4401      0.0347     12.7208    137.0514     26.0892
  1094.2500      7.8924      2.3966     -0.0308     15.3597    123.2360     25.9854
  1094.5000      7.8917      2.4897      0.0937      9.7155    129.3553     25.7375
  1094.7500      7.8909      2.5046      0.0659      8.8143    124.1960     26.2201
  1095.0000      7.8907      2.5633      0.1059      5.2540    118.7439     27.7638
  1095.2500      7.8909      2.5379      0.0717      6.7952    114.5432     27.2317
  1095.5000      7.8909      2.5322      0.0554      7.1383    109.8048     23.9480
  1095.7500      7.8908      2.5817      0.1356      4.1372    107.0877     22.9090
  1096.0000      7.8909      2.6941      0.1269     -2.6756    103.7600     24.0354
  1096.2500      7.8911      2.7267      0.0871     -4.6512     98.3028     23.9046
  1096.5000      7.8913      2.7366      0.0381     -5.2514     94.1753     23.6463
  1096.7500      7.8910      2.7621      0.0334     -6.7948     94.8696     24.9537
  1097.0000      7.8905      2.7213      0.0407     -4.3188    111.3909     23.3935
  1097.2500      7.8907      2.7156      0.0731     -3.9764    119.4965     22.1242
  1097.5000      7.8910      2.6388      0.0699      0.6814    131.8213     24.8747
  1097.7500      7.8903      2.5136     -0.0670      8.2680    135.3803     26.1419
  1098.0000      7.8894      2.5026      0.0898      8.9358    137.1763     27.4058
  1098.2500      7.8897      2.5140      0.0829      8.2424    137.7580     26.6385
  1098.5000      7.8907      2.6400      0.1217      0.6041    125.3998     28.2627
  1098.7500      7.8908      2.6648      0.0635     -0.8968    124.2581     25.2322
  1099.0000      7.8911      2.6454      0.0969      0.2760    131.2646     25.5476
  1099.2500      7.8930      2.5513      0.0548      5.9794    130.4405     27.6703
  1099.5000      7.8953      2.4747      0.0563     10.6269    137.0588     28.7194
  1099.7500      7.8952      2.4469      0.0943     12.3079    127.6453     29.2893
  1100.0000      7.8943      2.3298      0.0029     19.4057    126.7259     26.2627
  1100.2500      7.8935      2.3487      0.0409     18.2619    118.2084     24.5858
  1100.5000      7.8926      2.3613      0.0657     17.4985    124.7478     24.6076
  1100.7500      7.8909      2.3898      0.1059     15.7696    116.8192     26.3555
  1101.0000      7.8894      2.4597      0.0547     11.5331    109.4062     25.4739
  1101.2500      7.8906      2.5247      0.1072      7.5932    113.2005     24.2614
  1101.5000      7.8919      2.5782      0.1308      4.3518    101.0457     20.0387
  1101.7500      7.8915      2.5402      0.0315      6.6542    100.8129     20.1767
  1102.0000      7.8908      2.4747     -0.0426     10.6213    102.4241     22.5841
  1102.2500      7.8913      2.4749      0.0500     10.6104    111.0932     22.5942
  1102.5000      7.8923      2.5031      0.0206      8.9048    119.0766     25.0404
  1102.7500      7.8929      2.5388      0.0996      6.7392    115.4755     25.8076
  1103.0000      7.8928      2.4768     -0.0165     10.4960    123.3893     23.1784
  1103.2500      7.8924      2.4926     -0.0374      9.5397    118.9422     25.2790
  1103.5000      7.8931      2.5479      0.0408      6.1868    120.3189     27.2918
  1103.7500      7.8938      2.5461      0.0462      6.2966    127.8620     23.4704
  1104.0000      7.8937      2.5747      0.0792      4.5665    124.5869     23.7790
  1104.2500      7.8958      2.5676      0.0142      4.9967    128.0187     23.5528
  1104.5000      7.8983      2.5404      0.0131      6.6451    114.2954     21.8218
  1104.7500      7.8967      2.5103      0.0206      8.4670    118.4701     22.9627
