~Version Information
VERS.                      2.0: CWLS Log ASCII Standard - VERSION 2.0
WRAP.                       NO: One line per depth step
~Well Information Block
STRT.FT                15.0000: 
STOP.FT              2556.5000: 
STEP.FT                 0.2500: 
NULL.                -999.2500: 
COMP.          Pioneer Natural Resources: COMPANY
WELL.              Quack 22-24: WELL
FLD.           Purgatoire River: FIELD
LOC.           2492' FNL & 2459' FWL: LOCATION
PROV.                 Colorado: PROVINCE
CNTY.               Las Animas: COUNTRY
SRVC.                Patterson: SERVICE COMPANY
DATE.          Tue Jul 26 07:02:30 2005: LOG DATE
UWI.           05 071 08402 00: UNIQUE WELL ID
~Curve Information Block
DEPT.FT            0 000 00 00: Depth
GR.GAPI                       : Gamma Ray
CCL.                          : Casing Collar Locator
TT3.usec                      : CBL 3' Travel Time
AMP3.mV                       : CBL 3' Amplitude
~Parameter Information Block
~A  Depth        GR         CCL         TT3         AMP3    
# ...
  1355.0000    116.4701      0.0000    644.5785      4.4234
  1355.2500    114.6851      0.0000    639.0967      4.3499
  1355.5000    113.3846      0.0000    630.0479      4.2365
  1355.7500    114.0392      0.0000    619.3887      4.1393
  1356.0000    116.7573      0.0000    609.6140      4.0864
  1356.2500    120.1568      0.0000    602.1476      4.0679
  1356.5000    122.3953      0.0000    596.7559      4.0604
  1356.7500    122.5774      0.0000    592.2645      4.0561
  1357.0000    121.3773      0.0000    587.9589      4.0662
  1357.2500    120.1210      0.0000    584.4036      4.1018
  1357.5000    119.3185      0.0000    582.9194      4.1539
  1357.7500    118.6192      0.0000    584.2751      4.1938
  1358.0000    118.0864      0.0000    587.9709      4.1941
  1358.2500    118.5334      0.0000    592.7101      4.1491
  1358.5000    120.1630      0.0000    597.2559      4.0774
  1358.7500    121.7381      0.0000    600.6754      4.0053
  1359.0000    121.9254      0.0000    602.2435      3.9515
  1359.2500    121.0349      0.0000    601.7411      3.9251
  1359.5000    120.7434      0.0000    599.9288      3.9280
  1359.7500    122.1813      0.0000    598.3244      3.9553
  1360.0000    124.6977      0.0000    598.0912      3.9955
  1360.2500    126.7069      0.0000    598.8969      4.0355
  1360.5000    127.6294      0.0000    598.9860      4.0678
  1360.7500    128.4923      0.0000    596.7291      4.0901
  1361.0000    130.3412      0.0000    592.2211      4.1010
  1361.2500    132.6540      0.0000    587.3757      4.0981
  1361.5000    133.9746      0.0000    584.5776      4.0781
  1361.7500    133.8316      0.0000    585.1531      4.0384
  1362.0000    133.3689      0.0000    588.7032      3.9794
  1362.2500    134.0422      0.0000    593.5007      3.9089
  1362.5000    136.2422      0.0000    597.4207      3.8436
  1362.7500    139.3724      0.0000    598.8033      3.8034
  1363.0000    142.7108      0.0000    597.1794      3.8010
  1363.2500    145.6862      0.0000    593.7014      3.8342
  1363.5000    147.6915      0.0000    590.5438      3.8896
  1363.7500    148.2144      0.0000    589.3107      3.9526
  1364.0000    147.2292      0.0000    589.8411      4.0154
  1364.2500    145.3287      0.0000    590.4581      4.0758
  1364.5000    143.3194      0.0000    589.4527      4.1359
  1364.7500    141.3977      0.0000    586.6863      4.2051
  1365.0000    138.7896      0.0000    583.8026      4.3022
  1365.2500    134.6118      0.0000    582.6454      4.4458
  1365.5000    129.0424      0.0000    583.4014      4.6385
  1365.7500    123.1787      0.0000    584.3470      4.8564
  1366.0000    117.8017      0.0000    583.4970      5.0577
  1366.2500    112.7810      0.0000    580.7043      5.1997
  1366.5000    107.7565      0.0000    578.1170      5.2560
  1366.7500    102.9505      0.0000    578.1992      5.2218
  1367.0000     99.2552      0.0000    581.2345      5.1097
  1367.2500     97.7389      0.0000    585.0098      4.9436
  1367.5000     98.8775      0.0000    586.7809      4.7578
  1367.7500    101.9739      0.0000    585.2228      4.5939
  1368.0000    105.5164      0.0000    580.8511      4.4878
  1368.2500    108.3531      0.0000    575.3246      4.4503
  1368.5000    110.3570      0.0000    570.5765      4.4580
  1368.7500    111.7936      0.0000    568.1581      4.4668
  1369.0000    112.4739      0.0000    568.6681      4.4392
  1369.2500    112.0114      0.0000    571.4554      4.3686
  1369.5000    110.8047      0.0000    575.1465      4.2829
  1369.7500    110.2690      0.0000    578.6652      4.2249
  1370.0000    111.6980      0.0000    581.6006      4.2256
  1370.2500    114.8821      0.0000    583.7337      4.2903
  1370.5000    118.2014      0.0000    584.6918      4.3992
  1370.7500    120.3210      0.0000    584.3907      4.5170
  1371.0000    121.5808      0.0000    583.7282      4.6087
  1371.2500    123.4741      0.0000    584.3652      4.6556
  1371.5000    126.8923      0.0000    587.3924      4.6569
  1371.7500    131.0946      0.0000    592.1218      4.6156
  1372.0000    134.2863      0.0000    596.3279      4.5261
  1372.2500    135.0702      0.0000    597.8809      4.3766
  1372.5000    133.4734      0.0000    596.3405      4.1627
  1372.7500    130.7341      0.0000    593.0373      3.8990
  1373.0000    128.1936      0.0000    589.7269      3.6151
  1373.2500    126.3583      0.0000    587.4083      3.3403
  1373.5000    124.7464      0.0000    586.2800      3.0891
  1373.7500    122.2818      0.0000    586.1843      2.8618
  1374.0000    117.9108      0.0000    586.9254      2.6542
  1374.2500    111.3564      0.0000    588.6129      2.4644
  1374.5000    103.5926      0.0000    591.8680      2.2951
  1374.7500     96.4213      0.0000    597.3986      2.1536
  1375.0000     91.3942      0.0000    605.1737      2.0473
  1375.2500     89.0840      0.0000    614.0627      1.9785
  1375.5000     89.1844      0.0000    622.3349      1.9410
  1375.7500     91.0516      0.0000    628.5943      1.9227
  1376.0000     94.0955      0.0000    632.3882      1.9116
  1376.2500     97.8108      0.0000    634.0555      1.9012
  1376.5000    101.5731      0.0000    634.0599      1.8922
  1376.7500    104.5686      0.0000    632.4959      1.8872
  1377.0000    106.1576      0.0000    629.2275      1.8859
  1377.2500    106.3232      0.0000    624.5176      1.8882
  1377.5000    105.6654      0.0000    619.4423      1.8999
  1377.7500    104.9983      0.0000    615.4711      1.9307
  1378.0000    105.0326      0.0000    613.4355      1.9874
  1378.2500    106.3626      0.0000    612.7920      2.0714
  1378.5000    109.4956      0.0000    611.8852      2.1838
  1378.7500    114.6266      0.0000    609.1350      2.3279
  1379.0000    121.3573      0.0000    604.3118      2.5058
  1379.2500    128.9090      0.0000    598.7935      2.7117
  1379.5000    136.8234      0.0000    594.6111      2.9311
  1379.7500    145.1766      0.0000    593.3120      3.1457
  1380.0000    153.8006      0.0000    595.6431      3.3377
  1380.2500    161.5529      0.0000    601.9007      3.4905
  1380.5000    166.5681      0.0000    611.8914      3.5856
  1380.7500    167.1968      0.0000    624.0211      3.6055
  1381.0000    162.9252      0.0000    635.1115      3.5463
  1381.2500    154.7250      0.0000    642.6914      3.4247
  1381.5000    144.4977      0.0000    648.0423      3.2641
  1381.7500    133.9733      0.0000    655.7951      3.0797
  1382.0000    123.9117      0.0000    669.7631      2.8919
  1382.2500    113.9888      0.0000    689.5646      2.7421
  1382.5000    103.3207      0.0000    711.2569      2.6718
  1382.7500     91.5751      0.0000    730.2322      2.6897
  1383.0000     80.0063      0.0000    743.1614      2.7735
  1383.2500     71.0789      2.8903    748.0792      2.8992
  1383.5000     66.5975      0.9526    743.9028      3.0661
  1383.7500     66.2257      0.0000    731.1007      3.3043
  1384.0000     67.9492      0.0000    713.1887      3.6621
  1384.2500     69.7637      0.0000    696.1663      4.1705
  1384.5000     70.7411      0.0000    684.9098      4.8187
  1384.7500     70.8214      0.0000    679.8737      5.5614
  1385.0000     70.1571      0.0000    677.5628      6.3313
  1385.2500     68.9184      0.0000    673.9301      7.0375
  1385.5000     67.6403      0.0000    667.2026      7.5814
  1385.7500     67.5141      0.0000    657.3516      7.9027
  1386.0000     69.9176      0.0000    643.5380      8.0070
  1386.2500     75.2451      0.0000    624.1946      7.9393
  1386.5000     82.2415      0.0000    601.2920      7.7292
  1386.7500     88.8527      0.0000    582.3546      7.3741
  1387.0000     93.7148      0.0000    574.8306      6.8809
  1387.2500     96.6121      0.0000    579.0380      6.3099
  1387.5000     97.9646      0.0000    588.8951      5.7528
  1387.7500     98.5931      0.0000    598.3179      5.2662
  1388.0000     99.8890      0.0000    604.7288      4.8485
  1388.2500    103.3709      0.0000    607.8931      4.4792
