~Version Information
VERS.                      2.0: CWLS Log ASCII Standard - VERSION 2.0
WRAP.                       NO: One line per depth step
~Well Information Block
STRT.FT                 0.5000: 
STOP.FT              2744.2500: 
STEP.FT                 0.2500: 
NULL.                -999.2500: 
COMP.          Petrogulf Corporation: COMPANY
WELL.              Silva 1-43V: WELL
FLD.           Purgatoire River: FIELD
LOC.           2010' FSL & 614' FEL--: LOCATION
PROV.                 Colorado: PROVINCE
CNTY.               Las Animas: COUNTRY
SRVC.                Patterson: SERVICE COMPANY
DATE.          Mon Sep 12 10:37:12 2005: LOG DATE
UWI.           05 071 08371 00: UNIQUE WELL ID
~Curve Information Block
DEPT.FT            0 000 00 00: Depth
CCL.                          : Casing Collar Locator
TT3.usec                      : CBL 3' Travel Time
AMP3.mV                       : CBL 3' Amplitude
GR.GAPI                       : Gamma Ray
~Parameter Information Block
~A  Depth       CCL         TT3         AMP3         GR     
# ...
  1441.0000      0.0000    667.2333      9.5841    119.9877
  1441.2500      0.0000    651.4800      8.9856    116.8251
  1441.5000      0.0000    626.0834      8.4127    112.6709
  1441.7500      0.0000    591.0422      7.8652    107.7188
  1442.0000      0.0000    554.7485      7.3656    103.1370
  1442.2500      0.0000    531.5501      6.9394     99.7071
  1442.5000      0.0000    533.4646      6.5966     96.7188
  1442.7500      0.0000    561.7318      6.3330     92.8097
  1443.0000      0.0000    605.6015      6.1409     87.8359
  1443.2500      0.0000    650.1062      6.0127     83.3118
  1443.5000      0.0000    685.4880      5.9340     80.7587
  1443.7500      0.0000    709.4644      5.8855     79.8975
  1444.0000      0.0000    722.7139      5.8574     78.8755
  1444.2500      0.0000    725.2632      5.8538     76.3561
  1444.5000      0.0000    717.7916      5.8782     73.0318
  1444.7500      0.0000    704.5096      5.9097     70.7530
  1445.0000      0.0000    692.7720      5.8985     70.4774
  1445.2500      0.0000    688.9785      5.8037     71.4653
  1445.5000      0.0000    694.6323      5.6509     72.2835
  1445.7500      0.0000    706.2065      5.5404     72.2589
  1446.0000      0.0000    718.5999      5.5746     72.1045
  1446.2500     -2.0000    728.7382      5.7743     73.5326
  1446.5000     -2.0000    736.6616      6.0708     78.3964
  1446.7500      2.0000    743.9252      6.3701     87.7485
  1447.0000      0.0000    750.8290      6.6201    101.0835
  1447.2500      0.0000    755.1686      6.8285    116.1332
  1447.5000      0.0000    754.3742      7.0321    129.6245
  1447.7500      0.0000    748.9022      7.2598    139.0223
  1448.0000      0.0000    742.7481      7.5280    144.0468
  1448.2500      0.0000    741.0656      7.8555    146.2399
  1448.5000      0.0000    747.3246      8.2555    146.9868
  1448.7500      0.0000    760.5492      8.7089    146.5597
  1449.0000      0.0000    773.7927      9.1693    145.1349
  1449.2500      0.0000    777.5753      9.5951    143.5857
  1449.5000      0.0000    767.6918      9.9701    142.6506
  1449.7500      0.0000    749.3593     10.3062    142.2894
  1450.0000      0.0000    732.9536     10.6492    142.6031
  1450.2500      0.0000    726.4655     11.0823    144.4186
  1450.5000      0.0000    731.1132     11.7027    147.9549
  1450.7500      0.0000    741.3738     12.5735    151.4884
  1451.0000      0.0000    748.9660     13.6855    152.5360
  1451.2500      0.0000    748.7319     14.9588    150.3908
  1451.5000      0.0000    740.8039     16.2940    146.6495
  1451.7500      0.0000    726.0860     17.6418    142.8870
  1452.0000      0.0000    700.5298     19.0294    138.3721
  1452.2500      0.0000    656.4673     20.4980    130.5860
  1452.5000      0.0000    591.4531     22.0006    117.7589
  1452.7500      0.0000    515.0349     23.3879    100.6121
  1453.0000      0.0000    444.3399     24.5188     82.0051
  1453.2500      0.0000    392.4632     25.3636     65.2738
  1453.5000      0.0000    361.8450     25.9681     52.6295
  1453.7500      0.0000    347.1359     26.3367     44.5891
  1454.0000      0.0000    341.6316     26.3832     40.4696
  1454.2500      0.0000    341.3148     25.9970     39.3338
  1454.5000      0.0000    345.9286     25.1346     40.7451
  1454.7500      0.0000    358.7697     23.8530     44.7194
  1455.0000      0.0000    385.4684     22.2871     50.7412
  1455.2500      0.0000    430.6142     20.6113     56.9426
  1455.5000      0.0000    492.6268     18.9988     60.7672
  1455.7500      0.0000    561.1857     17.5800     60.7360
  1456.0000      0.0000    621.7209     16.4154     57.5294
  1456.2500      0.0000    664.1949     15.5068     53.3497
  1456.5000      0.0000    687.7828     14.8261     50.3297
  1456.7500      0.0000    697.9379     14.3325     49.4373
  1457.0000      0.0000    700.5878     13.9816     50.4401
  1457.2500      0.0000    699.0200     13.7485     52.3829
  1457.5000      0.0000    694.4338     13.6525     53.9893
  1457.7500      0.0000    688.1036     13.7480     54.0388
  1458.0000      0.0000    682.7852     14.0802     51.8500
  1458.2500      0.0000    681.7327     14.6346     47.6328
  1458.5000      0.0000    685.4681     15.3224     42.3731
  1458.7500      0.0000    688.8309     16.0363     37.2813
  1459.0000      0.0000    681.7719     16.7397     33.2072
  1459.2500      0.0000    655.8058     17.4903     30.4020
  1459.5000      0.0000    612.4406     18.3577     28.6188
  1459.7500      0.0000    564.6625     19.3280     27.3400
  1460.0000      0.0000    527.7764     20.3099     26.1116
  1460.2500      0.0000    509.1491     21.2224     24.9169
  1460.5000      0.0000    506.6562     22.0469     24.0999
  1460.7500      0.0000    511.6266     22.7979     23.7239
  1461.0000      0.0000    510.7953     23.4767     23.2330
  1461.2500      0.0000    492.5169     24.0767     21.9846
  1461.5000      0.0000    456.7007     24.6251     19.9305
  1461.7500      0.0000    415.4725     25.1961     17.6076
  1462.0000      0.0000    381.8633     25.8531     15.6538
  1462.2500      0.0000    360.5482     26.5654     14.4750
  1462.5000      0.0000    349.1265     27.1965     14.1803
  1462.7500      0.0000    343.7820     27.5886     14.6264
  1463.0000      0.0000    342.3958     27.6471     15.5330
  1463.2500      0.0000    345.3433     27.3478     16.6308
  1463.5000      0.0000    355.9005     26.7058     17.8014
  1463.7500      0.0000    379.3125     25.7762     19.2048
  1464.0000      0.0000    418.2140     24.6715     21.2826
  1464.2500      0.0000    466.4972     23.5299     24.6025
  1464.5000      0.0000    510.2091     22.4340     29.7831
  1464.7500      0.0000    539.8471     21.3575     37.6025
  1465.0000      0.0000    561.3296     20.1993     48.7681
  1465.2500      0.0000    588.8123     18.8730     63.0490
  1465.5000      0.0000    626.2169     17.3690     78.5847
  1465.7500      0.0000    662.1450     15.7521     92.4930
  1466.0000      0.0000    683.8771     14.1228    102.4486
  1466.2500      0.0000    690.1340     12.5867    107.7223
  1466.5000      0.0000    688.5994     11.2396    109.1040
  1466.7500      0.0000    686.4895     10.1489    108.3455
  1467.0000      0.0000    686.3236      9.3323    107.5214
  1467.2500      0.0000    687.5679      8.7548    108.1318
  1467.5000      0.0000    689.2258      8.3536    110.2280
  1467.7500      0.0000    691.2344      8.0722    112.3456
  1468.0000      0.0000    695.3100      7.8842    112.4868
  1468.2500      0.0000    705.1466      7.7945    109.4846
  1468.5000      0.0000    724.4403      7.8083    103.7911
  1468.7500      0.0000    752.4482      7.8907     97.1818
  1469.0000      0.0000    781.3411      7.9597     91.6055
  1469.2500      0.0000    800.4766      7.9228     87.9980
  1469.5000      0.0000    805.1777      7.7249     85.9313
  1469.7500      0.0000    800.3467      7.3798     84.3428
  1470.0000      0.0000    794.5163      6.9739     82.6108
  1470.2500      0.0000    791.7845      6.6316     81.0171
  1470.5000      0.0000    791.2322      6.4499     80.3897
  1470.7500      0.0000    792.4290      6.4508     81.5428
  1471.0000      0.0000    797.0510      6.5877     84.9984
  1471.2500      0.0000    803.9401      6.7880     90.7848
  1471.5000      0.0000    806.7747      6.9844     98.1694
  1471.7500      0.0000    799.7543      7.1233    105.6731
  1472.0000      0.0000    783.4563      7.1769    111.6437
  1472.2500      0.0000    762.8618      7.1620    115.1007
  1472.5000      0.0000    741.8759      7.1373    116.2716
  1472.7500      0.0000    722.1070      7.1721    116.3942
  1473.0000      0.0000    705.1962      7.3086    116.8774
  1473.2500      0.0000    693.3162      7.5439    118.4466
  1473.5000      0.0000    687.3631      7.8305    120.9584
  1473.7500      0.0000    686.3039      8.0967    123.8142
  1474.0000      0.0000    688.7467      8.2776    126.4100
  1474.2500      0.0000    694.1561      8.3329    128.3501
