~Version Information
VERS.                      2.0: CWLS Log ASCII Standard - VERSION 2.0
WRAP.                       NO: One line per depth step
~Well Information Block
STRT.FT               450.0000: 
STOP.FT              2753.5000: 
STEP.FT                 0.1000: 
NULL.                -999.2500: 
COMP.          Pioneer Natural Resources: COMPANY
WELL.             Squeal 11-26: WELL
FLD.           Purgatoire River: FIELD
LOC.           1186' FNL & 152' FWL: LOCATION
PROV.                 Colorado: PROVINCE
CNTY.               Las Animas: COUNTRY
SRVC.                Patterson: SERVICE COMPANY
DATE.          Wed Jun 15 09:11:52 2005: LOG DATE
UWI.           05 071 08404 00: UNIQUE WELL ID
~Curve Information Block
DEPT.FT            0 000 00 00: Depth
DCAL.in                       : CDL Caliper
RHOB.g/cc                     : CDL Bulk Density
RHOC.g/cc                     : CDL Density Correction
DPOR.pu                       : CDL Density Porosity
GR.GAPI                       : Gamma Ray
NPOR.pu                       : Neutron Porosity
~Parameter Information Block
~A  Depth       DCAL        RHOB        RHOC        DPOR         GR         NPOR    
# ...
   603.6000      8.0685      2.5957      0.1031      3.2915    123.4474     26.4178
   603.7000      8.0685      2.5972      0.0859      3.2002    136.1642     26.7327
   603.8000      8.0516      2.5977      0.1064      3.1680    143.9181     26.8556
   603.9000      8.0516      2.5956      0.0663      3.2954    140.7518     26.5318
   604.0000      8.0662      2.5953      0.0562      3.3141    135.5016     25.9598
   604.1000      8.0662      2.5983      0.1259      3.1323    136.2990     25.5945
   604.2000      8.0662      2.5994      0.0960      3.0685    140.0397     25.7336
   604.3000      8.0633      2.5987      0.0962      3.1082    137.6413     26.0756
   604.4000      8.0633      2.6013      0.0600      2.9535    128.4829     26.1574
   604.5000      8.0462      2.6079      0.0884      2.5490    122.6771     26.0455
   604.6000      8.0462      2.6128      0.0720      2.2549    126.1976     25.7551
   604.7000      8.0462      2.6073      0.0704      2.5883    132.3747     25.4202
   604.8000      8.0494      2.5906      0.0421      3.6021    134.1039     25.4137
   604.9000      8.0494      2.5765     -0.0031      4.4562    132.3270     25.4746
   605.0000      8.0350      2.5770      0.0974      4.4249    130.4459     25.2520
   605.1000      8.0350      2.5904      0.0485      3.6129    128.6019     24.9022
   605.2000      8.0350      2.6111      0.0904      2.3606    124.9755     24.8008
   605.3000      8.0444      2.6255      0.1092      1.4845    122.7322     25.0986
   605.4000      8.0444      2.6252      0.0790      1.5058    126.8708     25.5565
   605.5000      8.0323      2.6195      0.0349      1.8464    131.1777     26.0222
   605.6000      8.0323      2.6192      0.0877      1.8685    127.9491     26.1945
   605.7000      8.0323      2.6229      0.0626      1.6438    120.5248     25.9948
   605.8000      8.0291      2.6281      0.0807      1.3280    116.0657     25.9596
   605.9000      8.0291      2.6402      0.1063      0.5934    116.3034     26.1106
   606.0000      8.0349      2.6561      0.1239     -0.3704    117.9449     26.1287
   606.1000      8.0349      2.6583      0.0836     -0.5004    119.6993     26.0174
   606.2000      8.0349      2.6453      0.0869      0.2823    123.9585     25.7369
   606.3000      8.0288      2.6263      0.0723      1.4376    130.5287     25.4450
   606.4000      8.0288      2.6034      0.0859      2.8266    135.3337     25.4267
   606.5000      8.0255      2.5871      0.0703      3.8146    136.0542     25.3062
   606.6000      8.0255      2.5965      0.0636      3.2432    134.9812     24.6934
   606.7000      8.0255      2.6286      0.1252      1.2966    134.5279     24.0316
   606.8000      8.0315      2.6538      0.1082     -0.2298    135.8884     23.8390
   606.9000      8.0315      2.6557      0.0927     -0.3447    138.0502     23.9265
   607.0000      8.0324      2.6388      0.0837      0.6816    137.5987     24.0632
   607.1000      8.0324      2.6147      0.0996      2.1366    135.7299     24.3971
   607.2000      8.0324      2.5996      0.0815      3.0562    133.6747     25.0428
   607.3000      8.0375      2.6026      0.1135      2.8720    129.3797     25.7715
   607.4000      8.0375      2.6142      0.0627      2.1703    126.9386     26.0850
   607.5000      8.0250      2.6129      0.1273      2.2455    128.8450     25.8479
   607.6000      8.0250      2.5845      0.0674      3.9669    129.4486     25.3780
   607.7000      8.0250      2.5487      0.0251      6.1379    126.0722     25.0702
   607.8000      8.0242      2.5422      0.0783      6.5325    121.6290     25.1077
   607.9000      8.0242      2.5659      0.0599      5.0944    118.3574     25.3942
   608.0000      8.0244      2.5881      0.0867      3.7505    119.9946     25.5561
   608.1000      8.0244      2.5881      0.0578      3.7490    129.7246     25.2867
   608.2000      8.0244      2.5826      0.0170      4.0831    139.5840     24.9961
   608.3000      8.0186      2.5923      0.0961      3.4942    139.6013     25.1902
   608.4000      8.0186      2.6065      0.1081      2.6343    133.4086     25.4702
   608.5000      8.0195      2.6081      0.1219      2.5369    128.9952     25.3754
   608.6000      8.0195      2.5967      0.0708      3.2296    124.8915     24.9197
   608.7000      8.0195      2.5801      0.1046      4.2350    120.1663     24.2645
   608.8000      8.0009      2.5621      0.0415      5.3302    119.8107     24.1199
   608.9000      8.0009      2.5467      0.0762      6.2619    122.5392     24.8726
   609.0000      8.0125      2.5347      0.0438      6.9881    120.0925     25.7017
   609.1000      8.0125      2.5263      0.0117      7.4945    110.3949     25.6932
   609.2000      8.0125      2.5284      0.0323      7.3714    102.3533     25.1507
   609.3000      8.0179      2.5440      0.0358      6.4226    103.8837     24.9378
   609.4000      8.0179      2.5711      0.0828      4.7803    110.7467     25.1865
   609.5000      8.0244      2.5980      0.1296      3.1524    115.7989     25.3108
   609.6000      8.0244      2.6073      0.1122      2.5888    118.6126     25.0630
   609.7000      8.0244      2.5971      0.1371      3.2065    120.0255     24.8191
   609.8000      8.0037      2.5764      0.0868      4.4629    120.2556     24.7295
   609.9000      8.0037      2.5552      0.0627      5.7471    120.0464     24.6188
   610.0000      7.9940      2.5418      0.1230      6.5552    118.9824     24.4502
   610.1000      7.9940      2.5386      0.0498      6.7544    117.4608     24.1603
   610.2000      7.9940      2.5418      0.0341      6.5583    117.0603     23.5746
   610.3000      8.0101      2.5450      0.0103      6.3622    116.5455     22.8220
   610.4000      8.0101      2.5447      0.0575      6.3840    114.9409     22.1905
   610.5000      8.0013      2.5357      0.0329      6.9298    112.8406     21.6676
   610.6000      8.0013      2.5120      0.0680      8.3624    110.7184     21.1943
   610.7000      8.0013      2.4740      0.0114     10.6670    109.0534     20.8365
   610.8000      7.9941      2.4439     -0.0003     12.4884    106.5697     20.7334
   610.9000      7.9941      2.4497     -0.0331     12.1407    101.3994     20.9591
   611.0000      8.0048      2.4843      0.0632     10.0440     94.8517     21.2119
   611.1000      8.0048      2.5160      0.0218      8.1183     89.7261     21.0955
   611.2000      8.0048      2.5347     -0.0089      6.9898     84.4469     20.7222
   611.3000      8.0013      2.5466      0.0185      6.2655     79.4198     20.5032
   611.4000      8.0013      2.5566      0.0340      5.6611     79.1403     20.7034
   611.5000      8.0143      2.5742      0.0459      4.5953     83.1842     21.0769
   611.6000      8.0143      2.6008      0.0953      2.9831     87.5059     21.1140
   611.7000      8.0143      2.6154      0.1124      2.0965     88.6099     20.7255
   611.8000      8.0175      2.6052      0.0660      2.7177     85.4820     20.3546
   611.9000      8.0175      2.5832      0.0435      4.0490     83.3530     20.3912
   612.0000      8.0085      2.5637      0.0758      5.2286     86.1878     20.7302
   612.1000      8.0085      2.5490      0.0527      6.1208     89.0158     21.0869
   612.2000      8.0085      2.5366      0.0637      6.8741     87.7815     21.0707
   612.3000      7.9949      2.5254      0.0278      7.5488     86.8998     20.3966
   612.4000      7.9949      2.5186      0.0493      7.9629     88.5207     19.6684
   612.5000      7.9977      2.5197      0.0534      7.8982     89.3953     19.4230
   612.6000      7.9977      2.5294      0.0850      7.3078     87.7717     19.3290
   612.7000      7.9977      2.5416      0.0828      6.5699     83.5399     19.2810
   612.8000      8.0052      2.5488      0.0640      6.1339     79.6940     19.4898
   612.9000      8.0052      2.5540      0.0688      5.8179     79.7298     19.7441
   613.0000      8.0074      2.5609      0.0188      5.4022     82.0105     19.6613
   613.1000      8.0074      2.5607      0.1130      5.4101     81.2564     19.2623
