~Version Information
VERS.                      2.0: CWLS Log ASCII Standard - VERSION 2.0
WRAP.                       NO: One line per depth step
~Well Information Block
STRT.FT               846.6000: 
STOP.FT              2609.1000: 
STEP.FT                 0.1000: 
NULL.                -999.2500: 
COMP.          Petrogulf Corporation: COMPANY
WELL.            Lavedure 7-44: WELL
FLD.           Purgatoire River: FIELD
LOC.           969' FSL & 501' FEL: LOCATION
PROV.                 Colorado: PROVINCE
CNTY.               Las Animas: COUNTRY
SRVC.                Patterson: SERVICE COMPANY
DATE.          Sun Dec 07 14:55:17 2003: LOG DATE
UWI.                          : UNIQUE WELL ID
~Curve Information Block
DEPT.FT            0 000 00 00: Depth
DCAL.in                       : CDL Caliper
RHOB.g/cc                     : CDL Bulk Density
RHOC.g/cc                     : CDL Density Correction
DPOR.pu                       : CDL Density Porosity
GR.GAPI                       : Gamma Ray
NPOR.pu                       : Neutron Porosity
~Parameter Information Block
~A  Depth       DCAL        RHOB        RHOC        DPOR         GR         NPOR    
# ...
  2257.8000      7.9908      2.4031      0.0799     14.9612     80.4276     26.8946
  2257.9000      7.9908      2.4082      0.0829     14.6555     80.3738     26.7888
  2258.0000      7.9949      2.4141      0.0853     14.2962     80.6197     26.6538
  2258.1000      7.9949      2.4206      0.0868     13.9023     81.1331     26.5021
  2258.2000      7.9949      2.4273      0.0875     13.4953     81.8812     26.3471
  2258.3000      8.0044      2.4339      0.0871     13.0992     82.8329     26.2014
  2258.4000      8.0044      2.4398      0.0859     12.7384     83.9551     26.0765
  2258.5000      8.0162      2.4448      0.0836     12.4373     85.2151     25.9815
  2258.6000      8.0162      2.4484      0.0805     12.2182     86.5793     25.9226
  2258.7000      8.0162      2.4503      0.0763     12.1003     88.0141     25.9032
  2258.8000      8.0180      2.4504      0.0713     12.0984     89.4869     25.9238
  2258.9000      8.0180      2.4483      0.0653     12.2218     90.9689     25.9826
  2259.0000      8.0211      2.4442      0.0586     12.4729     92.4348     26.0756
  2259.1000      8.0211      2.4380      0.0513     12.8471     93.8599     26.1973
  2259.2000      8.0211      2.4300      0.0440     13.3328     95.2181     26.3403
  2259.3000      8.0328      2.4205      0.0370     13.9113     96.4783     26.4957
  2259.4000      8.0328      2.4098      0.0310     14.5577     97.6053     26.6536
  2259.5000      8.0347      2.3985      0.0265     15.2426     98.5575     26.8030
  2259.6000      8.0347      2.3871      0.0241     15.9333     99.2897     26.9321
  2259.7000      8.0347      2.3762      0.0241     16.5960     99.7558     27.0298
  2259.8000      8.0244      2.3662      0.0266     17.1976     99.9183     27.0863
  2259.9000      8.0244      2.3578      0.0313     17.7076     99.7509     27.0942
  2260.0000      8.0123      2.3513      0.0379     18.1000     99.2480     27.0488
  2260.1000      8.0123      2.3472      0.0457     18.3543     98.4306     26.9495
  2260.2000      8.0123      2.3455      0.0542     18.4563     97.3454     26.7989
  2260.3000      7.9980      2.3464      0.0626     18.3990     96.0633     26.6028
  2260.4000      7.9980      2.3500      0.0703     18.1818     94.6723     26.3694
  2260.5000      7.9807      2.3561      0.0770     17.8107     93.2673     26.1083
  2260.6000      7.9807      2.3646      0.0824     17.2970     91.9363     25.8295
  2260.7000      7.9807      2.3752      0.0863     16.6568     90.7508     25.5420
  2260.8000      7.9706      2.3875      0.0888     15.9094     89.7510     25.2532
  2260.9000      7.9706      2.4012      0.0901     15.0767     88.9489     24.9686
  2261.0000      7.9775      2.4160      0.0905     14.1817     88.3241     24.6907
  2261.1000      7.9775      2.4314      0.0901     13.2476     87.8325     24.4199
  2261.2000      7.9775      2.4471      0.0894     12.2973     87.4160     24.1546
  2261.3000      8.0047      2.4627      0.0884     11.3523     87.0097     23.8920
  2261.4000      8.0047      2.4779      0.0872     10.4319     86.5545     23.6290
  2261.5000      8.0261      2.4924      0.0859      9.5534     86.0041     23.3635
  2261.6000      8.0261      2.5059      0.0845      8.7308     85.3244     23.0946
  2261.7000      8.0261      2.5184      0.0826      7.9752     84.4971     22.8241
  2261.8000      8.0107      2.5296      0.0802      7.2947     83.5179     22.5562
  2261.9000      8.0107      2.5396      0.0771      6.6939     82.3935     22.2975
  2262.0000      7.9902      2.5481      0.0733      6.1743     81.1433     22.0570
  2262.1000      7.9902      2.5554      0.0687      5.7348     79.7996     21.8453
  2262.2000      7.9902      2.5614      0.0636      5.3719     78.4083     21.6735
  2262.3000      7.9821      2.5662      0.0583      5.0800     77.0324     21.5521
  2262.4000      7.9821      2.5699      0.0530      4.8525     75.7485     21.4898
  2262.5000      7.9765      2.5727      0.0483      4.6821     74.6442     21.4928
  2262.6000      7.9765      2.5747      0.0445      4.5614     73.8061     21.5634
  2262.7000      7.9765      2.5760      0.0420      4.4834     73.3113     21.6998
  2262.8000      7.9839      2.5767      0.0410      4.4421     73.2163     21.8965
  2262.9000      7.9839      2.5769      0.0418      4.4322     73.5462     22.1440
  2263.0000      7.9924      2.5766      0.0441      4.4498     74.2893     22.4304
  2263.1000      7.9924      2.5759      0.0477      4.4915     75.3967     22.7425
  2263.2000      7.9924      2.5748      0.0523      4.5548     76.7908     23.0668
  2263.3000      7.9881      2.5735      0.0574      4.6371     78.3723     23.3906
  2263.4000      7.9881      2.5719      0.0625      4.7354     80.0362     23.7027
  2263.5000      7.9696      2.5700      0.0669      4.8461     81.6815     23.9940
  2263.6000      7.9696      2.5681      0.0704      4.9641     83.2257     24.2573
  2263.7000      7.9696      2.5661      0.0727      5.0830     84.6101     24.4879
  2263.8000      7.9431      2.5643      0.0736      5.1949     85.8061     24.6829
  2263.9000      7.9431      2.5627      0.0734      5.2905     86.8104     24.8419
  2264.0000      7.9310      2.5616      0.0721      5.3598     87.6406     24.9656
  2264.1000      7.9310      2.5610      0.0702      5.3928     88.3282     25.0565
  2264.2000      7.9310      2.5612      0.0681      5.3804     88.9035     25.1181
  2264.3000      7.9419      2.5623      0.0660      5.3152     89.3925     25.1538
  2264.4000      7.9419      2.5643      0.0643      5.1929     89.8033     25.1673
  2264.5000      7.9690      2.5673      0.0630      5.0128     90.1215     25.1617
  2264.6000      7.9690      2.5712      0.0621      4.7786     90.3136     25.1401
  2264.7000      7.9690      2.5758      0.0614      4.4982     90.3286     25.1053
  2264.8000      7.9942      2.5810      0.0607      4.1839     90.1091     25.0613
  2264.9000      7.9942      2.5865      0.0595      3.8513     89.6030     25.0125
  2265.0000      8.0050      2.5920      0.0574      3.5180     88.7766     24.9642
  2265.1000      8.0050      2.5972      0.0544      3.2025     87.6253     24.9223
  2265.2000      8.0050      2.6018      0.0501      2.9220     86.1808     24.8919
  2265.3000      8.0104      2.6056      0.0446      2.6912     84.5128     24.8764
  2265.4000      8.0104      2.6084      0.0383      2.5205     82.7230     24.8761
  2265.5000      8.0193      2.6102      0.0317      2.4149     80.9338     24.8881
  2265.6000      8.0193      2.6108      0.0256      2.3738     79.2771     24.9056
  2265.7000      8.0193      2.6106      0.0209      2.3907     77.8798     24.9186
  2265.8000      8.0217      2.6095      0.0183      2.4538     76.8510     24.9151
  2265.9000      8.0217      2.6080      0.0185      2.5476     76.2710     24.8821
  2266.0000      8.0086      2.6062      0.0217      2.6541     76.1858     24.8073
  2266.1000      8.0086      2.6045      0.0279      2.7547     76.6040     24.6806
  2266.2000      8.0086      2.6033      0.0365      2.8317     77.4941     24.4942
  2266.3000      7.9974      2.6026      0.0469      2.8704     78.7879     24.2444
  2266.4000      7.9974      2.6028      0.0582      2.8594     80.3815     23.9310
  2266.5000      7.9909      2.6039      0.0696      2.7922     82.1425     23.5578
  2266.6000      7.9909      2.6060      0.0804      2.6670     83.9168     23.1321
  2266.7000      7.9909      2.6090      0.0900      2.4868     85.5391     22.6645
  2266.8000      7.9808      2.6127      0.0979      2.2585     86.8465     22.1678
  2266.9000      7.9808      2.6171      0.1039      1.9921     87.6913     21.6564
  2267.0000      7.9682      2.6220      0.1078      1.6998     87.9572     21.1454
  2267.1000      7.9682      2.6270      0.1096      1.3947     87.5677     20.6490
  2267.2000      7.9682      2.6320      0.1094      1.0896     86.5003     20.1802
  2267.3000      7.9566      2.6369      0.1073      0.7960     84.7847     19.7498
