~Version Information
 VERS.                                  2.0 : CWLS LAS VERSION
 WRAP.                                   NO : WRAPING MODE
 SWARE .                 MController 2.5.0E : SOFTWARE VERSION
~Well Information
 WELL.                          Enzo 43-8TR : WELL
 COMP.        Pioneer Natural Resources Inc : COMPANY
 FLD.                      Purgatorie River : FIELD
 LOC.                 NE/SE Sec 8 T32S R66W : LOCATION
 DATE.                             10/29/04 : DATE(S) LOGGED
 SRVC.       Blanco Geological Services LLC : SERVICE COMPANY
 STAT.                                   CO : STATE
 CNTY.                           Las Animas : COUNTY
 CTRY.                                  USA : COUNTRY
 API.                       05-071-08213-00 : API NUMBER
 STRT.FT                             562.00 : START DEPTH
 STOP.FT                            2170.00 : STOP DEPTH
 STEP.FT                               1.00 : DEPTH INCREMENT
 NULL.                                -9999 : NULL VALUE
~Curve information
 DEPTH.FT                                   :
 ROP.MIN/FT                                 :
 GAS.UNITS                                  :
~ASCII Log data
# ...
     1762.00        0.300         26.7 
     1763.00        0.367         24.5 
     1764.00        0.333         20.9 
     1765.00        0.367         18.1 
     1766.00        3.783         77.4 
     1767.00        0.383         68.2 
     1768.00        0.300         56.6 
     1769.00        0.300         51.1 
     1770.00        0.300         48.2 
     1771.00        0.333         45.5 
     1772.00        0.333         40.1 
     1773.00        0.333         37.0 
     1774.00        0.300         38.7 
     1775.00        0.367         38.9 
     1776.00        0.233         35.8 
     1777.00        0.317         34.0 
     1778.00        0.267         32.7 
     1779.00        0.267         31.9 
     1780.00        0.333         29.8 
     1781.00        0.300         27.7 
     1782.00        0.300         27.5 
     1783.00        0.267         28.3 
     1784.00        0.267         29.9 
     1785.00        0.267         30.5 
     1786.00        0.300         30.3 
     1787.00        0.267         28.9 
     1788.00        0.267         27.0 
     1789.00        0.317         26.3 
     1790.00        0.367         24.6 
     1791.00        0.233         20.9 
     1792.00        0.333         20.1 
     1793.00        0.267         17.8 
     1794.00        0.333         17.0 
     1795.00        0.300         17.6 
     1796.00        3.450        114.6 
     1797.00        0.333         53.4 
     1798.00        0.367         40.7 
     1799.00        0.333         34.0 
     1800.00        0.350         29.0 
     1801.00        0.333         25.6 
     1802.00        0.433         28.6 
     1803.00        0.367         31.0 
     1804.00        0.400         31.5 
     1805.00        0.267         31.3 
     1806.00        0.367         31.1 
     1807.00        0.267         30.9 
     1808.00        0.333         29.1 
     1809.00        0.233         26.1 
     1810.00        0.350         24.6 
     1811.00        0.300         25.1 
     1812.00        0.333         23.9 
     1813.00        0.367         21.8 
     1814.00        0.333         23.8 
     1815.00        0.400         24.2 
     1816.00        0.367         24.0 
     1817.00        0.267         24.4 
     1818.00        0.300         24.8 
     1819.00        0.383         25.0 
     1820.00        0.300         25.0 
     1821.00        0.333         25.1 
     1822.00        0.333         25.8 
     1823.00        0.367         26.5 
     1824.00        0.333         26.8 
     1825.00        0.267         27.0 
     1826.00        6.567        110.1 
     1827.00        0.333         54.1 
     1828.00        0.333         43.9 
     1829.00        0.333         35.8 
     1830.00        0.300         30.7 
     1831.00        0.283         30.1 
     1832.00        0.367         31.4 
     1833.00        0.233         31.3 
     1834.00        0.300         31.0 
     1835.00        0.267         30.2 
     1836.00        0.267         28.9 
     1837.00        0.333         27.2 
     1838.00        0.400         25.7 
     1839.00        0.233         24.1 
     1840.00        0.267         23.4 
     1841.00        0.267         22.9 
     1842.00        0.267         22.4 
     1843.00        0.250         22.2 
     1844.00        0.233         21.7 
     1845.00        0.367         21.5 
     1846.00        0.300         21.7 
     1847.00        0.200         21.7 
     1848.00        0.300         21.6 
     1849.00        0.300         21.4 
     1850.00        0.333         21.5 
     1851.00        0.333         21.0 
     1852.00        0.300         21.0 
     1853.00        0.400         20.8 
     1854.00        0.317         20.6 
     1855.00        0.267         20.5 
     1856.00        7.367        111.4 
     1857.00        0.333         90.7 
     1858.00        0.367         72.7 
     1859.00        0.400         57.4 
     1860.00        0.333         43.3 
     1861.00        0.367         35.6 
     1862.00        0.350         32.2 
     1863.00        0.400         31.9 
     1864.00        0.333         31.4 
     1865.00        0.367         31.0 
     1866.00        0.400         29.2 
     1867.00        0.333         27.2 
     1868.00        0.400         25.1 
     1869.00        0.300         23.4 
     1870.00        0.300         22.6 
     1871.00        0.333         20.7 
     1872.00        0.350         20.5 
     1873.00        0.333         20.5 
     1874.00        0.400         20.2 
     1875.00        0.267         20.7 
     1876.00        0.300         21.5 
     1877.00        0.367         21.7 
     1878.00        0.433         22.9 
     1879.00        0.367         23.4 
     1880.00        0.717         22.0 
     1881.00        0.433         17.9 
     1882.00        0.300         15.7 
     1883.00        0.333         14.3 
     1884.00        0.367         13.8 
     1885.00        0.333         16.0 
     1886.00        2.883         56.4 
     1887.00        0.367         50.1 
     1888.00        0.433         44.5 
     1889.00        0.367         38.2 
     1890.00        0.333         32.7 
     1891.00        0.383         30.2 
     1892.00        0.300         27.9 
     1893.00        0.300         27.4 
     1894.00        0.367         26.7 
     1895.00        0.267         25.8 
     1896.00        0.300         25.5 
     1897.00        0.367         25.4 
     1898.00        0.333         24.7 
     1899.00        0.400         23.6 
     1900.00        0.400         22.8 
     1901.00        0.350         22.2 
     1902.00        0.300         21.9 
     1903.00        0.367         22.1 
     1904.00        0.300         21.0 
     1905.00        0.333         20.0 
     1906.00        0.433         17.8 
     1907.00        0.267         15.9 
     1908.00        0.400         14.8 
     1909.00        0.300         13.1 
     1910.00        0.233         13.1 
     1911.00        0.200         13.8 
     1912.00        0.350         18.4 
     1913.00        0.333         24.0 
     1914.00        0.267         32.2 
     1915.00        0.267         41.0 
     1916.00        2.950         74.8 
     1917.00        0.300         36.4 
     1918.00        0.300         32.8 
     1919.00        0.300         30.5 
     1920.00        0.267         29.0 
     1921.00        0.333         27.8 
     1922.00        0.367         26.4 
     1923.00        0.367         25.7 
     1924.00        0.400         24.9 
     1925.00        0.283         23.8 
     1926.00        0.333         23.3 
     1927.00        0.300         22.4 
     1928.00        0.367         21.4 
     1929.00        0.300         20.3 
     1930.00        0.333         20.9 
     1931.00        0.367         22.5 
     1932.00        0.367         22.4 
     1933.00        0.267         21.5 
     1934.00        0.400         20.2 
     1935.00        0.317         17.4 
     1936.00        0.400         14.7 
     1937.00        0.300         12.7 
     1938.00        0.300         11.8 
     1939.00        0.333         13.1 
     1940.00        0.433         18.7 
     1941.00        0.300         25.5 
     1942.00        0.333         35.9 
     1943.00        0.333         49.8 
     1944.00        0.317         65.4 
     1945.00        0.267         78.8 
     1946.00        2.200         93.1 
     1947.00        0.367         35.9 
     1948.00        0.317         29.9 
     1949.00        0.367         27.1 
     1950.00        0.533         25.7 
     1951.00        0.367         24.0 
     1952.00        0.433         23.3 
     1953.00        0.400         22.2 
     1954.00        0.400         21.7 
     1955.00        0.367         21.0 
     1956.00        0.367         20.6 
     1957.00        0.283         20.0 
     1958.00        0.300         19.6 
     1959.00        0.300         19.3 
     1960.00        0.433         18.7 
     1961.00        0.367         18.9 
