~Version Information
VERS.                      2.0: CWLS Log ASCII Standard - VERSION 2.0
WRAP.                       NO: One line per depth step
~Well Information Block
STRT.FT                -7.0000: 
STOP.FT              1329.7500: 
STEP.FT                 0.2500: 
NULL.                -999.2500: 
COMP.          Pioneer Natural Resources: COMPANY
WELL.             Raptor 44-26: WELL
FLD.           Purgatorie River: FIELD
LOC.           180' FSL & 812' FEL--: LOCATION
PROV.                       CO: PROVINCE
CNTY.               Las Animas: COUNTRY
SRVC.          Patterson Wireline: SERVICE COMPANY
DATE.          Wed Mar 30 12:38:23 2005: LOG DATE
UWI.           05 071 08187 00: UNIQUE WELL ID
~Curve Information Block
DEPT.FT            0 000 00 00: Depth
CCL.                          : Casing Collar Locator
TT3.usec                      : CBL 3' Travel Time
AMP3.mV                       : CBL 3' Amplitude
GR.GAPI                       : Gamma Ray
~Parameter Information Block
MINATTN.db/ft           0.8000: Minimum Attenuation
~A  Depth       CCL         TT3         AMP3         GR     
# ...
    93.5000      0.0000    268.1668     69.9981     77.3632
    93.7500      0.0000    268.1673     69.9938     74.0654
    94.0000      0.0000    268.1673     70.0013     71.8362
    94.2500      0.0000    268.1681     70.0142     69.8899
    94.5000      0.0000    268.1715     70.0253     67.2553
    94.7500      0.0000    268.1770     70.0327     63.7655
    95.0000      0.0000    268.1831     70.0369     60.2287
    95.2500      0.0000    268.1905     70.0338     57.9783
    95.5000      0.0000    268.2002     70.0190     58.1222
    95.7500      0.0000    268.2103     69.9980     60.7308
    96.0000      0.0000    268.2166     69.9860     64.6237
    96.2500      0.0000    268.2173     69.9924     68.0614
    96.5000      0.0000    268.2149     70.0100     69.6815
    96.7500      0.0000    268.2121     70.0247     69.1124
    97.0000      0.0000    268.2083     70.0315     67.1916
    97.2500      0.0000    268.2018     70.0341     65.4696
    97.5000      0.0000    268.1915     70.0380     64.9267
    97.7500      0.0000    268.1766     70.0518     64.9987
    98.0000      0.0000    268.1585     70.0874     64.1550
    98.2500      0.0000    268.1433     70.1486     61.5565
    98.5000      0.0000    268.1385     70.2227     58.0346
    98.7500      0.0000    268.1463     70.2900     55.4582
    99.0000      0.0000    268.1621     70.3367     55.3058
    99.2500      0.0000    268.1807     70.3589     57.7421
    99.5000      0.0000    268.1993     70.3596     61.6342
    99.7500      0.0000    268.2162     70.3447     65.1818
   100.0000      0.0000    268.2292     70.3211     66.7679
   100.2500      0.0000    268.2365     70.2968     65.7123
   100.5000      0.0000    268.2372     70.2839     62.5290
   100.7500      0.0000    268.2328     70.2947     58.4380
   101.0000      0.0000    268.2258     70.3294     54.5926
   101.2500      0.0000    268.2181     70.3735     51.6678
   101.5000      0.0000    268.2107     70.4097     49.8911
   101.7500      0.0000    268.2051     70.4243     49.1289
   102.0000      0.0000    268.2043     70.4025     48.9301
   102.2500      0.0000    268.2099     70.3297     48.7427
   102.5000      0.0000    268.2210     70.2069     48.2602
   102.7500      0.0000    268.2342     70.0622     47.4328
   103.0000      0.0000    268.2460     69.9388     46.1516
   103.2500      0.0000    268.2544     69.8699     44.2668
   103.5000      0.0000    268.2595     69.8635     42.0186
   103.7500      0.0000    268.2639     69.9057     40.0484
   104.0000      0.0000    268.2712     69.9729     38.7572
   104.2500      0.0000    268.2831     70.0389     37.9517
   104.5000      0.0000    268.2961     70.0818     37.3552
   104.7500      0.0000    268.3036     70.0909     37.2252
   105.0000      0.0000    268.3029     70.0674     38.1461
   105.2500      0.0000    268.2965     70.0234     40.2423
   105.5000      0.0000    268.2877     69.9829     42.9029
   105.7500      0.0000    268.2765     69.9762     45.2976
   106.0000      0.0000    268.2613     70.0252     46.8958
   106.2500      0.0000    268.2423     70.1318     47.5085
   106.5000      0.0000    268.2224     70.2788     47.2606
   106.7500      0.0000    268.2048     70.4369     46.6854
   107.0000      0.0000    268.1912     70.5740     46.4980
   107.2500      0.0000    268.1811     70.6665     47.0662
   107.5000      0.0000    268.1748     70.7040     48.2617
   107.7500      0.0000    268.1747     70.6896     49.8994
   108.0000      0.0000    268.1819     70.6398     52.1429
   108.2500      0.0000    268.1944     70.5774     55.2583
   108.5000      0.0000    268.2068     70.5164     58.9251
   108.7500      0.0000    268.2133     70.4519     62.0308
   109.0000      0.0000    268.2111     70.3699     63.5134
   109.2500      0.0000    268.2008     70.2663     63.4952
   109.5000      0.0000    268.1848     70.1532     63.3531
   109.7500      0.0000    268.1656     70.0444     64.6239
   110.0000      0.0000    268.1452     69.9404     67.9052
   110.2500      0.0000    268.1263     69.8336     72.6375
   110.5000      0.0000    268.1130     69.7227     77.6453
   110.7500      0.0000    268.1102     69.6137     81.8082
   111.0000      0.0000    268.1196     69.5070     84.3012
   111.2500      0.0000    268.1379     69.3916     84.6503
   111.5000      0.0000    268.1608     69.2475     82.9678
   111.7500      0.0000    268.1857     69.0524     79.9246
   112.0000      0.0000    268.2109     68.7921     76.0706
   112.2500      0.0000    268.2340     68.4682     71.2091
   112.5000      0.0000    268.2528     68.0927     64.8474
   112.7500      0.0000    268.2689     67.6729     57.3910
   113.0000      0.0000    268.2874     67.2038     50.4647
   113.2500      0.0000    268.3123     66.6778     45.7517
   113.5000      0.0000    268.3434     66.1014     43.7659
   113.7500      0.0000    268.3792     65.4965     43.8595
   114.0000      0.0000    268.4198     64.8856     44.9677
   114.2500      0.0000    268.4650     64.2768     46.1471
   114.5000      0.0000    268.5128     63.6617     46.7960
   114.7500      0.0000    268.5620     63.0241     46.7975
   115.0000      0.0000    268.6147     62.3532     46.5548
   115.2500      0.0000    268.6746     61.6485     46.7492
   115.5000      0.0000    268.7425     60.9168     47.7048
   115.7500      0.0000    268.8167     60.1652     48.8220
   116.0000      0.0000    268.8944     59.4010     48.8217
   116.2500      0.0000    268.9732     58.6365     46.8381
   116.5000      0.0000    269.0520     57.8909     43.3822
   116.7500      0.0000    269.1310     57.1793     40.1407
   117.0000      0.0000    269.2107     56.5039     38.6729
   117.2500      0.0000    269.2916     55.8583     39.2243
   117.5000      0.0000    269.3742     55.2347     40.7741
   117.7500      0.0000    269.4598     54.6216     42.1321
   118.0000      0.0000    269.5540     53.9962     42.8168
   118.2500      0.0000    269.6748     53.3255     42.9645
   118.5000      0.0000    269.8849     52.5722     42.8782
   118.7500      0.0000    270.3760     51.6818     42.9326
   119.0000      0.0000    271.5781     50.5567     43.4941
   119.2500      0.0000    274.1492     49.0551     44.5092
   119.5000      0.0000    278.5971     47.0739     45.3934
   119.7500      0.0000    284.6801     44.6598     45.6229
   120.0000      0.0000    291.3349     41.9759     45.2877
   120.2500      0.0000    297.5157     39.1191     44.8585
   120.5000      0.0000    302.9612     36.0970     44.5851
   120.7500      0.0000    307.8471     33.0688     44.3495
   121.0000      0.0000    312.0316     30.4355     43.9837
   121.2500      0.0000    315.1250     28.5390     43.5423
   121.5000      0.0000    317.1949     27.3682     43.2271
   121.7500      0.0000    319.1361     26.6414     43.0409
   122.0000     -2.0000    322.6927     26.0797     42.7163
   122.2500     -2.0000    330.1345     25.5792     42.0817
   122.5000      0.0000    343.1241     25.2293     41.2844
   122.7500      0.0000    360.7294     25.2185     40.6249
   123.0000      0.0000    378.1181     25.6820     40.4442
   123.2500      0.0000    387.9260     26.6377     41.0689
   123.5000      0.0000    384.5670     28.0695     42.4907
   123.7500      0.0000    368.7364     29.9305     44.1212
   124.0000      0.0000    347.5536     31.9814     45.1042
   124.2500      0.0000    329.3016     33.7800     44.9060
   124.5000      0.0000    317.9883     34.9670     43.6885
   124.7500      0.0000    312.7760     35.4995     42.2774
   125.0000      0.0000    310.9806     35.5800     41.7402
   125.2500      0.0000    310.5304     35.4539     42.7512
   125.5000      0.0000    310.4637     35.2977     45.0907
   125.7500      0.0000    310.4649     35.2104     47.6996
   126.0000      0.0000    310.4671     35.2278     49.4228
   126.2500      0.0000    310.4482     35.3390     49.7708
   126.5000      0.0000    310.4021     35.5024     48.9490
   126.7500      0.0000    310.3293     35.6613     47.3568
