~Version Information
VERS.                      2.0: CWLS Log ASCII Standard - VERSION 2.0
WRAP.                       NO: One line per depth step
~Well Information Block
STRT.FT               240.0000: 
STOP.FT              1709.2000: 
STEP.FT                 0.1000: 
NULL.                -999.2500: 
COMP.          Pioneer Natural Resources: COMPANY
WELL.              Patten 22-2: WELL
FLD.           Purgatoire River: FIELD
LOC.           2157' FNL & 1528' FWL: LOCATION
PROV.                 Colorado: PROVINCE
CNTY.               Las Animas: COUNTRY
SRVC.                Patterson: SERVICE COMPANY
DATE.          Fri Dec 10 09:15:13 2004: LOG DATE
UWI.           05 071 08168 00: UNIQUE WELL ID
~Curve Information Block
DEPT.FT            0 000 00 00: Depth
DCAL.in                       : CDL Caliper
RHOB.g/cc                     : CDL Bulk Density
RHOC.g/cc                     : CDL Density Correction
DPOR.pu                       : CDL Density Porosity
NPOR.pu                       : Neutron Porosity
GR.GAPI                       : Gamma Ray
~Parameter Information Block
~A  Depth       DCAL        RHOB        RHOC        DPOR        NPOR         GR     
# ...
   720.0000      8.1138      2.4784      0.0410     10.4006     23.9537    102.7727
   720.1000      8.1138      2.4694      0.0331     10.9448     23.9496    104.9625
   720.2000      8.1138      2.4668     -0.0033     11.1033     23.2679    107.5294
   720.3000      8.1148      2.4758      0.0733     10.5592     22.2982    110.3669
   720.4000      8.1148      2.4821      0.0675     10.1782     21.4949    114.9762
   720.5000      8.1156      2.4825      0.0222     10.1543     21.0044    120.7274
   720.6000      8.1156      2.4910      0.0474      9.6389     20.8731    127.1344
   720.7000      8.1156      2.5104      0.0673      8.4621     20.9657    132.8017
   720.8000      8.1149      2.5274      0.0899      7.4322     21.0402    135.2547
   720.9000      8.1149      2.5351      0.0620      6.9607     21.1096    132.7718
   721.0000      8.1147      2.5425      0.0828      6.5162     21.3712    126.8596
   721.1000      8.1147      2.5521      0.0984      5.9306     21.8396    124.4970
   721.2000      8.1147      2.5557      0.0764      5.7138     22.4614    127.2371
   721.3000      8.1166      2.5509      0.0678      6.0031     22.9617    127.5424
   721.4000      8.1166      2.5449      0.0666      6.3720     22.9749    123.5532
   721.5000      8.1174      2.5431      0.0534      6.4766     22.8673    119.5189
   721.6000      8.1174      2.5471      0.0372      6.2378     23.2199    117.9544
   721.7000      8.1174      2.5504      0.0632      6.0394     23.7593    117.8193
   721.8000      8.1166      2.5421      0.0731      6.5388     24.0043    115.7207
   721.9000      8.1166      2.5279      0.0059      7.4021     23.9936    113.0792
   722.0000      8.1189      2.5193      0.0516      7.9201     23.9707    113.8521
   722.1000      8.1189      2.5123      0.0464      8.3436     23.9085    116.8528
   722.2000      8.1189      2.5131     -0.0304      8.2973     23.7615    117.4680
   722.3000      8.1236      2.5332      0.0594      7.0812     23.7254    115.7153
   722.4000      8.1236      2.5596      0.0655      5.4773     23.9017    114.9157
   722.5000      8.1260      2.5737      0.0991      4.6243     24.1721    115.2958
   722.6000      8.1260      2.5670      0.0637      5.0305     24.5364    116.3400
   722.7000      8.1260      2.5448      0.0507      6.3765     24.9327    118.9961
   722.8000      8.1295      2.5187      0.0455      7.9558     25.0385    122.1361
   722.9000      8.1295      2.4974      0.0167      9.2481     24.8937    124.1235
   723.0000      8.1354      2.4831      0.0237     10.1139     25.0212    127.8642
   723.1000      8.1354      2.4697      0.0769     10.9276     25.4425    133.6348
   723.2000      8.1354      2.4517      0.0464     12.0164     25.3724    135.5378
   723.3000      8.1388      2.4339      0.0161     13.0977     24.4446    134.4286
   723.4000      8.1388      2.4200      0.0588     13.9416     23.3206    134.1151
   723.5000      8.1393      2.4145     -0.0151     14.2738     22.6380    133.2656
   723.6000      8.1393      2.4271      0.0134     13.5072     22.5738    130.2800
   723.7000      8.1393      2.4529      0.0618     11.9439     22.7461    125.3350
   723.8000      8.1399      2.4772      0.0827     10.4731     22.6046    122.9047
   723.9000      8.1399      2.4925      0.1161      9.5425     22.2582    126.4055
   724.0000      8.1394      2.4920      0.1762      9.5767     22.1819    132.8280
   724.1000      8.1394      2.4773      0.1174     10.4638     22.3437    136.1929
   724.2000      8.1394      2.4585      0.1686     11.6032     22.3247    133.6616
   724.3000      8.1400      2.4274      0.2271     13.4938     22.1301    129.3684
   724.4000      8.1400      2.3797      0.1209     16.3812     21.9330    125.9707
   724.5000      8.1423      2.3347      0.0863     19.1073     21.6610    120.9898
   724.6000      8.1423      2.3051      0.0791     20.9058     21.2210    116.1268
   724.7000      8.1423      2.2899      0.0303     21.8221     20.5876    114.2197
   724.8000      8.1437      2.2886      0.0610     21.9019     19.8318    114.1387
   724.9000      8.1437      2.3010      0.0441     21.1537     19.1692    114.1007
   725.0000      8.1479      2.3286      0.0937     19.4806     18.8036    112.2944
   725.1000      8.1479      2.3715      0.1364     16.8762     18.6356    110.2627
   725.2000      8.1479      2.4280      0.1986     13.4516     18.6850    111.3036
   725.3000      8.1510      2.4881      0.2668      9.8112     19.1500    113.8138
   725.4000      8.1510      2.5252      0.2970      7.5609     19.9639    115.7340
   725.5000      8.1411      2.5240      0.1049      7.6380     20.8291    120.0820
   725.6000      8.1411      2.5037      0.0916      8.8648     21.4697    126.6919
   725.7000      8.1411      2.4828      0.1143     10.1305     21.9724    128.0103
   725.8000      8.1257      2.4670      0.0584     11.0922     22.4037    123.6184
   725.9000      8.1257      2.4620      0.0843     11.3968     22.6503    121.9512
   726.0000      8.1159      2.4588      0.1019     11.5881     22.8283    124.2459
   726.1000      8.1159      2.4430      0.0559     12.5424     22.7925    122.9723
   726.2000      8.1159      2.4178      0.0240     14.0757     22.3974    117.0586
   726.3000      8.1124      2.3914      0.0317     15.6718     22.0510    113.4279
   726.4000      8.1124      2.3624      0.0307     17.4312     21.8712    114.9888
   726.5000      8.1118      2.3223      0.0441     19.8628     21.5780    117.9886
   726.6000      8.1118      2.2731      0.0161     22.8411     21.2280    118.1030
   726.7000      8.1118      2.2406     -0.0255     24.8151     21.0198    116.8571
   726.8000      8.1116      2.2414      0.0335     24.7638     20.6058    117.4656
   726.9000      8.1116      2.2553      0.0539     23.9213     19.6643    119.4387
   727.0000      8.1138      2.2586      0.0748     23.7233     18.7186    120.9203
   727.1000      8.1138      2.2522      0.0675     24.1070     18.2545    121.2860
   727.2000      8.1138      2.2430      0.0959     24.6675     18.0144    120.2169
   727.3000      8.1215      2.2207      0.0958     26.0158     17.5633    117.8262
   727.4000      8.1215      2.1839      0.0531     28.2496     16.9911    115.1834
   727.5000      8.1334      2.1621      0.0261     29.5689     16.6258    113.0922
   727.6000      8.1334      2.1754      0.0894     28.7622     16.4728    115.6143
   727.7000      8.1334      2.2043      0.0948     27.0143     16.4822    122.3809
   727.8000      8.1428      2.2274      0.0815     25.6107     16.7789    124.1257
   727.9000      8.1428      2.2501      0.0682     24.2341     17.2598    121.2845
   728.0000      8.1533      2.2811      0.1000     22.3574     17.6437    122.8064
   728.1000      8.1533      2.3169      0.0856     20.1882     17.8879    126.7099
   728.2000      8.1533      2.3515      0.1317     18.0919     18.2384    126.2085
   728.3000      8.1702      2.3811      0.1065     16.2997     18.6020    120.5433
   728.4000      8.1702      2.4092      0.1161     14.5967     18.8162    113.2738
   728.5000      8.1850      2.4393      0.1762     12.7676     19.1765    108.4614
   728.6000      8.1850      2.4649      0.1127     11.2172     19.7001    108.0497
   728.7000      8.1850      2.4781      0.0973     10.4185     20.1094    110.6445
   728.8000      8.1915      2.4787      0.0923     10.3846     20.5754    113.7080
   728.9000      8.1915      2.4688      0.0850     10.9817     21.2882    115.1289
   729.0000      8.1952      2.4422      0.0550     12.5942     21.8877    113.8483
   729.1000      8.1952      2.4006      0.0010     15.1141     21.9827    112.7060
   729.2000      8.1952      2.3622      0.0034     17.4439     21.7360    116.3740
   729.3000      8.1973      2.3401     -0.0172     18.7811     21.4448    125.3980
   729.4000      8.1973      2.3363     -0.0179     19.0149     21.1223    132.2258
   729.5000      8.1975      2.3468      0.0135     18.3759     20.8292    131.3681
