~Version Information
VERS.                      2.0: CWLS Log ASCII Standard - VERSION 2.0
WRAP.                       NO: One line per depth step
~Well Information Block
STRT.FT               845.0000: 
STOP.FT              2308.2000: 
STEP.FT                 0.1000: 
NULL.                -999.2500: 
COMP.          Pioneer Natural Resources: COMPANY
WELL.             Vector 33-23: WELL
FLD.           Purgatoire River: FIELD
LOC.           1560' FEL & 1988' FSL----: LOCATION
PROV.                 Colorado: PROVINCE
CNTY.               Las Animas: COUNTRY
SRVC.                Patterson: SERVICE COMPANY
DATE.          Mon Mar 28 08:17:25 2005: LOG DATE
UWI.           05 071 08336 00: UNIQUE WELL ID
~Curve Information Block
DEPT.FT            0 000 00 00: Depth
DCAL.in                       : CDL Caliper
RHOB.g/cc                     : CDL Bulk Density
RHOC.g/cc                     : CDL Density Correction
DPOR.pu                       : CDL Density Porosity
NPOR.pu                       : Neutron Porosity
GR.GAPI                       : Gamma Ray
~Parameter Information Block
~A  Depth       DCAL        RHOB        RHOC        DPOR        NPOR         GR     
# ...
  1037.0000      8.1516      1.2855     -0.0150     82.6969      7.1608     66.1422
  1037.1000      8.1516      1.3017      0.0464     81.7122      6.9342     62.2608
  1037.2000      8.1516      1.3897      0.1358     76.3796      6.8036     62.3465
  1037.3000      8.1418      1.5314      0.2540     67.7944      6.7346     66.3562
  1037.4000      8.1418      1.6838      0.3173     58.5599      6.9825     69.7798
  1037.5000      8.1450      1.8201      0.3155     50.2988      7.6925     71.8129
  1037.6000      8.1450      1.9483      0.2939     42.5295      8.7365     75.4715
  1037.7000      8.1450      2.0836      0.3594     34.3252     10.0644     79.8762
  1037.8000      8.1462      2.2262      0.3719     25.6827     11.7991     83.8976
  1037.9000      8.1462      2.3660      0.4150     17.2094     13.7062     89.7187
  1038.0000      8.1276      2.4928      0.3486      9.5272     15.3548     98.3382
  1038.1000      8.1276      2.5905      0.3479      3.6059     16.8672    106.9770
  1038.2000      8.1276      2.6342      0.2700      0.9583     18.5532    111.3748
  1038.3000      8.0907      2.6265      0.1560      1.4261     20.1486    111.6012
  1038.4000      8.0907      2.6059      0.1040      2.6722     21.1731    110.1372
  1038.5000      8.0672      2.6020      0.0746      2.9100     22.0204    108.6357
  1038.6000      8.0672      2.6157      0.0661      2.0805     23.1094    106.7519
  1038.7000      8.0672      2.6375      0.0803      0.7562     23.9865    102.2966
  1038.8000      8.0609      2.6554      0.1181     -0.3275     24.4412     95.5549
  1038.9000      8.0609      2.6543      0.0941     -0.2585     24.6615     88.3599
  1039.0000      8.0588      2.6286      0.0743      1.2988     24.6330     82.8128
  1039.1000      8.0588      2.5923      0.0120      3.4980     24.2787     80.8838
  1039.2000      8.0588      2.5648      0.0207      5.1649     23.6518     81.3989
  1039.3000      8.0576      2.5463      0.0655      6.2876     23.1056     80.9654
  1039.4000      8.0576      2.5319      0.0234      7.1591     23.1116     80.5782
  1039.5000      8.0577      2.5338      0.0291      7.0405     23.6434     81.7353
  1039.6000      8.0577      2.5601      0.0288      5.4471     24.1305     83.7506
  1039.7000      8.0577      2.5944      0.0688      3.3691     24.1516     88.1994
  1039.8000      8.0595      2.6150      0.0689      2.1234     23.7867     94.7346
  1039.9000      8.0595      2.6253      0.0724      1.4965     23.4566     98.1893
  1040.0000      8.0635      2.6369      0.1192      0.7936     23.5216     96.3600
  1040.1000      8.0635      2.6398      0.1404      0.6165     23.8970     92.8337
  1040.2000      8.0635      2.6306      0.0914      1.1781     24.1266     90.4875
  1040.3000      8.0715      2.6261      0.1388      1.4465     23.9290     89.1332
  1040.4000      8.0715      2.6317      0.1331      1.1063     23.5211     88.1306
  1040.5000      8.0863      2.6396      0.1143      0.6332     23.0680     86.7804
  1040.6000      8.0863      2.6454      0.1288      0.2785     22.6765     82.5142
  1040.7000      8.0863      2.6482      0.1226      0.1088     22.9009     76.0588
  1040.8000      8.1023      2.6461      0.1431      0.2339     23.8695     74.1681
  1040.9000      8.1023      2.6358      0.1387      0.8636     24.7075     76.3725
  1041.0000      8.1094      2.6174      0.1043      1.9770     25.0419     76.9979
  1041.1000      8.1094      2.5998      0.0963      3.0447     25.5891     76.8673
  1041.2000      8.1094      2.5893      0.0904      3.6765     26.5358     79.5942
  1041.3000      8.1097      2.5755      0.0955      4.5131     27.2963     85.1020
  1041.4000      8.1097      2.5461      0.0667      6.2980     27.5738     90.8185
  1041.5000      8.1098      2.5066      0.0757      8.6933     27.5331     94.6395
  1041.6000      8.1098      2.4631      0.0515     11.3272     27.3573     96.1055
  1041.7000      8.1098      2.4044      0.0753     14.8847     26.9503     97.6972
  1041.8000      8.1113      2.3114      0.0565     20.5205     26.2188    100.4623
  1041.9000      8.1113      2.1886     -0.0021     27.9636     25.3341    103.1027
  1042.0000      8.1145      2.0669     -0.0492     35.3389     24.3613    105.1283
  1042.1000      8.1145      1.9655     -0.0379     41.4822     23.1581    106.3826
  1042.2000      8.1145      1.8907     -0.1090     46.0177     21.7336    106.2334
  1042.3000      8.1239      1.8638     -0.0865     47.6465     20.3234    104.8942
  1042.4000      8.1239      1.9014     -0.0425     45.3709     19.0280    102.9173
  1042.5000      8.1529      1.9784      0.1423     40.7009     17.8476    101.8120
  1042.6000      8.1529      2.0497      0.1725     36.3828     16.9029    103.3757
  1042.7000      8.1529      2.1138      0.1582     32.4951     16.4406    105.5440
  1042.8000      8.2042      2.2095      0.2165     26.6977     16.7501    106.6645
  1042.9000      8.2042      2.3422      0.3353     18.6574     17.7894    109.3894
  1043.0000      8.2487      2.4645      0.3798     11.2402     18.9093    115.8788
  1043.1000      8.2487      2.5341      0.3089      7.0229     19.8936    123.6567
  1043.2000      8.2487      2.5513      0.1933      5.9805     21.4045    128.3215
  1043.3000      8.2671      2.5428      0.1294      6.4962     23.5844    129.1689
  1043.4000      8.2671      2.5330      0.1087      7.0920     25.7019    128.7434
  1043.5000      8.2741      2.5283      0.0898      7.3781     27.2710    131.5813
  1043.6000      8.2741      2.5211      0.0969      7.8118     28.2967    137.8404
  1043.7000      8.2741      2.4957      0.1134      9.3512     28.7483    140.7903
  1043.8000      8.2824      2.4405      0.0500     12.6978     28.5118    138.4707
  1043.9000      8.2824      2.3603      0.0396     17.5591     27.6464    133.9116
  1044.0000      8.2891      2.2688     -0.0220     23.1034     26.2979    128.6526
  1044.1000      8.2891      2.1756     -0.0326     28.7500     24.5180    124.2676
  1044.2000      8.2891      2.0756     -0.0294     34.8099     22.5741    122.3144
  1044.3000      8.2938      1.9758     -0.1360     40.8591     20.7612    123.0771
  1044.4000      8.2938      1.9090     -0.1529     44.9090     18.9514    122.7277
  1044.5000      8.3052      1.8851     -0.0816     46.3562     17.2394    118.5257
  1044.6000      8.3052      1.8788     -0.0347     46.7366     16.2103    114.9952
  1044.7000      8.3052      1.8842     -0.0197     46.4106     16.0871    116.4484
  1044.8000      8.3539      1.9397      0.0566     43.0507     16.6336    122.1883
  1044.9000      8.3539      2.0750      0.3239     34.8477     17.7832    127.6060
  1045.0000      8.4672      2.2566      0.5541     23.8446     19.6352    130.3819
  1045.1000      8.4672      2.4159      0.6097     14.1902     22.0029    132.8143
  1045.2000      8.4672      2.5182      0.5024      7.9907     24.4442    135.0277
  1045.3000      8.5772      2.5718      0.4358      4.7401     26.4344    134.2176
  1045.4000      8.5772      2.5991      0.3625      3.0849     27.6474    131.6679
  1045.5000      8.5453      2.6293      0.3102      1.2562     28.0677    129.7167
  1045.6000      8.5453      2.6760      0.3843     -1.5770     27.9950    126.2755
  1045.7000      8.5453      2.7293      0.3962     -4.8067     27.8704    121.0923
  1045.8000      8.3815      2.7796      0.4473     -7.8530     27.9879    117.5440
  1045.9000      8.3815      2.8063      0.4542     -9.4742     28.2753    116.3527
  1046.0000      8.2494      2.7810      0.3537     -7.9405     28.3518    114.8985
  1046.1000      8.2494      2.7145      0.1689     -3.9077     27.8916    113.9240
  1046.2000      8.2494      2.6548      0.0681     -0.2930     27.0320    116.1772
  1046.3000      8.2012      2.6239      0.0770      1.5824     26.2625    118.2679
  1046.4000      8.2012      2.6009      0.0976      2.9759     25.8697    118.9504
  1046.5000      8.1897      2.5688      0.0601      4.9234     25.5395    121.6638
