~Version Information
VERS.                      2.0: CWLS Log ASCII Standard - VERSION 2.0
WRAP.                       NO: One line per depth step
~Well Information Block
STRT.FT                -2.7500: 
STOP.FT              2141.2500: 
STEP.FT                 0.2500: 
NULL.                -999.2500: 
COMP.          Pioneer Nautural Resources: COMPANY
WELL.             Enzo 43-8 Tr: WELL
FLD.           Purgatorie River: FIELD
LOC.           2303' FSL & 604' FEL--: LOCATION
PROV.                       CO: PROVINCE
CNTY.               Las Animas: COUNTRY
SRVC.                         : SERVICE COMPANY
DATE.          Thu Nov 04 09:01:55 2004: LOG DATE
UWI.            05-071-08213  : UNIQUE WELL ID
~Curve Information Block
DEPT.FT            0 000 00 00: Depth
GR.GAPI                       : Gamma Ray
CCL.                          : Casing Collar Locator
TT3.usec                      : CBL 3' Travel Time
AMP3.mV                       : CBL 3' Amplitude
~Parameter Information Block
~A  Depth        GR         CCL         TT3         AMP3    
# ...
   834.7500    137.5541      0.0000    757.8837      6.7026
   835.0000    138.9776      0.0000    757.5753      6.6464
   835.2500    138.7962      0.0000    757.2218      6.5964
   835.5000    138.6873      0.0000    756.8453      6.5488
   835.7500    139.5011      0.0000    756.3431      6.4951
   836.0000    140.9347      0.0000    755.3417      6.4294
   836.2500    142.0571      0.0000    753.1768      6.3456
   836.5000    141.8833      0.0000    749.2960      6.2366
   836.7500    139.7178      0.0000    744.0853      6.1038
   837.0000    135.5480      0.0000    739.3104      5.9618
   837.2500    130.4716      0.0000    737.2172      5.8269
   837.5000    126.2639      0.0000    738.6888      5.7081
   837.7500    123.9287      0.0000    742.3566      5.6148
   838.0000    122.7674      0.0000    745.8665      5.5650
   838.2500    121.0150      0.0000    748.0231      5.5776
   838.5000    117.1473      0.0000    749.4479      5.6587
   838.7500    110.6678      0.0000    751.2444      5.7966
   839.0000    102.2740      0.0000    753.5345      5.9681
   839.2500     93.4962      0.0000    755.4609      6.1498
   839.5000     85.9045      0.0000    756.2720      6.3239
   839.7500     80.5457      0.0000    756.3497      6.4728
   840.0000     77.8917      0.0000    757.4565      6.5752
   840.2500     77.6495      0.0000    761.7422      6.6171
   840.5000     78.3988      0.0000    769.8493      6.6041
   840.7500     78.0759      0.0000    779.9144      6.5537
   841.0000     75.3398      0.0000    788.8066      6.4700
   841.2500     70.5338      0.0000    794.3027      6.3267
   841.5000     65.3897      0.0000    796.0800      6.0754
   841.7500     61.8214      0.0000    795.3609      5.6832
   842.0000     60.7437      0.0000    794.4155      5.1822
   842.2500     61.7385      0.0000    795.8995      4.6782
   842.5000     63.5849      0.0000    801.2457      4.2770
   842.7500     64.9571      0.0000    808.9575      3.9952
   843.0000     64.9546      0.0000    815.4626      3.7683
   843.2500     63.5393      0.0000    818.6483      3.5409
   843.5000     61.6268      0.0000    819.8000      3.3124
   843.7500     60.4140     -2.0000    821.0177      3.1042
   844.0000     60.3383      2.0000    822.2756      2.9310
   844.2500     60.7432      1.9592    822.8704      2.8115
   844.5000     60.6419      0.0000    824.2034      2.7831
   844.7500     59.6298      0.0000    828.2390      2.8940
   845.0000     58.0531      0.0000    833.4736      3.1628
   845.2500     56.7703      0.0000    834.7139      3.5201
   845.5000     56.8978      0.0000    827.6192      3.8161
   845.7500     59.0612      0.0000    812.9587      3.9463
   846.0000     62.3564      0.0000    796.3555      3.9579
   846.2500     64.6668      0.0000    783.9883      3.9871
   846.5000     64.7585      0.0000    778.5159      4.1172
   846.7500     63.7985      0.0000    778.5894      4.3363
   847.0000     64.4344      0.0000    781.2441      4.5945
   847.2500     68.7100      0.0000    784.1713      4.8507
   847.5000     77.0135      0.0000    786.4435      5.0780
   847.7500     88.4504      0.0000    787.9585      5.2658
   848.0000    101.6703      0.0000    788.3960      5.4279
   848.2500    115.2300      0.0000    786.7838      5.5960
   848.5000    127.3188      0.0000    782.4401      5.7923
   848.7500    135.6186      0.0000    776.1168      6.0071
   849.0000    138.2872      0.0000    769.6954      6.2052
   849.2500    135.5948      0.0000    764.7619      6.3528
   849.5000    130.0216      0.0000    761.7358      6.4396
   849.7500    124.0553      0.0000    760.1783      6.4808
   850.0000    118.4163      0.0000    759.4931      6.4967
   850.2500    113.2056      0.0000    759.2962      6.4930
   850.5000    110.0515      0.0000    759.4545      6.4633
   850.7500    111.7332      0.0000    760.0348      6.4115
   851.0000    119.5029      0.0000    761.3768      6.3564
   851.2500    131.4104      0.0000    764.1637      6.3111
   851.5000    143.4377      0.0000    769.2134      6.2665
   851.7500    152.1196      0.0000    776.7179      6.2029
   852.0000    156.2660      0.0000    785.2322      6.1163
   852.2500    156.7915      0.0000    791.5048      6.0305
   852.5000    155.4892      0.0000    792.2513      5.9862
   852.7500    153.7901      0.0000    786.9933      6.0118
   853.0000    151.8413      0.0000    778.9553      6.1014
   853.2500    148.4079      0.0000    772.5323      6.2205
   853.5000    142.0299      0.0000    769.8721      6.3323
   853.7500    132.6611      0.0000    769.8818      6.4159
   854.0000    122.1594      0.0000    769.9769      6.4676
   854.2500    112.9643      0.0000    768.4961      6.4918
   854.5000    106.2699      0.0000    765.6927      6.4915
   854.7500    101.7278      0.0000    762.8392      6.4691
   855.0000     98.9556      0.0000    760.8535      6.4330
   855.2500     98.6282      0.0000    759.8358      6.3967
   855.5000    101.4173      0.0000    759.4708      6.3674
   855.7500    106.3507      0.0000    759.4295      6.3420
   856.0000    111.2004      0.0000    759.4291      6.3149
   856.2500    114.4098      0.0000    759.1163      6.2841
   856.5000    116.0903      0.0000    757.9553      6.2505
   856.7500    117.3994      0.0000    755.2504      6.2129
   857.0000    119.4412      0.0000    750.5477      6.1678
   857.2500    122.3455      0.0000    744.4404      6.1163
   857.5000    124.7064      0.0000    739.0217      6.0706
   857.7500    124.0550      0.0000    736.9488      6.0490
   858.0000    118.5701      0.0000    739.4997      6.0603
   858.2500    108.7996      0.0000    745.5966      6.0942
   858.5000     97.5993      0.0000    752.9714      6.1327
   858.7500     88.1607      0.0000    760.1205      6.1686
   859.0000     82.1773      0.0000    766.8083      6.2047
   859.2500     79.8898      0.0000    772.8904      6.2337
   859.5000     81.4469      0.0000    777.4772      6.2307
   859.7500     87.6264      0.0000    779.8276      6.1771
   860.0000     98.9392      0.0000    780.5046      6.0855
   860.2500    114.1666      0.0000    780.6453      5.9921
   860.5000    130.1161      0.0000    780.2390      5.9273
   860.7500    142.8267      0.0000    778.1891      5.9029
   861.0000    149.2546      0.0000    774.1486      5.9227
   861.2500    148.8240      0.0000    769.3510      5.9878
   861.5000    144.0539      0.0000    765.4209      6.0881
   861.7500    139.2750      0.0000    763.0301      6.1975
   862.0000    138.0334      0.0000    761.8615      6.2892
   862.2500    141.0316      0.0000    761.3177      6.3517
   862.5000    145.8900      0.0000    760.9828      6.3861
   862.7500    149.1391      0.0000    760.6663      6.3956
   863.0000    149.2187      0.0000    760.3184      6.3821
   863.2500    147.5265      0.0000    759.9722      6.3505
   863.5000    146.2119      0.0000    759.7070      6.3085
   863.7500    145.5266      0.0000    759.6033      6.2612
   864.0000    144.3656      0.0000    759.6848      6.2083
   864.2500    143.0972      0.0000    759.8907      6.1443
   864.5000    144.2805      0.0000    760.1103      6.0614
   864.7500    149.6812      0.0000    760.2518      5.9543
   865.0000    157.2845      0.0000    760.2907      5.8276
   865.2500    162.2215      0.0000    760.2650      5.7010
   865.5000    160.6924      0.0000    760.2331      5.6005
   865.7500    152.8079      0.0000    760.2236      5.5430
   866.0000    142.0038      0.0000    760.2159      5.5272
   866.2500    132.2369      0.0000    760.1769      5.5434
   866.5000    125.5956      0.0000    760.1197      5.5879
   866.7500    121.8007      0.0000    760.1133      5.6655
   867.0000    119.3198      0.0000    760.2164      5.7770
   867.2500    117.0371      0.0000    760.4185      5.9073
   867.5000    115.2489      0.0000    760.6737      6.0304
   867.7500    115.1409      0.0000    761.0162      6.1243
   868.0000    117.2221      0.0000    761.6797      6.1756
