~Version Information
VERS.                      2.0: CWLS Log ASCII Standard - VERSION 2.0
WRAP.                       NO: One line per depth step
~Well Information Block
STRT.FT               482.2000: 
STOP.FT              2349.0000: 
STEP.FT                 0.1000: 
NULL.                -999.2500: 
COMP.          Pioneer Natural Resources: COMPANY
WELL.          Hill Climb 22-2: WELL
FLD.           Purgatoire River: FIELD
LOC.           1820' FNL & 2193' FWL: LOCATION
PROV.                 Colorado: PROVINCE
CNTY.               Las Animas: COUNTRY
SRVC.                Patterson: SERVICE COMPANY
DATE.          Wed Oct 20 09:25:25 2004: LOG DATE
UWI.           05 071 08175 00: UNIQUE WELL ID
~Curve Information Block
DEPT.FT            0 000 00 00: Depth
DCAL.in                       : CDL Caliper
DPOR.pu                       : CDL Density Porosity
NPOR.pu                       : Neutron Porosity
RHOB.g/cc                     : CDL Bulk Density
RHOC.g/cc                     : CDL Density Correction
GR.GAPI                       : Gamma Ray
~Parameter Information Block
~A  Depth       DCAL        DPOR        NPOR        RHOB        RHOC         GR     
# ...
  2037.4000      8.0769      5.7181     24.1717      2.5557      0.0690    151.2888
  2037.5000      8.0774      5.9801     23.8671      2.5513      0.0645    141.0058
  2037.6000      8.0774      5.5382     23.7273      2.5586      0.0672    132.7692
  2037.7000      8.0774      5.0811     23.9908      2.5662      0.0883    124.1197
  2037.8000      8.0806      5.3991     24.2114      2.5609      0.0627    111.3769
  2037.9000      8.0806      5.9773     24.2390      2.5514      0.0303    103.1525
  2038.0000      8.0839      6.0019     24.3195      2.5510      0.0318    101.1897
  2038.1000      8.0839      5.8877     24.4508      2.5529      0.0503     97.4038
  2038.2000      8.0839      6.3461     24.6219      2.5453      0.0311     93.7279
  2038.3000      8.0821      7.3599     25.0129      2.5286      0.0259    102.8413
  2038.4000      8.0821      8.6784     25.3993      2.5068      0.0108    127.2280
  2038.5000      8.0795      9.6569     25.3771      2.4907     -0.0607    143.2596
  2038.6000      8.0795      9.8052     24.9445      2.4882     -0.0030    132.1190
  2038.7000      8.0795      9.7797     24.3302      2.4886      0.0261    110.9254
  2038.8000      8.0787     10.1083     23.9907      2.4832      0.0264    100.6689
  2038.9000      8.0787     10.2017     24.6320      2.4817     -0.0054    104.8171
  2039.0000      8.0792      9.7555     25.8595      2.4890      0.0052    115.3628
  2039.1000      8.0792      9.6967     26.3422      2.4900      0.0344    120.8740
  2039.2000      8.0792     10.8441     25.8161      2.4711      0.0159    116.6257
  2039.3000      8.0789     12.4782     25.1790      2.4441     -0.0342    106.3311
  2039.4000      8.0789     12.9025     25.1032      2.4371     -0.0588     97.2818
  2039.5000      8.0768     11.4406     25.3820      2.4612     -0.0276     96.3625
  2039.6000      8.0768      9.4573     25.4798      2.4940      0.0333    102.7210
  2039.7000      8.0768      8.5505     25.2413      2.5089      0.0104    103.9756
  2039.8000      8.0757      8.8223     24.6692      2.5044      0.0201     97.1051
  2039.9000      8.0757      9.6447     23.9478      2.4909      0.0046     97.5616
  2040.0000      8.0770     10.1772     23.5024      2.4821     -0.0287    116.6799
  2040.1000      8.0770     10.0009     23.6187      2.4850     -0.0009    140.9539
  2040.2000      8.0770      9.7686     24.2231      2.4888      0.0140    144.5041
  2040.3000      8.0821      9.9437     25.1169      2.4859     -0.0042    131.6709
  2040.4000      8.0821     10.3925     25.8310      2.4785      0.0032    124.6512
  2040.5000      8.0990     11.0538     25.6683      2.4676      0.0060    118.5179
  2040.6000      8.0990     11.4408     24.9977      2.4612     -0.0183    107.2618
  2040.7000      8.0990     11.0083     24.4679      2.4684      0.0216    100.7127
  2040.8000      8.1209     10.3855     23.4129      2.4786      0.0253    101.6434
  2040.9000      8.1209     10.4769     21.5306      2.4771      0.0203    104.7541
  2041.0000      8.1305     11.1806     20.3847      2.4655      0.0251    102.9189
  2041.1000      8.1305     11.8487     21.4769      2.4545      0.0039     94.7219
  2041.2000      8.1305     12.0110     23.8801      2.4518      0.0232     89.3287
  2041.3000      8.1310     11.5319     25.4135      2.4597     -0.0187     94.0607
  2041.4000      8.1310     10.9647     25.2898      2.4691      0.0005    107.2166
  2041.5000      8.1334     11.0955     24.2927      2.4669     -0.0082    121.5503
  2041.6000      8.1334     11.4026     23.1786      2.4619     -0.0397    132.2037
  2041.7000      8.1334     10.6326     22.3742      2.4746     -0.0355    136.3560
  2041.8000      8.1401      9.0401     22.3406      2.5008      0.0263    133.1312
  2041.9000      8.1401      8.1753     23.1871      2.5151      0.0313    132.5352
  2042.0000      8.1485      8.6963     24.5519      2.5065      0.0586    133.6370
  2042.1000      8.1485     10.2086     25.8961      2.4816      0.0382    126.3765
  2042.2000      8.1485     11.9880     26.6528      2.4522     -0.0077    121.9681
  2042.3000      8.1542     13.6998     26.8755      2.4240      0.0011    128.9863
  2042.4000      8.1542     15.4014     27.1234      2.3959     -0.0383    131.4661
  2042.5000      8.1607     16.6209     27.6843      2.3758     -0.0387    124.1305
  2042.6000      8.1607     17.3010     28.7100      2.3645      0.0110    121.7878
  2042.7000      8.1607     17.9291     30.0242      2.3542     -0.0427    129.0935
  2042.8000      8.1701     18.1931     30.9277      2.3498     -0.0204    137.6247
  2042.9000      8.1701     17.9174     31.1274      2.3544     -0.0134    139.5706
  2043.0000      8.1763     18.5297     31.2784      2.3443      0.0848    129.9086
  2043.1000      8.1763     22.2592     31.7297      2.2827      0.0910    115.9817
  2043.2000      8.1763     29.2634     31.8369      2.1672      0.0164    108.3268
  2043.3000      8.1777     36.8405     31.4800      2.0421     -0.0495    113.8152
  2043.4000      8.1777     42.3478     31.3804      1.9513     -0.0229    128.5519
  2043.5000      8.1761     45.3000     31.6279      1.9026      0.0007    136.9333
  2043.6000      8.1761     46.0540     31.7129      1.8901     -0.0048    132.9875
  2043.7000      8.1761     44.8798     31.6010      1.9095      0.0543    122.2445
  2043.8000      8.1733     42.7168     31.0824      1.9452      0.1009    111.3098
  2043.9000      8.1733     40.6577     29.8936      1.9791      0.1671    102.8376
  2044.0000      8.1737     38.6878     28.4325      2.0117      0.1808     94.5419
  2044.1000      8.1737     36.3854     27.3822      2.0496      0.2021     89.2514
  2044.2000      8.1737     33.9203     27.1169      2.0903      0.1503     97.0444
  2044.3000      8.1727     31.1088     27.4065      2.1367      0.1002    116.8308
  2044.4000      8.1727     27.5054     27.5972      2.1962      0.0580    128.6646
  2044.5000      8.1706     23.6913     27.4169      2.2591      0.0753    122.5549
  2044.6000      8.1706     20.6548     27.3285      2.3092      0.0590    111.9377
  2044.7000      8.1706     18.5243     27.6997      2.3443      0.0415    108.1739
  2044.8000      8.1809     17.4268     28.0682      2.3625      0.0833    112.4790
  2044.9000      8.1809     17.6415     27.8699      2.3589      0.0433    120.5252
  2045.0000      8.1974     18.7229     27.6487      2.3411      0.0505    124.0985
  2045.1000      8.1974     20.5614     27.9860      2.3107      0.0289    123.3889
  2045.2000      8.1974     24.0840     28.3807      2.2526      0.0063    123.4939
  2045.3000      8.2065     29.6023     28.7248      2.1616     -0.0261    123.2791
  2045.4000      8.2065     35.7531     29.5916      2.0601     -0.0253    121.5818
  2045.5000      8.2091     41.3885     30.9337      1.9671     -0.0446    123.2751
  2045.6000      8.2091     46.7840     32.2132      1.8781     -0.0857    132.0681
  2045.7000      8.2091     52.0316     33.1016      1.7915     -0.1228    142.3366
  2045.8000      8.2095     56.2333     33.3800      1.7222     -0.1222    146.3294
  2045.9000      8.2095     59.2569     33.1720      1.6723     -0.0636    137.5553
  2046.0000      8.2122     62.5769     32.8701      1.6175     -0.0057    114.1919
  2046.1000      8.2122     66.9196     32.7184      1.5458     -0.0131     91.7111
  2046.2000      8.2122     71.0784     32.9421      1.4772      0.0055     82.0753
  2046.3000      8.2380     74.0358     33.3694      1.4284      0.0072     82.1445
  2046.4000      8.2380     76.0921     33.7912      1.3945      0.0075     85.4339
  2046.5000      8.2991     77.9606     34.5126      1.3637      0.0001     87.1917
  2046.6000      8.2991     79.7646     35.4807      1.3339     -0.0261     87.5910
  2046.7000      8.2991     81.1021     36.1930      1.3118     -0.0247     86.0557
  2046.8000      8.4156     81.9480     36.3874      1.2979     -0.0057     76.9702
  2046.9000      8.4156     82.7194     36.4568      1.2851      0.0013     62.4734
