~Version Information
VERS.                      2.0: CWLS Log ASCII Standard - VERSION 2.0
WRAP.                       NO: One line per depth step
~Well Information Block
STRT.FT               890.0000: 
STOP.FT              1588.2000: 
STEP.FT                 0.1000: 
NULL.                -999.2500: 
COMP.          Evergreen Operating Corporation: COMPANY
WELL.            Tomahawk 44-9: WELL
FLD.           Purgatorie River: FIELD
LOC.           434' FSL & 491' FEL: LOCATION
PROV.                 Colorado: PROVINCE
CNTY.               Las Animas: COUNTRY
SRVC.                         : SERVICE COMPANY
DATE.          Mon Sep 13 10:07:57 2004: LOG DATE
UWI.           05 071 08133 00: UNIQUE WELL ID
~Curve Information Block
DEPT.FT            0 000 00 00: Depth
LTEN.lb                       : Surface Line Tension
DCAL.in                       : CDL Caliper
RHOB.g/cc                     : CDL Bulk Density
RHOC.g/cc                     : CDL Density Correction
DPOR.pu                       : CDL Density Porosity
GR.GAPI                       : Gamma Ray
NPOR.pu                       : Neutron Porosity
~Parameter Information Block
~A  Depth       LTEN        DCAL        RHOB        RHOC        DPOR         GR         NPOR    
# ...
  1116.8000   1075.9613      8.1991      2.5495      0.0200      6.0906     90.8612     10.4443
  1116.9000   1075.9613      8.1991      2.5500     -0.0105      6.0622     93.1181      9.8130
  1117.0000   1059.8387      8.1979      2.5550     -0.0050      5.7563     92.9306      9.2553
  1117.1000   1059.8387      8.1979      2.5690      0.0566      4.9121     89.2988      9.2665
  1117.2000   1059.8387      8.1979      2.5915      0.0569      3.5482     86.4178      9.6398
  1117.3000   1070.8483      8.2018      2.6189      0.0661      1.8828     86.4183     10.0064
  1117.4000   1070.8483      8.2018      2.6399      0.0637      0.6118     88.3082     10.2213
  1117.5000   1062.4498      8.2022      2.6447      0.1000      0.3192     93.0737     10.3384
  1117.6000   1062.4498      8.2022      2.6423      0.0619      0.4664    100.9369     10.5342
  1117.7000   1062.4498      8.2022      2.6518      0.0824     -0.1098    105.7474     10.9210
  1117.8000   1066.1926      8.1947      2.6826      0.0623     -1.9751    102.7888     11.4597
  1117.9000   1066.1926      8.1947      2.7334      0.0716     -5.0546     96.4337     11.9157
  1118.0000   1077.1909      8.1878      2.7903      0.0925     -8.5011     91.6794     12.0870
  1118.1000   1077.1909      8.1878      2.8313      0.1200    -10.9855     89.8467     12.1293
  1118.2000   1077.1909      8.1878      2.8448      0.0826    -11.8049     91.0430     12.0477
  1118.3000   1061.7565      8.2036      2.8373      0.0720    -11.3538     90.9064     11.7455
  1118.4000   1061.7565      8.2036      2.8215      0.0241    -10.3953     86.0311     11.4550
  1118.5000   1074.9465      8.2059      2.8039     -0.0219     -9.3292     80.3807     11.5201
  1118.6000   1074.9465      8.2059      2.7846     -0.0378     -8.1567     77.4544     12.0256
  1118.7000   1074.9465      8.2059      2.7607     -0.0379     -6.7085     76.6339     13.0315
  1118.8000   1069.1354      8.2063      2.7257     -0.0342     -4.5892     78.3755     14.4881
  1118.9000   1069.1354      8.2063      2.6755     -0.0782     -1.5483     82.8926     15.7620
  1119.0000   1049.9695      8.2057      2.6166     -0.0772      2.0230     86.8987     16.4654
  1119.1000   1049.9695      8.2057      2.5650     -0.0771      5.1523     88.5328     16.8318
  1119.2000   1049.9695      8.2057      2.5357     -0.0996      6.9244     89.6503     17.1883
  1119.3000   1044.5210      8.2014      2.5213      0.0202      7.8023     93.1916     17.7841
  1119.4000   1044.5210      8.2014      2.5030      0.0006      8.9094    100.6428     18.7735
  1119.5000   1085.3645      8.2015      2.4859     -0.0043      9.9439    112.7269     19.9091
  1119.6000   1085.3645      8.2015      2.4783      0.0891     10.4054    128.7284     20.7605
  1119.7000   1085.3645      8.2015      2.4732      0.1230     10.7141    141.3191     21.1855
  1119.8000   1071.3542      8.2078      2.4696      0.1069     10.9330    146.8971     21.0270
  1119.9000   1071.3542      8.2078      2.4696      0.1381     10.9335    152.1274     20.9354
  1120.0000   1060.9993      8.2211      2.4726      0.1229     10.7512    160.3652     21.7335
  1120.1000   1060.9993      8.2211      2.4812      0.1518     10.2300    166.4246     23.0427
  1120.2000   1060.9993      8.2211      2.4904      0.1388      9.6707    167.8879     24.1102
  1120.3000   1064.6920      8.2295      2.4943      0.1074      9.4381    166.7815     24.4762
  1120.4000   1064.6920      8.2295      2.4937      0.1571      9.4707    163.7292     24.3460
  1120.5000   1054.8357      8.2614      2.4900      0.1408      9.6947    162.0958     24.6568
  1120.6000   1054.8357      8.2614      2.4900      0.1629      9.6987    165.6610     25.7088
  1120.7000   1054.8357      8.2614      2.4986      0.1490      9.1762    170.9906     26.5042
  1120.8000   1024.5723      8.2945      2.5114      0.1646      8.3999    173.2658     26.5283
  1120.9000   1024.5723      8.2945      2.5277      0.1193      7.4137    174.2575     26.3792
  1121.0000   1042.8524      8.3617      2.5485      0.1471      6.1536    176.8246     26.2086
  1121.1000   1042.8524      8.3617      2.5598      0.1883      5.4661    178.3906     25.8625
  1121.2000   1042.8524      8.3617      2.5540      0.1120      5.8204    175.1762     25.2319
  1121.3000   1061.8264      8.3846      2.5377      0.1490      6.8075    169.5246     24.4710
  1121.4000   1061.8264      8.3846      2.5120      0.1250      8.3653    164.7997     24.0299
  1121.5000   1015.9991      8.3311      2.4859      0.0666      9.9469    161.9382     23.9321
  1121.6000   1015.9991      8.3311      2.4737      0.0945     10.6868    160.5021     24.0300
  1121.7000   1015.9991      8.3311      2.4738      0.0670     10.6816    159.8947     24.3181
  1121.8000   1040.1031      8.3247      2.4764      0.0538     10.5212    162.3694     24.8338
  1121.9000   1040.1031      8.3247      2.4781      0.0658     10.4170    165.5922     25.1913
  1122.0000   1068.4236      8.3237      2.4843      0.0335     10.0425    163.6288     24.8368
  1122.1000   1068.4236      8.3237      2.4990      0.0318      9.1494    156.0947     23.9610
  1122.2000   1068.4236      8.3237      2.5121      0.0565      8.3601    149.2256     22.9993
  1122.3000   1019.0256      8.3256      2.5154      0.0459      8.1595    149.8053     22.2364
  1122.4000   1019.0256      8.3256      2.5231      0.0154      7.6890    155.0022     21.8619
  1122.5000   1021.8823      8.3197      2.5422      0.0948      6.5357    156.4916     21.7603
  1122.6000   1021.8823      8.3197      2.5556      0.0752      5.7208    152.8625     21.6531
  1122.7000   1021.8823      8.3197      2.5589      0.0182      5.5207    146.8089     21.1562
  1122.8000   1052.5818      8.2697      2.5596      0.0449      5.4769    142.9144     20.0810
  1122.9000   1052.5818      8.2697      2.5541      0.0053      5.8114    143.9840     19.2740
  1123.0000    975.6842      8.2157      2.5429      0.0134      6.4903    147.3224     19.5679
  1123.1000    975.6842      8.2157      2.5336      0.0173      7.0561    148.8052     20.2639
  1123.2000    975.6842      8.2157      2.5274      0.0173      7.4321    146.1207     20.4440
  1123.3000    995.1669      8.2065      2.5198      0.0373      7.8927    142.4516     20.4701
  1123.4000    995.1669      8.2065      2.5089      0.0063      8.5490    141.7034     20.8764
  1123.5000   1013.5615      8.2047      2.5006      0.0239      9.0552    143.8631     21.3539
  1123.6000   1013.5615      8.2047      2.4951      0.0449      9.3860    149.9675     21.3194
  1123.7000   1013.5615      8.2047      2.4874      0.0064      9.8555    160.2171     21.0291
  1123.8000    983.6098      8.2024      2.4843      0.0298     10.0439    167.3708     21.1523
  1123.9000    983.6098      8.2024      2.4942      0.0502      9.4444    165.6407     21.7388
  1124.0000    976.6962      8.2115      2.5117      0.0813      8.3845    161.6412     22.1490
  1124.1000    976.6962      8.2115      2.5261      0.1156      7.5069    163.2229     21.9394
  1124.2000    976.6962      8.2115      2.5313      0.1140      7.1948    167.3615     21.2617
  1124.3000    982.7517      8.2220      2.5326      0.0928      7.1169    166.3505     20.6260
  1124.4000    982.7517      8.2220      2.5437      0.0818      6.4451    161.6733     20.3598
  1124.5000    986.1705      8.2213      2.5646      0.1016      5.1759    161.7116     20.6911
  1124.6000    986.1705      8.2213      2.5800      0.1286      4.2419    168.2761     21.6939
  1124.7000    986.1705      8.2213      2.5835      0.1140      4.0285    172.7452     22.7366
  1124.8000    992.0975      8.2249      2.5835      0.1239      4.0273    168.4466     23.1318
  1124.9000    992.0975      8.2249      2.5810      0.1299      4.1806    161.0323     22.9130
  1125.0000    994.7181      8.2274      2.5695      0.0831      4.8761    158.7407     22.4229
  1125.1000    994.7181      8.2274      2.5502      0.0701      6.0467    161.5967     21.8380
