~Version Information
VERS.                      2.0: CWLS Log ASCII Standard - VERSION 2.0
WRAP.                       NO: One line per depth step
~Well Information Block
STRT.FT                 3.5000: 
STOP.FT              1971.5000: 
STEP.FT                 0.2500: 
NULL.                -999.2500: 
COMP.          Evergreen Operating Corporation: COMPANY
WELL.          McCullough 34-32 Tr: WELL
FLD.           Purgatorie River: FIELD
LOC.           394' FSL & 2077' FEL: LOCATION
PROV.                 Colorado: PROVINCE
CNTY.               Las Animas: COUNTRY
SRVC.                         : SERVICE COMPANY
DATE.          Fri Sep 24 11:00:22 2004: LOG DATE
UWI.           05 071 08157 00: UNIQUE WELL ID
~Curve Information Block
DEPT.FT            0 000 00 00: Depth
GR.GAPI                       : Gamma Ray
CCL.                          : Casing Collar Locator
TT3.usec                      : CBL 3' Travel Time
AMP3.mV                       : CBL 3' Amplitude
~Parameter Information Block
~A  Depth        GR         CCL         TT3         AMP3    
# ...
  1544.5000     80.7349      0.0000    496.2634      6.8461
  1544.7500     79.3153      0.0000    496.6636      6.7548
  1545.0000     79.0421      0.0000    496.7785      6.6393
  1545.2500     79.1136      0.0000    496.8142      6.5315
  1545.5000     78.7756      0.0000    496.9111      6.4463
  1545.7500     77.9450      0.0000    497.1227      6.3904
  1546.0000     77.1072      0.0000    497.3804      6.3659
  1546.2500     76.7910      0.0000    497.4138      6.3707
  1546.5000     77.0142      0.0000    496.6346      6.3994
  1546.7500     77.0930      0.0000    494.1445      6.4399
  1547.0000     76.1156      0.0000    489.1873      6.4714
  1547.2500     73.8509      0.0000    482.0466      6.4757
  1547.5000     71.2482      0.0000    474.6340      6.4488
  1547.7500     69.9570      0.0000    469.8412      6.3973
  1548.0000     71.1326      0.0000    469.8288      6.3264
  1548.2500     74.4753      0.0000    474.5909      6.2381
  1548.5000     78.4370      0.0000    481.9781      6.1407
  1548.7500     81.5860      0.0000    489.1426      6.0540
  1549.0000     83.7851      0.0000    494.1977      6.0018
  1549.2500     85.9578      0.0000    496.8161      5.9945
  1549.5000     88.7289      0.0000    497.6560      6.0235
  1549.7500     91.3872      0.0000    497.5248      6.0776
  1550.0000     92.3012      0.0000    496.9362      6.1585
  1550.2500     90.4014      0.0000    496.0024      6.2674
  1550.5000     86.1560      0.0000    494.3823      6.3826
  1550.7500     81.0704      0.0000    491.3264      6.4662
  1551.0000     76.5491      0.0000    486.1002      6.4919
  1551.2500     73.4083      0.0000    478.7901      6.4614
  1551.5000     72.0255      0.0000    470.8214      6.4021
  1551.7500     72.4399      0.0000    464.4854      6.3547
  1552.0000     74.4325      0.0000    461.7839      6.3536
  1552.2500     77.8045      0.0000    463.5480      6.4053
  1552.5000     82.3762      0.0000    469.2072      6.4801
  1552.7500     87.6227      0.0000    477.1101      6.5285
  1553.0000     92.7029      0.0000    485.3451      6.5198
  1553.2500     96.9902      0.0000    492.5610      6.4691
  1553.5000    100.1920      0.0000    498.1402      6.4197
  1553.7500    101.8621      0.0000    502.0077      6.4031
  1554.0000    101.0994      0.0000    504.6541      6.4210
  1554.2500     97.0297      0.0000    506.9668      6.4563
  1554.5000     89.8429      0.0000    509.4222      6.4910
  1554.7500     81.3582      0.0000    511.4021      6.5158
  1555.0000     74.2118      0.0000    511.5191      6.5307
  1555.2500     70.2246      0.0000    508.8151      6.5394
  1555.5000     69.5433      0.0000    503.8096      6.5434
  1555.7500     71.0825      0.0000    498.3049      6.5424
  1556.0000     73.4623      0.0000    494.0551      6.5364
  1556.2500     75.5344      0.0000    491.7121      6.5237
  1556.5000     76.4195      0.0000    490.9214      6.4991
  1556.7500     75.5866      0.0000    491.0156      6.4581
  1557.0000     73.2729      0.0000    491.4669      6.4046
  1557.2500     70.8279      0.0000    491.9471      6.3535
  1557.5000     70.1906      0.0000    492.2687      6.3230
  1557.7500     72.4832      0.0000    492.3555      6.3218
  1558.0000     76.9218      0.0000    492.2357      6.3443
  1558.2500     81.2344      0.0000    492.0034      6.3777
  1558.5000     83.4205      0.0000    491.7543      6.4107
  1558.7500     83.3686      0.0000    491.5400      6.4353
  1559.0000     82.8149      0.0000    491.3295      6.4479
  1559.2500     83.6587      0.0000    490.9253      6.4518
  1559.5000     86.3303      0.0000    489.8267      6.4568
  1559.7500     89.7311      0.0000    487.2110      6.4722
  1560.0000     92.3433      0.0000    482.3290      6.5003
  1560.2500     93.0022      0.0000    475.3040      6.5368
  1560.5000     91.0543      0.0000    467.6379      6.5768
  1560.7500     86.7286      0.0000    461.7099      6.6178
  1561.0000     81.5159      0.0000    459.5665      6.6572
  1561.2500     77.4843      0.0000    461.9604      6.6916
  1561.5000     75.8166      0.0000    468.0666      6.7173
  1561.7500     76.2017      0.0000    475.8277      6.7311
  1562.0000     77.6094      0.0000    482.9267      6.7283
  1562.2500     79.2297      0.0000    487.9465      6.7041
  1562.5000     80.6062      0.0000    490.7973      6.6587
  1562.7500     81.3555      0.0000    492.1757      6.6031
  1563.0000     81.2361      0.0000    492.7722      6.5549
  1563.2500     80.5214      0.0000    492.8851      6.5314
  1563.5000     80.0489      0.0000    492.4267      6.5444
  1563.7500     80.7468      0.0000    491.1620      6.5977
  1564.0000     83.0440      0.0000    489.1528      6.6797
  1564.2500     86.6234      0.0000    487.1486      6.7590
  1564.5000     90.6003      0.0000    486.2652      6.7983
  1564.7500     93.8303      0.0000    486.8989      6.7824
  1565.0000     95.1027      0.0000    487.9899      6.7346
  1565.2500     93.6206      0.0000    487.6196      6.6958
  1565.5000     89.9209      0.0000    484.4836      6.6814
  1565.7500     86.0523      0.0000    479.0908      6.6671
  1566.0000     83.9375      0.0000    473.8347      6.6238
  1566.2500     83.3894      0.0000    471.6092      6.5554
  1566.5000     82.3854      0.0000    473.7373      6.4913
  1566.7500     79.4213      0.0000    479.0271      6.4529
  1567.0000     75.1439      0.0000    484.9029      6.4392
  1567.2500     71.6471      0.0000    489.3774      6.4391
  1567.5000     70.5916      0.0000    491.9644      6.4447
  1567.7500     72.1277      0.0000    493.1719      6.4515
  1568.0000     75.1946      0.0000    493.6204      6.4552
  1568.2500     78.4633      0.0000    493.6460      6.4529
  1568.5000     81.1890      0.0000    493.3418      6.4461
  1568.7500     83.5301      0.0000    492.6345      6.4400
  1569.0000     85.9762      0.0000    491.1850      6.4389
  1569.2500     88.4350      0.0000    488.3001      6.4437
  1569.5000     90.2098      0.0000    483.2476      6.4475
  1569.7500     90.9860      0.0000    476.0315      6.4370
  1570.0000     91.3758      0.0000    467.8911      6.4017
  1570.2500     92.2439      0.0000    460.7599      6.3432
  1570.5000     93.7880      0.0000    456.1263      6.2754
  1570.7500     95.4588      0.0000    454.5482      6.2189
  1571.0000     96.5676      0.0000    456.1013      6.1921
  1571.2500     96.8067      0.0000    460.7484      6.1984
  1571.5000     96.2335      0.0000    467.9240      6.2188
  1571.7500     94.9735      0.0000    475.9861      6.2255
  1572.0000     93.2378      0.0000    482.5648      6.2041
  1572.2500     91.6064      0.0000    485.7369      6.1615
  1572.5000     90.8472      0.0000    485.1042      6.1127
  1572.7500     91.2476      0.0000    482.1528      6.0658
  1573.0000     92.3129      0.0000    479.5971      6.0210
  1573.2500     93.0964      0.0000    479.7012      5.9789
  1573.5000     92.6241      0.0000    482.7020      5.9474
  1573.7500     90.3117      0.0000    486.9664      5.9360
  1574.0000     86.5080      0.0000    490.7182      5.9454
  1574.2500     82.6462      0.0000    493.4246      5.9634
  1574.5000     80.4383      0.0000    495.8115      5.9736
  1574.7500     80.6773      0.0000    499.1547      5.9679
  1575.0000     82.8437      0.0000    504.5170      5.9523
  1575.2500     85.7962      0.0000    511.9977      5.9466
  1575.5000     88.7111      0.0000    520.3316      5.9806
  1575.7500     91.3092      0.0000    527.4464      6.0795
  1576.0000     93.2906      0.0000    531.6772      6.2376
  1576.2500     93.9274      0.0000    532.7391      6.4120
  1576.5000     92.5525      0.0000    532.2040      6.5531
  1576.7500     89.3311      0.0000    533.6082      6.6251
  1577.0000     85.3391      0.0000    540.8628      6.5920
  1577.2500     81.9984      0.0000    554.0599      6.4192
  1577.5000     80.4447      0.0000    566.4289      6.1189
  1577.7500     81.0002      0.0000    568.3121      5.7821
