~Version Information
VERS.                      2.0: CWLS Log ASCII Standard - VERSION 2.0
WRAP.                       NO: One line per depth step
~Well Information Block
STRT.FT               -16.0000: 
STOP.FT              2454.2500: 
STEP.FT                 0.2500: 
NULL.                -999.2500: 
COMP.                         : COMPANY
WELL.                         : WELL
FLD.                          : FIELD
LOC.                          : LOCATION
CNTY.                         : COUNTY
SRVC.                         : SERVICE COMPANY
DATE.          Tue Aug 31 08:09:44 2004: LOG DATE
UWI.                          : UNIQUE WELL ID
STAT.                         : STATE
~Curve Information Block
DEPT.FT            0 000 00 00: Depth
GR.GAPI                       : Gamma Ray
CCL.                          : Casing Collar Locator
TT3.usec                      : CBL 3' Travel Time
AMP3.mV                       : CBL 3' Amplitude
~Parameter Information Block
~A  Depth        GR         CCL         TT3         AMP3    
   -16.0000   -999.2500   -999.2500   -999.2500   -999.2500
   -15.7500   -999.2500   -999.2500   1424.0077      2.2038
   -15.5000   -999.2500   -999.2500   1424.0370      2.1979
   -15.2500   -999.2500   -999.2500   1424.1169      2.1978
   -15.0000   -999.2500   -999.2500   1424.2489      2.2025
   -14.7500   -999.2500   -999.2500   1424.3754      2.2152
   -14.5000   -999.2500   -999.2500   1424.4259      2.2342
   -14.2500   -999.2500   -999.2500   1424.3754      2.2492
   -14.0000   -999.2500   -999.2500   1424.2489      2.2577
   -13.7500   -999.2500   -999.2500   1424.1171      2.2715
   -13.5000   -999.2500   -999.2500   1424.0381      2.2918
   -13.2500   -999.2500   -999.2500   1424.0164      2.3044
   -13.0000   -999.2500   -999.2500   1424.0447      2.3079
   -12.7500   -999.2500   -999.2500   1424.1454      2.3092
   -12.5000   -999.2500   -999.2500   1424.3223      2.3045
   -12.2500   -999.2500   -999.2500   1424.4789      2.2907
   -12.0000   -999.2500   -999.2500   1424.4789      2.2744
   -11.7500   -999.2500   -999.2500   1424.3223      2.2665
   -11.5000   -999.2500   -999.2500   1424.1454      2.2792
   -11.2500   -999.2500   -999.2500   1424.0447      2.3108
   -11.0000   -999.2500   -999.2500   1424.0162      2.3422
   -10.7500   -999.2500   -999.2500   1424.0372      2.3597
   -10.5000   -999.2500   -999.2500   1424.1106      2.3657
   -10.2500   -999.2500   -999.2500   1424.2216      2.3673
   -10.0000   -999.2500   -999.2500   1424.3096      2.3698
    -9.7500   -999.2500   -999.2500   1424.3583      2.3795
    -9.5000   -999.2500   -999.2500   1424.4316      2.4046
    -9.2500   -999.2500      0.0000   1424.5150      2.4400
    -9.0000   -999.2500      0.0000   1424.4875      2.4581
    -8.7500   -999.2500      0.0000   1424.3309      2.4398
    -8.5000   -999.2500      0.0000   1424.1814      2.4033
    -8.2500   -999.2500      0.0000   1424.1531      2.3733
    -8.0000   -999.2500      0.0000   1424.2227      2.3511
    -7.7500   -999.2500      0.0000   1424.2748      2.3311
    -7.5000   -999.2500      0.0000   1424.2501      2.3218
    -7.2500   -999.2500      0.0000   1424.2263      2.3308
    -7.0000   -999.2500      0.0000   1424.2849      2.3485
    -6.7500   -999.2500      0.0000   1424.3829      2.3610
    -6.5000   -999.2500      0.0000   1424.4270      2.3659
    -6.2500   -999.2500      0.0000   1424.3754      2.3668
    -6.0000   -999.2500      0.0000   1424.2489      2.3657
    -5.7500   -999.2500      0.0000   1424.1169      2.3595
    -5.5000   -999.2500      0.0000   1424.0370      2.3409
    -5.2500   -999.2500      0.0000   1424.0077      2.3047
    -5.0000   -999.2500      4.9983   1424.0010      2.2605
    -4.7500   -999.2500     -5.0000   1424.0001      2.2301
    -4.5000     45.2020      5.0000   1424.0000      2.2289
    -4.2500     39.1187     -5.0000   1424.0000      2.2542
    -4.0000     32.5845      0.0000   1424.0000      2.2845
    -3.7500     27.2046     -5.0000   1424.0000      2.2968
    -3.5000     24.2766     -4.0109   1424.0000      2.2876
    -3.2500     23.9488      5.0000   1424.0000      2.2653
    -3.0000     25.3668      0.0000   1424.0000      2.2340
    -2.7500     27.3880      0.0000   1424.0000      2.1980
    -2.5000     29.1567      0.0000   1424.0000      2.1677
    -2.2500     30.4684      0.0000   1424.0000      2.1598
    -2.0000     31.8547      0.0000   1424.0000      2.1862
    -1.7500     34.0302      0.0000   1424.0001      2.2388
    -1.5000     36.9784      0.0000   1424.0010      2.2907
    -1.2500     39.6824      0.0000   1424.0077      2.3132
    -1.0000     40.8733      0.0000   1424.0370      2.2966
    -0.7500     40.1195      0.0000   1424.1169      2.2575
    -0.5000     38.2926      0.0000   1424.2489      2.2226
    -0.2500     36.9581      0.0000   1424.3754      2.2054
     0.0000     37.1533      0.0000   1424.4259      2.2054
     0.2500     40.4202      0.0000   1424.3754      2.2228
     0.5000     41.3281      0.0000   1424.2489      2.2590
     0.7500     40.9862      0.0000   1424.1169      2.3045
     1.0000     39.8729      0.0000   1424.0371      2.3409
     1.2500     38.9907      0.0000   1424.0088      2.3595
     1.5000     38.9792      0.0000   1424.0098      2.3657
     1.7500     39.5137      0.0000   1424.0447      2.3670
     2.0000     39.7615      0.0000   1424.1530      2.3672
     2.2500     39.2878      0.0000   1424.3583      2.3672
     2.5000     38.2156      0.0000   1424.5883      2.3672
     2.7500     36.6498      0.0000   1424.6919      2.3672
     3.0000     34.4375      0.0000   1424.5883      2.3672
     3.2500     31.6539      0.0000   1424.3584      2.3672
     3.5000     29.0341      0.0000   1424.1539      2.3672
     3.7500     27.5715      0.0000   1424.0522      2.3672
     4.0000     27.6978      0.0000   1424.0458      2.3672
     4.2500     28.9511      0.0000   1424.1182      2.3672
     4.5000     30.3257      0.0000   1424.2501      2.3672
     4.7500     30.9677      0.0000   1424.3829      2.3672
     5.0000     30.8542      0.0000   1424.4630      2.3672
     5.2500     30.9045      0.0000   1424.4922      2.3672
     5.5000     32.1573      0.0000   1424.4980      2.3672
     5.7500     34.6610      0.0000   1424.4934      2.3672
     6.0000     37.2583      0.0000   1424.4717      2.3672
     6.2500     38.5136      0.0000   1424.4276      2.3672
     6.5000     37.8404      0.0000   1424.4030      2.3672
     6.7500     35.9014      0.0000   1424.4763      2.3670
     7.0000     34.1401      0.0000   1424.6331      2.3657
     7.2500     33.7790      0.0000   1424.7377      2.3595
     7.5000     34.9253      0.0000   1424.7139      2.3409
     7.7500     36.5902      0.0000   1424.6444      2.3047
     8.0000     37.7300      0.0000   1424.5471      2.2643
     8.2500     38.1866      0.0000   1423.4868      2.2778
     8.5000     38.4654      0.0000   1415.1230      2.6020
     8.7500     38.9189      0.0000   1375.1669      4.1758
     9.0000     39.5937      0.0000   1253.7540      8.9505
     9.2500     40.7102      0.0000   1017.3151     18.3602
     9.5000     42.6160      0.0000    722.0858     30.5219
     9.7500     45.0669      0.0000    485.7315     41.1349
    10.0000     47.0751      0.0000    364.3629     47.9584
    10.2500     47.8521      0.0000    324.2704     51.8741
    10.5000     47.6777      0.0000    315.5998     54.2725
    10.7500     47.4508      0.0000    314.2520     55.8477
    11.0000     47.4438      0.0000    314.0445     56.9247
    11.2500     46.8683      0.0000    314.0077     57.4787
    11.5000     44.7865      0.0000    313.9935     57.4079
    11.7500     41.1534      0.0000    313.9640     56.9591
    12.0000     36.7775      0.0000    313.8896     56.4902
    12.2500     32.6411      0.0000    313.7794     56.2027
    12.5000     29.6429      0.0000    313.6980     56.2162
    12.7500     28.6639      0.0000    313.6776     56.5243
    13.0000     30.2169      0.0000    313.6767     56.9723
    13.2500     33.9957      0.0000    313.6904     57.4291
    13.5000     39.0735      0.0000    313.7434     57.9265
    13.7500     44.5148      0.0000    313.7803     58.5564
    14.0000     49.6584      0.0000    313.7509     59.1382
    14.2500     54.0697      0.0000    313.7264     59.1219
    14.5000     57.5015      0.0000    313.7860     58.1332
    14.7500     59.7946      0.0000    313.8906     56.6263
    15.0000     60.7559      0.0000    313.9640     55.5673
    15.2500     60.3750      0.0000    313.9924     55.3728
    15.5000     59.2280      0.0000    313.9990     55.5826
    15.7500     58.3656      0.0000    313.9999     55.7385
    16.0000     58.6627      0.0000    314.0000     56.1402
    16.2500     60.4501      0.0000    314.0000     57.3153
    16.5000     63.6906      0.0000    314.0000     59.1127
    16.7500     68.1684      0.0000    314.0000     60.7522
    17.0000     73.4905      0.0000    314.0000     61.5072
    17.2500     79.2319      0.0000    313.9999     61.1590
