~Version Information
VERS.                      2.0: CWLS Log ASCII Standard - VERSION 2.0
WRAP.                       NO: One line per depth step
~Well Information Block
STRT.FT               430.0000: 
STOP.FT              1910.2000: 
STEP.FT                 0.1000: 
NULL.                -999.2500: 
COMP.          Pioneer Natural Resources: COMPANY
WELL.          Formula 23-11 Tr: WELL
FLD.           Purgatoire River: FIELD
LOC.           1976' FSL & 1935' FWL--: LOCATION
PROV.                 Colorado: PROVINCE
CNTY.               Las Animas: COUNTRY
SRVC.                Patterson: SERVICE COMPANY
DATE.          Mon Jun 13 07:32:15 2005: LOG DATE
UWI.           05 071 08399 00: UNIQUE WELL ID
~Curve Information Block
DEPT.FT            0 000 00 00: Depth
DCAL.in                       : CDL Caliper
RHOB.g/cc                     : CDL Bulk Density
RHOC.g/cc                     : CDL Density Correction
DPOR.pu                       : CDL Density Porosity
NPOR.pu                       : Neutron Porosity
GR.GAPI                       : Gamma Ray
~Parameter Information Block
~A  Depth       DCAL        RHOB        RHOC        DPOR        NPOR         GR     
# ...
  1879.6000      7.8482      2.5385      0.1395      6.7598     22.3867   -999.2500
  1879.7000      7.8482      2.5882      0.1595      3.7433     22.3010   -999.2500
  1879.8000      7.8363      2.6149      0.2001      2.1249     22.4663   -999.2500
  1879.9000      7.8363      2.6129      0.1364      2.2506     22.5482   -999.2500
  1880.0000      7.8261      2.6032      0.1321      2.8386     22.4142   -999.2500
  1880.1000      7.8261      2.5954      0.1388      3.3102     22.5037   -999.2500
  1880.2000      7.8261      2.5812      0.1108      4.1711     23.2285   -999.2500
  1880.3000      7.8199      2.5562      0.0827      5.6845     24.1183   -999.2500
  1880.4000      7.8199      2.5249      0.0764      7.5798     24.6239   -999.2500
  1880.5000      7.8164      2.4951      0.0800      9.3906     24.8880   -999.2500
  1880.6000      7.8164      2.4753      0.0558     10.5902     25.4552   -999.2500
  1880.7000      7.8164      2.4698      0.0431     10.9225     26.4393   -999.2500
  1880.8000      7.8132      2.4730      0.0621     10.7272     27.2338   -999.2500
  1880.9000      7.8132      2.4806      0.0299     10.2662     27.4162   -999.2500
  1881.0000      7.8070      2.4962      0.0789      9.3197     27.4038   -999.2500
  1881.1000      7.8070      2.5171      0.1288      8.0546     27.6686   -999.2500
  1881.2000      7.8070      2.5343      0.1340      7.0122     28.1927   -999.2500
  1881.3000      7.7979      2.5454      0.1495      6.3384     28.6092   -999.2500
  1881.4000      7.7979      2.5532      0.1423      5.8653     28.5830   -999.2500
  1881.5000      7.7955      2.5579      0.1536      5.5800     28.3426   -999.2500
  1881.6000      7.7955      2.5572      0.1188      5.6219     28.3597   -999.2500
  1881.7000      7.7955      2.5477      0.1076      6.1977     28.7167   -999.2500
  1881.8000      7.8021      2.5310      0.0552      7.2149     29.0829   -999.2500
  1881.9000      7.8021      2.5176      0.0550      8.0267     29.0908   -999.2500
  1882.0000      7.8016      2.5168      0.0290      8.0742     28.5805   -999.2500
  1882.1000      7.8016      2.5297      0.0570      7.2921     27.8017   -999.2500
  1882.2000      7.8016      2.5438      0.0665      6.4340     27.4394   -999.2500
  1882.3000      7.7873      2.5471      0.0400      6.2391     27.4751   -999.2500
  1882.4000      7.7873      2.5427      0.0681      6.5019     27.1431   -999.2500
  1882.5000      7.7715      2.5384      0.0372      6.7653     26.6129   -999.2500
  1882.6000      7.7715      2.5382      0.0468      6.7746     26.1804   -999.2500
  1882.7000      7.7715      2.5452      0.0643      6.3507     25.6398   -999.2500
  1882.8000      7.7644      2.5704      0.0500      4.8217     25.5590   -999.2500
  1882.9000      7.7644      2.6342      0.0817      0.9601     26.2115   -999.2500
  1883.0000      7.7646      2.7364      0.1411     -5.2361     26.6434   -999.2500
  1883.1000      7.7646      2.8391      0.1547    -11.4609     26.6290   -999.2500
  1883.2000      7.7646      2.9037      0.2059    -15.3775     27.0324   -999.2500
  1883.3000      7.7660      2.9310      0.1776    -17.0325     28.3068   -999.2500
  1883.4000      7.7660      2.9388      0.1885    -17.5032     31.3109   -999.2500
  1883.5000      7.7671      2.9268      0.1586    -16.7749     37.3242   -999.2500
  1883.6000      7.7671      2.8821      0.1038    -14.0641     44.7262   -999.2500
  1883.7000      7.7671      2.7996     -0.0191     -9.0695     49.6249   -999.2500
  1883.8000      7.7700      2.6911     -0.0982     -2.4919     51.3766   -999.2500
  1883.9000      7.7700      2.5816     -0.2067      4.1425     51.7204   -999.2500
  1884.0000      7.7787      2.5070     -0.1965      8.6673     51.7567   -999.2500
  1884.1000      7.7787      2.4772     -0.1272     10.4704     51.7587   -999.2500
  1884.2000      7.7787      2.4569     -0.0451     11.7058   -999.2500   -999.2500
  1884.3000      7.7894      2.4202     -0.0196     13.9285   -999.2500   -999.2500
  1884.4000      7.7894      2.3899     -0.0099     15.7624   -999.2500   -999.2500
  1884.5000      7.7947      2.3951      0.0447     15.4493   -999.2500   -999.2500
  1884.6000      7.7947      2.4276      0.0997     13.4765   -999.2500   -999.2500
  1884.7000      7.7947      2.4616      0.1082     11.4180   -999.2500   -999.2500
  1884.8000      7.7978      2.4822      0.1389     10.1727   -999.2500   -999.2500
  1884.9000      7.7978      2.4891      0.1239      9.7499   -999.2500   -999.2500
  1885.0000      7.7997      2.4939      0.1023      9.4586   -999.2500   -999.2500
  1885.1000      7.7997      2.5021      0.1321      8.9626   -999.2500   -999.2500
  1885.2000      7.7997      2.5094      0.1044      8.5242   -999.2500   -999.2500
  1885.3000      7.7998      2.5182      0.1251      7.9872   -999.2500   -999.2500
  1885.4000      7.7998      2.5307      0.1407      7.2282   -999.2500   -999.2500
  1885.5000      7.8005      2.5399      0.1546      6.6713   -999.2500   -999.2500
  1885.6000      7.8005      2.5413      0.1487      6.5896   -999.2500   -999.2500
  1885.7000      7.8005      2.5440      0.0948      6.4238   -999.2500   -999.2500
  1885.8000      7.7999      2.5564      0.1331      5.6708   -999.2500   -999.2500
  1885.9000      7.7999      2.5708      0.1410      4.7998   -999.2500   -999.2500
  1886.0000      7.7983      2.5799      0.1088      4.2476   -999.2500   -999.2500
  1886.1000      7.7983      2.5878      0.0948      3.7693   -999.2500   -999.2500
  1886.2000      7.7983      2.5917      0.1096      3.5349   -999.2500   -999.2500
  1886.3000      7.7958      2.5805      0.1084      4.2108   -999.2500   -999.2500
  1886.4000      7.7958      2.5590      0.0529      5.5122   -999.2500   -999.2500
  1886.5000      7.7922      2.5450      0.0810      6.3658   -999.2500   -999.2500
  1886.6000      7.7922      2.5427      0.0422      6.5059   -999.2500   -999.2500
  1886.7000      7.7922      2.5429      0.0705      6.4902   -999.2500   -999.2500
  1886.8000      7.7891      2.5371      0.0766      6.8445   -999.2500   -999.2500
  1886.9000      7.7891      2.5260      0.0531      7.5161   -999.2500   -999.2500
  1887.0000      7.7880      2.5206      0.0597      7.8410   -999.2500   -999.2500
  1887.1000      7.7880      2.5340      0.0343      7.0313   -999.2500   -999.2500
  1887.2000      7.7880      2.5600      0.0943      5.4530   -999.2500   -999.2500
  1887.3000      7.7886      2.5731      0.0824      4.6578   -999.2500   -999.2500
  1887.4000      7.7886      2.5657      0.0750      5.1090   -999.2500   -999.2500
  1887.5000      7.7900      2.5489      0.1062      6.1288   -999.2500   -999.2500
  1887.6000      7.7900      2.5325      0.0651      7.1211   -999.2500   -999.2500
  1887.7000      7.7900      2.5251      0.0755      7.5712   -999.2500   -999.2500
  1887.8000      7.7894      2.5247      0.0618      7.5923   -999.2500   -999.2500
  1887.9000      7.7894      2.5215      0.0566      7.7850   -999.2500   -999.2500
  1888.0000      7.7877      2.5137      0.0481      8.2593   -999.2500   -999.2500
  1888.1000      7.7877      2.5094      0.0252      8.5216   -999.2500   -999.2500
  1888.2000      7.7877      2.5146      0.0480      8.2064   -999.2500   -999.2500
  1888.3000      7.7872      2.5257      0.0826      7.5360   -999.2500   -999.2500
  1888.4000      7.7872      2.5304      0.1009      7.2467   -999.2500   -999.2500
  1888.5000      7.7869      2.5229      0.0655      7.7053   -999.2500   -999.2500
  1888.6000      7.7869      2.5138      0.0627      8.2524   -999.2500   -999.2500
  1888.7000      7.7869      2.5123      0.0699      8.3428   -999.2500   -999.2500
  1888.8000      7.7858      2.5121      0.0951      8.3602   -999.2500   -999.2500
  1888.9000      7.7858      2.5077      0.0951      8.6236   -999.2500   -999.2500
  1889.0000      7.7817      2.5038      0.0702      8.8622   -999.2500   -999.2500
  1889.1000      7.7817      2.5050      0.0603      8.7861   -999.2500   -999.2500
