~Version Information
VERS.                      2.0: CWLS Log ASCII Standard - VERSION 2.0
WRAP.                       NO: One line per depth step
~Well Information Block
STRT.FT               400.0000: 
STOP.FT              2201.0000: 
STEP.FT                 0.2500: 
NULL.                -999.2500: 
COMP.          Evergreen Operating Corporation: COMPANY
WELL.            Triumph 13-10: WELL
FLD.           Purgatorie River: FIELD
LOC.           1551' FSL & 522' FWL: LOCATION
PROV.                 Colorado: PROVINCE
CNTY.               Las Animas: COUNTRY
SRVC.                Patterson: SERVICE COMPANY
DATE.          Fri Jul 23 20:28:37 2004: LOG DATE
UWI.           05 071 08108 00: UNIQUE WELL ID
~Curve Information Block
DEPT.FT            0 000 00 00: Depth
SN.Ohm-m                      : IEL Short Normal
SP.mV                         : IEL Spontaneous Potential
DIR.Ohm-m                     : IEL Induction Resistivity
GR.GAPI                       : Gamma Ray
~Parameter Information Block
~A  Depth        SN          SP         DIR          GR     
# ...
   634.5000   2000.0000   2000.0000     16.1442    133.5675
   634.7500   2000.0000   2000.0000     16.0567    136.0855
   635.0000   2000.0000   2000.0000     15.9616    138.9899
   635.2500   2000.0000   2000.0000     15.8516    139.7928
   635.5000   2000.0000   2000.0000     15.7258    139.5115
   635.7500   2000.0000   2000.0000     15.5887    138.7103
   636.0000   2000.0000   2000.0000     15.4471    136.7947
   636.2500   2000.0000   2000.0000     15.3076    134.8646
   636.5000   2000.0000   2000.0000     15.1777    130.8163
   636.7500   2000.0000   2000.0000     15.0710    127.7218
   637.0000   2000.0000   2000.0000     15.0096    123.9542
   637.2500   2000.0000   2000.0000     15.0219    122.8930
   637.5000   2000.0000   2000.0000     15.1358    124.0957
   637.7500   2000.0000   2000.0000     15.3701    126.6257
   638.0000   2000.0000   2000.0000     15.7294    132.3433
   638.2500   2000.0000   2000.0000     16.2018    136.8281
   638.5000   2000.0000   2000.0000     16.7595    143.1259
   638.7500   2000.0000   2000.0000     17.3620    146.1513
   639.0000   2000.0000   2000.0000     17.9616    147.7665
   639.2500   2000.0000   2000.0000     18.5105    146.6026
   639.5000   2000.0000   2000.0000     18.9667    141.9858
   639.7500   2000.0000   2000.0000     19.2976    137.8586
   640.0000   2000.0000   2000.0000     19.4884    131.6809
   640.2500   2000.0000   2000.0000     19.5547    127.9597
   640.5000   2000.0000   2000.0000     19.5499    122.7543
   640.7500   2000.0000   2000.0000     19.5503    119.5129
   641.0000   2000.0000   2000.0000     19.6217    115.8784
   641.2500   2000.0000   2000.0000     19.7870    115.0249
   641.5000   2000.0000   2000.0000     20.0182    116.7454
   641.7500   2000.0000   2000.0000     20.2533    119.6469
   642.0000   2000.0000   2000.0000     20.4263    125.4987
   642.2500   2000.0000   2000.0000     20.4938    129.7202
   642.5000   2000.0000   2000.0000     20.4554    135.7324
   642.7500   2000.0000   2000.0000     20.3634    139.0684
   643.0000   2000.0000   2000.0000     20.3148    141.8027
   643.2500   2000.0000   2000.0000     20.4165    141.3837
   643.5000   2000.0000   2000.0000     20.7421    137.4796
   643.7500   2000.0000   2000.0000     21.3100    133.7259
   644.0000   2000.0000   2000.0000     22.0940    128.4987
   644.2500   2000.0000   2000.0000     23.0565    125.9645
   644.5000   2000.0000   2000.0000     24.1777    123.7287
   644.7500   2000.0000   2000.0000     25.4580    122.9969
   645.0000   2000.0000   2000.0000     26.8947    121.7763
   645.2500   2000.0000   2000.0000     28.4590    119.8823
   645.5000   2000.0000   2000.0000     30.0966    114.8854
   645.7500   2000.0000   2000.0000     31.7535    110.9840
   646.0000   2000.0000   2000.0000     33.4047    106.2658
   646.2500   2000.0000   2000.0000     35.0568    104.1987
   646.5000   2000.0000   2000.0000     36.7325    101.8259
   646.7500   2000.0000   2000.0000     38.4612    100.2084
   647.0000   2000.0000   2000.0000     40.2855     97.5771
   647.2500   2000.0000   2000.0000     42.2545     95.7488
   647.5000   2000.0000   2000.0000     44.3812     92.8044
   647.7500   2000.0000   2000.0000     46.5932     90.6613
   648.0000   2000.0000   2000.0000     48.7395     87.4725
   648.2500   2000.0000   2000.0000     50.6681     85.7309
   648.5000   2000.0000   2000.0000     52.3050     84.3125
   648.7500   2000.0000   2000.0000     53.6491     84.3196
   649.0000   2000.0000   2000.0000     54.7003     85.4333
   649.2500   2000.0000   2000.0000     55.4176     86.3782
   649.5000   2000.0000   2000.0000     55.7460     87.0174
   649.7500   2000.0000   2000.0000     55.6684     86.5803
   650.0000   2000.0000   2000.0000     55.2169     84.8783
   650.2500   2000.0000   2000.0000     54.4308     83.4471
   650.5000   2000.0000   2000.0000     53.3101     81.2754
   650.7500   2000.0000   2000.0000     51.8245     79.7992
   651.0000   2000.0000   2000.0000     49.9827     77.4786
   651.2500   2000.0000   2000.0000     47.8963     76.0154
   651.5000   2000.0000   2000.0000     45.7682     74.5349
   651.7500   2000.0000   2000.0000     43.8089     74.3834
   652.0000   2000.0000   2000.0000     42.1565     75.8659
   652.2500   2000.0000   2000.0000     40.8517     78.2405
   652.5000   2000.0000   2000.0000     39.8553     84.2346
   652.7500   2000.0000   2000.0000     39.0814     89.7950
   653.0000   2000.0000   2000.0000     38.4267     99.5940
   653.2500   2000.0000   2000.0000     37.7958    106.1005
   653.5000   2000.0000   2000.0000     37.1172    113.5041
   653.7500   2000.0000   2000.0000     36.3496    115.5723
   654.0000   2000.0000   2000.0000     35.4888    113.5383
   654.2500   2000.0000   2000.0000     34.5815    109.4890
   654.5000   2000.0000   2000.0000     33.7298    102.0605
   654.7500   2000.0000   2000.0000     33.0673     97.7933
   655.0000   2000.0000   2000.0000     32.7047     94.0047
   655.2500   2000.0000   2000.0000     32.6774     93.3375
   655.5000   2000.0000   2000.0000     32.9210     94.3022
   655.7500   2000.0000   2000.0000     33.2829     95.4590
   656.0000   2000.0000   2000.0000     33.5613     96.5815
   656.2500   2000.0000   2000.0000     33.5605     96.4337
   656.5000   2000.0000   2000.0000     33.1510     95.0089
   656.7500   2000.0000   2000.0000     32.3122     93.7868
   657.0000   2000.0000   2000.0000     31.1305     92.6535
   657.2500   2000.0000   2000.0000     29.7452     92.9680
   657.5000   2000.0000   2000.0000     28.2806     95.9998
   657.7500   2000.0000   2000.0000     26.8093    100.0527
   658.0000   2000.0000   2000.0000     25.3563    108.5556
   658.2500   2000.0000   2000.0000     23.9275    114.6149
   658.5000   2000.0000   2000.0000     22.5336    121.6648
   658.7500   2000.0000   2000.0000     21.2000    124.1296
   659.0000   2000.0000   2000.0000     19.9612    125.1497
   659.2500   2000.0000   2000.0000     18.8487    125.3820
   659.5000   2000.0000   2000.0000     17.8797    127.4402
   659.7500   2000.0000   2000.0000     17.0517    130.6865
   660.0000   2000.0000   2000.0000     16.3434    138.0141
   660.2500   2000.0000   2000.0000     15.7261    143.7092
   660.5000   2000.0000   2000.0000     15.1765    152.2074
   660.7500   2000.0000   2000.0000     14.6848    157.5495
   661.0000   2000.0000   2000.0000     14.2522    164.7464
   661.2500   2000.0000   2000.0000     13.8828    168.5934
   661.5000   2000.0000   2000.0000     13.5786    172.2630
   661.7500   2000.0000   2000.0000     13.3392    173.2631
   662.0000   2000.0000   2000.0000     13.1646    172.8707
   662.2500   2000.0000   2000.0000     13.0564    171.4068
   662.5000   2000.0000   2000.0000     13.0169    167.6184
   662.7500   2000.0000   2000.0000     13.0479    164.6834
   663.0000   2000.0000   2000.0000     13.1505    161.5569
   663.2500   2000.0000   2000.0000     13.3245    160.9317
   663.5000   2000.0000   2000.0000     13.5663    160.8498
   663.7500   2000.0000   2000.0000     13.8682    159.7011
   664.0000   2000.0000   2000.0000     14.2198    154.9261
   664.2500   2000.0000   2000.0000     14.6116    150.7273
   664.5000   2000.0000   2000.0000     15.0397    146.3017
   664.7500   2000.0000   2000.0000     15.5079    145.8206
   665.0000   2000.0000   2000.0000     16.0283    148.0669
   665.2500   2000.0000   2000.0000     16.6205    150.0580
   665.5000   2000.0000   2000.0000     17.3086    151.5786
   665.7500   2000.0000   2000.0000     18.1133    151.2380
   666.0000   2000.0000   2000.0000     19.0436    149.3597
   666.2500   2000.0000   2000.0000     20.0944    147.6543
   666.5000   2000.0000   2000.0000     21.2563    144.4205
   666.7500   2000.0000   2000.0000     22.5300    141.4497
   667.0000   2000.0000   2000.0000     23.9347    135.1047
   667.2500   2000.0000   2000.0000     25.5002    129.3833
   667.5000   2000.0000   2000.0000     27.2471    118.6678
   667.7500   2000.0000   2000.0000     29.1676    110.6111
