~Version Information
 VERS.                      2.0: CWLS Log ASCII Standard - VERSION 2.0
 WRAP.                       NO: One line per depth step
 ~Well Information Block
 STRT.FT               886.1000: 
 STOP.FT              2599.0000: 
 STEP.FT                 0.1000: 
 NULL.                -999.2500: 
 COMP.          Petrogulf Corporation: COMPANY
 WELL.               YWAM 7-23V: WELL
 FLD.           Purgatorie River: FIELD
 LOC.           230' FSL & 225' FWL: LOCATION
 CNTY.               Las Animas: COUNTY
 SRVC.                         : SERVICE COMPANY
 DATE.          Sat Oct 30 10:42:52 2004: LOG DATE
 UWI.           05 071 08227 00: UNIQUE WELL ID
 STAT.                 Colorado: STATE
 PROV.                         :Province
 ~Curve Information Block
 DEPT.FT            0 000 00 00: Depth
 DCAL.in                       : CDL Caliper
 RHOB.g/cc                     : CDL Bulk Density
 RHOC.g/cc                     : CDL Density Correction
 DPOR.pu                       : CDL Density Porosity
 GR.GAPI                       : Gamma Ray
 NPOR.pu                       : Neutron Porosity
 ~Parameter Information Block
 ~A  Depth       DCAL        RHOB        RHOC        DPOR         GR         NPOR    
# ...
  1798.1000      8.0772      2.5253      0.0579      7.5546     50.0047     19.1290
  1798.2000      8.0772      2.5200      0.0698      7.8793     51.1058     18.9292
  1798.3000      8.0778      2.5100     -0.0279      8.4834     53.7355     19.1789
  1798.4000      8.0778      2.5091      0.0183      8.5400     56.3821     19.4203
  1798.5000      8.0810      2.5127      0.0718      8.3237     55.8298     19.1924
  1798.6000      8.0810      2.5176      0.0115      8.0271     52.8755     18.7162
  1798.7000      8.0810      2.5247      0.1015      7.5938     50.9471     18.5077
  1798.8000      8.0832      2.5286      0.0353      7.3595     49.2171     18.2441
  1798.9000      8.0832      2.5307      0.0717      7.2304     46.8244     17.7237
  1799.0000      8.0854      2.5283      0.0778      7.3731     45.8863     17.8073
  1799.1000      8.0854      2.5120      0.0395      8.3619     46.3324     18.6510
  1799.2000      8.0854      2.4906     -0.0235      9.6589     46.2268     19.3248
  1799.3000      8.0841      2.4806      0.0509     10.2657     46.3915     19.5791
  1799.4000      8.0841      2.4775      0.0411     10.4543     46.6777     19.9922
  1799.5000      8.0884      2.4687      0.0577     10.9874     44.7472     20.3354
  1799.6000      8.0884      2.4523      0.0346     11.9845     43.1157     19.9977
  1799.7000      8.0884      2.4408      0.0153     12.6808     44.3964     19.6499
  1799.8000      8.0842      2.4506      0.0271     12.0845     44.1599     20.2073
  1799.9000      8.0842      2.4778      0.0770     10.4347     41.1481     20.8982
  1800.0000      8.0794      2.5025      0.0525      8.9396     39.3984     20.8467
  1800.1000      8.0794      2.5123      0.0767      8.3448     40.5718     20.5729
  1800.2000      8.0794      2.5098      0.0245      8.4941     43.6211     20.5497
  1800.3000      8.0827      2.5053      0.0760      8.7673     45.4171     20.9371
  1800.4000      8.0827      2.5041      0.0989      8.8430     44.9402     21.8934
  1800.5000      8.0808      2.5019      0.0733      8.9746     45.3081     23.1194
  1800.6000      8.0808      2.4930      0.0417      9.5159     46.9276     23.9458
  1800.7000      8.0808      2.4835      0.0446     10.0932     47.6084     24.0758
  1800.8000      8.0842      2.4842      0.0695     10.0478     47.7729     23.4626
  1800.9000      8.0842      2.4914      0.1021      9.6104     48.9485     21.9873
  1801.0000      8.0884      2.4931      0.1088      9.5107     51.1798     20.4616
  1801.1000      8.0884      2.4843      0.0584     10.0407     52.8590     19.8799
  1801.2000      8.0884      2.4758      0.0425     10.5598     52.2248     19.9170
  1801.3000      8.0950      2.4796      0.0873     10.3270     48.1126     19.7694
  1801.4000      8.0950      2.4897      0.0944      9.7147     42.2678     19.2218
  1801.5000      8.0958      2.4914      0.0815      9.6139     39.4986     18.7741
  1801.6000      8.0958      2.4807      0.0579     10.2623     41.1271     18.8319
  1801.7000      8.0958      2.4760      0.0046     10.5425     42.8934     19.0447
  1801.8000      8.0958      2.4897      0.0730      9.7133     42.9424     19.1116
  1801.9000      8.0958      2.5005      0.1341      9.0585     44.1843     18.9755
  1802.0000      8.0963      2.4999      0.0301      9.0989     46.7708     18.7270
  1802.1000      8.0963      2.5063      0.0857      8.7061     48.6977     18.8503
  1802.2000      8.0963      2.5118      0.1200      8.3770     48.2777     19.6292
  1802.3000      8.0993      2.5004      0.0518      9.0696     45.3186     20.3176
  1802.4000      8.0993      2.4815      0.0729     10.2101     43.0455     19.9642
  1802.5000      8.0976      2.4704      0.0322     10.8856     43.6655     19.2642
  1802.6000      8.0976      2.4739      0.0844     10.6733     46.0347     19.0072
  1802.7000      8.0976      2.4824      0.0930     10.1584     47.3038     18.7926
  1802.8000      8.1019      2.4845      0.1094     10.0315     46.9981     18.9086
  1802.9000      8.1019      2.4884      0.0424      9.7910     47.1789     19.9637
  1803.0000      8.0982      2.5024      0.1013      8.9482     46.1194     21.1416
  1803.1000      8.0982      2.5094      0.0934      8.5237     42.2747     21.2701
  1803.2000      8.0982      2.4922      0.0901      9.5645     39.0735     20.6553
  1803.3000      8.0935      2.4651      0.0400     11.2070     39.8594     20.2632
  1803.4000      8.0935      2.4576      0.0290     11.6581     43.0868     20.0862
  1803.5000      8.0939      2.4755      0.0608     10.5744     46.1947     19.7596
  1803.6000      8.0939      2.4957      0.0995      9.3530     48.9926     19.4558
  1803.7000      8.0939      2.4955      0.0850      9.3662     50.1260     19.5080
  1803.8000      8.0943      2.4835      0.0138     10.0914     49.0846     19.8304
  1803.9000      8.0943      2.4801      0.0877     10.2950     48.4621     19.8765
  1804.0000      8.0960      2.4783      0.0803     10.4073     49.6570     19.5381
  1804.1000      8.0960      2.4652      0.0621     11.1983     52.5987     19.0417
  1804.2000      8.0960      2.4445      0.0800     12.4519     55.3742     18.5214
  1804.3000      8.0957      2.4271      0.0180     13.5099     54.4889     18.3249
  1804.4000      8.0957      2.4215      0.0139     13.8471     50.8425     18.6392
  1804.5000      8.1017      2.4221      0.0245     13.8147     48.7804     19.1771
  1804.6000      8.1017      2.4219      0.0272     13.8241     49.2658     19.8278
  1804.7000      8.1017      2.4321     -0.0069     13.2081     49.6162     20.4968
  1804.8000      8.1024      2.4568      0.0381     11.7080     47.9766     20.6132
  1804.9000      8.1024      2.4750      0.0589     10.6065     46.5399     20.4256
  1805.0000      8.1012      2.4734      0.0636     10.7010     46.0338     20.4224
  1805.1000      8.1012      2.4638      0.0530     11.2845     43.7688     20.4481
  1805.2000      8.1012      2.4633      0.0744     11.3134     41.0951     20.2367
  1805.3000      8.1026      2.4762      0.0403     10.5313     41.5929     19.3697
  1805.4000      8.1026      2.4844      0.0939     10.0376     43.7102     18.3253
  1805.5000      8.1016      2.4706      0.0665     10.8717     45.1060     18.1463
  1805.6000      8.1016      2.4542      0.0524     11.8693     46.4683     18.5173
  1805.7000      8.1016      2.4608      0.0743     11.4653     46.6425     18.9665
  1805.8000      8.1059      2.4807      0.0954     10.2630     45.2839     19.7467
  1805.9000      8.1059      2.4927      0.0563      9.5343     43.9679     20.5604
  1806.0000      8.1082      2.4941      0.0981      9.4504     42.0816     21.2160
  1806.1000      8.1082      2.4940      0.0263      9.4546     40.4363     21.6177
  1806.2000      8.1082      2.4976      0.0904      9.2341     41.9934     21.5367
  1806.3000      8.1073      2.4931      0.0854      9.5063     44.1963     21.3845
  1806.4000      8.1073      2.4781      0.0129     10.4181     44.0702     21.5348
  1806.5000      8.1092      2.4726      0.0345     10.7517     44.4608     21.8048
  1806.6000      8.1092      2.4836      0.0375     10.0829     46.5129     21.6603
  1806.7000      8.1092      2.4971      0.0675      9.2660     47.5208     20.9459
  1806.8000      8.1075      2.5069      0.0097      8.6719     45.5617     20.0325
  1806.9000      8.1075      2.5244      0.0624      7.6095     42.3676     19.0193
  1807.0000      8.1138      2.5480      0.0857      6.1830     42.2659     18.2658
  1807.1000      8.1138      2.5556      0.0863      5.7221     45.6100     18.2482
  1807.2000      8.1138      2.5432      0.0365      6.4737     50.6392     18.7957
  1807.3000      8.1153      2.5273      0.0678      7.4337     53.9721     19.5035
  1807.4000      8.1153      2.5136      0.0372      8.2672     50.9200     20.3400
  1807.5000      8.1192      2.5004      0.0566      9.0649     44.5171     21.3394
  1807.6000      8.1192      2.4918      0.0240      9.5880     42.0708     22.0120
