~Version Information
VERS.                      2.0: CWLS Log ASCII Standard - VERSION 2.0
WRAP.                       NO: One line per depth step
~Well Information Block
STRT.FT               741.2000: 
STOP.FT              2461.0000: 
STEP.FT                 0.1000: 
NULL.                -999.2500: 
COMP.          Petrogulf Corporation: COMPANY
WELL.           Montoya 12-44V: WELL
FLD.           Purgatorie River: FIELD
LOC.           698' FSL & 599' FEL: LOCATION
CNTY.               Las Animas: COUNTY
SRVC.                         : SERVICE COMPANY
DATE.          Mon Aug 09 06:09:04 2004: LOG DATE
UWI.           05 071 08094 00: UNIQUE WELL ID
STAT.                 Colorado: STATE
~Curve Information Block
DEPT.FT            0 000 00 00: Depth
DCAL.in                       : CDL Caliper
RHOB.g/cc                     : CDL Bulk Density
RHOC.g/cc                     : CDL Density Correction
DPOR.pu                       : CDL Density Porosity
GR.GAPI                       : Gamma Ray
NPOR.pu                       : Neutron Porosity
~Parameter Information Block
~A  Depth       DCAL        RHOB        RHOC        DPOR         GR         NPOR    
# ...
   875.6000      8.4601      2.5322      0.0361      7.1395    160.6046     24.7969
   875.7000      8.4601      2.5347      0.0597      6.9900    158.1181     24.9437
   875.8000      8.4612      2.5456      0.0719      6.3291    156.3198     25.4816
   875.9000      8.4612      2.5626      0.0472      5.2963    157.5442     25.9641
   876.0000      8.4460      2.6038      0.1061      2.7978    161.6006     25.8722
   876.1000      8.4460      2.6631      0.2095     -0.7970    162.6514     25.4372
   876.2000      8.4460      2.7145      0.3257     -3.9082    157.7869     25.3314
   876.3000      8.4324      2.7522      0.3478     -6.1934    151.0129     25.7456
   876.4000      8.4324      2.7702      0.3936     -7.2869    147.3736     26.3061
   876.5000      8.3880      2.7486      0.2700     -5.9755    147.8312     26.5768
   876.6000      8.3880      2.6999      0.0923     -3.0257    148.5550     26.4551
   876.7000      8.3880      2.6636      0.0634     -0.8214    144.4312     26.2088
   876.8000      8.3526      2.6546      0.0490     -0.2806    141.9173     26.0199
   876.9000      8.3526      2.6536      0.1014     -0.2209    149.3826     25.7863
   877.0000      8.3470      2.6378      0.0217      0.7382    157.5988     25.4548
   877.1000      8.3470      2.6118      0.0082      2.3176    158.6566     25.2176
   877.2000      8.3470      2.5905     -0.0266      3.6057    159.2408     25.4170
   877.3000      8.3404      2.5835     -0.0322      4.0318    162.2890     26.0113
   877.4000      8.3404      2.5953      0.0103      3.3140    163.1191     26.3879
   877.5000      8.3383      2.6175      0.0642      1.9702    163.4937     26.3260
   877.6000      8.3383      2.6351      0.1018      0.9030    167.1669     26.1690
   877.7000      8.3383      2.6428      0.1188      0.4347    169.1440     26.0698
   877.8000      8.3400      2.6417      0.0848      0.5059    168.4647     25.8820
   877.9000      8.3400      2.6299      0.0985      1.2174    170.1632     25.6407
   878.0000      8.3406      2.6102      0.0837      2.4105    170.3992     25.5228
   878.1000      8.3406      2.5968      0.0491      3.2228    165.3607     25.5689
   878.2000      8.3406      2.5977      0.0561      3.1714    161.1112     25.8999
   878.3000      8.3407      2.5996      0.0351      3.0548    162.3300     26.3919
   878.4000      8.3407      2.5958      0.0391      3.2856    165.0311     26.7069
   878.5000      8.3406      2.5965     -0.0140      3.2440    164.2082     26.9557
   878.6000      8.3406      2.5996      0.0163      3.0558    160.3920     27.2757
   878.7000      8.3406      2.5886     -0.0137      3.7233    161.5949     27.4601
   878.8000      8.3397      2.5675     -0.0171      4.9979    169.4934     27.3803
   878.9000      8.3397      2.5610     -0.0587      5.3923    170.5495     27.0409
   879.0000      8.3390      2.5751      0.0047      4.5406    162.8745     26.5161
   879.1000      8.3390      2.5879      0.0258      3.7620    158.8416     26.1799
   879.2000      8.3390      2.5846     -0.0032      3.9640    159.9179     26.2060
   879.3000      8.3389      2.5752     -0.0475      4.5347    160.4745     26.2287
   879.4000      8.3389      2.5691     -0.0265      4.9013    158.9590     25.9861
   879.5000      8.3366      2.5619     -0.0402      5.3403    154.1611     25.5869
   879.6000      8.3366      2.5581     -0.0298      5.5683    147.0529     25.2175
   879.7000      8.3366      2.5646     -0.0095      5.1781    139.9259     24.8716
   879.8000      8.3385      2.5699      0.0148      4.8532    133.1591     24.4391
   879.9000      8.3385      2.5673      0.0200      5.0148    128.1026     23.8858
   880.0000      8.3389      2.5673      0.0057      5.0139    128.6192     23.3706
   880.1000      8.3389      2.5762      0.0198      4.4708    134.6978     23.1832
   880.2000      8.3389      2.5854      0.0179      3.9132    140.7157     23.3822
   880.3000      8.3392      2.5843      0.0384      3.9827    141.5718     23.5330
   880.4000      8.3392      2.5693      0.0228      4.8925    135.1612     23.1388
   880.5000      8.3389      2.5463      0.0356      6.2835    127.3468     22.4228
   880.6000      8.3389      2.5313      0.0308      7.1962    128.3345     22.0406
   880.7000      8.3389      2.5386      0.0229      6.7537    135.7767     22.2269
   880.8000      8.3392      2.5591      0.0553      5.5109    138.2769     22.7151
   880.9000      8.3392      2.5726      0.0222      4.6897    134.4842     23.1721
   881.0000      8.3388      2.5772      0.0355      4.4136    129.4661     23.4813
   881.1000      8.3388      2.5762      0.0232      4.4727    127.3333     23.5775
   881.2000      8.3388      2.5645      0.0450      5.1826    127.4394     23.2783
   881.3000      8.3386      2.5486     -0.0037      6.1453    125.0434     22.9067
   881.4000      8.3386      2.5415      0.0366      6.5737    121.1236     23.0592
   881.5000      8.3404      2.5411      0.0325      6.6016    120.3955     23.6731
   881.6000      8.3404      2.5488      0.0223      6.1354    120.4400     24.3250
   881.7000      8.3404      2.5688      0.0520      4.9184    120.1082     24.8691
   881.8000      8.3402      2.5898      0.0451      3.6455    121.4249     25.1517
   881.9000      8.3402      2.5989      0.0449      3.0986    120.5494     24.7752
   882.0000      8.3398      2.5967      0.0867      3.2296    113.6431     23.8679
   882.1000      8.3398      2.5978      0.0260      3.1646    105.7002     23.0782
   882.2000      8.3398      2.6169      0.0601      2.0042    103.7562     22.6730
   882.3000      8.3401      2.6424      0.0927      0.4587    105.3007     22.5068
   882.4000      8.3401      2.6486      0.0928      0.0849    103.4627     22.3656
   882.5000      8.3397      2.6359      0.0485      0.8519     98.7645     22.1679
   882.6000      8.3397      2.6218      0.0800      1.7071     94.3078     21.8993
   882.7000      8.3397      2.6102      0.0706      2.4124     89.2774     21.5215
   882.8000      8.3389      2.5962      0.0817      3.2635     85.4006     21.1014
   882.9000      8.3389      2.5766      0.0594      4.4495     86.0039     20.7879
   883.0000      8.3390      2.5566      0.0496      5.6623     89.2543     20.5198
   883.1000      8.3390      2.5432      0.0520      6.4709     91.6519     20.1163
   883.2000      8.3390      2.5322      0.0432      7.1402     92.4797     19.6843
   883.3000      8.3399      2.5219      0.0141      7.7657     93.7663     19.2939
   883.4000      8.3399      2.5165      0.0222      8.0880     96.7325     18.9867
   883.5000      8.3388      2.5125      0.0348      8.3315     97.5924     19.0730
   883.6000      8.3388      2.5058     -0.0165      8.7397     93.4623     19.4924
   883.7000      8.3388      2.4981      0.0381      9.2032     88.5532     19.6907
   883.8000      8.3375      2.4880      0.0316      9.8181     87.6531     19.5627
   883.9000      8.3375      2.4812     -0.0212     10.2332     89.5011     19.4281
   884.0000      8.3371      2.4888      0.0020      9.7708     90.6390     19.3496
   884.1000      8.3371      2.5002      0.0162      9.0760     91.9875     19.2991
   884.2000      8.3371      2.5006      0.0429      9.0572     93.1964     19.4542
   884.3000      8.3383      2.4977      0.0258      9.2303     92.9410     19.9080
   884.4000      8.3383      2.4995      0.0343      9.1199     92.6978     20.4257
   884.5000      8.3392      2.5027      0.0701      8.9289     92.7903     20.7379
   884.6000      8.3392      2.5103      0.0377      8.4644     92.8511     20.9032
   884.7000      8.3392      2.5268      0.0441      7.4674     93.3488     21.1057
   884.8000      8.3395      2.5419      0.0684      6.5504     95.5766     21.2530
   884.9000      8.3395      2.5438      0.0460      6.4361     98.7413     21.2997
   885.0000      8.3377      2.5353      0.0192      6.9518     99.2916     21.4924
   885.1000      8.3377      2.5296      0.0020      7.2949     95.7617     21.6814
