~Version Information
 VERS.                                  2.0 : CWLS LAS VERSION
 WRAP.                                   NO : WRAPING MODE
 SWARE .                 MController 2.5.0J : SOFTWARE VERSION
~Well Information
 WELL.                       Beacon 11-18TR : WELL
 COMP.        Pioneer Natural Resources Inc : COMPANY
 FLD.                      Purgatoire River : FIELD
 LOC.                NW/NW Sec 18 T32S R66W : LOCATION
 DATE.                           1/15-16/05 : DATE(S) LOGGED
 SRVC.       Blanco Geological Services LLC : SERVICE COMPANY
 STAT.                                   CO : STATE
 CNTY.                           Las Animas : COUNTY
 CTRY.                                  USA : COUNTRY
 API.                          05-071-08251 : API NUMBER
 STRT.FT                             283.00 : START DEPTH
 STOP.FT                            2753.00 : STOP DEPTH
 STEP.FT                               1.00 : DEPTH INCREMENT
 NULL.                                -9999 : NULL VALUE
~Curve information
 DEPTH.FT                                   :
 ROP.MIN/FT                                 :
 GAS.UNITS                                  :
~ASCII Log data
# ...
      1083.0         0.23          6.0 
      1084.0         0.23          5.9 
      1085.0         0.32          6.5 
      1086.0         0.23          6.4 
      1087.0         0.27          6.3 
      1088.0         0.27          6.4 
      1089.0         0.23          6.0 
      1090.0         0.20          6.0 
      1091.0         0.23          5.9 
      1092.0         0.23          5.7 
      1093.0         0.20          5.8 
      1094.0         0.20          6.0 
      1095.0         0.23          6.1 
      1096.0         0.20          5.8 
      1097.0         0.25          5.8 
      1098.0         0.23          6.0 
      1099.0         0.23          5.7 
      1100.0         0.23          6.0 
      1101.0         0.23          5.9 
      1102.0         0.23          5.8 
      1103.0         0.23          5.5 
      1104.0         0.23          5.7 
      1105.0         0.30          5.6 
      1106.0         0.27          5.6 
      1107.0         0.23          5.3 
      1108.0         0.20          5.6 
      1109.0         0.23          5.8 
      1110.0         0.27          5.9 
      1111.0         0.23          5.6 
      1112.0         0.23          6.0 
      1113.0         0.23          5.8 
      1114.0         0.20          5.8 
      1115.0         0.23          5.8 
      1116.0         0.23          6.0 
      1117.0         0.25          5.7 
      1118.0         0.20          5.7 
      1119.0         0.23          5.8 
      1120.0         0.17          5.3 
      1121.0         0.20          5.3 
      1122.0         0.20          5.7 
      1123.0         0.23          5.7 
      1124.0         0.20          5.5 
      1125.0         0.27          5.5 
      1126.0         0.23          5.7 
      1127.0         0.20          5.9 
      1128.0         0.23          5.6 
      1129.0         0.23          5.7 
      1130.0         0.20          5.7 
      1131.0         0.25          5.5 
      1132.0         0.20          5.9 
      1133.0         0.20          5.7 
      1134.0         0.20          5.7 
      1135.0         0.20          5.5 
      1136.0         0.17          5.6 
      1137.0         0.23          5.4 
      1138.0         0.27          5.6 
      1139.0         0.18          5.4 
      1140.0         0.27          5.3 
      1141.0         0.27          5.5 
      1142.0         0.23          5.3 
      1143.0         0.27          5.3 
      1144.0         0.27          5.7 
      1145.0         0.23          5.7 
      1146.0         0.23          5.5 
      1147.0         0.27          5.7 
      1148.0         0.20          5.6 
      1149.0         0.27          5.5 
      1150.0         0.23          5.6 
      1151.0         0.23          5.4 
      1152.0         0.25          5.3 
      1153.0         0.27          5.0 
      1154.0         0.23          5.6 
      1155.0         0.23          5.3 
      1156.0         0.23          6.0 
      1157.0         0.20          5.8 
      1158.0         0.23          5.7 
      1159.0         0.17          5.5 
      1160.0         0.20          5.7 
      1161.0         0.20          5.8 
      1162.0         0.17          5.8 
      1163.0         0.20          5.8 
      1164.0         0.17          5.7 
      1165.0         0.17          5.5 
      1166.0         0.23          5.4 
      1167.0         0.27          5.5 
      1168.0         0.23          5.5 
      1169.0         0.30          5.5 
      1170.0         0.27          5.6 
      1171.0         0.30          5.6 
      1172.0         0.27          5.3 
      1173.0         0.27          5.6 
      1174.0         0.27          5.7 
      1175.0         0.28          5.6 
      1176.0         0.23          5.6 
      1177.0         0.27          5.5 
      1178.0         0.20         11.5 
      1179.0         0.23         21.3 
      1180.0         0.20         27.5 
      1181.0         0.20         30.0 
      1182.0         0.20         30.8 
      1183.0         0.17         30.4 
      1184.0         0.23         29.7 
      1185.0         0.20         28.3 
      1186.0         0.20         27.0 
      1187.0         0.23         22.0 
      1188.0         0.20         21.3 
      1189.0         0.20         22.4 
      1190.0         0.18         24.1 
      1191.0         0.20         28.0 
      1192.0         0.17         34.8 
      1193.0         0.20         49.7 
      1194.0         0.20         64.1 
      1195.0         0.20         70.5 
      1196.0         0.23         72.0 
      1197.0         0.17         70.9 
      1198.0         0.35         67.0 
      1199.0         0.23         54.4 
      1200.0         0.33         47.2 
      1201.0         0.33         37.7 
      1202.0         0.27         32.4 
      1203.0         0.27         29.1 
      1204.0         0.27         27.0 
      1205.0         0.23         24.4 
      1206.0         0.23         23.2 
      1207.0         0.30         22.7 
      1208.0         0.27         22.2 
      1209.0         0.25         22.0 
      1210.0         0.23         21.2 
      1211.0         0.23         20.8 
      1212.0         0.27         20.5 
      1213.0         0.23         22.3 
      1214.0         0.23         28.3 
      1215.0         0.17         35.8 
      1216.0         0.23         41.5 
      1217.0         0.20         41.8 
      1218.0         0.20         41.5 
      1219.0         0.23         22.2 
      1220.0         0.23         25.8 
      1221.0         0.23         33.4 
      1222.0         0.22         44.1 
      1223.0         0.23         54.3 
      1224.0         0.23         58.6 
      1225.0         0.23         67.6 
      1226.0         0.27         85.5 
      1227.0         0.17         85.9 
      1228.0         0.22         81.3 
      1229.0         0.30         67.1 
      1230.0         0.27         47.4 
      1231.0         0.27         37.5 
      1232.0         0.23         31.0 
      1233.0         0.23         27.3 
      1234.0         0.17         23.5 
      1235.0         0.23         22.6 
      1236.0         0.23         21.4 
      1237.0         0.23         20.0 
      1238.0         0.23         19.1 
      1239.0         0.25         18.0 
      1240.0         0.20         17.8 
      1241.0         0.23         17.5 
      1242.0         0.23         17.0 
      1243.0         0.20         16.9 
      1244.0         0.20         16.9 
      1245.0         0.23         17.1 
      1246.0         0.27         17.4 
      1247.0         0.23         19.0 
      1248.0         0.20         21.5 
      1249.0         0.20         29.8 
      1250.0         0.20         40.2 
      1251.0         0.20         49.2 
      1252.0         0.20         53.4 
      1253.0         0.22         53.0 
      1254.0         0.20         51.9 
      1255.0         0.23         47.2 
      1256.0         0.20         41.6 
      1257.0         0.17         35.9 
      1258.0         0.27         32.6 
      1259.0         0.20         27.3 
      1260.0         0.28         25.1 
      1261.0         0.27         21.8 
      1262.0         0.23         20.1 
      1263.0         0.20         19.6 
      1264.0         0.20         18.8 
      1265.0         0.23         18.6 
      1266.0         0.23         17.8 
      1267.0         0.23         17.6 
      1268.0         0.23         17.1 
      1269.0         0.23         17.5 
      1270.0         0.23         17.3 
      1271.0         0.23         17.3 
      1272.0         0.23         17.5 
      1273.0         0.25         17.9 
      1274.0         0.20         17.9 
      1275.0         0.23         17.9 
      1276.0         0.23         17.9 
      1277.0         0.23         18.7 
      1278.0         0.23         19.4 
      1279.0         0.20         23.9 
      1280.0         0.20         33.1 
      1281.0         0.20         40.6 
      1282.0         0.23         44.7 
