~Version Information
VERS.                      2.0: CWLS Log ASCII Standard - VERSION 2.0
WRAP.                       NO: One line per depth step
~Well Information Block
STRT.FT               430.0000: 
STOP.FT              2417.0000: 
STEP.FT                 0.2500: 
NULL.                -999.2500: 
COMP.          Evergreen Operating Corporation: COMPANY
WELL.          McCullough 34-32: WELL
FLD.           Purgatorie River: FIELD
LOC.           261' FSL & 2098' FEL: LOCATION
PROV.                 Colorado: PROVINCE
CNTY.               Las Animas: COUNTRY
SRVC.                Patterson: SERVICE COMPANY
DATE.          Sun May 16 02:33:07 2004: LOG DATE
UWI.           05 071 07953 00: UNIQUE WELL ID
~Curve Information Block
DEPT.FT            0 000 00 00: Depth
SN.Ohm-m                      : IEL Short Normal
SP.mV                         : IEL Spontaneous Potential
DIR.Ohm-m                     : IEL Induction Resistivity
GR.GAPI                       : Gamma Ray
~Parameter Information Block
~A  Depth        SN          SP         DIR          GR     
# ...
  1200.5000     25.0383    116.9692     18.9351    131.1760
  1200.7500     27.5725    117.0476     19.9596    129.9042
  1201.0000     29.5752    117.1089     21.0131    125.4375
  1201.2500     30.9895    117.1428     22.0558    120.7562
  1201.5000     32.1729    117.1570     23.0523    113.2945
  1201.7500     33.4581    117.1729     23.9739    109.3795
  1202.0000     34.9088    117.2088     24.8126    105.6558
  1202.2500     36.3087    117.2633     25.5928    103.9129
  1202.5000     37.2709    117.3216     26.3598    101.2289
  1202.7500     37.4987    117.3815     27.1412     99.5808
  1203.0000     37.1329    117.4718     27.9096     99.0020
  1203.2500     36.7540    117.6365     28.5750    100.7595
  1203.5000     36.8176    117.8960     29.0262    106.3873
  1203.7500     37.1762    118.2230     29.1928    110.9216
  1204.0000     37.2924    118.5539     29.0804    116.2778
  1204.2500     36.7934    118.8246     28.7500    117.9856
  1204.5000     35.7384    119.0012     28.2709    118.1783
  1204.7500     34.4833    119.0881     27.6931    117.8102
  1205.0000     33.4013    119.1165     27.0544    118.3431
  1205.2500     32.6853    119.1211     26.3983    119.8512
  1205.5000     32.2936    119.1159     25.7780    123.2986
  1205.7500     32.0260    119.0871     25.2442    125.6939
  1206.0000     31.6961    119.0131     24.8280    128.5970
  1206.2500     31.2742    118.8925     24.5357    130.1443
  1206.5000     30.8552    118.7522     24.3570    132.5446
  1206.7500     30.5218    118.6308     24.2812    134.3131
  1207.0000     30.3150    118.5559     24.3125    136.6376
  1207.2500     30.3080    118.5328     24.4754    137.6618
  1207.5000     30.5710    118.5455     24.8062    138.6398
  1207.7500     31.0943    118.5613     25.3372    139.2035
  1208.0000     31.8707    118.5335     26.0832    139.6228
  1208.2500     32.9554    118.4076     27.0370    138.8711
  1208.5000     34.3992    118.1376     28.1768    134.7508
  1208.7500     36.2630    117.7071     29.4791    129.6362
  1209.0000     38.7059    117.1434     30.9302    118.8736
  1209.2500     41.9091    116.5173     32.5295    110.2456
  1209.5000     45.8995    115.9322     34.2848     96.1761
  1209.7500     50.5588    115.5000     36.2036     86.6429
  1210.0000     55.7481    115.3002     38.2828     73.3377
  1210.2500     61.2887    115.3351     40.4953     65.8947
  1210.5000     66.8071    115.5190     42.7821     57.6883
  1210.7500     71.7444    115.7171     45.0684     54.1119
  1211.0000     75.6716    115.8109     47.3256     50.6951
  1211.2500     78.5490    115.7446     49.6477     49.1276
  1211.5000     80.6149    115.5332     52.2503     47.3010
  1211.7500     82.1239    115.2371     55.3336     46.4419
  1212.0000     83.2278    114.9228     58.8585     46.0377
  1212.2500     83.9954    114.6293     62.3886     46.5652
  1212.5000     84.4639    114.3575     65.2039     48.6578
  1212.7500     84.6825    114.0861     66.7521     50.8263
  1213.0000     84.7300    113.7944     67.0623     54.9752
  1213.2500     84.6949    113.4768     66.6413     58.1397
  1213.5000     84.6369    113.1485     66.0183     62.7820
  1213.7500     84.5901    112.8469     65.4456     65.1164
  1214.0000     84.5861    112.6185     64.9192     66.3152
  1214.2500     84.6010    112.4925     64.3561     65.3188
  1214.5000     84.5037    112.4623     63.7301     61.7351
  1214.7500     84.1426    112.4925     63.0807     58.8682
  1215.0000     83.4811    112.5420     62.4376     55.9238
  1215.2500     82.6194    112.5851     61.7697     55.8073
  1215.5000     81.7158    112.6205     61.0008     58.4454
  1215.7500     80.8735    112.6636     60.0556     61.1436
  1216.0000     80.0442    112.7272     58.8909     64.5370
  1216.2500     79.0379    112.8036     57.4940     65.6176
  1216.5000     77.6768    112.8614     55.8736     65.4409
  1216.7500     75.9169    112.8535     54.0669     64.6745
  1217.0000     73.7940    112.7301     52.1497     63.9944
  1217.2500     71.3164    112.4546     50.2133     64.7707
  1217.5000     68.4531    112.0256     48.3176     69.0375
  1217.7500     65.2116    111.4902     46.4526     74.2899
  1218.0000     61.7174    110.9353     44.5510     85.4213
  1218.2500     58.1790    110.4512     42.5552     94.1674
  1218.5000     54.7618    110.0876     40.4947    106.8721
  1218.7500     51.5290    109.8362     38.5055    113.5324
  1219.0000     48.4901    109.6511     36.7657    119.2893
  1219.2500     45.6706    109.4843     35.3951    120.5168
  1219.5000     43.1460    109.3086     34.3887    120.0897
  1219.7500     41.0067    109.1256     33.6243    119.2046
  1220.0000     39.2899    108.9657     32.9346    117.5236
  1220.2500     37.9765    108.8693     32.1988    116.0914
  1220.5000     37.0163    108.8560     31.3887    113.7254
  1220.7500     36.3210    108.9050     30.5417    112.7041
  1221.0000     35.7788    108.9683     29.6979    113.5384
  1221.2500     35.2617    108.9995     28.8642    115.9406
  1221.5000     34.6216    108.9732     28.0215    120.7622
  1221.7500     33.8077    108.8920     27.1589    123.2004
  1222.0000     32.9719    108.7844     26.3001    124.1244
  1222.2500     32.3175    108.6996     25.5042    123.4812
  1222.5000     31.9154    108.6886     24.8456    123.0527
  1222.7500     31.7118    108.7800     24.3836    124.1895
  1223.0000     31.5959    108.9654     24.1335    128.2382
  1223.2500     31.4376    109.2123     24.0457    131.9761
  1223.5000     31.1442    109.4891     24.0107    137.9321
  1223.7500     30.6996    109.7781     23.9057    141.4321
  1224.0000     30.1234    110.0707     23.6666    144.8393
  1224.2500     29.4080    110.3602     23.3232    145.4389
  1224.5000     28.5292    110.6412     22.9656    144.1934
  1224.7500     27.5280    110.9118     22.6767    142.8946
  1225.0000     26.5974    111.1735     22.4913    141.9479
  1225.2500     26.0560    111.4261     22.3974    142.1951
  1225.5000     26.1815    111.6620     22.3571    142.9060
  1225.7500     27.0667    111.8647     22.3273    142.9354
  1226.0000     28.5592    112.0169     22.2691    141.9124
  1226.2500     30.2178    112.1161     22.1537    140.7362
  1226.5000     31.4474    112.1878     21.9687    138.9098
  1226.7500     31.8707    112.2858     21.7248    137.8425
  1227.0000     31.5156    112.4762     21.4550    135.9545
  1227.2500     30.5939    112.8111     21.2083    133.8914
  1227.5000     29.2927    113.3039     21.0393    129.0807
  1227.7500     27.8488    113.9215     21.0003    125.2193
  1228.0000     26.6227    114.5966     21.1352    120.3836
  1228.2500     25.9524    115.2534     21.4721    118.8448
  1228.5000     25.9613    115.8376     22.0174    119.3452
  1228.7500     26.5492    116.3461     22.7543    120.6834
  1229.0000     27.5740    116.8356     23.6490    121.8213
  1229.2500     29.0101    117.3981     24.6598    120.6309
  1229.5000     30.9731    118.1175     25.7388    114.2418
  1229.7500     33.8082    119.0393     26.8159    106.6647
  1230.0000     38.2857    120.1625     27.7718     91.5421
  1230.2500     45.5340    121.4416     28.4370     80.3135
  1230.5000     56.3084    122.7943     28.6614     64.0585
  1230.7500     69.7400    124.1214     28.4241     54.6374
  1231.0000     82.8276    125.3311     27.8659     43.8762
  1231.2500     91.8162    126.3518     27.1952     39.4010
  1231.5000     94.1911    127.1309     26.5662     37.0065
  1231.7500     89.3686    127.6366     26.0330     38.3006
  1232.0000     78.6144    127.8669     25.5743     44.7785
  1232.2500     64.9206    127.8552     25.1371     52.3084
  1232.5000     51.9177    127.6680     24.6615     68.1321
  1232.7500     42.0157    127.3937     24.0915     80.7775
  1233.0000     35.5945    127.1217     23.3883    100.1175
  1233.2500     31.7955    126.9153     22.5525    111.5150
  1233.5000     29.6293    126.7957     21.6360    124.3470
  1233.7500     28.4283    126.7452     20.7270    129.7411
