~Version Information
VERS.                      2.0: CWLS Log ASCII Standard - VERSION 2.0
WRAP.                       NO: One line per depth step
~Well Information Block
STRT.FT                -7.5000: 
STOP.FT              1545.0000: 
STEP.FT                 0.2500: 
NULL.                -999.2500: 
COMP.          Pioneer Natural Resources: COMPANY
WELL.          Kristin 22-23 Tr: WELL
FLD.           Purgatorie River: FIELD
LOC.           2273' FNL & 2029' FWL--: LOCATION
PROV.                       CO: PROVINCE
CNTY.               Las Animas: COUNTRY
SRVC.                         : SERVICE COMPANY
DATE.          Tue Jan 25 11:16:36 2005: LOG DATE
UWI.           071-08259      : UNIQUE WELL ID
~Curve Information Block
DEPT.FT            0 000 00 00: Depth
CCL.                          : Casing Collar Locator
TT3.usec                      : CBL 3' Travel Time
AMP3.mV                       : CBL 3' Amplitude
GR.GAPI                       : Gamma Ray
~Parameter Information Block
~A  Depth       CCL         TT3         AMP3         GR     
# ...
  1098.0000      0.0000    714.5485      5.1961     88.1017
  1098.2500      0.0000    703.2483      5.3052     93.1266
  1098.5000      0.0000    679.9391      5.3200    100.0413
  1098.7500      0.0000    646.2310      5.2323    106.5078
  1099.0000      0.0000    609.6800      5.0607    109.8120
  1099.2500      0.0000    579.8029      4.8425    108.2859
  1099.5000      0.0000    562.0085      4.6288    102.9270
  1099.7500      0.0000    554.4718      4.4644     96.7863
  1100.0000      0.0000    549.6719      4.3683     92.6385
  1100.2500      0.0000    539.7833      4.3348     91.9237
  1100.5000      0.0000    523.3304      4.3447     95.4354
  1100.7500      0.0000    507.3819      4.3728    103.4636
  1101.0000      0.0000    501.4816      4.3996    114.8525
  1101.2500      0.0000    508.9479      4.4200    126.7317
  1101.5000      0.0000    525.3513      4.4394    135.7129
  1101.7500      0.0000    544.6140      4.4679    139.5629
  1102.0000      0.0000    563.6620      4.5137    138.0994
  1102.2500      0.0000    580.2474      4.5670    132.8162
  1102.5000      0.0000    588.8264      4.6006    125.7992
  1102.7500      0.0000    582.1675      4.5996    118.8538
  1103.0000      0.0000    558.7183      4.5818    113.1191
  1103.2500      0.0000    527.7584      4.5751    109.0018
  1103.5000      0.0000    505.6376      4.5882    106.4202
  1103.7500      0.0000    505.4813      4.6194    105.1951
  1104.0000      0.0000    528.8071      4.6783    105.0009
  1104.2500      0.0000    565.1696      4.7755    104.8737
  1104.5000      0.0000    599.2064      4.8981    103.3877
  1104.7500      0.0000    618.7756      5.0179     99.8678
  1105.0000      0.0000    618.1916      5.1166     95.2289
  1105.2500      0.0000    597.4624      5.1895     91.2165
  1105.5000      0.0000    562.4668      5.2272     88.9160
  1105.7500      0.0000    526.0805      5.2086     88.2664
  1106.0000      0.0000    505.2620      5.1223     88.8290
  1106.2500      0.0000    512.7917      4.9936     90.3574
  1106.5000      0.0000    549.2579      4.8780     92.2378
  1106.7500      0.0000    601.8894      4.8110     92.7632
  1107.0000      0.0000    651.8984      4.7695     89.7989
  1107.2500      0.0000    685.2028      4.7065     82.7138
  1107.5000      0.0000    698.4738      4.6250     73.6217
  1107.7500      0.0000    697.3588      4.5867     66.4343
  1108.0000      0.0000    690.5476      4.6451     64.4825
  1108.2500      0.0000    684.5822      4.7910     68.5093
  1108.5000      0.0000    681.5757      4.9657     76.3596
  1108.7500      0.0000    679.8779      5.1053     84.6701
  1109.0000      0.0000    676.6915      5.1727     91.2303
  1109.2500      0.0000    670.7126      5.1752     95.7272
  1109.5000      0.0000    662.8856      5.1604     98.6967
  1109.7500      0.0000    654.9473      5.1739    100.6880
  1110.0000      0.0000    647.1105      5.2125    102.2719
  1110.2500      0.0000    637.0986      5.2349    103.7557
  1110.5000      0.0000    621.8171      5.2142    104.6768
  1110.7500      0.0000    601.0089      5.1624    104.1566
  1111.0000      0.0000    580.0117      5.1051    101.9451
  1111.2500      0.0000    568.0182      5.0508     98.8682
  1111.5000      0.0000    571.6032      4.9961     96.1595
  1111.7500      0.0000    588.8853      4.9546     94.3855
  1112.0000      0.0000    610.4801      4.9573     93.0748
  1112.2500      0.0000    626.1850      5.0141     91.5164
  1112.5000      0.0000    630.3002      5.0863     89.9632
  1112.7500      0.0000    622.1364      5.1101     89.7001
  1113.0000      0.0000    604.6235      5.0442     91.6080
  1113.2500      0.0000    583.3760      4.8958     94.8564
  1113.5000      0.0000    565.0449      4.7083     97.3774
  1113.7500      0.0000    554.8193      4.5336     97.4841
  1114.0000      0.0000    555.1607      4.4096     94.8545
  1114.2500      0.0000    566.1506      4.3461     90.2855
  1114.5000      0.0000    585.6161      4.3331     84.9133
  1114.7500      0.0000    608.9882      4.3611     79.6315
  1115.0000      0.0000    630.6135      4.4282     75.0131
  1115.2500      0.0000    646.3846      4.5321     71.5947
  1115.5000      0.0000    655.4841      4.6598     69.9276
  1115.7500      0.0000    660.0935      4.7785     70.0920
  1116.0000      0.0000    663.6196      4.8449     71.4408
  1116.2500      0.0000    668.4095      4.8373     73.2341
  1116.5000      0.0000    674.3850      4.7764     75.2536
  1116.7500      0.0000    679.6447      4.7075     77.4584
  1117.0000      0.0000    682.3325      4.6607     79.6391
  1117.2500      0.0000    682.0604      4.6307     82.0613
  1117.5000      0.0000    680.1504      4.5930     85.9518
  1117.7500      0.0000    679.0751      4.5326     92.4713
  1118.0000      0.0000    681.3997      4.4567    101.2463
  1118.2500      0.0000    688.2400      4.3905    110.5793
  1118.5000      0.0000    697.6801      4.3595    119.1907
  1118.7500      0.0000    704.3893      4.3640    127.0615
  1119.0000      0.0000    701.6719      4.3761    134.5756
  1119.2500      0.0000    685.2889      4.3677    141.8871
  1119.5000      0.0000    656.4261      4.3344    149.1385
  1119.7500      0.0000    621.3840      4.2951    156.1017
  1120.0000      0.0000    588.1154      4.2771    161.5894
  1120.2500      0.0000    562.3687      4.2954    164.2045
  1120.5000      0.0000    546.2141      4.3353    163.6516
  1120.7500      0.0000    539.0555      4.3630    160.7993
  1121.0000      0.0000    539.1868      4.3607    156.7602
  1121.2500      0.0000    544.3978      4.3452    152.2876
  1121.5000      0.0000    551.9709      4.3455    147.6641
  1121.7500      0.0000    559.2140      4.3668    142.6904
  1122.0000      0.0000    564.5353      4.3858    137.0441
  1122.2500      0.0000    567.8712      4.3830    131.3545
  1122.5000      0.0000    569.9429      4.3628    127.9454
  1122.7500      0.0000    571.1270      4.3412    129.7701
  1123.0000      0.0000    570.9726      4.3270    137.9915
  1123.2500      0.0000    568.8622      4.3178    150.4191
  1123.5000      0.0000    565.5481      4.3064    162.3580
  1123.7500      0.0000    564.4167      4.2839    169.3359
  1124.0000      0.0000    570.8173      4.2433    169.5828
  1124.2500      0.0000    588.8380      4.1880    164.5610
  1124.5000      0.0000    617.5381      4.1336    157.5832
  1124.7500      0.0000    650.4422      4.0993    151.5385
  1125.0000      0.0000    679.6498      4.0991    147.0023
  1125.2500      0.0000    700.5186      4.1359    142.0022
  1125.5000      0.0000    712.3297      4.1969    133.8710
  1125.7500      0.0000    716.1025      4.2576    121.7980
  1126.0000      0.0000    713.5213      4.2983    107.9320
  1126.2500      0.0000    707.2844      4.3150     96.2952
  1126.5000      0.0000    700.6201      4.3149     90.5900
  1126.7500      0.0000    695.7677      4.3044     92.3315
  1127.0000      0.0000    693.1856      4.2847    100.1627
  1127.2500      0.0000    692.1693      4.2572    110.5968
  1127.5000      0.0000    691.8845      4.2272    119.7158
  1127.7500      0.0000    691.8832      4.1969    124.8548
  1128.0000      0.0000    692.0443      4.1603    125.4539
  1128.2500      0.0000    692.3943      4.1123    122.9191
  1128.5000      0.0000    693.1189      4.0645    119.6542
  1128.7500      0.0000    694.5708      4.0451    117.5269
  1129.0000      0.0000    696.8880      4.0767    116.4974
  1129.2500      0.0000    699.4355      4.1546    114.6795
  1129.5000      0.0000    701.0542      4.2459    110.2616
  1129.7500      0.0000    701.4016      4.3110    103.6764
  1130.0000      0.0000    701.8572      4.3286     97.8482
  1130.2500      0.0000    704.4335      4.3040     96.3175
  1130.5000      0.0000    709.4769      4.2555    101.1111
  1130.7500      0.0000    714.6285      4.1950    111.8550
  1131.0000      0.0000    716.3186      4.1243    126.1124
  1131.2500      0.0000    712.3073      4.0502    140.3952
