~Version Information
VERS.                      2.0: CWLS Log ASCII Standard - VERSION 2.0
WRAP.                       NO: One line per depth step
~Well Information Block
STRT.FT               890.0000: 
STOP.FT              1588.2000: 
STEP.FT                 0.1000: 
NULL.                -999.2500: 
COMP.          Evergreen Operating Corporation: COMPANY
WELL.            Tomahawk 44-9: WELL
FLD.           Purgatorie River: FIELD
LOC.           434' FSL & 491' FEL: LOCATION
PROV.                 Colorado: PROVINCE
CNTY.               Las Animas: COUNTRY
SRVC.                         : SERVICE COMPANY
DATE.          Mon Sep 13 10:07:57 2004: LOG DATE
UWI.           05 071 08133 00: UNIQUE WELL ID
~Curve Information Block
DEPT.FT            0 000 00 00: Depth
LTEN.lb                       : Surface Line Tension
DCAL.in                       : CDL Caliper
RHOB.g/cc                     : CDL Bulk Density
RHOC.g/cc                     : CDL Density Correction
DPOR.pu                       : CDL Density Porosity
GR.GAPI                       : Gamma Ray
NPOR.pu                       : Neutron Porosity
~Parameter Information Block
~A  Depth       LTEN        DCAL        RHOB        RHOC        DPOR         GR         NPOR    
# ...
  1301.6000   1052.0524      8.1207      2.4111     -0.0043     14.4765    110.4508     25.9129
  1301.7000   1052.0524      8.1207      2.3838      0.0142     16.1355    114.9427     26.3907
  1301.8000   1009.6152      8.1209      2.3594     -0.0005     17.6098    117.6062     27.2875
  1301.9000   1009.6152      8.1209      2.3341      0.0059     19.1425    114.0191     28.0716
  1302.0000   1062.2717      8.1211      2.2884      0.0164     21.9144    111.6233     28.5026
  1302.1000   1062.2717      8.1211      2.2005     -0.0146     27.2405    115.0661     28.7683
  1302.2000   1062.2717      8.1211      2.0943     -0.0977     33.6809    116.0890     28.4660
  1302.3000   1006.0521      8.1223      2.0132     -0.0586     38.5943    108.0347     27.3782
  1302.4000   1006.0521      8.1223      1.9478     -0.0545     42.5603     94.4321     26.9250
  1302.5000   1025.8741      8.1243      1.8600     -0.0728     47.8769     83.7119     27.7412
  1302.6000   1025.8741      8.1243      1.7528     -0.1114     54.3738     81.4045     28.4765
  1302.7000   1025.8741      8.1243      1.6631     -0.1078     59.8100     85.3721     28.7875
  1302.8000   1059.2311      8.1312      1.6091     -0.0793     63.0861     88.2794     29.2297
  1302.9000   1059.2311      8.1312      1.5732     -0.0091     65.2635     83.3112     29.8710
  1303.0000    994.3417      8.1573      1.5395     -0.0203     67.3024     75.2682     30.6094
  1303.1000    994.3417      8.1573      1.5169      0.0160     68.6702     75.3964     31.4692
  1303.2000    994.3417      8.1573      1.5101      0.0521     69.0825     81.1385     32.3272
  1303.3000   1084.2180      8.2879      1.5087      0.0673     69.1725     81.0832     32.6117
  1303.4000   1084.2180      8.2879      1.5050      0.0940     69.3966     75.1376     32.2452
  1303.5000   1011.0388      8.4111      1.5013      0.0751     69.6199     71.1266     31.9498
  1303.6000   1011.0388      8.4111      1.5064      0.0549     69.3084     70.0071     32.3479
  1303.7000   1011.0388      8.4111      1.5308      0.0418     67.8310     71.0570     33.2458
  1303.8000   1000.1550      8.3354      1.5797      0.0870     64.8672     75.7828     33.6181
  1303.9000   1000.1550      8.3354      1.6451      0.1046     60.9046     79.8390     33.1272
  1304.0000   1047.1183      8.2260      1.7137      0.1404     56.7472     79.5182     32.4073
  1304.1000   1047.1183      8.2260      1.7833      0.1421     52.5302     79.6850     31.7274
  1304.2000   1047.1183      8.2260      1.8547      0.1477     48.1982     82.9299     31.5448
  1304.3000    991.5763      8.2135      1.9103      0.1606     44.8286     88.3904     32.2652
  1304.4000    991.5763      8.2135      1.9241      0.1619     43.9949     93.3748     33.1368
  1304.5000   1050.4590      8.2069      1.8909      0.0905     46.0084     91.1106     33.4132
  1304.6000   1050.4590      8.2069      1.8285      0.0303     49.7889     83.6432     33.2010
  1304.7000   1050.4590      8.2069      1.7572     -0.0101     54.1088     80.5188     32.6635
  1304.8000   1028.6211      8.2007      1.6836     -0.0498     58.5692     82.2940     32.0090
  1304.9000   1028.6211      8.2007      1.6004     -0.0516     63.6104     84.1616     31.6522
  1305.0000   1034.5438      8.2011      1.5082     -0.1219     69.1977     82.2480     31.7169
  1305.1000   1034.5438      8.2011      1.4346     -0.1210     73.6591     74.1616     31.5677
  1305.2000   1034.5438      8.2011      1.4081     -0.0315     75.2652     65.1639     30.8075
  1305.3000   1024.6172      8.2154      1.4255      0.0551     74.2122     60.7002     30.2948
  1305.4000   1024.6172      8.2154      1.4714      0.0441     71.4308     58.9545     30.6352
  1305.5000    975.7997      8.2860      1.5473      0.0555     66.8275     58.2978     31.2425
  1305.6000    975.7997      8.2860      1.6589      0.0767     60.0670     58.6679     31.5199
  1305.7000    975.7997      8.2860      1.7997      0.1039     51.5335     61.1760     31.4323
  1305.8000   1041.7300      8.4679      1.9555      0.1689     42.0887     68.3700     31.1285
  1305.9000   1041.7300      8.4679      2.1065      0.2278     32.9398     78.2318     30.5316
  1306.0000   1012.4920      8.3991      2.2350      0.2417     25.1489     87.0679     30.0263
  1306.1000   1012.4920      8.3991      2.3379      0.2336     18.9121     95.3193     30.0694
  1306.2000   1012.4920      8.3991      2.4170      0.2126     14.1219    103.6374     30.2241
  1306.3000    971.1749      8.2764      2.4668      0.1787     11.1052    109.9573     29.7701
  1306.4000    971.1749      8.2764      2.4828      0.1148     10.1312    113.0529     28.4282
  1306.5000   1048.8927      8.0901      2.4796      0.0350     10.3268    113.1378     26.9906
  1306.6000   1048.8927      8.0901      2.4844      0.0463     10.0366    111.5597     26.4968
  1306.7000   1048.8927      8.0901      2.5095      0.0389      8.5179    109.0216     26.8542
  1306.8000   1012.0607      8.0646      2.5468      0.0488      6.2560    105.2364     26.9192
  1306.9000   1012.0607      8.0646      2.5741      0.0927      4.5976    100.7642     26.0113
  1307.0000   1032.8728      8.0614      2.5700      0.0679      4.8468     98.5324     24.8180
  1307.1000   1032.8728      8.0614      2.5481      0.0038      6.1736    103.2511     24.0622
  1307.2000   1032.8728      8.0614      2.5401      0.0613      6.6583    112.8136     23.2906
  1307.3000   1024.6465      8.0606      2.5466      0.0649      6.2652    118.4361     22.4547
  1307.4000   1024.6465      8.0606      2.5530      0.0270      5.8801    114.3811     22.4312
  1307.5000   1029.3546      8.0599      2.5518      0.0588      5.9496    104.2267     23.4056
  1307.6000   1029.3546      8.0599      2.5393      0.0380      6.7121     94.4111     24.5585
  1307.7000   1029.3546      8.0599      2.5291     -0.0134      7.3249     86.6146     24.8757
  1307.8000   1026.7159      8.0603      2.5369      0.0308      6.8549     81.8866     24.2065
  1307.9000   1026.7159      8.0603      2.5512      0.0402      5.9858     82.5231     23.3502
  1308.0000   1019.3344      8.0616      2.5536      0.0534      5.8401     88.0167     23.2071
  1308.1000   1019.3344      8.0616      2.5462      0.0416      6.2883     95.6543     23.7692
  1308.2000   1019.3344      8.0616      2.5507      0.0506      6.0194    103.9684     24.0338
  1308.3000   1010.6993      8.0603      2.5733      0.0807      4.6510    109.9870     23.4421
  1308.4000   1010.6993      8.0603      2.5910      0.1214      3.5745    109.8355     22.4332
  1308.5000   1048.1294      8.0598      2.5862      0.0748      3.8644    106.3975     21.8522
  1308.6000   1048.1294      8.0598      2.5640      0.0739      5.2139    105.3557     22.3413
  1308.7000   1048.1294      8.0598      2.5398      0.0190      6.6774    106.6921     23.6519
  1308.8000   1027.4919      8.0602      2.5303      0.0164      7.2518    109.2770     24.9017
  1308.9000   1027.4919      8.0602      2.5384      0.0535      6.7607    112.4085     25.3844
  1309.0000   1025.5405      8.0610      2.5544      0.0650      5.7925    116.5088     25.0889
  1309.1000   1025.5405      8.0610      2.5686      0.0493      4.9325    120.8119     24.9604
  1309.2000   1025.5405      8.0610      2.5715      0.0868      4.7605    119.2661     25.2946
  1309.3000   1021.8734      8.0607      2.5525      0.0911      5.9111    111.5784     25.2084
  1309.4000   1021.8734      8.0607      2.5175      0.0450      8.0294    107.3040     24.4384
  1309.5000   1078.5605      8.0611      2.4940      0.0256      9.4537    110.3520     23.5552
  1309.6000   1078.5605      8.0611      2.4950      0.0339      9.3949    114.4625     23.2419
  1309.7000   1078.5605      8.0611      2.4979      0.0810      9.2192    115.4496     23.7728
  1309.8000   1031.5427      8.0610      2.4779      0.0411     10.4300    115.6732     24.8463
  1309.9000   1031.5427      8.0610      2.4435      0.0249     12.5141    116.0989     25.6706
