~Version Information
VERS.                      2.0: CWLS Log ASCII Standard - VERSION 2.0
WRAP.                       NO: One line per depth step
~Well Information Block
STRT.FT               510.0000: 
STOP.FT              1861.5000: 
STEP.FT                 0.1000: 
NULL.                -999.2500: 
COMP.          Pioneer Natural Resources: COMPANY
WELL.           Guajardo 24-16: WELL
FLD.           Purgatoire River: FIELD
LOC.           883' FSL & 2147' FWL: LOCATION
PROV.                 Colorado: PROVINCE
CNTY.               Las Animas: COUNTRY
SRVC.                Patterson: SERVICE COMPANY
DATE.          Mon Aug 08 09:13:01 2005: LOG DATE
UWI.           05 071 08377 00: UNIQUE WELL ID
~Curve Information Block
DEPT.FT            0 000 00 00: Depth
DCAL.in                       : CDL Caliper
RHOB.g/cc                     : CDL Bulk Density
RHOC.g/cc                     : CDL Density Correction
DPOR.pu                       : CDL Density Porosity
GR.GAPI                       : Gamma Ray
NPOR.pu                       : Neutron Porosity
~Parameter Information Block
~A  Depth       DCAL        RHOB        RHOC        DPOR         GR         NPOR    
# ...
   692.4000      8.2396      2.5212      0.1620      7.8045    111.8951     19.5873
   692.5000      8.2734      2.5410      0.1433      6.6038    123.2851     19.7510
   692.6000      8.2734      2.5262      0.1198      7.5015    132.2928     19.8184
   692.7000      8.2734      2.4996      0.0367      9.1133    137.2506     19.9397
   692.8000      8.2594      2.4847      0.0803     10.0166    144.5383     19.9951
   692.9000      8.2594      2.4748      0.0901     10.6171    151.3154     19.7487
   693.0000      8.2519      2.4646      0.0282     11.2357    151.2206     19.3483
   693.1000      8.2519      2.4631      0.0401     11.3289    148.3793     19.1131
   693.2000      8.2519      2.4678      0.0666     11.0434    149.1719     19.0405
   693.3000      8.2683      2.4734      0.0409     10.7010    150.9444     18.9973
   693.4000      8.2683      2.4817      0.0917     10.1976    148.4419     19.1360
   693.5000      8.2698      2.4806      0.1239     10.2672    144.0150     19.5447
   693.6000      8.2698      2.4566      0.1047     11.7200    144.2744     19.9019
   693.7000      8.2698      2.4175      0.0662     14.0887    147.8178     19.8035
   693.8000      8.2577      2.3787      0.0486     16.4438    147.1696     19.5207
   693.9000      8.2577      2.3488      0.0078     18.2549    142.0508     19.6394
   694.0000      8.2699      2.3337      0.0165     19.1723    139.1423     20.1154
   694.1000      8.2699      2.3320      0.0561     19.2716    141.0521     20.4788
   694.2000      8.2699      2.3397      0.0163     18.8051    143.1871     20.7182
   694.3000      8.3295      2.3556      0.0239     17.8411    141.9437     20.9540
   694.4000      8.3295      2.3685      0.0586     17.0586    139.2727     21.0353
   694.5000      8.3401      2.3750      0.0222     16.6684    139.6166     21.1464
   694.6000      8.3401      2.3949      0.0378     15.4609    144.6934     21.6136
   694.7000      8.3401      2.4326      0.1393     13.1774    149.4811     22.2459
   694.8000      8.3175      2.4665      0.1195     11.1237    149.2662     22.6562
   694.9000      8.3175      2.4943      0.0498      9.4389    148.1845     22.7542
   695.0000      8.2512      2.5245      0.0857      7.6032    150.4515     22.8232
   695.1000      8.2512      2.5418      0.1058      6.5592    154.8770     23.0450
   695.2000      8.2512      2.5346      0.0824      6.9910    157.3585     23.1456
   695.3000      8.2362      2.5145      0.0492      8.2134    154.8608     23.1545
   695.4000      8.2362      2.4915      0.0554      9.6081    150.7299     23.3766
   695.5000      8.1923      2.4771     -0.0057     10.4762    147.5940     23.6577
   695.6000      8.1923      2.4803      0.0389     10.2827    145.5577     23.7179
   695.7000      8.1923      2.4849      0.0437     10.0083    146.2817     23.5475
   695.8000      8.1814      2.4736      0.0193     10.6900    149.2982     23.2693
   695.9000      8.1814      2.4595      0.0241     11.5449    152.7844     23.0756
   696.0000      8.1753      2.4654      0.0350     11.1908    156.8064     23.1162
   696.1000      8.1753      2.4857      0.0585      9.9595    158.7737     23.4304
   696.2000      8.1753      2.4976      0.0131      9.2378    156.3075     23.9673
   696.3000      8.1776      2.4979      0.0332      9.2174    151.1993     24.4272
   696.4000      8.1776      2.5003      0.0080      9.0741    146.7604     24.3348
   696.5000      8.1750      2.5100      0.0250      8.4845    146.4958     23.8400
   696.6000      8.1750      2.5189      0.0260      7.9434    149.4173     23.5574
   696.7000      8.1750      2.5266      0.0420      7.4810    153.0705     23.6768
   696.8000      8.1826      2.5375      0.0313      6.8153    156.4886     23.9888
   696.9000      8.1826      2.5420      0.0197      6.5459    157.7908     24.2134
   697.0000      8.1811      2.5349     -0.0244      6.9766    155.6175     24.1706
   697.1000      8.1811      2.5310     -0.0012      7.2140    152.1121     23.9280
   697.2000      8.1811      2.5392      0.0445      6.7179    149.3558     23.7682
   697.3000      8.1773      2.5592      0.0122      5.5026    147.4125     24.0748
   697.4000      8.1773      2.5836      0.0653      4.0246    146.0469     24.7342
   697.5000      8.1656      2.5951      0.0538      3.3281    142.4386     25.0374
   697.6000      8.1656      2.5888      0.0242      3.7105    134.3549     24.4902
   697.7000      8.1656      2.5718      0.0558      4.7410    122.8906     23.6190
   697.8000      8.1699      2.5500     -0.0039      6.0584    113.4988     23.4126
   697.9000      8.1699      2.5347      0.0058      6.9850    113.2997     24.0512
   698.0000      8.1733      2.5357      0.0448      6.9278    122.8427     24.8476
   698.1000      8.1733      2.5535      0.0477      5.8509    131.0699     24.9183
   698.2000      8.1733      2.5845      0.0230      3.9688    126.9433     24.4047
   698.3000      8.1736      2.6131      0.0926      2.2342    116.8180     24.2617
   698.4000      8.1736      2.6228      0.0717      1.6509    111.5702     24.9643
   698.5000      8.1547      2.6289      0.0507      1.2796    109.8216     26.0884
   698.6000      8.1547      2.6576      0.0655     -0.4621    105.1859     26.6793
   698.7000      8.1547      2.7026      0.1141     -3.1901     97.4776     26.4697
   698.8000      8.1436      2.7333      0.1490     -5.0509     93.3158     26.0842
   698.9000      8.1436      2.7270      0.2242     -4.6676     95.1309     25.8217
   699.0000      8.1538      2.6922      0.1456     -2.5573     99.5520     25.5598
   699.1000      8.1538      2.6561      0.1360     -0.3677    103.6293     25.0957
   699.2000      8.1538      2.6241      0.1236      1.5720    106.0363     24.4409
   699.3000      8.1515      2.5937      0.0584      3.4149    106.3575     23.9602
   699.4000      8.1515      2.5785      0.0492      4.3346    106.4320     23.8030
   699.5000      8.1537      2.5830      0.0936      4.0631    110.3680     23.5614
   699.6000      8.1537      2.5900      0.0859      3.6383    117.6108     22.8383
   699.7000      8.1537      2.5867      0.0980      3.8371    120.0331     21.8499
   699.8000      8.1564      2.5791      0.0932      4.2947    114.5621     21.0549
   699.9000      8.1564      2.5780      0.0875      4.3611    111.8002     20.6850
   700.0000      8.1536      2.5741      0.0975      4.5988    118.6713     20.7352
   700.1000      8.1536      2.5494      0.0343      6.0967    127.5712     20.8957
   700.2000      8.1536      2.5170     -0.0119      8.0583    132.2621     20.8239
   700.3000      8.1537      2.5015      0.0413      8.9982    132.2190     20.7578
   700.4000      8.1537      2.4998      0.0112      9.1052    127.3579     20.9678
   700.5000      8.1504      2.5025      0.0030      8.9390    121.5741     21.2362
   700.6000      8.1504      2.5076     -0.0001      8.6304    118.6711     21.4405
   700.7000      8.1504      2.5064      0.0194      8.7056    118.0088     21.7457
   700.8000      8.1495      2.4934      0.0196      9.4937    121.0612     22.2241
   700.9000      8.1495      2.4808      0.0173     10.2522    131.6181     22.8868
   701.0000      8.1487      2.4854      0.0236      9.9774    144.6844     23.5006
   701.1000      8.1487      2.5095      0.0628      8.5127    148.6619     23.6004
   701.2000      8.1487      2.5460      0.0222      6.3042    140.7517     23.2939
   701.3000      8.1478      2.5870      0.0698      3.8209    130.9755     23.0883
   701.4000      8.1478      2.6184      0.1326      1.9165    129.4423     23.0073
   701.5000      8.1520      2.6312      0.0946      1.1365    137.8855     22.8033
   701.6000      8.1520      2.6315      0.1037      1.1219    147.7579     22.8111
   701.7000      8.1520      2.6236      0.1309      1.5970    147.8355     23.2990
   701.8000      8.1558      2.6082      0.0661      2.5359    140.3897     23.7695
   701.9000      8.1558      2.5892      0.0493      3.6837    136.9081     23.7360
