~Version Information
VERS.                      2.0: CWLS Log ASCII Standard - VERSION 2.0
WRAP.                       NO: One line per depth step
~Well Information Block
STRT.FT               -12.0000: 
STOP.FT              2137.5000: 
STEP.FT                 0.2500: 
NULL.                -999.2500: 
COMP.          Pioneer Natural Resources: COMPANY
WELL.           Ogallela 44-12: WELL
FLD.           Purgatorie River: FIELD
LOC.           610' FSL & 671' FEL------------: LOCATION
PROV.                       CO: PROVINCE
CNTY.               Las Animas: COUNTRY
SRVC.          Patterson Wireline: SERVICE COMPANY
DATE.          Thu Apr 07 14:25:46 2005: LOG DATE
UWI.           05 071 08283 00: UNIQUE WELL ID
~Curve Information Block
DEPT.FT            0 000 00 00: Depth
CCL.                          : Casing Collar Locator
TT3.usec                      : CBL 3' Travel Time
AMP3.mV                       : CBL 3' Amplitude
ATT3.db/ft                    : CBL 3' Attenuation
GR.GAPI                       : Gamma Ray
~Parameter Information Block
~A  Depth       CCL         TT3         AMP3        ATT3         GR     
# ...
  1976.0000      0.0000    760.0757      8.1691     -7.0979     91.2129
  1976.2500      0.0000    766.6968      7.5938     -7.3093     93.8313
  1976.5000      0.0000    776.3232      7.1127     -7.4988     96.2613
  1976.7500      0.0000    784.3085      6.8071     -7.6260     96.4542
  1977.0000      0.0000    786.9928      6.6105     -7.7108     92.9623
  1977.2500      0.0000    784.5815      6.3770     -7.8149     86.7073
  1977.5000     -2.0000    781.1572      6.0360     -7.9740     80.3237
  1977.7500      0.0000    781.3857      5.6826     -8.1487     75.6972
  1978.0000      0.0000    786.6144      5.5160     -8.2349     72.6932
  1978.2500      0.0000    793.7993      5.6876     -8.1462     70.4805
  1978.5000      0.0000    798.4812      6.1865     -7.9027     69.3994
  1978.7500      0.0000    799.1103      6.8482     -7.6085     70.6871
  1979.0000      0.0000    798.1351      7.4713     -7.3564     74.4783
  1979.2500      0.0000    799.0533      7.9534     -7.1754     78.9370
  1979.5000      0.0000    803.3369      8.3358     -7.0394     81.8353
  1979.7500      0.0000    810.0766      8.7151     -6.9105     82.7566
  1980.0000      0.0000    817.0734      9.1160     -6.7803     83.3725
  1980.2500      0.0000    821.7974      9.4641     -6.6718     85.6630
  1980.5000      0.0000    822.5095      9.6676     -6.6103     90.0319
  1980.7500      0.0000    819.4243      9.6973     -6.6014     94.8877
  1981.0000      0.0000    814.5090      9.5916     -6.6331     97.7564
  1981.2500      0.0000    809.8991      9.4138     -6.6873     97.0914
  1981.5000      0.0000    806.6105      9.2184     -6.7480     93.5313
  1981.7500      0.0000    804.5651      9.0408     -6.8043     89.5842
  1982.0000      0.0000    803.3010      8.8952     -6.8513     87.9866
  1982.2500      0.0000    802.4865      8.7731     -6.8913     90.0240
  1982.5000      0.0000    802.0244      8.6468     -6.9333     94.9553
  1982.7500      0.0000    801.9523      8.4860     -6.9877    100.7339
  1983.0000      0.0000    802.3061      8.2817     -7.0583    105.2518
  1983.2500      0.0000    803.0308      8.0548     -7.1387    107.0683
  1983.5000      0.0000    803.9639      7.8427     -7.2159    105.4931
  1983.7500      0.0000    804.8781      7.6748     -7.2786    100.7192
  1984.0000      0.0000    805.5542      7.5578     -7.3231     94.0723
  1984.2500      0.0000    805.8561      7.4789     -7.3535     87.7167
  1984.5000      0.0000    805.7831      7.4162     -7.3778     83.4878
  1984.7500      0.0000    805.4618      7.3449     -7.4058     81.6291
  1985.0000      0.0000    805.0309      7.2363     -7.4489     80.6821
  1985.2500      0.0000    804.4402      7.0631     -7.5191     78.8854
  1985.5000      0.0000    803.2560      6.8145     -7.6228     75.7560
  1985.7500      0.0000    800.6572      6.5035     -7.7581     72.1590
  1986.0000      0.0000    795.8221      6.1587     -7.9158     69.0335
  1986.2500      0.0000    788.6276      5.8203     -8.0794     66.4965
  1986.5000      0.0000    779.9919      5.5500     -8.2171     64.2435
  1986.7500      0.0000    771.3148      5.4233     -8.2840     62.3999
  1987.0000      0.0000    763.5520      5.4754     -8.2563     61.7047
  1987.2500      0.0000    756.9992      5.6446     -8.1682     62.9163
  1987.5000      0.0000    751.8479      5.7912     -8.0939     66.0991
  1987.7500      0.0000    748.7796      5.7936     -8.0927     70.3696
  1988.0000      0.0000    749.1386      5.6301     -8.1756     74.2486
  1988.2500      0.0000    754.3364      5.3797     -8.3073     76.3753
  1988.5000      0.0000    764.4210      5.1640     -8.4258     76.2218
  1988.7500      0.0000    777.1113      5.0888     -8.4683     74.6083
  1989.0000      0.0000    788.8344      5.2044     -8.4032     73.5963
  1989.2500      0.0000    796.9557      5.4877     -8.2498     75.2989
  1989.5000      0.0000    800.8123      5.8525     -8.0634     80.2649
  1989.7500      0.0000    800.9592      6.1923     -7.9000     87.0320
  1990.0000      0.0000    798.2716      6.4306     -7.7907     93.3202
  1990.2500      0.0000    793.9921      6.5409     -7.7414     97.4757
  1990.5000      0.0000    789.7710      6.5285     -7.7470     98.8835
  1990.7500      0.0000    786.6785      6.4044     -7.8025     97.5919
  1991.0000      0.0000    784.2488      6.1798     -7.9059     94.1227
  1991.2500      0.0000    781.3891      5.8795     -8.0501     89.7396
  1991.5000      0.0000    778.3586      5.5560     -8.2140     86.3589
  1991.7500      0.0000    776.9760      5.2907     -8.3556     85.3928
  1992.0000      0.0000    778.4014      5.1683     -8.4234     86.4642
  1992.2500      0.0000    781.2677      5.2322     -8.3878     87.7343
  1992.5000      0.0000    782.5663      5.4523     -8.2685     87.7162
  1992.7500      0.0000    780.3068      5.7368     -8.1212     86.5402
  1993.0000      0.0000    775.0747      5.9782     -8.0019     85.5006
  1993.2500      0.0000    769.1419      6.0979     -7.9445     85.7236
  1993.5000      0.0000    764.4611      6.0651     -7.9601     87.2765
  1993.7500      0.0000    761.5941      5.8989     -8.0406     89.1689
  1994.0000      0.0000    760.0801      5.6651     -8.1576     89.9712
  1994.2500      0.0000    759.2795      5.4642     -8.2622     88.7319
  1994.5000      0.0000    758.8169      5.3969     -8.2981     85.7897
  1994.7500      0.0000    758.6143      5.5097     -8.2382     82.7829
  1995.0000      0.0000    758.8635      5.7563     -8.1114     81.5834
  1995.2500      0.0000    760.0966      6.0130     -7.9851     83.0364
  1995.5000      0.0000    763.0990      6.1465     -7.9215     86.6326
  1995.7500      0.0000    768.3599      6.0847     -7.9508     91.1575
  1996.0000      0.0000    775.1895      5.8488     -8.0653     95.4459
  1996.2500      0.0000    781.3710      5.5334     -8.2258     98.7469
  1996.5000      0.0000    784.0559      5.2485     -8.3788    100.8179
  1996.7500      0.0000    781.4080      5.0596     -8.4849    101.7439
  1997.0000      0.0000    773.7778      4.9685     -8.5375    101.4560
  1997.2500      0.0000    763.8609      4.9414     -8.5534     99.4940
  1997.5000      0.0000    755.7534      4.9447     -8.5515     95.4008
  1997.7500      0.0000    752.6747      4.9581     -8.5436     89.2080
  1998.0000      0.0000    754.6571      4.9642     -8.5401     81.4966
  1998.2500      0.0000    759.0374      4.9395     -8.5545     73.2882
  1998.5000      0.0000    763.5974      4.8761     -8.5919     65.9633
  1998.7500      0.0000    768.1998      4.8025     -8.6359     60.9482
  1999.0000      0.0000    773.0903      4.7547     -8.6649     59.1289
  1999.2500      0.0000    777.2372      4.7354     -8.6767     60.3960
  1999.5000      0.0000    779.2916      4.7234     -8.6840     63.5827
  1999.7500      0.0000    779.2071      4.7057     -8.6949     66.8373
  2000.0000      0.0000    778.1508      4.6846     -8.7079     68.4814
  2000.2500      0.0000    777.3616      4.6718     -8.7158     68.1154
  2000.5000      0.0000    777.6348      4.6857     -8.7072     67.1513
  2000.7500      0.0000    779.6432      4.7349     -8.6770     68.0058
  2001.0000      0.0000    783.8860      4.8068     -8.6333     72.3955
  2001.2500      0.0000    789.8939      4.8790     -8.5902     80.1590
  2001.5000      0.0000    796.0119      4.9330     -8.5583     89.4820
  2001.7500      0.0000    800.4182      4.9624     -8.5411     98.1608
  2002.0000      0.0000    802.1181      4.9836     -8.5287    104.8420
  2002.2500      0.0000    800.9475      5.0304     -8.5017    109.3679
  2002.5000      0.0000    797.3447      5.1282     -8.4459    112.2638
  2002.7500      0.0000    792.6459      5.2773     -8.3630    113.9838
  2003.0000      0.0000    789.0985      5.4537     -8.2678    114.5299
  2003.2500      0.0000    788.6320      5.6229     -8.1793    113.7498
  2003.5000      0.0000    791.3203      5.7573     -8.1109    112.0173
  2003.7500      0.0000    795.4195      5.8427     -8.0683    110.4573
