~Version Information
VERS.                      2.0: CWLS Log ASCII Standard - VERSION 2.0
WRAP.                       NO: One line per depth step
~Well Information Block
STRT.FT               554.0000: 
STOP.FT              1002.0000: 
STEP.FT                 0.1000: 
NULL.                -999.2500: 
COMP.          Pioneer Natural Resources: COMPANY
WELL.          Rising Star 22-11: WELL
FLD.           Purgatoire River: FIELD
LOC.           2152' FNL & 2105' FWL: LOCATION
PROV.                 Colorado: PROVINCE
CNTY.               Las Animas: COUNTRY
SRVC.                Patterson: SERVICE COMPANY
DATE.          Mon Apr 11 16:46:53 2005: LOG DATE
UWI.           05 071 08354 00: UNIQUE WELL ID
~Curve Information Block
DEPT.FT            0 000 00 00: Depth
DCAL.in                       : CDL Caliper
RHOB.g/cc                     : CDL Bulk Density
RHOC.g/cc                     : CDL Density Correction
DPOR.pu                       : CDL Density Porosity
GR.GAPI                       : Gamma Ray
NPOR.pu                       : Neutron Porosity
~Parameter Information Block
~A  Depth       DCAL        RHOB        RHOC        DPOR         GR         NPOR    
# ...
   669.2000      7.9154      2.5543      0.0422      5.8012     53.0539     19.1040
   669.3000      7.8751      2.5420      0.0415      6.5481     56.5374     18.8877
   669.4000      7.8751      2.5606      0.0301      5.4159     62.8873     18.9045
   669.5000      7.8788      2.6018      0.0685      2.9222     70.3812     19.3957
   669.6000      7.8788      2.6371      0.0773      0.7836     77.0927     20.2909
   669.7000      7.8788      2.6599      0.1108     -0.6024     80.4070     21.3461
   669.8000      7.8926      2.6779      0.1662     -1.6894     79.4095     22.3379
   669.9000      7.8926      2.6953      0.1409     -2.7450     78.7907     23.0755
   670.0000      7.8916      2.7140      0.1323     -3.8790     80.2353     23.5287
   670.1000      7.8916      2.7326      0.1389     -5.0046     80.5928     23.6842
   670.2000      7.8916      2.7568      0.1021     -6.4742     81.1983     23.6097
   670.3000      7.8651      2.7822      0.1308     -8.0148     83.9269     23.7493
   670.4000      7.8651      2.7834      0.1061     -8.0851     86.1457     24.0199
   670.5000      7.8661      2.7631      0.0718     -6.8538     85.5602     23.7871
   670.6000      7.8661      2.7525      0.0962     -6.2092     83.6232     23.2249
   670.7000      7.8661      2.7556      0.1156     -6.4020     83.5083     22.8455
   670.8000      7.8923      2.7532      0.1162     -6.2559     82.2461     22.6215
   670.9000      7.8923      2.7386      0.0993     -5.3717     76.7928     22.2943
   671.0000      7.8890      2.7182      0.0500     -4.1351     73.3628     21.8872
   671.1000      7.8890      2.6971      0.0458     -2.8567     74.9163     21.7910
   671.2000      7.8890      2.6857      0.0270     -2.1656     74.4612     22.0511
   671.3000      7.8997      2.6978      0.0483     -2.8994     70.1485     22.2323
   671.4000      7.8997      2.7253      0.1045     -4.5654     66.9349     22.2083
   671.5000      7.9070      2.7429      0.1237     -5.6273     65.7444     22.1608
   671.6000      7.9070      2.7381      0.0975     -5.3387     65.5261     22.0620
   671.7000      7.9070      2.7120      0.1038     -3.7562     64.8419     22.1545
   671.8000      7.8913      2.6741      0.0654     -1.4630     61.2777     22.5745
   671.9000      7.8913      2.6439      0.0313      0.3720     57.9184     22.9944
   672.0000      7.8834      2.6333      0.0483      1.0136     58.3056     23.3899
   672.1000      7.8834      2.6385      0.0267      0.6976     59.2187     23.9923
   672.2000      7.8834      2.6457      0.0600      0.2591     59.2298     24.6764
   672.3000      7.8900      2.6513      0.0401     -0.0807     60.4618     25.2474
   672.4000      7.8900      2.6684      0.0755     -1.1176     61.6131     25.7411
   672.5000      7.9011      2.6933      0.0974     -2.6226     61.4821     26.0386
   672.6000      7.9011      2.7120      0.0853     -3.7584     63.5628     26.0447
   672.7000      7.9011      2.7225      0.0550     -4.3934     68.8911     25.8663
   672.8000      7.8975      2.7234      0.0126     -4.4458     74.0707     25.4627
   672.9000      7.8975      2.7162      0.0164     -4.0102     77.1871     24.6935
   673.0000      7.8901      2.7059     -0.0036     -3.3859     77.8042     23.5465
   673.1000      7.8901      2.6946     -0.0287     -2.7032     76.7480     22.3935
   673.2000      7.8901      2.6702      0.0028     -1.2219     75.1909     21.4763
   673.3000      7.8855      2.6121      0.0333      2.2949     74.2206     20.6654
   673.4000      7.8855      2.5263      0.0094      7.4947     74.9537     19.9138
   673.5000      7.8946      2.4403     -0.0166     12.7110     76.9946     19.4572
   673.6000      7.8946      2.3745     -0.0647     16.6981     78.3449     19.5605
   673.7000      7.8946      2.3354     -0.0602     19.0671     77.2331     20.1148
   673.8000      7.8974      2.3232     -0.0989     19.8057     74.7855     20.7162
   673.9000      7.8974      2.3343     -0.0037     19.1353     73.9468     21.0727
   674.0000      7.9082      2.3652      0.0153     17.2601     74.4773     21.1262
   674.1000      7.9082      2.4247      0.0756     13.6569     76.1088     20.9911
   674.2000      7.9082      2.5065      0.1542      8.6969     79.8373     21.1106
   674.3000      7.9102      2.5782      0.1918      4.3512     86.1917     21.7745
   674.4000      7.9102      2.6154      0.1441      2.0958     95.1826     22.6421
   674.5000      7.8860      2.6229      0.0979      1.6419    101.7582     23.2373
   674.6000      7.8860      2.6127      0.1144      2.2589    101.1169     23.4588
   674.7000      7.8860      2.5875      0.0754      3.7891     97.2342     23.3788
   674.8000      7.8981      2.5661      0.0026      5.0838     96.2695     23.1950
   674.9000      7.8981      2.5738     -0.0177      4.6176     97.8062     23.2138
   675.0000      7.9090      2.5928      0.0993      3.4656     98.0850     23.3676
   675.1000      7.9090      2.5904      0.0169      3.6140     96.3414     23.4824
   675.2000      7.9090      2.5706      0.0333      4.8138     93.7959     23.4556
   675.3000      7.9172      2.5573     -0.0130      5.6188     89.7744     22.9763
   675.4000      7.9172      2.5715     -0.0727      4.7595     85.1645     22.3097
   675.5000      7.9203      2.6107      0.0809      2.3811     82.9325     22.1293
   675.6000      7.9203      2.6397      0.1000      0.6215     82.8175     22.3383
   675.7000      7.9203      2.6315      0.0273      1.1191     81.9812     22.5174
   675.8000      7.9530      2.5994      0.0038      3.0691     79.9943     22.3847
   675.9000      7.9530      2.5713      0.0015      4.7670     79.7933     21.7650
   676.0000      7.9384      2.5558      0.0298      5.7118     82.8916     20.8475
   676.1000      7.9384      2.5445      0.0339      6.3914     88.5221     20.0975
   676.2000      7.9384      2.5355      0.0207      6.9413     94.9862     19.6005
   676.3000      7.9326      2.5379      0.0194      6.7968    101.8064     19.2541
   676.4000      7.9326      2.5500      0.0507      6.0622    107.0243     19.1807
   676.5000      7.9455      2.5484      0.0595      6.1589    107.4740     19.3385
   676.6000      7.9455      2.5266     -0.0155      7.4786    105.1308     19.6837
   676.7000      7.9455      2.5061      0.0692      8.7186    103.7720     20.2740
   676.8000      7.9390      2.5049      0.0467      8.7921    104.7344     20.8018
   676.9000      7.9390      2.5235      0.0956      7.6644    107.6187     20.8949
   677.0000      7.9290      2.5437      0.0758      6.4441    112.1821     20.8746
   677.1000      7.9290      2.5473      0.0958      6.2222    119.1033     21.1667
   677.2000      7.9290      2.5391      0.0902      6.7238    125.1848     21.4239
   677.3000      7.9389      2.5311      0.1186      7.2078    125.9222     21.1929
   677.4000      7.9389      2.5228      0.1122      7.7104    122.7473     20.6749
   677.5000      7.9558      2.5051      0.1000      8.7789    120.6268     20.4902
   677.6000      7.9558      2.4748      0.0540     10.6195    121.1754     20.7806
   677.7000      7.9558      2.4466      0.0304     12.3295    121.8377     21.1241
   677.8000      7.9482      2.4384      0.0068     12.8222    121.2012     21.4248
   677.9000      7.9482      2.4476      0.0272     12.2645    120.9333     21.8049
   678.0000      7.9601      2.4631      0.0405     11.3250    121.6653     22.2160
   678.1000      7.9601      2.4797      0.0389     10.3189    122.2408     22.6279
   678.2000      7.9601      2.4886      0.0185      9.7807    121.2520     22.9272
   678.3000      7.9680      2.4843      0.0289     10.0403    117.7938     23.1135
   678.4000      7.9680      2.4751      0.0424     10.5988    112.2401     23.2322
   678.5000      7.9658      2.4703      0.0351     10.8899    107.7874     23.1187
   678.6000      7.9658      2.4765      0.0404     10.5174    108.1012     22.8422
   678.7000      7.9658      2.4936      0.0739      9.4808    111.0432     22.8105
