~Version Information
VERS.                      2.0: CWLS Log ASCII Standard - VERSION 2.0
WRAP.                       NO: One line per depth step
~Well Information Block
STRT.FT               819.0000: 
STOP.FT              2499.5000: 
STEP.FT                 0.2500: 
NULL.                -999.2500: 
COMP.          Petrogulf Corporation: COMPANY
WELL.             State 16-21V: WELL
FLD.           Purgatorie River: FIELD
LOC.           1738' FWL & 332' FWL: LOCATION
PROV.                 Colorado: PROVINCE
CNTY.               Las Animas: COUNTRY
SRVC.          Patterson Wireline: SERVICE COMPANY
DATE.          Sun Jul 13 13:34:36 2003: LOG DATE
UWI.           05 071 08829 00: UNIQUE WELL ID
~Curve Information Block
DEPT.FT            0 000 00 00: Depth
SP.mV                         : DIL Spontaneous Potential
RILD.Ohm-m                    : DIL Deep Resistivity
RILM.Ohm-m                    : DIL Medium Resistivity
RLL3.Ohm-m                    : DIL Shallow Resistivity
GR.GAPI                       : Gamma Ray
~Parameter Information Block
~A  Depth        SP         RILD        RILM        RLL3         GR     
# ...
  1267.0000   -182.5522     13.8550     13.3468     20.7983    116.2114
  1267.2500   -182.4783     13.5697     13.1010     20.9867    116.9090
  1267.5000   -182.4408     13.4200     12.9764     21.2585    117.4972
  1267.7500   -182.4625     13.4088     12.9672     21.7490    117.2412
  1268.0000   -182.5161     13.5437     13.0723     22.5591    115.1406
  1268.2500   -182.5434     13.8345     13.2944     23.6130    112.7567
  1268.5000   -182.4915     14.2885     13.6405     24.6328    109.1800
  1268.7500   -182.3364     14.9066     14.1216     25.4348    107.6340
  1269.0000   -182.0841     15.6824     14.7532     26.5643    106.6766
  1269.2500   -181.7553     16.6037     15.5552     30.1668    106.1992
  1269.5000   -181.3719     17.6584     16.5521     41.0610    103.8808
  1269.7500   -180.9504     18.8414     17.7736     67.6500    100.3628
  1270.0000   -180.5052     20.1594     19.2543    120.9699     91.5625
  1270.2500   -180.0525     21.6326     21.0340    209.1545     83.7670
  1270.5000   -179.6143     23.2925     23.1570    326.9701     70.9921
  1270.7500   -179.2206     25.1797     25.6715    447.4798     63.0747
  1271.0000   -178.9056     27.3399     28.6287    528.6964     53.9779
  1271.2500   -178.6984     29.8212     32.0809    539.3126     50.3600
  1271.5000   -178.6102     32.6713     36.0793    485.4190     48.6109
  1271.7500   -178.6270     35.9325     40.6697    410.9368     49.3015
  1272.0000   -178.7143     39.6249     45.8874    367.1092     51.2720
  1272.2500   -178.8317     43.7141     51.7467    376.8316     52.0293
  1272.5000   -178.9453     48.0694     58.2260    422.8359     50.9969
  1272.7500   -179.0332     52.4449     65.2448    466.7783     48.7007
  1273.0000   -179.0862     56.5172     72.6332    483.7292     43.5510
  1273.2500   -179.1105     59.9777     80.0974    486.0374     39.7704
  1273.5000   -179.1299     62.6130     87.1938    516.7072     34.9031
  1273.7500   -179.1784     64.3091     93.3319    615.5577     32.5062
  1274.0000   -179.2848     65.0026     97.8332    784.1801     29.6789
  1274.2500   -179.4540     64.6601    100.0613    976.2253     27.8055
  1274.5000   -179.6600     63.3165     99.5990   1119.1740     24.8630
  1274.7500   -179.8570     61.1045     96.4022   1152.8757     23.2964
  1275.0000   -180.0018     58.2192     90.8429   1061.9691     22.6390
  1275.2500   -180.0717     54.8501     83.6078    883.7160     23.6102
  1275.5000   -180.0694     51.1501     75.5017    685.8084     26.5895
  1275.7500   -180.0182     47.2629     67.2561    526.9735     28.8464
  1276.0000   -179.9541     43.3594     59.4155    426.8660     31.7111
  1276.2500   -179.9179     39.6302     52.3102    366.1495     33.3722
  1276.5000   -179.9432     36.2363     46.0892    312.7149     36.6787
  1276.7500   -180.0410     33.2652     40.7749    248.8569     40.3520
  1277.0000   -180.1893     30.7264     36.3144    178.4843     49.3148
  1277.2500   -180.3408     28.5813     32.6184    115.6716     57.7804
  1277.5000   -180.4474     26.7750     29.5867     70.5447     73.1211
  1277.7500   -180.4850     25.2543     27.1218     44.1105     83.6795
  1278.0000   -180.4654     23.9724     25.1366     31.4063     97.1950
  1278.2500   -180.4253     22.8895     23.5566     26.5061    103.5957
  1278.5000   -180.4020     21.9765     22.3198     25.2086    109.2341
  1278.7500   -180.4140     21.2167     21.3763     25.2967    111.1042
  1279.0000   -180.4589     20.6057     20.6863     25.8230    112.6961
  1279.2500   -180.5227     20.1471     20.2190     26.4458    113.7297
  1279.5000   -180.5891     19.8482     19.9507     27.0647    115.9820
  1279.7500   -180.6461     19.7159     19.8638     27.6964    117.8495
  1280.0000   -180.6943     19.7552     19.9458     28.5027    120.0010
  1280.2500   -180.7493     19.9679     20.1881     29.8532    119.9952
  1280.5000   -180.8304     20.3545     20.5853     32.2103    116.4642
  1280.7500   -180.9444     20.9141     21.1352     35.7149    111.6371
  1281.0000   -181.0786     21.6403     21.8378     39.7654    102.2255
  1281.2500   -181.2084     22.5180     22.6958     43.1970     96.3018
  1281.5000   -181.3107     23.5245     23.7145     45.2087     91.0174
  1281.7500   -181.3730     24.6397     24.9017     46.2009     90.6649
  1282.0000   -181.3965     25.8604     26.2683     47.5399     93.8718
  1282.2500   -181.3965     27.2042     27.8277     50.4102     97.0530
  1282.5000   -181.3965     28.6986     29.5954     54.9034    100.9699
  1282.7500   -181.4230     30.3570     31.5887     60.1196    102.2442
  1283.0000   -181.4973     32.1583     33.8245     65.0470    102.0851
  1283.2500   -181.6306     34.0464     36.3178     69.5124    100.8850
  1283.5000   -181.8206     35.9606     39.0797     74.5784     97.7310
  1283.7500   -182.0529     37.8798     42.1138     82.0024     94.7737
  1284.0000   -182.3060     39.8419     45.4143     92.8949     89.3832
  1284.2500   -182.5579     41.9067     48.9625    106.5183     85.5164
  1284.5000   -182.7899     44.0900     52.7243    120.4460     79.8921
  1284.7500   -182.9873     46.3229     56.6484    132.2127     76.5275
  1285.0000   -183.1437     48.4751     60.6630    140.9554     72.4103
  1285.2500   -183.2704     50.4215     64.6737    147.4277     70.2569
  1285.5000   -183.3990     52.0906     68.5617    152.6322     67.4037
  1285.7500   -183.5684     53.4540     72.1826    156.8819     65.5569
  1286.0000   -183.8006     54.4796     75.3698    160.3862     63.1892
  1286.2500   -184.0854     55.1094     77.9447    164.4456     62.1320
  1286.5000   -184.3847     55.2913     79.7361    171.5065     61.0359
  1286.7500   -184.6501     55.0325     80.6090    183.5305     60.1075
  1287.0000   -184.8442     54.4154     80.4941    199.9203     57.8855
  1287.2500   -184.9511     53.5598     79.4119    216.7462     56.0699
  1287.5000   -184.9754     52.5698     77.4750    227.9144     53.7556
  1287.7500   -184.9316     51.5087     74.8704    227.5479     52.9838
  1288.0000   -184.8328     50.4085     71.8255    212.4902     53.6058
  1288.2500   -184.6863     49.2889     68.5688    184.1406     55.5183
  1288.5000   -184.4949     48.1693     65.2993    148.6262     61.0210
  1288.7500   -184.2635     47.0681     62.1700    114.3808     66.3166
  1289.0000   -184.0051     46.0022     59.2837     88.0908     75.3973
  1289.2500   -183.7413     44.9911     56.6993     71.9649     81.0667
  1289.5000   -183.4960     44.0606     54.4407     64.1983     87.6614
  1289.7500   -183.2863     43.2355     52.5081     61.4456     90.7554
  1290.0000   -183.1156     42.5204     50.8869     60.8864     94.0396
  1290.2500   -182.9722     41.8870     49.5544     60.8690     95.5773
  1290.5000   -182.8337     41.2860     48.4849     60.7095     97.1458
  1290.7500   -182.6719     40.6791     47.6526     60.3740     97.8888
  1291.0000   -182.4618     40.0661     47.0326     60.1497     98.6971
  1291.2500   -182.1934     39.4858     46.6014     60.2432     98.8222
  1291.5000   -181.8815     38.9937     46.3358     60.5288     97.9614
  1291.7500   -181.5638     38.6352     46.2124     60.7108     96.8560
  1292.0000   -181.2845     38.4284     46.2070     60.7561     95.3724
  1292.2500   -181.0739     38.3622     46.2936     61.1137     94.8792
  1292.5000   -180.9312     38.4071     46.4447     62.4088     94.4747
  1292.7500   -180.8219     38.5285     46.6314     64.8320     93.9138
  1293.0000   -180.6924     38.6946     46.8239     67.7739     92.4833
  1293.2500   -180.4951     38.8728     46.9922     70.0270     91.6414
  1293.5000   -180.2098     39.0229     47.1054     70.4099     91.6214
  1293.7500   -179.8485     39.0982     47.1313     68.4633     92.6779
  1294.0000   -179.4460     39.0564     47.0354     64.8840     95.4730
  1294.2500   -179.0457     38.8703     46.7813     61.3639     97.6815
  1294.5000   -178.6901     38.5249     46.3313     59.7211    100.6421
  1294.7500   -178.4139     38.0069     45.6505     60.8145    101.8135
