~Version Information
VERS.                      2.0: CWLS Log ASCII Standard - VERSION 2.0
WRAP.                       NO: One line per depth step
~Well Information Block
STRT.FT               750.6000: 
STOP.FT              2495.5000: 
STEP.FT                 0.1000: 
NULL.                -999.2500: 
COMP.                         : COMPANY
WELL.                         : WELL
FLD.                          : FIELD
LOC.                          : LOCATION
CNTY.                         : COUNTY
SRVC.                         : SERVICE COMPANY
DATE.          Sat Feb 28 14:05:57 2004: LOG DATE
UWI.                          : UNIQUE WELL ID
STAT.                         : STATE
~Curve Information Block
DEPT.FT            0 000 00 00: Depth
DCAL.in                       : CDL Caliper
RHOB.g/cc                     : CDL Bulk Density
RHOC.g/cc                     : CDL Density Correction
DPOR.pu                       : CDL Density Porosity
GR.GAPI                       : Gamma Ray
NPOR.pu                       : Neutron Porosity
~Parameter Information Block
~A  Depth       DCAL        RHOB        RHOC        DPOR         GR         NPOR    
# ...
   789.0000      8.1974      2.4195     -0.3156     13.9684     82.8295     51.4697
   789.1000      8.1974      2.4261     -0.2728     13.5683     87.8675     51.6458
   789.2000      8.1974      2.4300     -0.2351     13.3344     91.3945     51.9781
   789.3000      8.1962      2.4164     -0.2590     14.1585     93.3817     52.0661
   789.4000      8.1962      2.3813     -0.2680     16.2821    100.2713     51.8699
   789.5000      8.1856      2.3347     -0.3401     19.1089    110.3368     51.8359
   789.6000      8.1856      2.3045     -0.3458     20.9418    115.5553     51.8739
   789.7000      8.1856      2.2939     -0.3056     21.5846    112.5427     51.6907
   789.8000      8.1788      2.2743     -0.3135     22.7668    102.3693     51.4802
   789.9000      8.1788      2.2422     -0.4073     24.7149     90.9249     51.5262
   790.0000      8.1635      2.2252     -0.3487     25.7445     83.2677     51.5978
   790.1000      8.1635      2.2366     -0.3550     25.0538     81.1081     51.3038
   790.2000      8.1635      2.2633     -0.3259     23.4390     83.8760     50.8705
   790.3000      8.1483      2.2856     -0.3847     22.0878     87.8377     50.7241
   790.4000      8.1483      2.2884     -0.3148     21.9137     91.5483     50.8349
   790.5000      8.1530      2.2673     -0.3862     23.1967     94.3555     50.8748
   790.6000      8.1530      2.2383     -0.2826     24.9495     96.1939     50.6977
   790.7000      8.1530      2.2353     -0.4377     25.1361     98.8926     50.4077
   790.8000      8.1889      2.2633     -0.2412     23.4385     99.7897     50.3949
   790.9000      8.1889      2.2718     -0.2306     22.9212     94.8134     50.8564
   791.0000      8.1999      2.2467     -0.3668     24.4396     89.0824     51.2444
   791.1000      8.1999      2.2350     -0.3328     25.1523     85.5145     51.1700
   791.2000      8.1999      2.2503     -0.3185     24.2215     81.3393     50.8237
   791.3000      8.2071      2.2618     -0.2592     23.5297     80.1796     50.5453
   791.4000      8.2071      2.2425     -0.3694     24.6967     83.9748     50.5090
   791.5000      8.2156      2.1959     -0.4429     27.5223     86.6503     50.4689
   791.6000      8.2156      2.1593     -0.4520     29.7385     85.6675     50.1897
   791.7000      8.2156      2.1884     -0.2911     27.9765     85.6154     49.9660
   791.8000      8.2195      2.2909     -0.2714     21.7644     88.2981     50.0465
   791.9000      8.2195      2.3937     -0.2853     15.5362     90.1350     50.2527
   792.0000      8.2213      2.4307     -0.2912     13.2884     90.8106     50.5669
   792.1000      8.2213      2.4137     -0.3638     14.3201     89.1931     50.9589
   792.2000      8.2213      2.3899     -0.2998     15.7625     83.3369     51.1728
   792.3000      8.2251      2.3898     -0.3924     15.7711     77.6105     51.0941
   792.4000      8.2251      2.4134     -0.2478     14.3384     77.5045     50.8976
   792.5000      8.2263      2.4330     -0.2170     13.1528     84.1641     50.7188
   792.6000      8.2263      2.4383     -0.3085     12.8303     90.8748     50.6722
   792.7000      8.2263      2.4394     -0.2430     12.7616     90.7319     50.9250
   792.8000      8.2316      2.4294     -0.2627     13.3704     89.2798     51.4433
   792.9000      8.2316      2.4156     -0.3234     14.2068     93.8958     52.0021
   793.0000      8.2307      2.4190     -0.2774     13.9995    100.2023     52.2506
   793.1000      8.2307      2.4285     -0.2642     13.4241    103.3012     51.9942
   793.2000      8.2307      2.4322     -0.3091     13.1982    102.2066     51.4649
   793.3000      8.2322      2.4361     -0.2028     12.9615     96.1419     50.9690
   793.4000      8.2322      2.4311     -0.2319     13.2672     89.4998     50.6464
   793.5000      8.2321      2.4090     -0.3092     14.6075     87.0514     50.3830
   793.6000      8.2321      2.3750     -0.2743     16.6694     85.5572     49.9666
   793.7000      8.2321      2.3469     -0.3581     18.3689     83.1772     49.6333
   793.8000      8.2359      2.3570     -0.3942     17.7602     83.0474     49.5126
   793.9000      8.2359      2.4012     -0.2951     15.0786     85.7523     49.3473
   794.0000      8.2313      2.4322     -0.2461     13.2020     89.2068     49.1471
   794.1000      8.2313      2.4278     -0.3415     13.4683     91.7352     49.2663
   794.2000      8.2313      2.4130     -0.2865     14.3630     91.0267     49.7953
   794.3000      8.2331      2.4104     -0.4217     14.5213     87.2429     50.4168
   794.4000      8.2331      2.4203     -0.2803     13.9217     84.1422     50.8544
   794.5000      8.2315      2.4282     -0.3043     13.4448     83.3853     51.0912
   794.6000      8.2315      2.4272     -0.3031     13.5015     83.8188     51.1522
   794.7000      8.2315      2.4196     -0.2837     13.9646     84.1649     50.8791
   794.8000      8.2300      2.4046     -0.3037     14.8709     81.3046     50.2784
   794.9000      8.2300      2.3845     -0.3268     16.0935     73.7534     49.8513
   795.0000      8.2272      2.3692     -0.3826     17.0204     68.8864     49.9821
   795.1000      8.2272      2.3657     -0.3568     17.2332     72.8927     50.2405
   795.2000      8.2272      2.3755     -0.3336     16.6346     82.1762     50.2002
   795.3000      8.2280      2.4006     -0.2849     15.1158     90.1234     50.1800
   795.4000      8.2280      2.4180     -0.1635     14.0591     92.9809     50.3487
   795.5000      8.2300      2.3994     -0.2505     15.1851     89.4686     50.3723
   795.6000      8.2300      2.3553     -0.3260     17.8613     84.0409     50.2707
   795.7000      8.2300      2.2993     -0.2737     21.2563     82.7778     50.3472
   795.8000      8.2305      2.2442     -0.4427     24.5927     83.8994     50.5143
   795.9000      8.2305      2.2192     -0.3166     26.1115     83.9170     50.5690
   796.0000      8.2323      2.2218     -0.3332     25.9519     85.8329     50.6180
   796.1000      8.2323      2.2293     -0.3519     25.4960     91.4987     50.7679
   796.2000      8.2323      2.2311     -0.3651     25.3895     93.4738     51.0143
   796.3000      8.2324      2.2201     -0.3545     26.0557     89.4912     51.2315
   796.4000      8.2324      2.1930     -0.3731     27.6949     88.6430     51.2718
   796.5000      8.2315      2.1605     -0.3823     29.6664     94.0670     51.3799
   796.6000      8.2315      2.1444     -0.4982     30.6413    100.4949     51.8245
   796.7000      8.2315      2.1576     -0.3629     29.8428    104.2294     52.2805
   796.8000      8.2313      2.1823     -0.3339     28.3458    104.9182     52.3694
   796.9000      8.2313      2.2018     -0.3742     27.1649    106.2212     51.9743
   797.0000      8.2305      2.2179     -0.3261     26.1878    110.8845     51.2467
   797.1000      8.2305      2.2183     -0.2645     26.1612    113.0851     50.7305
   797.2000      8.2305      2.1904     -0.3354     27.8562    106.1027     50.7324
   797.3000      8.2313      2.1551     -0.4087     29.9967     91.4492     50.8371
   797.4000      8.2313      2.1378     -0.3616     31.0434     75.6824     50.5792
   797.5000      8.2314      2.1324     -0.3519     31.3712     64.6571     50.1641
   797.6000      8.2314      2.1286     -0.3923     31.5975     62.1569     49.9348
   797.7000      8.2314      2.1396     -0.4635     30.9342     67.1001     49.7466
   797.8000      8.2318      2.1699     -0.3431     29.0947     72.5568     49.4877
   797.9000      8.2318      2.2049     -0.3408     26.9783     75.0125     49.3513
   798.0000      8.2343      2.2429     -0.3538     24.6742     76.2559     49.5299
   798.1000      8.2343      2.2727     -0.2416     22.8681     72.8638     49.9723
   798.2000      8.2343      2.2585     -0.2706     23.7294     62.6333     50.0976
   798.3000      8.2334      2.1984     -0.3436     27.3701     53.5581     49.5379
   798.4000      8.2334      2.1333     -0.4012     31.3158     51.3900     48.9255
   798.5000      8.2370      2.0997     -0.4906     33.3537     51.8068     48.6970
