~Version Information
VERS.                      2.0: CWLS Log ASCII Standard - VERSION 2.0
WRAP.                       NO: One line per depth step
~Well Information Block
STRT.FT              1882.7500: 
STOP.FT              2400.5000: 
STEP.FT                 0.2500: 
NULL.                -999.2500: 
COMP.          Pioneer Natural Resources: COMPANY
WELL.          Flying Horse 12-11: WELL
FLD.           Purgatoire River: FIELD
LOC.           2,428' FNL & 308' FWL------: LOCATION
PROV.                 Colorado: PROVINCE
CNTY.               Las Animas: COUNTRY
SRVC.                         : SERVICE COMPANY
DATE.          Fri Jun 10 06:52:30 2005: LOG DATE
UWI.                          : UNIQUE WELL ID
~Curve Information Block
DEPT.FT            0 000 00 00: Depth
CCL.                          : Casing Collar Locator
TT3.usec                      : CBL 3' Travel Time
AMP3.mV                       : CBL 3' Amplitude
AMP5.mV                       : CBL 5' Amplitude
GR.GAPI                       : Gamma Ray
~Parameter Information Block
~A  Depth       CCL         TT3         AMP3        AMP5         GR     
# ...
  2162.7500      0.0000    299.8911     30.1130     15.1850     43.5494
  2163.0000      0.0000    300.0309     29.4190     14.9238     44.4645
  2163.2500      0.0000    300.2391     28.6413     13.7052     44.9345
  2163.5000      0.0000    300.5285     27.8360     13.4440     46.1703
  2163.7500      0.0000    300.8688     27.0558     12.6606     49.2213
  2164.0000      0.0000    301.1971     26.3448     12.3995     54.4875
  2164.2500      0.0000    301.4546     25.7392     11.7031     61.6197
  2164.5000      0.0000    301.6179     25.2615     11.0938     69.6355
  2164.7500      0.0000    301.7288     24.9127     11.0067     77.3241
  2165.0000      0.0000    301.9485     24.6676     10.4844     84.0600
  2165.2500      0.0000    302.9056     24.4721     10.1363     90.2204
  2165.5000      0.0000    306.6094     24.2508     10.0492     96.2418
  2165.7500      0.0000    317.7599     23.9316      9.2658    101.3526
  2166.0000      0.0000    343.7374     23.4766      8.7435    104.0128
  2166.2500      0.0000    390.4391     22.8968      8.0471    103.6614
  2166.5000      0.0000    454.8235     22.2379      7.0026    101.2912
  2166.7500      0.0000    522.1196     21.5402      6.2192     98.2603
  2167.0000      0.0000    573.8310     20.7968      5.3487     95.3739
  2167.2500      0.0000    599.6418     19.9512      5.0876     93.3457
  2167.5000      0.0000    602.0690     18.9454      5.2616     93.2965
  2167.7500      0.0000    593.8174     17.7793      5.1746     96.0232
  2168.0000      0.0000    592.2709     16.5313      5.6098    100.8530
  2168.2500      0.0000    609.8305     15.3232      5.0876    105.7623
  2168.5000      0.0000    643.5506     14.2566      5.1746    108.8937
  2168.7500      0.0000    675.8382     13.3682      5.1746    109.8674
  2169.0000      0.0000    687.5849     12.6377      4.0430    109.5145
  2169.2500      0.0000    669.9184     12.0316      3.6948    108.4736
  2169.5000      0.0000    625.3758     11.5351      3.0855    106.3360
  2169.7500      0.0000    563.7626     11.1518      2.8243    102.3769
  2170.0000      0.0000    499.0043     10.8813      2.0409     96.9948
  2170.2500      0.0000    445.4513     10.6926      2.2150     92.0766
  2170.5000      0.0000    412.8497     10.5169      1.7798     89.8124
  2170.7500      0.0000    404.4716     10.2757      1.6057     91.2772
  2171.0000      0.0000    419.5387      9.9265      1.2575     96.1119
  2171.2500      0.0000    454.6348      9.4824      1.2575    103.0361
  2171.5000      0.0000    500.9926      8.9931      1.5186    110.2938
  2171.7500      0.0000    542.3160      8.5165      1.4316    116.0658
  2172.0000      0.0000    559.8911      8.1007      1.5186    119.1346
  2172.2500      0.0000    544.5099      7.7757      1.3446    119.3144
  2172.5000      0.0000    504.9228      7.5466      1.4316    117.4384
  2172.7500      0.0000    463.2823      7.3965      1.0834    115.2335
  2173.0000      0.0000    441.0741      7.2979      1.3446    114.6603
  2173.2500      0.0000    447.8981      7.2248      0.6482    116.4376
  2173.5000      0.0000    479.8090      7.1565      0.8223    119.2574
  2173.7500      0.0000    525.3234      7.0779      0.7352    120.9507
  2174.0000      0.0000    573.7288      6.9827      0.7352    120.1670
  2174.2500      0.0000    619.0488      6.8776      0.9093    116.6559
  2174.5000      0.0000    657.0018      6.7780      0.5611    110.6734
  2174.7500      0.0000    681.3589      6.6944      0.8223    102.9808
  2175.0000      0.0000    687.0925      6.6246      0.8223     95.2407
  2175.2500      0.0000    677.2563      6.5630      0.7352     89.6768
  2175.5000      0.0000    663.7778      6.5146      0.9093     87.8726
  2175.7500      0.0000    658.6569      6.4927      0.5611     89.7869
  2176.0000      0.0000    664.0613      6.4967      0.6482     94.0044
  2176.2500      0.0000    672.3566      6.4987      0.7352     98.8731
  2176.5000      0.0000    675.2166      6.4574      0.3870    103.2551
  2176.7500      0.0000    670.2224      6.3511      0.3870    106.4816
  2177.0000      0.0000    658.7810      6.1971      0.5611    108.2309
  2177.2500      0.0000    641.6880      6.0373      0.4741    108.6979
  2177.5000      0.0000    619.6660      5.9060      0.4741    108.5877
  2177.7500      0.0000    596.6331      5.8145      0.6482    108.6569
  2178.0000      0.0000    579.1386      5.7606      0.5611    109.3288
  2178.2500      0.0000    571.5304      5.7398      0.3000    110.8506
  2178.5000      0.0000    572.4024      5.7416      0.3870    113.5112
  2178.7500      0.0000    575.9219      5.7420      0.3870    117.1710
  2179.0000      0.0000    576.3495      5.7103      0.1259    120.6387
  2179.2500      0.0000    571.7991      5.6282      0.3870    122.2347
  2179.5000      0.0000    564.4761      5.5068      0.6482    121.2588
  2179.7500      0.0000    557.7230      5.3826      0.4741    118.5097
  2180.0000      0.0000    553.2919      5.2951      0.3870    115.3181
  2180.2500      0.0000    551.4136      5.2626      0.3000    112.5983
  2180.5000      0.0000    552.1416      5.2746      0.3870    110.8198
  2180.7500      0.0000    555.1867      5.3018      0.3870    110.0713
  2181.0000      0.0000    558.7896      5.3159      0.2129    109.8845
  2181.2500      0.0000    560.1458      5.3057      0.3870    109.5417
  2181.5000      0.0000    557.5715      5.2801      0.3000    108.8089
  2181.7500      0.0000    551.9227      5.2591      0.5611    108.1217
  2182.0000      0.0000    545.6709      5.2578      0.3870    108.0534
  2182.2500      0.0000    540.8412      5.2719      0.3000    108.8633
  2182.5000      0.0000    537.9915      5.2777      0.2129    110.4460
  2182.7500      0.0000    536.7364      5.2559      0.3000    112.2276
  2183.0000      0.0000    536.7173      5.2139      0.3870    113.1799
  2183.2500      0.0000    537.9401      5.1802      0.3870    112.5580
  2183.5000      0.0000    540.3131      5.1762      0.2129    110.7523
  2183.7500      0.0000    543.0024      5.1976      0.1259    108.9979
  2184.0000      0.0000    544.5812      5.2234      0.3870    108.1408
  2184.2500      0.0000    544.1341      5.2382      0.3000    108.0102
  2184.5000      0.0000    542.0816      5.2419      0.1259    108.0920
  2184.7500      0.0000    539.6929      5.2422      0.3000    108.4338
  2185.0000      0.0000    537.9873      5.2477      0.1259    109.5218
  2185.2500      0.0000    537.2482      5.2697      0.4741    111.4549
  2185.5000      0.0000    537.2512      5.3236      0.3870    113.6219
  2185.7500      0.0000    537.6382      5.4217      0.2129    115.1739
  2186.0000      0.0000    538.1689      5.5637      0.3000    115.6286
  2186.2500      0.0000    538.8936      5.7326      0.5611    115.0375
  2186.5000      0.0000    540.1268      5.9015      0.3870    113.7951
  2186.7500      0.0000    542.1003      6.0482      0.2129    112.3649
  2187.0000      0.0000    544.6637      6.1659      0.3000    111.0322
  2187.2500      0.0000    547.7578      6.2588      0.3870    109.7685
  2187.5000      0.0000    552.2424      6.3277      0.6482    108.3521
  2187.7500      0.0000    559.2186      6.3661      0.5611    106.7139
  2188.0000      0.0000    567.7898      6.3712      0.3870    105.1966
  2188.2500      0.0000    574.6576      6.3540      0.6482    104.3840
  2188.5000      0.0000    577.3906      6.3406      0.6482    104.5077
  2188.7500      0.0000    577.3668      6.3632      0.4741    105.0660
  2189.0000      0.0000    578.3039      6.4425      0.4741    105.3496
  2189.2500      0.0000    582.4319      6.5703      0.4741    105.4388
  2189.5000      0.0000    588.4808      6.7115      0.6482    106.1871
  2189.7500      0.0000    592.1805      6.8266      0.8223    107.9120
  2190.0000      0.0000    588.6485      6.8915      0.3000    109.5580
  2190.2500      0.0000    576.8131      6.8943      0.6482    109.5968
  2190.5000      0.0000    563.3539      6.8214      0.4741    107.5374
