~Version Information
VERS.                      2.0: CWLS Log ASCII Standard - VERSION 2.0
WRAP.                       NO: One line per depth step
~Well Information Block
STRT.FT                15.0000: 
STOP.FT              2556.5000: 
STEP.FT                 0.2500: 
NULL.                -999.2500: 
COMP.          Pioneer Natural Resources: COMPANY
WELL.              Quack 22-24: WELL
FLD.           Purgatoire River: FIELD
LOC.           2492' FNL & 2459' FWL: LOCATION
PROV.                 Colorado: PROVINCE
CNTY.               Las Animas: COUNTRY
SRVC.                Patterson: SERVICE COMPANY
DATE.          Tue Jul 26 07:02:30 2005: LOG DATE
UWI.           05 071 08402 00: UNIQUE WELL ID
~Curve Information Block
DEPT.FT            0 000 00 00: Depth
GR.GAPI                       : Gamma Ray
CCL.                          : Casing Collar Locator
TT3.usec                      : CBL 3' Travel Time
AMP3.mV                       : CBL 3' Amplitude
~Parameter Information Block
~A  Depth        GR         CCL         TT3         AMP3    
# ...
  1187.5000    150.5794      0.0000    671.6714      8.0554
  1187.7500    152.0460      0.0000    666.5789      8.0153
  1188.0000    151.3755      0.0000    663.4063      7.9031
  1188.2500    149.4722      0.0000    661.9034      7.7479
  1188.5000    147.2157      0.0000    661.3437      7.5954
  1188.7500    144.6295      0.0000    661.2089      7.4748
  1189.0000    140.4911      0.0000    661.1975      7.3861
  1189.2500    133.8283      0.0000    661.1332      7.3123
  1189.5000    125.5387      0.0000    660.9886      7.2394
  1189.7500    117.8348      0.0000    660.8464      7.1601
  1190.0000    112.4977      0.0000    660.7795      7.0609
  1190.2500    110.1921      0.0000    660.8111      6.9146
  1190.5000    110.9406      0.0000    661.0394      6.7028
  1190.7500    114.2406      0.0000    661.6897      6.4501
  1191.0000    118.5056      0.0000    662.8406      6.2234
  1191.2500    121.1992      0.0000    664.0392      6.0842
  1191.5000    120.3534      0.0000    664.4360      6.0446
  1191.7500    116.1261      0.0000    663.5605      6.0709
  1192.0000    110.7230      0.0000    661.8774      6.1175
  1192.2500    106.8389      0.0000    660.4155      6.1553
  1192.5000    106.1938      0.0000    659.9932      6.1755
  1192.7500    109.1113      0.0000    660.8452      6.1720
  1193.0000    114.9017      0.0000    662.6259      6.1308
  1193.2500    122.5063      0.0000    664.4849      6.0468
  1193.5000    130.9226      0.0000    665.4095      5.9478
  1193.7500    139.0619      0.0000    664.9529      5.8874
  1194.0000    145.5546      0.0000    663.6725      5.9059
  1194.2500    149.3357      0.0000    662.7120      6.0027
  1194.5000    150.5811      0.0000    662.9803      6.1437
  1194.7500    150.6464      0.0000    664.6671      6.2907
  1195.0000    150.8193      0.0000    667.2076      6.4199
  1195.2500    151.0965      0.0000    669.5364      6.5202
  1195.5000    150.2859      0.0000    670.5993      6.5808
  1195.7500    147.6141      0.0000    669.9402      6.5871
  1196.0000    144.0526      0.0000    667.9415      6.5318
  1196.2500    141.5545      0.0000    665.4930      6.4271
  1196.5000    141.1240      0.0000    663.2141      6.3073
  1196.7500    142.1524      0.0000    660.7567      6.2143
  1197.0000    143.4663      0.0000    656.6295      6.1737
  1197.2500    144.3941      0.0000    649.0362      6.1773
  1197.5000    144.7523      0.0000    638.0018      6.1903
  1197.7500    144.3652      0.0000    627.2908      6.1775
  1198.0000    142.8428      0.0000    622.8834      6.1237
  1198.2500    139.4083      0.0000    627.9535      6.0360
  1198.5000    132.8828      0.0000    639.8098      5.9333
  1198.7500    122.5826      0.0000    652.5861      5.8373
  1199.0000    109.7228      0.0000    661.9302      5.7671
  1199.2500     97.4749      0.0000    666.6551      5.7283
  1199.5000     89.0507      0.0000    667.6142      5.7027
  1199.7500     85.6693      0.0000    666.3657      5.6535
  1200.0000     86.2753      0.0000    664.3635      5.5453
  1200.2500     88.6528      0.0000    662.4692      5.3640
  1200.5000     90.5423      0.0000    660.9048      5.1218
  1200.7500     90.4535      0.0000    659.6234      4.8495
  1201.0000     88.3012      0.0000    658.6100      4.5833
  1201.2500     85.2514      0.0000    657.9159      4.3501
  1201.5000     82.5353      0.0000    657.5452      4.1582
  1201.7500     80.4210      0.0000    657.4315      4.0002
  1202.0000     78.4157      0.0000    657.5012      3.8649
  1202.2500     76.1914      0.0000    657.7006      3.7474
  1202.5000     73.9900      0.0000    657.9579      3.6504
  1202.7500     72.1747      0.0000    658.1887      3.5821
  1203.0000     70.7451      0.0000    658.3604      3.5515
  1203.2500     69.5425      0.0000    658.5385      3.5609
  1203.5000     68.8112      0.0000    658.8680      3.6013
  1203.7500     69.2265      0.0000    659.5383      3.6611
  1204.0000     71.1145      0.0000    660.7043      3.7378
  1204.2500     73.7601      0.0000    662.2678      3.8358
  1204.5000     75.7754      0.0000    663.6663      3.9506
  1204.7500     76.1758      0.0000    664.0950      4.0611
  1205.0000     74.9626      0.0000    663.1870      4.1446
  1205.2500     72.9086      0.0000    661.4119      4.1963
  1205.5000     71.1093      0.0000    659.6611      4.2277
  1205.7500     70.4835      0.0000    658.5230      4.2480
  1206.0000     71.1912      0.0000    658.0249      4.2530
  1206.2500     72.4998      0.0000    657.8900      4.2324
  1206.5000     73.4787      0.0000    657.8662      4.1828
  1206.7500     73.8957      0.0000    657.8418      4.1178
  1207.0000     74.3270      0.0000    657.7792      4.0642
  1207.2500     75.4367      0.0000    657.6405      4.0476
  1207.5000     77.3066      0.0000    657.3558      4.0750
  1207.7500     79.5562      0.0000    656.7783      4.1349
  1208.0000     82.0108      0.0000    655.5904      4.2123
  1208.2500     85.0468      0.0000    653.3928      4.2991
  1208.5000     89.2656      0.0000    650.1868      4.3911
  1208.7500     95.0842      0.0000    646.8057      4.4799
  1209.0000    102.7592      0.0000    644.3982      4.5539
  1209.2500    112.3008      0.0000    643.1617      4.6059
  1209.5000    122.6661      0.0000    642.0254      4.6402
  1209.7500    131.2460      0.0000    639.9304      4.6741
  1210.0000    135.1218      0.0000    636.9500      4.7293
  1210.2500    133.3618      0.0000    633.8000      4.8166
  1210.5000    127.8899      0.0000    630.7340      4.9262
  1210.7500    121.8321      0.0000    627.4339      5.0372
  1211.0000    116.8580      0.0000    623.7117      5.1368
  1211.2500    112.1766      0.0000    619.6420      5.2276
  1211.5000    106.2805      0.0000    614.5327      5.3178
  1211.7500     99.3536      0.0000    606.5391      5.4053
  1212.0000     93.2822      0.0000    594.9772      5.4739
  1212.2500     89.4639      0.0000    583.4296      5.5058
  1212.5000     87.4877      0.0000    578.5251      5.4992
  1212.7500     86.1704      0.0000    583.9798      5.4734
  1213.0000     85.1991      0.0000    596.8386      5.4533
  1213.2500     85.2307      0.0000    610.5432      5.4499
  1213.5000     86.6109      0.0000    620.4224      5.4563
  1213.7500     88.5139      0.0000    625.5517      5.4597
  1214.0000     89.4820      0.0000    626.9974      5.4561
  1214.2500     88.6015      0.0000    625.9161      5.4570
  1214.5000     86.1889      0.0000    623.2400      5.4854
  1214.7500     83.8050      0.0000    620.1777      5.5621
  1215.0000     83.7242      0.0000    618.0952      5.6934
  1215.2500     87.8386      0.0000    617.6315      5.8629
  1215.5000     96.4890      0.0000    618.3155      6.0321
  1215.7500    108.0705      0.0000    619.5121      6.1546
  1216.0000    119.6600      0.0000    621.5396      6.2066
  1216.2500    128.3981      0.0000    625.5382      6.2067
  1216.5000    133.1506      0.0000    632.1443      6.1984
  1216.7500    135.1850      0.0000    640.3275      6.2079
  1217.0000    136.7792      0.0000    647.6592      6.2212
  1217.2500    139.0983      0.0000    651.6805      6.1978
  1217.5000    141.7603      0.0000    650.9106      6.0965
  1217.7500    143.9986      0.0000    645.0488      5.8887
  1218.0000    145.4690      0.0000    635.0867      5.5641
  1218.2500    146.0079      0.0000    623.3381      5.1401
  1218.5000    145.0575      0.0000    612.5861      4.6710
  1218.7500    141.4799      0.0000    604.6467      4.2408
  1219.0000    134.2912      0.0000    599.7358      3.9319
  1219.2500    123.9568      0.0000    597.0739      3.7846
  1219.5000    112.5811      0.0000    595.7988      3.7808
  1219.7500    102.4908      0.0000    595.3439      3.8721
  1220.0000     95.0503      0.0000    595.3342      4.0224
  1220.2500     90.8061      0.0000    595.4135      4.2194
  1220.5000     89.9339      0.0000    595.3257      4.4455
  1220.7500     92.2175      0.0000    595.3238      4.6483
