~Version Information
VERS.                      2.0: CWLS Log ASCII Standard - VERSION 2.0
WRAP.                       NO: One line per depth step
~Well Information Block
STRT.FT                -9.7500: 
STOP.FT              2566.5000: 
STEP.FT                 0.2500: 
NULL.                -999.2500: 
COMP.          Petrogulf Corporation: COMPANY
WELL.             Valejo 8-12V: WELL
FLD.           Purgatorie River: FIELD
LOC.           1510' FNL & 1460' FWL: LOCATION
CNTY.               Las Animas: COUNTY
SRVC.                         : SERVICE COMPANY
DATE.          Tue Nov 18 14:36:15 2003: LOG DATE
UWI.                          : UNIQUE WELL ID
STAT.                 Colorado: STATE
~Curve Information Block
DEPT.FT            0 000 00 00: Depth
CCL.                          : Casing Collar Locator
TT3.usec                      : CBL 3' Travel Time
AMP3.mV                       : CBL 3' Amplitude
GR.GAPI                       : Gamma Ray
~Parameter Information Block
~A  Depth       CCL         TT3         AMP3         GR     
# ...
  2033.7500      0.0000    746.4422      4.9935     40.6451
  2034.0000      0.0000    754.0675      5.1469     41.1767
  2034.2500      0.0000    761.1470      5.3377     41.5647
  2034.5000      0.0000    765.9153      5.4698     42.2386
  2034.7500      0.0000    767.9601      5.4333     43.3606
  2035.0000      0.0000    768.4582      5.2378     44.5099
  2035.2500      0.0000    768.0856      5.0010     45.2006
  2035.5000      0.0000    765.2941      4.8129     45.5421
  2035.7500      0.0000    757.7705      4.6452     46.3208
  2036.0000      0.0000    745.4759      4.4056     48.3971
  2036.2500      0.0000    731.3967      4.0680     51.8680
  2036.5000      0.0000    719.2786      3.7267     55.7811
  2036.7500      0.0000    711.0659      3.5114     58.8134
  2037.0000      0.0000    706.3539      3.4646     60.4177
  2037.2500      0.0000    703.6157      3.5104     61.3277
  2037.5000      0.0000    701.5567      3.5333     62.7972
  2037.7500      0.0000    699.6655      3.4745     65.2682
  2038.0000      0.0000    698.0951      3.3505     67.8820
  2038.2500      0.0000    697.4291      3.1913     69.1925
  2038.5000      0.0000    698.4911      2.9994     68.1724
  2038.7500      0.0000    701.8979      2.7900     64.9273
  2039.0000      0.0000    707.2627      2.6349     61.0839
  2039.2500      0.0000    712.7304      2.6117     59.3441
  2039.5000      0.0000    715.7653      2.7071     61.9325
  2039.7500      0.0000    714.9667      2.8126     69.1612
  2040.0000      0.0000    711.5485      2.8346     79.5331
  2040.2500      0.0000    709.0211      2.7858     90.9868
  2040.5000      0.0000    710.5942      2.7481    101.7736
  2040.7500      0.0000    716.0402      2.7628    110.5164
  2041.0000      0.0000    721.4589      2.7911    116.3404
  2041.2500      0.0000    722.9496      2.7770    119.3722
  2041.5000      0.0000    720.2614      2.7198    120.7868
  2041.7500      0.0000    716.3986      2.6656    122.0437
  2042.0000      0.0000    714.3165      2.6356    124.0164
  2042.2500      0.0000    714.5052      2.5953    126.6079
  2042.5000      0.0000    715.1743      2.5145    128.8322
  2042.7500      0.0000    714.4231      2.4295    129.2418
  2043.0000      0.0000    712.4712      2.4024    126.7725
  2043.2500      0.0000    711.6363      2.4348    121.6697
  2043.5000      0.0000    713.9225      2.4595    115.6411
  2043.7500      0.0000    718.9145      2.4218    110.8035
  2044.0000      0.0000    724.1749      2.3480    108.3398
  2044.2500      0.0000    727.3083      2.3188    108.3019
  2044.5000      0.0000    727.5647      2.3771    110.6031
  2044.7500      0.0000    726.0841      2.4721    115.4874
  2045.0000      0.0000    724.9758      2.5120    122.3172
  2045.2500      0.0000    725.8779      2.4671    128.3055
  2045.5000      0.0000    728.8498      2.4021    129.7420
  2045.7500      0.0000    732.1741      2.3949    125.0152
  2046.0000      0.0000    733.0411      2.4398    116.0642
  2046.2500      0.0000    729.0989      2.4568    106.8783
  2046.5000      0.0000    720.2465      2.3920    100.9000
  2046.7500      0.0000    709.0516      2.2821     99.2667
  2047.0000      0.0000    699.1505      2.2075    100.3429
  2047.2500      0.0000    693.0892      2.2027    100.6335
  2047.5000      0.0000    691.2153      2.2295     97.0715
  2047.7500      0.0000    691.9272      2.2323     89.2763
  2048.0000      0.0000    692.7098      2.2069     79.7646
  2048.2500      0.0000    691.2578      2.1952     71.8755
  2048.5000      0.0000    686.4326      2.2123     67.3169
  2048.7500      0.0000    678.9008      2.2131     65.3515
  2049.0000      0.0000    670.7584      2.1522     63.9356
  2049.2500      0.0000    664.0709      2.0548     61.6023
  2049.5000      0.0000    659.6232      1.9992     58.4456
  2049.7500      0.0000    656.9990      2.0332     55.5254
  2050.0000      0.0000    655.4454      2.1268     53.5138
  2050.2500      0.0000    654.4610      2.2149     51.9982
  2050.5000      0.0000    653.8243      2.2702     49.9932
  2050.7500      0.0000    653.4343      2.3135     46.9014
  2051.0000      0.0000    653.2297      2.3647     42.9085
  2051.2500      0.0000    653.1943      2.4128     38.7164
  2051.5000      0.0000    653.3967      2.4399     35.1852
  2051.7500      0.0000    654.0912      2.4460     33.0319
  2052.0000      0.0000    655.8818      2.4360     32.4073
  2052.2500      0.0000    659.7006      2.3951     32.7641
  2052.5000      0.0000    666.2043      2.3016     33.4673
  2052.7500      0.0000    674.7976      2.1698     34.4914
  2053.0000      0.0000    683.4404      2.0600     36.3001
  2053.2500      0.0000    689.8654      2.0264     39.2300
  2053.5000      0.0000    692.9167      2.0620     43.2419
  2053.7500      0.0000    692.5619      2.1122     48.0177
  2054.0000      0.0000    689.3365      2.1347     52.9260
  2054.2500      0.0000    684.4533      2.1221     57.1674
  2054.5000      0.0000    679.9063      2.0821     60.5218
  2054.7500      0.0000    677.7410      2.0345     63.9862
  2055.0000      0.0000    679.3232      2.0257     69.1867
  2055.2500      0.0000    685.2051      2.1042     76.9067
  2055.5000      0.0000    694.9738      2.2689     86.2747
  2055.7500      0.0000    706.9421      2.4607     95.3663
  2056.0000      0.0000    718.4656      2.6118    102.3367
  2056.2500      0.0000    726.9800      2.6937    106.0368
  2056.5000      0.0000    731.1093      2.7224    106.0790
  2056.7500      0.0000    731.4799      2.7289    102.7845
  2057.0000      0.0000    730.8648      2.7378     96.9837
  2057.2500      0.0000    732.9559      2.7697     89.6664
  2057.5000      0.0000    740.1783      2.8411     81.8724
  2057.7500      0.0000    751.9271      2.9395     74.7273
  2058.0000      0.0000    764.6869      3.0091     69.0739
  2058.2500      0.0000    774.3198      2.9900     64.9095
  2058.5000      0.0000    778.5260      2.8755     61.4226
  2058.7500      0.0000    777.1588      2.7204     57.7299
  2059.0000      0.0000    771.1302      2.5939     53.6165
  2059.2500      0.0000    762.1706      2.5326     49.7558
  2059.5000      0.0000    753.1011      2.5290     47.2871
  2059.7500      0.0000    746.6307      2.5549     46.8871
  2060.0000      0.0000    743.6657      2.5925     48.1099
  2060.2500      0.0000    743.8389      2.6443     49.8943
  2060.5000      0.0000    747.3590      2.7224     51.6524
  2060.7500      0.0000    754.6348      2.8344     53.5794
  2061.0000      0.0000    763.8699      2.9687     56.1412
  2061.2500      0.0000    770.9189      3.0914     59.8709
  2061.5000      0.0000    773.4085      3.1704     65.8033
  2061.7500      0.0000    774.8445      3.2103     75.4636
  2062.0000      0.0000    782.9767      3.2468     89.5752
  2062.2500      0.0000    802.6159      3.2946    106.5371
  2062.5000      0.0000    829.9075      3.3257    122.6826
  2062.7500      0.0000    854.2206      3.3266    134.5249
  2063.0000      0.0000    865.8976      3.3443    140.8613
  2063.2500      0.0000    862.4169      3.4266    143.0190
  2063.5000      2.0000    848.2552      3.5337    143.4837
  2063.7500      2.0000    830.3099      3.5635    144.0952
  2064.0000      0.0000    813.3775      3.4646    145.2112
  2064.2500      0.0000    798.5286      3.2920    146.5893
  2064.5000      0.0000    784.8911      3.1454    148.6730
  2064.7500      0.0000    772.8513      3.0643    152.2837
  2065.0000      0.0000    764.8271      2.9933    157.0215
  2065.2500      0.0000    762.3527      2.8623    160.6592
  2065.5000      0.0000    763.5103      2.6872    160.4573
  2065.7500      0.0000    764.3261      2.5546    154.8682
  2066.0000      0.0000    762.3113      2.5089    144.1246
  2066.2500      0.0000    758.1218      2.5020    129.7755
  2066.5000      0.0000    754.1818      2.4627    113.8649
  2066.7500      0.0000    751.9299      2.3730     98.2626
  2067.0000      0.0000    750.2402      2.2565     84.4739
