~Version Information
VERS.                      2.0: CWLS Log ASCII Standard - VERSION 2.0
WRAP.                       NO: One line per depth step
~Well Information Block
STRT.FT               987.5000: 
STOP.FT              2426.0000: 
STEP.FT                 0.5000: 
NULL.                -999.2500: 
COMP.          Evergreen Operating Corporation: COMPANY
WELL.          McCullough 34-32: WELL
FLD.           Purgatorie River: FIELD
LOC.           261' FSL & 2098' FEL--: LOCATION
PROV.                 Colorado: PROVINCE
CNTY.               Las Animas: COUNTRY
SRVC.          Patterson Wireline: SERVICE COMPANY
DATE.          Mon May 17 13:38:56 2004: LOG DATE
UWI.           05-071-07953-00: UNIQUE WELL ID
~Curve Information Block
DEPT.FT            0 000 00 00: Depth
CCL.                          : Casing Collar Locator
TT3.usec                      : CBL 3' Travel Time
AMP3.mV                       : CBL 3' Amplitude
GR.GAPI                       : Gamma Ray
~Parameter Information Block
~A  Depth       CCL         TT3         AMP3         GR     
# ...
  1054.5000      0.0000    275.5447     66.8950    137.7378
  1055.0000      0.0000    275.3969     67.0444    132.9167
  1055.5000      0.0000    275.3657     67.5803    129.9754
  1056.0000      0.0000    275.5533     67.4465    136.0469
  1056.5000      0.0000    275.6308     67.0497    140.3354
  1057.0000      0.0000    275.5063     67.0061    126.9356
  1057.5000      0.0000    275.4853     67.1368    103.9529
  1058.0000      0.0000    275.5554     67.4262     85.4034
  1058.5000      0.0000    275.5359     67.1206     73.2114
  1059.0000      0.0000    275.4865     66.6114     73.1684
  1059.5000      0.0000    275.4241     66.9412     82.9527
  1060.0000      0.0000    275.3999     67.7450     90.8125
  1060.5000      0.0000    275.4488     67.9116     90.8524
  1061.0000      0.0000    275.4575     67.4520     90.1091
  1061.5000      0.0000    275.4716     67.0253     99.8357
  1062.0000      0.0000    275.6445     67.0578    109.9184
  1062.5000      0.0000    275.7575     66.9539    111.5741
  1063.0000      0.0000    275.6597     66.8262    116.4982
  1063.5000      0.0000    275.6121     66.9398    128.7044
  1064.0000      0.0000    275.6490     67.0055    139.2006
  1064.5000      0.0000    275.6737     66.7063    143.5042
  1065.0000      0.0000    275.7308     66.3678    141.7129
  1065.5000      0.0000    275.8318     66.2625    130.5943
  1066.0000      0.0000    275.7511     66.5834    112.3075
  1066.5000      0.0000    275.4365     66.8681     96.4239
  1067.0000      0.0000    275.3247     66.4540     88.1812
  1067.5000      0.0000    275.5745     65.6499     87.2328
  1068.0000      0.0000    275.7364     65.1782     84.7342
  1068.5000      0.0000    276.2362     63.6428     75.6239
  1069.0000      0.0000    280.1624     57.5583     69.3058
  1069.5000      0.0000    288.2079     48.9971     68.9924
  1070.0000      0.0000    290.8840     42.6753     75.9486
  1070.5000      0.0000    287.0609     39.7196     86.7784
  1071.0000     -5.0000    285.7354     39.3062     89.5972
  1071.5000      0.0000    288.7849     39.4207     91.6270
  1072.0000      0.0000    290.7460     40.4623     99.3678
  1072.5000      0.0000    285.2878     44.7603    105.9938
  1073.0000      0.0000    278.9243     52.1410    112.2009
  1073.5000      0.0000    276.3447     60.6239    122.5385
  1074.0000      0.0000    275.7732     65.2335    132.1597
  1074.5000      0.0000    275.5728     66.2777    134.6172
  1075.0000      0.0000    275.4016     66.4185    131.4263
  1075.5000      0.0000    275.4228     66.2500    127.0573
  1076.0000      0.0000    275.3733     66.1683    132.6241
  1076.5000      0.0000    275.3331     66.3358    146.0377
  1077.0000      0.0000    275.3723     66.5143    154.1749
  1077.5000      0.0000    275.3170     66.7367    149.4732
  1078.0000      0.0000    275.3413     66.9421    131.1814
  1078.5000      0.0000    275.4823     67.1047    120.5333
  1079.0000      0.0000    275.4434     67.2383    123.3959
  1079.5000      0.0000    275.2330     67.4375    129.0555
  1080.0000      0.0000    275.2604     67.8262    135.0077
  1080.5000      0.0000    275.6020     68.1087    138.2609
  1081.0000      0.0000    275.8876     68.2128    133.7934
  1081.5000      0.0000    275.9123     68.2425    126.9566
  1082.0000      0.0000    275.7202     68.4156    130.1181
  1082.5000      0.0000    275.4238     68.7578    136.2094
  1083.0000      0.0000    275.1617     68.9530    139.2533
  1083.5000      0.0000    275.0589     68.8783    139.8040
  1084.0000      0.0000    275.1503     68.5685    139.3916
  1084.5000      0.0000    275.3206     68.4256    142.1698
  1085.0000      0.0000    275.3228     68.6853    140.6241
  1085.5000      0.0000    275.1772     68.7885    130.2722
  1086.0000      0.0000    275.1776     68.6976    116.4472
  1086.5000      0.0000    275.3319     68.5847    105.3679
  1087.0000      0.0000    275.3940     68.4351    104.7348
  1087.5000      0.0000    275.3888     68.5105    109.3241
  1088.0000      0.0000    275.3813     68.6282    109.7101
  1088.5000      0.0000    275.2431     68.6506    108.8377
  1089.0000      0.0000    275.0758     68.7344    108.1186
  1089.5000      0.0000    275.0362     68.9294    112.1884
  1090.0000      0.0000    275.1214     69.0384    119.1836
  1090.5000      0.0000    275.1995     68.7841    123.1617
  1091.0000      0.0000    275.1215     68.1802    127.9263
  1091.5000      0.0000    275.0384     67.7484    137.1578
  1092.0000      0.0000    275.1027     67.9587    141.2288
  1092.5000      0.0000    275.3618     68.2571    138.1469
  1093.0000      0.0000    275.5515     67.9666    136.2516
  1093.5000      0.0000    275.3618     67.2566    136.1235
  1094.0000      0.0000    275.1006     66.7176    135.3831
  1094.5000      0.0000    275.0136     66.4581    140.4586
  1095.0000      0.0000    275.0275     66.0024    147.8303
  1095.5000      0.0000    275.1215     65.0559    143.1600
  1096.0000      0.0000    275.2104     63.9530    139.1242
  1096.5000      0.0000    275.2132     63.0111    143.7937
  1097.0000      0.0000    275.3328     62.4361    144.9441
  1097.5000      0.0000    275.4425     62.0731    132.6213
  1098.0000      0.0000    275.3618     61.6723    115.8830
  1098.5000      0.0000    275.2119     61.1471    103.3405
  1099.0000      0.0000    275.0696     60.7702     89.8354
  1099.5000      0.0000    275.0358     60.8834     68.4091
  1100.0000      0.0000    275.1214     61.1415     48.0900
  1100.5000      0.0000    275.1999     60.8392     36.8687
  1101.0000      0.0000    275.1298     60.6725     32.8532
  1101.5000      0.0000    275.0918     61.3765     29.7390
  1102.0000      0.0000    275.1787     62.2494     27.6590
  1102.5000      0.0000    275.1849     62.8899     29.7730
  1103.0000      0.0000    275.1317     63.6004     32.0725
  1103.5000      0.0000    275.2118     64.2164     32.7790
  1104.0000      0.0000    275.2975     64.5447     38.0778
  1104.5000      0.0000    275.2642     64.9641     44.9653
  1105.0000      0.0000    275.1298     65.3135     48.0177
  1105.5000      0.0000    275.0297     65.1849     49.9264
  1106.0000      0.0000    275.0292     64.6758     49.2639
  1106.5000      0.0000    275.1215     64.1161     46.0952
  1107.0000      0.0000    275.2083     63.9181     46.8785
  1107.5000      0.0000    275.1858     64.3390     56.5688
  1108.0000      0.0000    275.2030     64.6391     75.4318
  1108.5000      0.0000    275.1783     64.5217     97.3763
  1109.0000      0.0000    275.0648     64.3270    113.3898
  1109.5000      0.0000    275.0088     63.9642    122.0923
  1110.0000      0.0000    275.0004     64.0083    127.9674
  1110.5000      0.0000    275.0000     64.4854    130.1242
  1111.0000      0.0000    275.0018     64.8334    129.1083
  1111.5000      0.0000    275.0500     65.0380    133.3330
  1112.0000      0.0000    275.5777     64.2549    138.9776
  1112.5000      0.0000    278.3267     60.3651    142.4023
  1113.0000      0.0000    285.0647     52.1048    141.0100
  1113.5000      0.0000    290.4705     42.6823    131.3491
  1114.0000      0.0000    288.1859     38.7718    122.1407
  1114.5000     -5.0000    285.0901     39.4703    118.6154
  1115.0000      0.0000    286.8006     40.2656    117.9242
  1115.5000      0.0000    291.1019     41.5256    116.3651
  1116.0000      0.0000    288.6489     45.3198    115.6873
  1116.5000      0.0000    280.5249     52.8861    116.5946
  1117.0000      0.0000    276.2888     62.6765    118.2146
  1117.5000      0.0000    275.4418     68.0971    117.3953
  1118.0000      0.0000    275.3420     69.1722    112.1063
  1118.5000      0.0000    275.3336     69.0860    104.3971
  1119.0000      0.0000    275.3332     69.2800     95.5769
  1119.5000      0.0000    275.3316     69.3158     84.9329
  1120.0000      0.0000    275.3146     68.9326     72.6094
  1120.5000      0.0000    275.2682     68.6539     61.7108
  1121.0000      0.0000    275.2430     68.1656     57.7246
