~Version Information
VERS.                      2.0: CWLS Log ASCII Standard - VERSION 2.0
WRAP.                       NO: One line per depth step
~Well Information Block
STRT.FT               758.7500: 
STOP.FT              2420.7500: 
STEP.FT                 0.2500: 
NULL.                -999.2500: 
COMP.          Petrogulf Corporation: COMPANY
WELL.            Montoya 7-21V: WELL
FLD.           Purgatorie River: FIELD
LOC.           738' FSL & 2070' FWL: LOCATION
CNTY.               Las Animas: COUNTY
SRVC.                         : SERVICE COMPANY
DATE.          Fri Aug 20 07:13:07 2004: LOG DATE
UWI.           05 071 08018 00: UNIQUE WELL ID
STAT.                 Colorado: STATE
~Curve Information Block
DEPT.FT            0 000 00 00: Depth
SP.mV                         : DIL Spontaneous Potential
RILD.Ohm-m                    : DIL Deep Resistivity
RILM.Ohm-m                    : DIL Medium Resistivity
RLL3.Ohm-m                    : DIL Shallow Resistivity
GR.GAPI                       : Gamma Ray
~Parameter Information Block
~A  Depth        SP         RILD        RILM        RLL3         GR     
# ...
  2158.7500     11.9780     18.0426     16.1857     16.7009     87.9117
  2159.0000     12.4516     17.6065     15.8288     16.2215     88.9296
  2159.2500     12.8954     17.2262     15.5425     15.9877     89.8674
  2159.5000     13.3044     16.8851     15.3150     16.0711     91.7046
  2159.7500     13.6761     16.5699     15.1320     16.3979     93.0056
  2160.0000     14.0098     16.2719     14.9779     16.7860     94.6789
  2160.2500     14.3050     15.9856     14.8374     17.0560     95.5168
  2160.5000     14.5607     15.7074     14.6972     17.1302     96.4529
  2160.7500     14.7752     15.4341     14.5469     17.0495     96.9855
  2161.0000     14.9455     15.1634     14.3802     16.9075     97.7230
  2161.2500     15.0684     14.8944     14.1940     16.7651     98.0853
  2161.5000     15.1406     14.6279     13.9886     16.6132     98.2704
  2161.7500     15.1596     14.3655     13.7661     16.3994     98.2474
  2162.0000     15.1243     14.1091     13.5304     16.0835     98.6423
  2162.2500     15.0353     13.8613     13.2859     15.6744     99.6696
  2162.5000     14.8950     13.6256     13.0370     15.2250    102.4740
  2162.7500     14.7075     13.4082     12.7889     14.8014    104.5107
  2163.0000     14.4779     13.2173     12.5471     14.4488    106.1579
  2163.2500     14.2123     13.0625     12.3181     14.1728    105.9973
  2163.5000     13.9170     12.9535     12.1099     13.9404    105.0549
  2163.7500     13.5989     12.8984     11.9319     13.7004    104.9592
  2164.0000     13.2659     12.9029     11.7943     13.4164    106.2859
  2164.2500     12.9269     12.9684     11.7074     13.0981    107.8004
  2164.5000     12.5911     13.0911     11.6802     12.8195    109.7387
  2164.7500     12.2672     13.2602     11.7193     12.7177    109.9379
  2165.0000     11.9613     13.4571     11.8277     12.9683    107.5529
  2165.2500     11.6754     13.6569     12.0032     13.7312    104.2724
  2165.5000     11.4065     13.8333     12.2380     15.0720     98.2429
  2165.7500     11.1472     13.9661     12.5180     16.8909     94.5217
  2166.0000     10.8877     14.0485     12.8236     18.9175     90.5536
  2166.2500     10.6194     14.0907     13.1313     20.7952     89.1136
  2166.5000     10.3380     14.1161     13.4173     22.2172     88.1635
  2166.7500     10.0461     14.1537     13.6613     23.0212     87.8739
  2167.0000      9.7527     14.2280     13.8499     23.1904     87.7853
  2167.2500      9.4722     14.3529     13.9797     22.7904     88.2079
  2167.5000      9.2202     14.5295     14.0565     21.9162     89.7126
  2167.7500      9.0098     14.7474     14.0938     20.6885     90.9913
  2168.0000      8.8491     14.9886     14.1097     19.2694     92.6995
  2168.2500      8.7401     15.2320     14.1236     17.8532     93.4960
  2168.5000      8.6798     15.4576     14.1534     16.6249     93.8624
  2168.7500      8.6622     15.6502     14.2139     15.7170     93.3583
  2169.0000      8.6797     15.8022     14.3156     15.1930     91.6364
  2169.2500      8.7242     15.9154     14.4648     15.0534     90.4356
  2169.5000      8.7867     16.0001     14.6634     15.2512     89.9632
  2169.7500      8.8566     16.0728     14.9091     15.7124     90.9589
  2170.0000      8.9218     16.1520     15.1965     16.3629     93.6039
  2170.2500      8.9699     16.2536     15.5166     17.1552     95.0226
  2170.5000      8.9894     16.3870     15.8579     18.0734     95.2063
  2170.7500      8.9728     16.5534     16.2063     19.1112     94.1004
  2171.0000      8.9175     16.7452     16.5457     20.2454     91.8158
  2171.2500      8.8266     16.9472     16.8589     21.4286     90.4654
  2171.5000      8.7078     17.1405     17.1294     22.6006     88.6852
  2171.7500      8.5715     17.3072     17.3434     23.6924     87.2914
  2172.0000      8.4287     17.4358     17.4925     24.6096     84.6325
  2172.2500      8.2893     17.5242     17.5758     25.2180     82.8462
  2172.5000      8.1607     17.5788     17.6004     25.3683     81.3845
  2172.7500      8.0473     17.6100     17.5804     24.9691     81.8886
  2173.0000      7.9504     17.6267     17.5342     24.0662     85.2207
  2173.2500      7.8685     17.6342     17.4814     22.8644     88.8152
  2173.5000      7.7978     17.6347     17.4396     21.6571     95.0658
  2173.7500      7.7328     17.6306     17.4218     20.6967     99.0193
  2174.0000      7.6681     17.6263     17.4357     20.0837    103.4732
  2174.2500      7.5992     17.6265     17.4827     19.7449    104.9930
  2174.5000      7.5242     17.6333     17.5590     19.5096    104.8345
  2174.7500      7.4451     17.6435     17.6561     19.2263    103.4091
  2175.0000      7.3681     17.6498     17.7621     18.8449    100.7248
  2175.2500      7.3028     17.6444     17.8637     18.4167     99.5325
  2175.5000      7.2604     17.6253     17.9478     18.0292     99.1337
  2175.7500      7.2515     17.6001     18.0045     17.7269     99.2154
  2176.0000      7.2836     17.5860     18.0291     17.4767     98.6861
  2176.2500      7.3601     17.6047     18.0238     17.1986     97.7946
  2176.5000      7.4793     17.6753     17.9979     16.8373     96.1322
  2176.7500      7.6346     17.8084     17.9667     16.4254     94.9463
  2177.0000      7.8160     18.0044     17.9492     16.0908     93.0192
  2177.2500      8.0105     18.2557     17.9651     16.0040     91.7310
  2177.5000      8.2033     18.5513     18.0325     16.3003     89.9623
  2177.7500      8.3800     18.8818     18.1660     17.0250     88.6643
  2178.0000      8.5275     19.2417     18.3752     18.1282     85.8511
  2178.2500      8.6359     19.6283     18.6647     19.4978     83.3264
  2178.5000      8.7004     20.0371     19.0340     21.0029     79.1377
  2178.7500      8.7215     20.4578     19.4769     22.5313     76.3215
  2179.0000      8.7053     20.8715     19.9817     24.0130     71.7621
  2179.2500      8.6620     21.2524     20.5304     25.4243     68.2622
  2179.5000      8.6038     21.5724     21.0980     26.7687     62.7540
  2179.7500      8.5429     21.8053     21.6517     28.0419     59.6876
  2180.0000      8.4893     21.9275     22.1503     29.2106     57.3859
  2180.2500      8.4501     21.9163     22.5455     30.2216     57.6950
  2180.5000      8.4293     21.7508     22.7853     31.0257     60.1571
  2180.7500      8.4281     21.4172     22.8210     31.5777     62.1197
  2181.0000      8.4453     20.9189     22.6175     31.8026     63.9447
  2181.2500      8.4785     20.2806     22.1631     31.5631     64.2075
  2181.5000      8.5239     19.5434     21.4756     30.6876     64.3416
  2181.7500      8.5764     18.7526     20.6009     29.0700     65.2817
  2182.0000      8.6308     17.9469     19.6026     26.7864     68.7653
  2182.2500      8.6816     17.1533     18.5491     24.1390     71.9448
  2182.5000      8.7248     16.3898     17.5009     21.5773     76.0238
  2182.7500      8.7589     15.6697     16.5034     19.5225     77.3710
  2183.0000      8.7856     15.0046     15.5854     18.1904     77.3702
  2183.2500      8.8100     14.4041     14.7612     17.5137     76.8187
  2183.5000      8.8393     13.8749     14.0349     17.2083     76.6023
  2183.7500      8.8808     13.4203     13.4046     16.9404     77.3053
  2184.0000      8.9399     13.0405     12.8660     16.4844     79.8942
  2184.2500      9.0187     12.7340     12.4145     15.7876     82.7846
  2184.5000      9.1158     12.4987     12.0468     14.9336     89.0869
  2184.7500      9.2274     12.3327     11.7610     14.0691     94.4514
  2185.0000      9.3484     12.2353     11.5557     13.3484    103.0849
  2185.2500      9.4738     12.2075     11.4305     12.8981    108.1263
  2185.5000      9.5984     12.2513     11.3849     12.7837    112.7770
  2185.7500      9.7167     12.3686     11.4186     12.9794    113.3298
  2186.0000      9.8224     12.5592     11.5316     13.3738    110.4984
  2186.2500      9.9084     12.8204     11.7246     13.8316    106.9285
  2186.5000      9.9675     13.1474     11.9992     14.2852    100.8825
