~Version Information
VERS.                      2.0: CWLS Log ASCII Standard - VERSION 2.0
WRAP.                       NO: One line per depth step
~Well Information Block
STRT.FT               -12.0000: 
STOP.FT              2137.5000: 
STEP.FT                 0.2500: 
NULL.                -999.2500: 
COMP.          Pioneer Natural Resources: COMPANY
WELL.           Ogallela 44-12: WELL
FLD.           Purgatorie River: FIELD
LOC.           610' FSL & 671' FEL------------: LOCATION
PROV.                       CO: PROVINCE
CNTY.               Las Animas: COUNTRY
SRVC.          Patterson Wireline: SERVICE COMPANY
DATE.          Thu Apr 07 14:25:46 2005: LOG DATE
UWI.           05 071 08283 00: UNIQUE WELL ID
~Curve Information Block
DEPT.FT            0 000 00 00: Depth
CCL.                          : Casing Collar Locator
TT3.usec                      : CBL 3' Travel Time
AMP3.mV                       : CBL 3' Amplitude
ATT3.db/ft                    : CBL 3' Attenuation
GR.GAPI                       : Gamma Ray
~Parameter Information Block
~A  Depth       CCL         TT3         AMP3        ATT3         GR     
# ...
  2116.0000      0.0000    789.3880      5.0531     -8.4887    116.5392
  2116.2500      0.0000    791.3793      5.1619     -8.4270    118.7264
  2116.5000      0.0000    794.6417      5.3246     -8.3371    117.2713
  2116.7500      0.0000    798.5060      5.5504     -8.2169    112.2437
  2117.0000      0.0000    801.6763      5.8324     -8.0734    104.9035
  2117.2500      0.0000    803.4292      6.1405     -7.9244     97.9059
  2117.5000      0.0000    803.9696      6.4255     -7.7930     94.1957
  2117.7500      0.0000    803.9270      6.6310     -7.7019     95.0994
  2118.0000      0.0000    803.8006      6.7193     -7.6635     99.4143
  2118.2500      0.0000    803.7586      6.7036     -7.6703    104.3835
  2118.5000      0.0000    803.6309      6.6486     -7.6942    107.5556
  2118.7500      2.0000    802.8960      6.6351     -7.7001    108.0172
  2119.0000      2.0000    800.7317      6.7160     -7.6650    106.4905
  2119.2500      0.0000    796.3867      6.8919     -7.5901    104.5842
  2119.5000      0.0000    789.8880      7.1249     -7.4938    103.6201
  2119.7500      0.0000    782.4386      7.3814     -7.3915    103.7513
  2120.0000      0.0000    775.8382      7.6400     -7.2918    104.2434
  2120.2500      0.0000    771.3180      7.8484     -7.2138    104.6004
  2120.5000      0.0000    768.9423      7.9222     -7.1867    105.0102
  2120.7500      0.0000    767.9999      7.8328     -7.2196    105.7474
  2121.0000      0.0000    767.7175      7.6707     -7.2801    106.8929
  2121.2500      0.0000    767.6137      7.5696     -7.3186    108.7279
  2121.5000      0.0000    767.4473      7.5690     -7.3188    111.5979
  2121.7500      0.0000    767.0054      7.5877     -7.3116    115.0603
  2122.0000      0.0000    765.8845      7.5432     -7.3287    117.7482
  2122.2500      0.0000    763.4070      7.4616     -7.3602    118.6012
  2122.5000      0.0000    758.9149      7.4499     -7.3647    117.9622
  2122.7500      0.0000    752.4318      7.5964     -7.3083    116.7206
  2123.0000      0.0000    745.0756      7.9262     -7.1853    114.1618
  2123.2500      0.0000    738.5425      8.4121     -7.0130    107.2496
  2123.5000      0.0000    734.0176      8.9824     -6.8231     92.8414
  2123.7500      0.0000    731.6303      9.5426     -6.6479     71.1086
  2124.0000      0.0000    730.8456     10.0164     -6.5076     46.6238
  2124.2500      0.0000    731.0972     10.3694     -6.4073     25.5309
  2124.5000      0.0000    732.0461     10.6006     -6.3435     11.4692
  2124.7500      0.0000    733.5714     10.7277     -6.3090      4.1727
  2125.0000      0.0000    735.8202     10.7808     -6.2947      1.2177
  2125.2500      0.0000    739.2631     10.8023     -6.2889      0.2824
  2125.5000      0.0000    744.3706     10.8467     -6.2771      0.0513
  2125.7500      0.0000    750.8462     10.9636     -6.2460      0.0063
  2126.0000      0.0000    757.1068     11.1586     -6.1950      0.0000
  2126.2500      0.0000    760.8898     11.3657     -6.1417   -999.2500
  2126.5000      0.0000    760.9499     11.4738     -6.1143   -999.2500
  2126.7500      0.0000    758.6069     11.3948     -6.1343   -999.2500
  2127.0000      0.0000    757.6263     11.1157     -6.2061   -999.2500
  2127.2500      0.0000    761.9597     10.6890     -6.3194   -999.2500
  2127.5000      0.0000    772.6982     10.1826     -6.4600   -999.2500
  2127.7500      0.0000    786.6397      9.6520     -6.6149   -999.2500
  2128.0000      0.0000    797.2443      9.1461     -6.7708   -999.2500
  2128.2500      0.0000    796.2924      8.6947     -6.9173   -999.2500
  2128.5000      0.0000    773.6785      8.2600     -7.0658   -999.2500
  2128.7500      0.0000    716.5836      7.7182     -7.2623   -999.2500
  2129.0000      0.0000    614.3355      6.9231     -7.5770   -999.2500
  2129.2500      0.0000    470.8130      5.8337     -8.0728   -999.2500
  2129.5000      0.0000    311.8732      4.6003     -8.7605   -999.2500
  2129.7500      0.0000    173.6357      3.4936     -9.5572   -999.2500
  2130.0000      0.0000     79.5463      2.7175    -10.2846   -999.2500
  2130.2500      0.0000     29.5284      2.2941    -10.7750   -999.2500
  2130.5000      0.0000      8.7832      2.1146    -11.0108   -999.2500
  2130.7500      0.0000      2.0742      2.0556    -11.0928   -999.2500
  2131.0000      0.0000      0.3829      2.0405    -11.1141   -999.2500
  2131.2500      0.0000      0.0506      2.0375    -11.1184   -999.2500
  2131.5000      0.0000   -999.2500   -999.2500   -999.2500   -999.2500
  2131.7500      0.0000   -999.2500   -999.2500   -999.2500   -999.2500
  2132.0000      0.0000   -999.2500   -999.2500   -999.2500   -999.2500
  2132.2500      0.0000   -999.2500   -999.2500   -999.2500   -999.2500
  2132.5000      0.0000   -999.2500   -999.2500   -999.2500   -999.2500
  2132.7500      0.0000   -999.2500   -999.2500   -999.2500   -999.2500
  2133.0000      0.0000   -999.2500   -999.2500   -999.2500   -999.2500
  2133.2500      0.0000   -999.2500   -999.2500   -999.2500   -999.2500
  2133.5000      2.0000   -999.2500   -999.2500   -999.2500   -999.2500
  2133.7500      2.0000   -999.2500   -999.2500   -999.2500   -999.2500
  2134.0000      0.0000   -999.2500   -999.2500   -999.2500   -999.2500
  2134.2500      0.0000   -999.2500   -999.2500   -999.2500   -999.2500
  2134.5000      0.0000   -999.2500   -999.2500   -999.2500   -999.2500
  2134.7500      0.0000   -999.2500   -999.2500   -999.2500   -999.2500
  2135.0000      0.0000   -999.2500   -999.2500   -999.2500   -999.2500
  2135.2500      0.0000   -999.2500   -999.2500   -999.2500   -999.2500
  2135.5000      0.0000   -999.2500   -999.2500   -999.2500   -999.2500
  2135.7500      0.0000   -999.2500   -999.2500   -999.2500   -999.2500
  2136.0000      0.0000   -999.2500   -999.2500   -999.2500   -999.2500
  2136.2500      0.0000   -999.2500   -999.2500   -999.2500   -999.2500
  2136.5000      0.0000   -999.2500   -999.2500   -999.2500   -999.2500
  2136.7500      0.0000   -999.2500   -999.2500   -999.2500   -999.2500
  2137.0000   -999.2500   -999.2500   -999.2500   -999.2500   -999.2500
  2137.2500   -999.2500   -999.2500   -999.2500   -999.2500   -999.2500
  2137.5000   -999.2500   -999.2500   -999.2500   -999.2500   -999.2500
