~Version Information
VERS.                      2.0: CWLS Log ASCII Standard - VERSION 2.0
WRAP.                       NO: One line per depth step
~Well Information Block
STRT.FT               375.0000: 
STOP.FT              2637.0000: 
STEP.FT                 0.1000: 
NULL.                -999.2500: 
COMP.          Pioneer Natural Resources: COMPANY
WELL.            Cortina 23-25: WELL
FLD.           Purgatoire River: FIELD
LOC.           2344' FWL & 2526' FSL----: LOCATION
PROV.                 Colorado: PROVINCE
CNTY.               Las Animas: COUNTRY
SRVC.                Patterson: SERVICE COMPANY
DATE.          Thu Mar 24 07:44:45 2005: LOG DATE
UWI.           05 071 08340 00: UNIQUE WELL ID
~Curve Information Block
DEPT.FT            0 000 00 00: Depth
DCAL.in                       : CDL Caliper
DPOR.pu                       : CDL Density Porosity
NPOR.pu                       : Neutron Porosity
RHOB.g/cc                     : CDL Bulk Density
RHOC.g/cc                     : CDL Density Correction
GR.GAPI                       : Gamma Ray
~Parameter Information Block
~A  Depth       DCAL        DPOR        NPOR        RHOB        RHOC         GR     
# ...
  1123.8000      8.0004      0.7242     26.4446      2.6381      0.0411    108.1837
  1123.9000      8.0004      0.8315     26.1196      2.6363      0.0370    107.8430
  1124.0000      7.9972      1.6101     25.9357      2.6234      0.0279    113.3954
  1124.1000      7.9972      2.7053     26.0742      2.6054      0.0329    118.3758
  1124.2000      7.9972      3.7452     26.3371      2.5882      0.0171    118.7842
  1124.3000      7.9949      4.3109     26.4509      2.5789     -0.0068    118.9645
  1124.4000      7.9949      4.4467     26.4581      2.5766      0.0274    118.1457
  1124.5000      7.9947      4.3951     26.6524      2.5775     -0.0015    111.5428
  1124.6000      7.9947      4.2548     27.0116      2.5798      0.0249    104.7003
  1124.7000      7.9947      4.2897     27.0053      2.5792      0.0225    103.7962
  1124.8000      7.9967      4.1261     26.5036      2.5819     -0.0105    107.3713
  1124.9000      7.9967      3.2898     25.9673      2.5957      0.0613    113.0100
  1125.0000      7.9987      2.1090     25.7246      2.6152      0.0003    117.8036
  1125.1000      7.9987      1.3134     25.7313      2.6283      0.0351    116.7102
  1125.2000      7.9987      1.7861     25.8583      2.6205      0.0511    109.4873
  1125.3000      7.9999      3.1265     25.9305      2.5984     -0.0017    103.8329
  1125.4000      7.9999      3.7776     25.8825      2.5877     -0.0087    102.1251
  1125.5000      8.0025      3.2763     25.7960      2.5959      0.0371    101.9325
  1125.6000      8.0025      2.2489     25.7213      2.6129      0.0200    106.4113
  1125.7000      8.0025      1.3149     25.7296      2.6283      0.0448    114.8753
  1125.8000      8.0025      1.1825     25.8470      2.6305      0.0714    118.3548
  1125.9000      8.0025      1.8414     26.1907      2.6196      0.0061    113.4934
  1126.0000      7.9985      2.0849     26.6532      2.6156     -0.0024    106.4048
  1126.1000      7.9985      1.4899     26.7124      2.6254      0.0360    100.1093
  1126.2000      7.9985      0.9065     26.4205      2.6350      0.0261     93.9556
  1126.3000      7.9962      0.8416     26.4789      2.6361      0.0530     90.2978
  1126.4000      7.9962      1.0879     26.9309      2.6321      0.0423     92.6761
  1126.5000      7.9963      1.1695     27.1241      2.6307      0.0450     98.0463
  1126.6000      7.9963      1.2720     26.6348      2.6290      0.0826     98.8829
  1126.7000      7.9963      1.8787     25.7221      2.6190      0.0256     94.7303
  1126.8000      7.9974      2.8472     24.9892      2.6030      0.0501     89.8036
  1126.9000      7.9974      3.8347     24.5003      2.5867     -0.0194     82.6989
  1127.0000      7.9998      4.7739     23.7849      2.5712     -0.0291     74.0858
  1127.1000      7.9998      5.9596     22.7725      2.5517     -0.0277     70.6115
  1127.2000      7.9998      7.2941     21.8832      2.5296     -0.0270     74.9472
  1127.3000      8.0015      8.2797     21.1777      2.5134     -0.0052     84.0302
  1127.4000      8.0015      8.8485     20.5755      2.5040      0.0313     90.9348
  1127.5000      8.0001      9.0053     20.3598      2.5014      0.0077     89.2365
  1127.6000      8.0001      8.4828     20.5274      2.5100      0.0051     82.3057
  1127.7000      8.0001      7.4142     20.6474      2.5277      0.0038     78.2344
  1127.8000      7.9990      6.3539     20.6042      2.5452      0.0567     78.7683
  1127.9000      7.9990      5.6319     20.6286      2.5571      0.0502     81.2755
  1128.0000      8.0016      5.0164     20.7786      2.5672      0.0617     83.5393
  1128.1000      8.0016      4.3499     20.9783      2.5782      0.0521     85.2861
  1128.2000      8.0016      4.0783     21.4537      2.5827      0.0756     88.8090
  1128.3000      8.0038      4.3994     22.1371      2.5774      0.0421     92.3721
  1128.4000      8.0038      4.7891     22.5928      2.5710      0.0536     91.9422
  1128.5000      8.0031      4.9550     22.5893      2.5682      0.0391     90.4266
  1128.6000      8.0031      4.7951     22.1067      2.5709      0.0224     89.9413
  1128.7000      8.0031      4.8100     21.6174      2.5706      0.0664     86.8769
  1128.8000      8.0014      5.8300     21.5787      2.5538      0.0035     83.9237
  1128.9000      8.0014      7.4747     21.6332      2.5267      0.0126     85.3156
  1129.0000      8.0006      8.9727     21.1819      2.5020      0.0146     86.5744
  1129.1000      8.0006      9.9834     20.4142      2.4853     -0.0182     84.3823
  1129.2000      8.0006     10.8001     19.8892      2.4718     -0.0085     80.2694
  1129.3000      8.0001     12.0646     19.5711      2.4509     -0.0264     75.5378
  1129.4000      8.0001     13.3573     18.8943      2.4296     -0.0935     70.5755
  1129.5000      7.9996     13.8107     17.7899      2.4221     -0.1075     67.6563
  1129.6000      7.9996     13.7234     16.8774      2.4236     -0.0314     68.3717
  1129.7000      7.9996     13.9442     16.4378      2.4199      0.0234     68.9853
  1129.8000      8.0001     14.4857     16.1374      2.4110     -0.0095     66.7807
  1129.9000      8.0001     14.8525     15.7329      2.4049      0.0353     63.3694
  1130.0000      8.0020     15.2664     15.4858      2.3981      0.0019     60.3506
  1130.1000      8.0020     16.3262     15.4718      2.3806      0.0671     59.1533
  1130.2000      8.0020     17.5821     15.3759      2.3599     -0.0225     60.3092
  1130.3000      8.0028     17.5829     15.2218      2.3599     -0.0281     62.2504
  1130.4000      8.0028     16.0309     15.2745      2.3855      0.0529     63.5205
  1130.5000      8.0015     14.1809     15.3979      2.4160      0.0805     63.9426
  1130.6000      8.0015     13.0231     15.4298      2.4351      0.0908     63.4638
  1130.7000      8.0015     12.3624     15.5105      2.4460      0.0622     62.1730
  1130.8000      8.0008     11.6895     15.5606      2.4571      0.0704     61.3568
  1130.9000      8.0008     10.6214     15.4868      2.4747      0.0612     60.3350
  1131.0000      8.0023      9.3810     15.3998      2.4952      0.1597     57.7412
  1131.1000      8.0023      9.0800     15.2930      2.5002      0.1221     55.7457
  1131.2000      8.0023      9.8220     15.2314      2.4879      0.0598     57.3672
  1131.3000      8.0036     10.5606     15.2140      2.4758      0.0730     59.4426
  1131.4000      8.0036     10.6977     15.1285      2.4735      0.0465     58.4459
  1131.5000      8.0033     10.2113     15.1635      2.4815      0.0431     57.3985
  1131.6000      8.0033      9.3680     15.6185      2.4954      0.0730     57.2385
  1131.7000      8.0033      8.4131     16.3834      2.5112      0.0367     58.0495
  1131.8000      8.0014      7.3815     17.2022      2.5282      0.0669     60.7441
  1131.9000      8.0014      6.5776     18.2008      2.5415      0.0604     62.5667
  1132.0000      8.0011      6.2038     19.6244      2.5476      0.0672     63.8342
  1132.1000      8.0011      6.2034     21.0518      2.5476      0.0581     67.1026
  1132.2000      8.0011      6.6631     21.8686      2.5401      0.0562     70.8262
  1132.3000      8.0027      7.9961     22.3979      2.5181      0.0759     72.5434
  1132.4000      8.0027      9.9516     23.3230      2.4858      0.0159     73.0111
  1132.5000      8.0040     11.2346     24.5623      2.4646     -0.0287     74.2422
  1132.6000      8.0040     11.9173     25.6657      2.4534      0.0349     77.3799
  1132.7000      8.0040     13.5881     26.3636      2.4258      0.0068     82.8509
  1132.8000      8.0055     16.4953     26.5071      2.3778     -0.0448     89.0830
  1132.9000      8.0055     19.4253     26.1268      2.3295     -0.0404     95.8605
  1133.0000      8.0064     21.6087     25.4863      2.2935     -0.0077    104.2138
  1133.1000      8.0064     23.3993     24.8467      2.2639     -0.0055    111.1795
  1133.2000      8.0064     25.8183     24.0467      2.2240     -0.0053    114.2516
  1133.3000      8.0059     29.7154     22.9659      2.1597     -0.0066    114.6648
