~Version Information
VERS.                      2.0: CWLS Log ASCII Standard - VERSION 2.0
WRAP.                       NO: One line per depth step
~Well Information Block
STRT.FT               906.0000: 
STOP.FT              1960.5000: 
STEP.FT                 0.2500: 
NULL.                -999.2500: 
COMP.          Petrogulf Corporation: COMPANY
WELL.            Torcom 17-33R: WELL
FLD.           Purgatorie River: FIELD
LOC.           1483' FSL & 1804' FEL: LOCATION
PROV.                 Colorado: PROVINCE
CNTY.               Las Animas: COUNTRY
SRVC.                Patterson: SERVICE COMPANY
DATE.          Thu Aug 18 08:33:01 2005: LOG DATE
UWI.                071 08069 : UNIQUE WELL ID
~Curve Information Block
DEPT.FT            0 000 00 00: Depth
SP.mV                         : DIL Spontaneous Potential
RILD.Ohm-m                    : DIL Deep Resistivity
RILM.Ohm-m                    : DIL Medium Resistivity
RLL3.Ohm-m                    : DIL Shallow Resistivity
GR.GAPI                       : Gamma Ray
~Parameter Information Block
~A  Depth        SP         RILD        RILM        RLL3         GR     
# ...
  1382.0000     99.1559     18.6318     29.4067     63.6254    134.3541
  1382.2500    100.5269     17.0248     22.9846     36.9847    150.2725
  1382.5000    101.2965     15.7372     18.5401     23.3162    171.2856
  1382.7500    102.0359     14.2509     15.8149     17.4985    162.3022
  1383.0000    103.0026     13.2272     14.1811     15.7318    160.9006
  1383.2500    103.7739     12.2657     13.0352     15.0498    161.2140
  1383.5000    104.1998     11.3778     12.1930     15.8911    159.0324
  1383.7500    104.8311     10.5402     11.4631     16.2513    163.6979
  1384.0000    105.8677      9.7999     10.8153     16.6682    157.3698
  1384.2500    105.9568      9.2791     10.2019     16.7800    162.4374
  1384.5000    105.9028      8.7990      9.5674     16.1721    170.8825
  1384.7500    105.7035      8.3530      9.0846     14.7259    161.5341
  1385.0000    104.6987      8.0414      8.7873     12.7918    155.8474
  1385.2500    103.5068      7.8322      8.5509     11.9865    158.6458
  1385.5000    102.3676      7.7151      8.3711     12.6707    159.6780
  1385.7500    100.9218      7.5097      8.4049     12.5516    162.2256
  1386.0000     99.6929      7.4410      8.2884     12.6190    159.0299
  1386.2500     98.1454      7.3445      8.1952     12.1458    153.0950
  1386.5000     96.6734      7.2754      8.1141     11.4819    146.8715
  1386.7500     95.5180      7.2491      8.0061     11.6774    147.2806
  1387.0000     94.8863      7.2079      7.9439     11.3628    158.7106
  1387.2500     93.4942      7.2328      7.9611     11.8612    162.0910
  1387.5000     92.3592      7.2811      8.0635     11.8978    149.3586
  1387.7500     91.2722      7.3097      8.1150     11.9579    147.4971
  1388.0000     89.6364      7.4004      8.2314     12.8602    154.6629
  1388.2500     88.9617      7.4125      8.2424     12.7702    153.9593
  1388.5000     87.6672      7.5103      8.3507     12.5478    145.7403
  1388.7500     86.7136      7.5611      8.4740     12.6488    149.4456
  1389.0000     86.0123      7.5995      8.5742     12.4784    149.4482
  1389.2500     85.1221      7.7154      8.6798     12.4263    153.8554
  1389.5000     84.4536      7.7164      8.8099     12.5163    144.1057
  1389.7500     83.5559      7.8022      8.9423     12.9006    147.1436
  1390.0000     82.3590      7.7965      9.0964     12.5708    144.7626
  1390.2500     81.1870      7.8924      9.0826     14.5604    137.5995
  1390.5000     79.9547      8.0623      9.0555     15.7981    143.6359
  1390.7500     78.9607      8.2861      9.0028     15.1069    154.0713
  1391.0000     77.8617      8.5506      8.9079     13.4118    156.5146
  1391.2500     76.1824      8.8153      8.8489     12.8301    156.6174
  1391.5000     75.1855      9.0975      8.9344     12.7430    138.1421
  1391.7500     74.0576      9.4763      9.4112     12.4637    140.9142
  1392.0000     72.3784      9.8944      9.9495     14.1949    145.9860
  1392.2500     70.8451     10.1861     10.6677     16.0706    146.0354
  1392.5000     69.5506     10.5819     11.4412     17.4401    144.6155
  1392.7500     68.8530     10.8697     12.3799     19.1637    135.2023
  1393.0000     68.7849     11.1257     13.3732     20.7126    112.2200
  1393.2500     68.7752     11.3826     14.4751     22.8104    102.5420
  1393.5000     69.3971     11.5782     15.7039     27.0716    111.0873
  1393.7500     70.3068     11.8779     16.8217     32.2996    109.4411
  1394.0000     72.1065     12.1928     17.6550     38.2264    101.7662
  1394.2500     74.2494     12.3325     18.1138     48.2377     99.6808
  1394.5000     76.8449     12.6076     17.6038     54.5956     99.9258
  1394.7500     79.5660     12.7309     17.1004     38.6116    106.6336
  1395.0000     81.3669     12.9300     16.3184     24.5399    114.6826
  1395.2500     82.5492     12.7889     15.4622     19.4768    120.0857
  1395.5000     82.8985     12.7234     14.6604     18.8425    126.8116
  1395.7500     83.1882     12.6427     14.2678     18.0783    141.6131
  1396.0000     84.3031     12.3372     14.0140     19.2704    151.0006
  1396.2500     84.5270     11.9363     13.6064     19.3787    149.6407
  1396.5000     84.3121     11.5347     13.0800     18.3396    152.8733
  1396.7500     84.1231     11.1964     12.6392     17.4805    147.5618
  1397.0000     83.9024     10.9393     12.0256     16.3169    154.4422
  1397.2500     83.7775     10.8125     11.5551     15.5531    151.5242
  1397.5000     83.6323     10.9297     11.2856     15.3778    166.1093
  1397.7500     83.7744     11.2473     11.1470     14.8689    176.4023
  1398.0000     83.3609     11.5139     11.3181     14.3278    157.0329
  1398.2500     82.5242     11.9298     11.6371     14.5503    153.4013
  1398.5000     81.7404     12.4083     12.2639     16.0601    145.8405
  1398.7500     80.7219     13.0133     13.1453     18.8842    132.5150
  1399.0000     79.0739     13.3775     14.4344     24.5109    134.6278
  1399.2500     77.7008     14.0058     15.8795     30.7650    127.8057
  1399.5000     76.5303     14.8463     16.9763     35.0022    114.2005
  1399.7500     74.9997     15.7374     18.6165     37.5158    107.7285
  1400.0000     73.0141     17.0067     20.4842     39.0674    106.3963
  1400.2500     71.2973     18.4186     22.2633     39.7360    101.6652
  1400.5000     69.7865     19.6720     24.6070     39.6272     95.0972
  1400.7500     67.7352     21.2910     27.4640     42.4424     92.5026
  1401.0000     65.5182     22.5869     30.1689     51.3330     91.7416
  1401.2500     64.0989     24.1626     33.2685     60.4180     91.1503
  1401.5000     63.4441     24.9854     35.3547     65.7812     97.1838
  1401.7500     63.1728     25.2642     37.1712     71.2372     97.0361
  1402.0000     62.9242     24.8451     36.6783     59.1618    101.4933
  1402.2500     62.4394     24.4702     34.9830     41.9573    113.7998
  1402.5000     61.8222     24.0019     32.7312     38.1648    116.0220
  1402.7500     62.3623     23.6458     30.0853     40.7334    121.0868
  1403.0000     62.7922     23.1619     28.3482     36.4815    125.9193
  1403.2500     61.9939     22.2009     25.6547     28.0721    132.3745
  1403.5000     60.6792     21.4385     23.2332     22.7077    143.4243
  1403.7500     59.0374     21.4718     21.3626     21.1903    141.1201
  1404.0000     57.8737     20.9412     20.2465     20.9590    141.3659
  1404.2500     55.8763     20.6129     19.7731     20.3228    137.3718
  1404.5000     54.5172     19.9965     19.6276     19.5789    125.6315
  1404.7500     55.2173     19.5336     19.2775     20.3864    120.4719
  1405.0000     55.1429     19.4185     19.6785     23.4608    114.3250
  1405.2500     55.9434     18.9734     20.0284     27.2465    120.8468
  1405.5000     55.7547     19.0832     19.6547     28.9737    125.9883
  1405.7500     55.5950     19.3264     19.6776     27.8480    129.1133
  1406.0000     55.2702     19.6423     19.6025     25.6902    132.0990
  1406.2500     55.2388     20.1829     19.7802     22.9835    130.5772
  1406.5000     55.2173     20.8381     20.2507     22.3164    117.0745
  1406.7500     55.3904     21.8084     21.3067     24.1678    105.9397
  1407.0000     54.9618     22.3690     22.7240     27.2526    102.7977
  1407.2500     55.1306     23.1974     24.4632     32.9157    109.5316
  1407.5000     54.2943     24.6090     25.6448     39.4983    112.2590
  1407.7500     53.4677     25.1125     26.2018     39.8558    104.2268
  1408.0000     52.9700     25.9312     26.5375     34.1364    104.1501
  1408.2500     54.4657     26.9065     28.0723     30.8271    101.8916
  1408.5000     54.0961     28.3263     29.1331     33.7163     95.1824
  1408.7500     52.7425     29.6339     30.2107     41.6116     87.6808
  1409.0000     50.9959     31.2732     31.7514     47.0846     96.4116
  1409.2500     49.2367     32.2416     33.7372     46.5452     98.3000
  1409.5000     48.0062     33.5174     34.4666     40.5603    102.5217
  1409.7500     47.2240     34.5029     35.3135     37.4744     92.2638
