~Version Information
VERS.                      2.0: CWLS Log ASCII Standard - VERSION 2.0
WRAP.                       NO: One line per depth step
~Well Information Block
STRT.FT               802.1000: 
STOP.FT              1915.0000: 
STEP.FT                 0.1000: 
NULL.                -999.2500: 
COMP.          Petrogulf Corporation: COMPANY
WELL.             State 16-32R: WELL
FLD.           Purgatorie River: FIELD
LOC.           1849' FNL & 1677' FEL: LOCATION
CNTY.               Las Animas: COUNTY
SRVC.                         : SERVICE COMPANY
DATE.          Thu May 13 18:17:16 2004: LOG DATE
UWI.           05 071 08033 00: UNIQUE WELL ID
STAT.                 Colorado: STATE
~Curve Information Block
DEPT.FT            0 000 00 00: Depth
DCAL.in                       : CDL Caliper
RHOB.g/cc                     : CDL Bulk Density
RHOC.g/cc                     : CDL Density Correction
DPOR.pu                       : CDL Density Porosity
GR.GAPI                       : Gamma Ray
NPOR.pu                       : Neutron Porosity
~Parameter Information Block
~A  Depth       DCAL        RHOB        RHOC        DPOR         GR         NPOR    
# ...
  1752.5000      7.8492      2.5331      0.0668      7.0855     46.3433     20.8352
  1752.6000      7.8492      2.5421      0.0617      6.5373     49.9055     20.4810
  1752.7000      7.8492      2.5607     -0.0076      5.4105     44.6823     20.2106
  1752.8000      7.8620      2.5878      0.0886      3.7683     35.8360     19.9067
  1752.9000      7.8620      2.6122     -0.0021      2.2936     33.8834     19.8637
  1753.0000      7.8724      2.6200      0.1650      1.8212     47.0844     20.0377
  1753.1000      7.8724      2.5976      0.0929      3.1753     68.0299     20.1505
  1753.2000      7.8724      2.5718      0.0916      4.7394     79.1544     20.3146
  1753.3000      7.8584      2.5763      0.0496      4.4640     82.7023     20.6292
  1753.4000      7.8584      2.5943      0.1216      3.3781     94.6393     20.7628
  1753.5000      7.8503      2.5843      0.0761      3.9801    113.8794     20.7718
  1753.6000      7.8503      2.5530      0.0093      5.8776    128.0504     21.1771
  1753.7000      7.8503      2.5379      0.0623      6.7922    134.5620     21.9187
  1753.8000      7.8430      2.5399      0.1085      6.6749    135.4099     22.6237
  1753.9000      7.8430      2.5515      0.0247      5.9674    133.6337     23.3540
  1754.0000      7.8579      2.5838      0.0731      4.0097    132.7230     24.1558
  1754.1000      7.8579      2.6220      0.2527      1.6960    133.7085     25.0466
  1754.2000      7.8579      2.6305      0.2889      1.1845    135.2970     26.1466
  1754.3000      7.8467      2.6042      0.1980      2.7767    132.2108     27.2923
  1754.4000      7.8467      2.5636      0.1459      5.2368    121.7499     28.2066
  1754.5000      7.7917      2.5222      0.1215      7.7477    113.4464     28.4365
  1754.6000      7.7917      2.4898      0.0490      9.7115    115.5883     27.9172
  1754.7000      7.7917      2.4788      0.0560     10.3732    120.6026     27.5724
  1754.8000      7.8498      2.4863      0.0887      9.9232    122.4890     27.9488
  1754.9000      7.8498      2.4968      0.0418      9.2875    125.1398     28.6743
  1755.0000      7.8733      2.5007      0.0694      9.0476    126.9726     29.2511
  1755.1000      7.8733      2.4974      0.1068      9.2489    125.5956     29.6510
  1755.2000      7.8733      2.4992      0.1186      9.1422    119.8259     29.8389
  1755.3000      7.9023      2.5119      0.1228      8.3690    110.7803     29.5386
  1755.4000      7.9023      2.5277      0.0854      7.4105    111.1314     29.0449
  1755.5000      7.8983      2.5464      0.1059      6.2778    127.4781     28.7914
  1755.6000      7.8983      2.5708      0.1739      4.7990    146.8278     28.7841
  1755.7000      7.8983      2.5926      0.1476      3.4811    154.6707     29.0235
  1755.8000      7.9078      2.5920      0.2358      3.5165    149.7240     29.3668
  1755.9000      7.9078      2.5520      0.2365      5.9414    139.4403     29.5574
  1756.0000      7.9905      2.4991      0.0357      9.1482    133.8196     29.7308
  1756.1000      7.9905      2.4864     -0.0012      9.9153    131.5216     30.1091
  1756.2000      7.9905      2.5189      0.0608      7.9449    120.5232     30.3806
  1756.3000      8.0177      2.5636      0.1102      5.2387    108.8613     30.1695
  1756.4000      8.0177      2.5957      0.1052      3.2919    117.0846     29.6321
  1756.5000      7.8848      2.5959      0.0741      3.2762    138.1704     29.2386
  1756.6000      7.8848      2.5612      0.0941      5.3812    151.6397     29.1916
  1756.7000      7.8848      2.5214      0.1127      7.7933    154.0590     29.2312
  1756.8000      7.8763      2.5067      0.1603      8.6863    152.9156     29.1968
  1756.9000      7.8763      2.5085      0.1343      8.5771    149.9624     29.2535
  1757.0000      7.8828      2.4944      0.0857      9.4309    140.7038     29.3117
  1757.1000      7.8828      2.4530      0.0637     11.9383    129.0893     29.1222
  1757.2000      7.8828      2.4155     -0.0172     14.2103    124.1514     28.7189
  1757.3000      7.8997      2.4091     -0.0123     14.5999    130.6633     28.4831
  1757.4000      7.8997      2.4203      0.0108     13.9191    145.4251     28.5729
  1757.5000      7.9013      2.4324     -0.1077     13.1871    150.4358     28.6458
  1757.6000      7.9013      2.4434      0.0441     12.5239    133.9220     28.4748
  1757.7000      7.9013      2.4511      0.0381     12.0537    110.6590     28.3027
  1757.8000      7.9094      2.4677      0.0076     11.0485     99.6185     28.4723
  1757.9000      7.9094      2.4992      0.0975      9.1411    102.7901     28.9840
  1758.0000      7.8950      2.5385      0.1556      6.7564    109.1360     29.4243
  1758.1000      7.8950      2.5897      0.1388      3.6538    102.5174     29.1962
  1758.2000      7.8950      2.6492      0.1803      0.0485     78.9559     28.1731
  1758.3000      7.8570      2.6975      0.2065     -2.8788     55.0065     27.0291
  1758.4000      7.8570      2.7217      0.2104     -4.3426     43.0945     26.1956
  1758.5000      7.8511      2.7186      0.2673     -4.1589     39.2080     25.5041
  1758.6000      7.8511      2.6933      0.1784     -2.6258     34.8443     24.8890
  1758.7000      7.8511      2.6512      0.1138     -0.0700     30.5319     24.2233
  1758.8000      7.8325      2.5912      0.0791      3.5616     35.4324     23.3089
  1758.9000      7.8325      2.5225      0.0002      7.7289     47.9051     22.2392
  1759.0000      7.7580      2.4694     -0.0115     10.9462     55.5488     21.1745
  1759.1000      7.7580      2.4568     -0.0409     11.7095     56.6741     20.1697
  1759.2000      7.7580      2.4878      0.0991      9.8322     55.9348     19.2630
  1759.3000      7.8482      2.5228      0.0464      7.7084     53.8533     18.6444
  1759.4000      7.8482      2.5215      0.1047      7.7899     52.4703     18.4318
  1759.5000      7.8925      2.4892      0.0745      9.7478     55.9428     18.3500
  1759.6000      7.8925      2.4582      0.0092     11.6242     59.8390     18.2247
  1759.7000      7.8925      2.4401      0.0337     12.7203     57.5440     17.8661
  1759.8000      7.8956      2.4294     -0.0159     13.3700     50.4328     17.2657
  1759.9000      7.8956      2.4363      0.0250     12.9542     43.8810     17.1716
  1760.0000      7.9035      2.4570      0.0627     11.7000     41.3639     17.7941
  1760.1000      7.9035      2.4552      0.0914     11.8073     43.8378     18.3657
  1760.2000      7.9035      2.4195      0.0688     13.9690     50.0188     18.6365
  1760.3000      7.8715      2.3783      0.0161     16.4655     55.4133     18.6925
  1760.4000      7.8715      2.3471      0.0600     18.3555     53.9135     18.2651
  1760.5000      7.8679      2.3199      0.0380     20.0068     46.8467     17.3319
  1760.6000      7.8679      2.3129     -0.0434     20.4281     43.4225     16.4127
  1760.7000      7.8679      2.3501     -0.0157     18.1786     42.3447     15.8000
  1760.8000      7.8813      2.4094      0.0020     14.5819     34.0585     15.3991
  1760.9000      7.8813      2.4329      0.0629     13.1588     23.2614     15.1438
  1761.0000      7.8841      2.3914      0.0271     15.6750     18.4594     14.8482
  1761.1000      7.8841      2.3242      0.0042     19.7480     19.5901     14.3307
  1761.2000      7.8841      2.2845     -0.0084     22.1531     24.3593     13.6331
  1761.3000      7.9077      2.2836      0.0222     22.2091     28.0267     13.0122
  1761.4000      7.9077      2.3021      0.0499     21.0820     26.9423     12.6158
  1761.5000      7.9278      2.3155      0.0897     20.2704     24.3254     12.3990
  1761.6000      7.9278      2.3169      0.0569     20.1900     24.3464     12.3205
  1761.7000      7.9278      2.3259      0.0400     19.6398     27.1592     12.0291
  1761.8000      7.9395      2.3550      0.0261     17.8806     29.1813     11.4194
  1761.9000      7.9395      2.3747      0.1024     16.6834     27.7225     11.0272
  1762.0000      7.9366      2.3532      0.0701     17.9900     24.9434     11.0995
