~Version Information
VERS.                      2.0: CWLS Log ASCII Standard - VERSION 2.0
WRAP.                       NO: One line per depth step
~Well Information Block
STRT.FT               -11.2500: 
STOP.FT              1767.0000: 
STEP.FT                 0.2500: 
NULL.                -999.2500: 
COMP.          Petrogulf Corporation: COMPANY
WELL.             McLeod 9-42R: WELL
FLD.           Purgatoire River: FIELD
LOC.           1748' FNL & 372' FEL--: LOCATION
PROV.                 Colorado: PROVINCE
CNTY.               Las Animas: COUNTRY
SRVC.                         : SERVICE COMPANY
DATE.          Thu Sep 29 13:28:07 2005: LOG DATE
UWI.                          : UNIQUE WELL ID
~Curve Information Block
DEPT.FT            0 000 00 00: Depth
GR.GAPI                       : Gamma Ray
CCL.                          : Casing Collar Locator
AMP3.mV                       : CBL 3' Amplitude
AMP5.mV                       : CBL 5' Amplitude
~Parameter Information Block
~A  Depth        GR         CCL         AMP3        AMP5    
   -11.2500   -999.2500   -999.2500   -999.2500     -0.0293
   -11.0000   -999.2500   -999.2500   -999.2500     -0.0499
   -10.7500   -999.2500   -999.2500   -999.2500     -0.0588
   -10.5000   -999.2500   -999.2500     -0.3934     -0.0531
   -10.2500   -999.2500   -999.2500     -0.4104     -0.0386
   -10.0000   -999.2500   -999.2500     -0.4368     -0.0233
    -9.7500   -999.2500   -999.2500     -0.4684     -0.0091
    -9.5000   -999.2500   -999.2500     -0.4969      0.0079
    -9.2500   -999.2500   -999.2500     -0.5126      0.0302
    -9.0000   -999.2500   -999.2500     -0.5059      0.0540
    -8.7500   -999.2500   -999.2500     -0.4708      0.0744
    -8.5000   -999.2500   -999.2500     -0.4111      0.0901
    -8.2500   -999.2500   -999.2500     -0.3417      0.1014
    -8.0000   -999.2500   -999.2500     -0.2852      0.1034
    -7.7500   -999.2500   -999.2500     -0.2597      0.0876
    -7.5000   -999.2500   -999.2500     -0.2681      0.0520
    -7.2500   -999.2500   -999.2500     -0.2983      0.0072
    -7.0000   -999.2500   -999.2500     -0.3356     -0.0280
    -6.7500   -999.2500   -999.2500     -0.3736     -0.0402
    -6.5000   -999.2500   -999.2500     -0.4139     -0.0292
    -6.2500   -999.2500   -999.2500     -0.4545     -0.0044
    -6.0000   -999.2500   -999.2500     -0.4847      0.0243
    -5.7500   -999.2500   -999.2500     -0.4929      0.0513
    -5.5000   -999.2500   -999.2500     -0.4815      0.0751
    -5.2500   -999.2500   -999.2500     -0.4659      0.0947
    -5.0000   -999.2500   -999.2500     -0.4561      0.1081
    -4.7500   -999.2500      0.0000     -0.4417      0.1143
    -4.5000   -999.2500      0.0000     -0.4027      0.1174
    -4.2500   -999.2500      0.0000     -0.3382      0.1242
    -4.0000   -999.2500      0.0000     -0.2788      0.1360
    -3.7500   -999.2500      0.0000     -0.2614      0.1455
    -3.5000   -999.2500      0.0000     -0.2942      0.1447
    -3.2500   -999.2500     -2.0000     -0.3533      0.1338
    -3.0000   -999.2500     -2.0000     -0.4107      0.1211
    -2.7500   -999.2500      0.0000     -0.4561      0.1150
    -2.5000   -999.2500      0.0000     -0.4923      0.1181
    -2.2500   -999.2500      0.0000     -0.5190      0.1269
    -2.0000   -999.2500      0.0000     -0.5279      0.1352
    -1.7500   -999.2500      0.0000     -0.5120      0.1388
    -1.5000   -999.2500      0.0000     -0.4778      0.1372
    -1.2500   -999.2500      0.0000     -0.4436      0.1319
    -1.0000   -999.2500     -1.0129     -0.4248      0.1233
    -0.7500   -999.2500      0.0000     -0.4232      0.1098
    -0.5000   -999.2500      0.0000     -0.4338      0.0908
    -0.2500   -999.2500      0.0000     -0.4588      0.0695
     0.0000     63.8894      0.0000     -0.5838      0.0393
     0.2500     69.2623      0.0000     -0.6693      0.0348
     0.5000     73.9409      0.0000     -0.7332      0.0375
     0.7500     77.5001      0.0000     -0.7522      0.0514
     1.0000     80.1148      0.0000     -0.7271      0.0809
     1.2500     82.3590      0.0000     -0.6764      0.1216
     1.5000     84.5925      0.0000     -0.6185      0.1587
     1.7500     86.7369      0.0000     -0.5626      0.1775
     2.0000     88.4798      0.0000     -0.5111      0.1758
     2.2500     89.5859      0.0000     -0.4646      0.1629
     2.5000     90.0550      0.0000     -0.4221      0.1495
     2.7500     89.9155      0.0000     -0.3681      0.1391
     3.0000     88.9638      0.0000     -0.2504      0.1297
     3.2500     87.0439      0.0000      0.0435      0.1208
     3.5000     84.7040      0.0000      0.6830      0.1174
     3.7500     83.2223      0.0000      1.8180      0.1315
     4.0000     83.6033      0.0000      3.4253      0.1818
     4.2500     85.5158      0.0000      5.2202      0.2883
     4.5000     87.3766      0.0000      6.7946      0.4566
     4.7500     87.6037      0.0000      7.8884      0.6631
     5.0000     85.7690      0.0000      8.5119      0.8598
     5.2500     82.6504      0.0000      8.8310      1.0027
     5.5000     79.4674      0.0000      8.9999      1.0786
     5.7500     77.1034      0.0000      9.1013      1.1060
     6.0000     75.6998      0.0000      9.1711      1.1135
     6.2500     74.7920      0.0000      9.2251      1.1212
     6.5000     73.9603      0.0000      9.2604      1.1384
     6.7500     73.2902      0.0000      9.2598      1.1685
     7.0000     73.0534      0.0000      9.2136      1.2091
     7.2500     73.0405      0.0000      9.1411      1.2496
     7.5000     72.4057      0.0000      9.0822      1.2757
     7.7500     70.3107      0.0000      9.0640      1.2785
     8.0000     66.7872      0.0000      9.0813      1.2611
     8.2500     62.8586      0.0000      9.1120      1.2369
     8.5000     59.8324      0.0000      9.1455      1.2208
     8.7500     58.6073      0.0000      9.1915      1.2202
     9.0000     59.3751      0.0000      9.2638      1.2325
     9.2500     61.5715      0.0000      9.3587      1.2502
     9.5000     64.1365      0.0000      9.4500      1.2659
     9.7500     66.1178      0.0000      9.5078      1.2744
    10.0000     67.1937      0.0000      9.5274      1.2733
    10.2500     67.7001      0.0000      9.5381      1.2624
    10.5000     68.1846      0.0000      9.5791      1.2426
    10.7500     68.8295      0.0000      9.6640      1.2173
    11.0000     69.2047      0.0000      9.7703      1.1943
    11.2500     68.6169      0.0000      9.8585      1.1842
    11.5000     66.7590      0.0000      9.8993      1.1933
    11.7500     63.9570      0.0000      9.8872      1.2205
    12.0000     60.7714      0.0000      9.8391      1.2576
    12.2500     57.5340      0.0000      9.7868      1.2920
    12.5000     54.3997      0.0000      9.7651      1.3097
    12.7500     51.7204      0.0000      9.7972      1.3021
    13.0000     50.1056      0.0000      9.8823      1.2728
    13.2500     49.9637      0.0000      9.9915      1.2370
    13.5000     51.0306      0.0000     10.0802      1.2131
    13.7500     52.3979      0.0000     10.1136      1.2107
    14.0000     53.0141      0.0000     10.0854      1.2269
    14.2500     52.3457      0.0000     10.0137      1.2499
    14.5000     50.8421      0.0000      9.9183      1.2667
    14.7500     49.7875      0.0000      9.8068      1.2703
    15.0000     50.4314      0.0000      9.6790      1.2626
    15.2500     53.0098      0.0000      9.5425      1.2523
    15.5000     56.5838      0.0000      9.4172      1.2475
    15.7500     59.8299      0.0000      9.3244      1.2496
    16.0000     61.9474      0.0000      9.2726      1.2525
    16.2500     62.9149      0.0000      9.2523      1.2489
    16.5000     63.1470      0.0000      9.2406      1.2355
    16.7500     63.0870      0.0000      9.2147      1.2136
    17.0000     63.0559      0.0000      9.1626      1.1872
    17.2500     63.2429      0.0000      9.0856      1.1623
    17.5000     63.6024      0.0000      8.9901      1.1444
    17.7500     63.8121      0.0000      8.8789      1.1361
    18.0000     63.6121      0.0000      8.7494      1.1336
    18.2500     63.2294      0.0000      8.6019      1.1266
    18.5000     63.1628      0.0000      8.4472      1.1023
    18.7500     63.3898      0.0000      8.3019      1.0560
    19.0000     63.0503      0.0000      8.1732      0.9973
    19.2500     61.2993      0.0000      8.0517      0.9456
    19.5000     58.5706      0.0000      7.9209      0.9162
    19.7500     56.7127      0.0000      7.7728      0.9101
    20.0000     57.5853      0.0000      7.6172      0.9147
    20.2500     61.4908      0.0000      7.4763      0.9143
    20.5000     67.0804      0.0000      7.3681      0.8995
    20.7500     72.6034      0.0000      7.2929      0.8697
    21.0000     76.9394      0.0000      7.2326      0.8311
    21.2500     79.6956      0.0000      7.1639      0.7937
    21.5000     81.0838      0.0000      7.0736      0.7677
    21.7500     81.8728      0.0000      6.9633      0.7558
    22.0000     82.8177      0.0000      6.8431      0.7492
