~Version Information
VERS.                      2.0: CWLS Log ASCII Standard - VERSION 2.0
WRAP.                       NO: One line per depth step
~Well Information Block
STRT.FT               506.1000: 
STOP.FT              2140.0000: 
STEP.FT                 0.1000: 
NULL.                -999.2500: 
COMP.          Petrogulf Corporation: COMPANY
WELL.            Montoya 1-44R: WELL
FLD.           Purgatorie River: FIELD
LOC.           658' FSL & 1052' FWL: LOCATION
CNTY.               Las Animas: COUNTY
SRVC.                         : SERVICE COMPANY
DATE.          Tue Nov 16 04:33:40 2004: LOG DATE
UWI.           05 071 08239 00: UNIQUE WELL ID
STAT.                 Colorado: STATE
~Curve Information Block
DEPT.FT            0 000 00 00: Depth
DCAL.in                       : CDL Caliper
RHOB.g/cc                     : CDL Bulk Density
RHOC.g/cc                     : CDL Density Correction
DPOR.pu                       : CDL Density Porosity
GR.GAPI                       : Gamma Ray
NPOR.pu                       : Neutron Porosity
~Parameter Information Block
~A  Depth       DCAL        RHOB        RHOC        DPOR         GR         NPOR    
# ...
   784.5000      8.1174      2.4289      0.0687     13.3975     57.3767     16.5069
   784.6000      8.1174      2.4227      0.0674     13.7735     57.7881     16.6872
   784.7000      8.1174      2.4243      0.0674     13.6800     59.0761     17.1025
   784.8000      8.1157      2.4369      0.1195     12.9140     58.2768     17.4873
   784.9000      8.1157      2.4436      0.1419     12.5110     54.9280     17.7603
   785.0000      8.1055      2.4326      0.0620     13.1763     51.9255     18.0586
   785.1000      8.1055      2.4188      0.0161     14.0134     52.0139     18.1138
   785.2000      8.1055      2.4199      0.0156     13.9444     55.4919     17.8984
   785.3000      8.1011      2.4342      0.0237     13.0784     59.4777     17.7185
   785.4000      8.1011      2.4524      0.0488     11.9785     62.5798     17.5626
   785.5000      8.0995      2.4659      0.0533     11.1575     64.7876     17.4585
   785.6000      8.0995      2.4644      0.0542     11.2472     64.7955     17.7131
   785.7000      8.0995      2.4559      0.0059     11.7621     63.0913     18.1439
   785.8000      8.0913      2.4617      0.0404     11.4130     60.9144     18.2993
   785.9000      8.0913      2.4787      0.0587     10.3789     59.9652     18.4149
   786.0000      8.0901      2.4909      0.0285      9.6416     61.2524     18.8722
   786.1000      8.0901      2.4941      0.0500      9.4475     62.7867     19.4865
   786.2000      8.0901      2.4917      0.0642      9.5919     63.8962     19.9547
   786.3000      8.0896      2.4951      0.0554      9.3857     64.1738     20.4263
   786.4000      8.0896      2.5152      0.0548      8.1697     63.6987     21.2645
   786.5000      8.0806      2.5435      0.0935      6.4528     64.9788     22.3837
   786.6000      8.0806      2.5583      0.1062      5.5560     68.1823     23.4021
   786.7000      8.0806      2.5547      0.0791      5.7777     72.1054     24.1419
   786.8000      8.0746      2.5525      0.0431      5.9093     76.5229     24.6507
   786.9000      8.0746      2.5638      0.0397      5.2236     81.9913     24.9568
   787.0000      8.0775      2.5760      0.0631      4.4860     89.0466     25.0291
   787.1000      8.0775      2.5827      0.0385      4.0760     96.1528     25.2749
   787.2000      8.0775      2.5923      0.0633      3.4977    105.8505     26.1377
   787.3000      8.0811      2.6038      0.0423      2.7987    118.9416     27.0743
   787.4000      8.0811      2.6142      0.0532      2.1711    127.6291     27.4565
   787.5000      8.0796      2.6191      0.0809      1.8752    129.8191     27.4897
   787.6000      8.0796      2.6177      0.0038      1.9597    130.0386     27.5509
   787.7000      8.0796      2.6190      0.0482      1.8792    130.1662     27.6409
   787.8000      8.0843      2.6224      0.0487      1.6749    131.2725     27.6667
   787.9000      8.0843      2.6220      0.0567      1.6963    133.9490     27.7807
   788.0000      8.0961      2.6178      0.0490      1.9491    137.0140     28.0977
   788.1000      8.0961      2.6100      0.0539      2.4217    138.2422     28.2848
   788.2000      8.0961      2.6014      0.0228      2.9470    136.0539     27.8853
   788.3000      8.0994      2.5966      0.0143      3.2389    131.6555     27.1836
   788.4000      8.0994      2.5946      0.0118      3.3557    129.2044     26.7868
   788.5000      8.0952      2.5896      0.0345      3.6590    128.6909     26.7438
   788.6000      8.0952      2.5825      0.0145      4.0917    125.5528     26.9194
   788.7000      8.0952      2.5772      0.0424      4.4137    121.0874     27.2214
   788.8000      8.0944      2.5707      0.0522      4.8073    120.4337     27.3550
   788.9000      8.0944      2.5670      0.0321      5.0301    123.3517     27.1970
   789.0000      8.1006      2.5724      0.0295      4.7015    127.6018     26.8608
   789.1000      8.1006      2.5753      0.0483      4.5275    129.9706     26.4098
   789.2000      8.1006      2.5640      0.0104      5.2093    128.1563     26.0212
   789.3000      8.1026      2.5500     -0.0031      6.0596    128.7811     25.9262
   789.4000      8.1026      2.5462      0.0261      6.2903    134.4007     26.1100
   789.5000      8.0925      2.5513      0.0292      5.9843    136.4684     26.3043
   789.6000      8.0925      2.5640      0.0007      5.2112    132.5996     26.3273
   789.7000      8.0925      2.5830      0.0326      4.0587    131.4379     26.3308
   789.8000      8.0866      2.5965      0.0350      3.2454    137.4235     26.3473
   789.9000      8.0866      2.5976      0.0110      3.1729    144.0311     26.2908
   790.0000      8.0928      2.5924      0.0412      3.4899    141.2248     26.3431
   790.1000      8.0928      2.5834      0.0234      4.0334    129.5066     26.3461
   790.2000      8.0928      2.5740      0.0211      4.6072    120.9095     25.9948
   790.3000      8.1010      2.5725     -0.0265      4.6999    121.2241     25.5117
   790.4000      8.1010      2.5756      0.0400      4.5078    123.3851     25.1143
   790.5000      8.1043      2.5704      0.0186      4.8247    121.5723     24.8465
   790.6000      8.1043      2.5612     -0.0002      5.3822    117.8566     24.8450
   790.7000      8.1043      2.5591      0.0291      5.5079    116.6962     25.0755
   790.8000      8.1023      2.5672      0.0276      5.0160    118.6293     25.3469
   790.9000      8.1023      2.5854      0.0472      3.9154    120.7488     25.6545
   791.0000      8.1028      2.6054      0.0510      2.7030    124.3183     25.9421
   791.1000      8.1028      2.6157      0.0429      2.0758    129.3238     25.9439
   791.2000      8.1028      2.6128      0.0529      2.2567    132.8626     25.6901
   791.3000      8.1072      2.6005     -0.0102      3.0020    134.5170     25.5116
   791.4000      8.1072      2.5865      0.0311      3.8492    135.2527     25.6153
   791.5000      8.1078      2.5793      0.0096      4.2878    136.2648     25.9191
   791.6000      8.1078      2.5794      0.0621      4.2779    133.2358     26.0371
   791.7000      8.1078      2.5789      0.0580      4.3070    123.1988     25.8467
   791.8000      8.1067      2.5790      0.0308      4.3022    114.4101     25.5946
   791.9000      8.1067      2.5826      0.0606      4.0875    113.8055     25.2358
   792.0000      8.1078      2.5776      0.0711      4.3885    117.8893     24.8788
   792.1000      8.1078      2.5588      0.0532      5.5256    121.5388     24.8355
   792.2000      8.1078      2.5396     -0.0307      6.6910    123.8971     24.9822
   792.3000      8.1090      2.5351      0.0037      6.9622    122.2111     25.0961
   792.4000      8.1090      2.5438      0.0255      6.4343    114.7622     25.0053
   792.5000      8.1057      2.5520      0.0327      5.9403    108.4003     24.5832
   792.6000      8.1057      2.5562     -0.0060      5.6831    109.2679     23.9546
   792.7000      8.1057      2.5648      0.0642      5.1633    113.6280     23.4082
   792.8000      8.1033      2.5790      0.0424      4.3019    116.3179     23.2115
   792.9000      8.1033      2.5896      0.0461      3.6622    116.0743     23.2766
   793.0000      8.1047      2.5872      0.0499      3.8034    113.3870     23.1236
   793.1000      8.1047      2.5820      0.0172      4.1196    108.5247     22.6404
   793.2000      8.1047      2.5875      0.0458      3.7882    100.8415     22.1899
   793.3000      8.1057      2.5926      0.0227      3.4811     91.1184     22.0375
   793.4000      8.1057      2.5843     -0.0179      3.9837     82.7322     22.0905
   793.5000      8.0959      2.5672      0.0078      5.0193     80.6305     22.1368
   793.6000      8.0959      2.5536     -0.0502      5.8434     86.0957     22.1300
   793.7000      8.0959      2.5528      0.0160      5.8910     94.4027     22.1975
   793.8000      8.0832      2.5558      0.0274      5.7067     96.8979     22.3284
   793.9000      8.0832      2.5475      0.0363      6.2096     91.5301     22.2030
   794.0000      8.0812      2.5332     -0.0027      7.0798     86.0888     21.6039
