~Version Information
VERS.                      2.0: CWLS Log ASCII Standard - VERSION 2.0
WRAP.                       NO: One line per depth step
~Well Information Block
STRT.FT               260.0000: 
STOP.FT              2610.0000: 
STEP.FT                 0.1000: 
NULL.                -999.2500: 
COMP.          Pioneer Natural Resources: COMPANY
WELL.           Costello 44-24: WELL
FLD.           Purgatoire River: FIELD
LOC.           327' FSL & 378' FEL: LOCATION
PROV.                 Colorado: PROVINCE
CNTY.               Las Animas: COUNTRY
SRVC.                Patterson: SERVICE COMPANY
DATE.          Mon Jul 11 10:42:19 2005: LOG DATE
UWI.           05 071 08413 00: UNIQUE WELL ID
~Curve Information Block
DEPT.FT            0 000 00 00: Depth
DCAL.in                       : CDL Caliper
RHOB.g/cc                     : CDL Bulk Density
RHOC.g/cc                     : CDL Density Correction
DPOR.pu                       : CDL Density Porosity
GR.GAPI                       : Gamma Ray
NPOR.pu                       : Neutron Porosity
~Parameter Information Block
~A  Depth       DCAL        RHOB        RHOC        DPOR         GR         NPOR    
# ...
  2122.4000      7.9450      2.6770      0.0488     -1.6357     94.8861     26.1273
  2122.5000      7.9504      2.6703      0.0377     -1.2279     92.3302     25.9871
  2122.6000      7.9504      2.6488      0.0230      0.0720     90.7856     25.9146
  2122.7000      7.9504      2.6323      0.0077      1.0716     92.1451     26.1056
  2122.8000      7.9501      2.6418      0.0079      0.4994     96.4058     26.5537
  2122.9000      7.9501      2.6679      0.0432     -1.0841    100.7487     27.1216
  2123.0000      7.9563      2.6826      0.0675     -1.9755    102.7906     27.5138
  2123.1000      7.9563      2.6763      0.0324     -1.5962    100.7976     27.6182
  2123.2000      7.9563      2.6577      0.0880     -0.4683     94.5571     27.8089
  2123.3000      7.9576      2.6337      0.0889      0.9870     90.1534     28.0707
  2123.4000      7.9576      2.6220      0.0429      1.6968     91.3906     27.8917
  2123.5000      7.9370      2.6408      0.0432      0.5567     94.1461     27.4281
  2123.6000      7.9370      2.6811      0.1260     -1.8852     93.5502     27.2037
  2123.7000      7.9370      2.7179      0.1605     -4.1159     90.6177     27.0806
  2123.8000      7.9071      2.7357      0.1714     -5.1957     92.1499     26.8598
  2123.9000      7.9071      2.7414      0.1372     -5.5370    101.4725     26.7461
  2124.0000      7.8969      2.7483      0.1671     -5.9594    109.8067     26.6243
  2124.1000      7.8969      2.7465      0.1849     -5.8484    109.8849     26.1734
  2124.2000      7.8969      2.7176      0.1544     -4.0978    105.9102     25.6329
  2124.3000      7.8923      2.6781      0.1377     -1.7039    104.5877     25.5474
  2124.4000      7.8923      2.6677      0.0497     -1.0726    107.0646     25.9300
  2124.5000      7.8923      2.6981      0.1225     -2.9155    110.2334     26.3531
  2124.6000      7.8923      2.7451      0.1242     -5.7640    112.1857     26.5890
  2124.7000      7.8923      2.7880      0.1760     -8.3644    111.7241     26.6306
  2124.8000      7.8976      2.8109      0.2053     -9.7543    107.4084     26.4487
  2124.9000      7.8976      2.8014      0.1969     -9.1728     99.9580     26.0920
  2125.0000      7.9083      2.7636      0.1868     -6.8875     92.1602     25.7689
  2125.1000      7.9083      2.7119      0.1115     -3.7507     87.5296     25.7276
  2125.2000      7.9083      2.6714      0.0432     -1.2992     89.7583     26.0361
  2125.3000      7.8984      2.6681     -0.0040     -1.0982     97.8917     26.4307
  2125.4000      7.8984      2.6962      0.0518     -2.8005    104.4638     26.5311
  2125.5000      7.9028      2.7296      0.0737     -4.8270    104.1416     26.3899
  2125.6000      7.9028      2.7546      0.0642     -6.3371     99.2727     26.2538
  2125.7000      7.9028      2.7654      0.0439     -6.9919     96.4164     26.3166
  2125.8000      7.9358      2.7635      0.0166     -6.8770     98.5171     26.6399
  2125.9000      7.9358      2.7630      0.0290     -6.8487    100.9359     26.7993
  2126.0000      7.9570      2.7640      0.1136     -6.9105     98.6613     26.4493
  2126.1000      7.9570      2.7487      0.0328     -5.9813     92.5102     25.7348
  2126.2000      7.9570      2.7256      0.0001     -4.5844     87.7960     25.1034
  2126.3000      7.9628      2.7203      0.0359     -4.2604     88.9143     25.1136
  2126.4000      7.9628      2.7339      0.0372     -5.0873     93.1724     25.7977
  2126.5000      7.9556      2.7492      0.0297     -6.0144     95.7833     26.3466
  2126.6000      7.9556      2.7598      0.0150     -6.6569     97.3366     26.2978
  2126.7000      7.9556      2.7696      0.0829     -7.2457     97.7371     26.1162
  2126.8000      7.9537      2.7670      0.0999     -7.0895     95.3106     26.0695
  2126.9000      7.9537      2.7363      0.0772     -5.2329     92.4392     26.0520
  2127.0000      7.9414      2.6948     -0.0341     -2.7132     91.7949     26.0531
  2127.1000      7.9414      2.6711      0.0309     -1.2777     92.0919     26.1876
  2127.2000      7.9414      2.6682     -0.0132     -1.1036     90.9323     26.5049
  2127.3000      7.9459      2.6822      0.0234     -1.9487     89.4029     26.7785
  2127.4000      7.9459      2.7015      0.0625     -3.1197     90.0534     26.8046
  2127.5000      7.9498      2.7061      0.0472     -3.3973     92.2085     26.6300
  2127.6000      7.9498      2.6924      0.0822     -2.5675     92.0050     26.4525
  2127.7000      7.9498      2.6743      0.0256     -1.4746     89.8829     26.5835
  2127.8000      7.9432      2.6707      0.0150     -1.2556     91.3776     26.9652
  2127.9000      7.9432      2.6864      0.0380     -2.2052     94.3557     26.9359
  2128.0000      7.9446      2.7098      0.0268     -3.6257     93.2042     26.3500
  2128.1000      7.9446      2.7321      0.0436     -4.9732     91.2148     26.0248
  2128.2000      7.9446      2.7395      0.0963     -5.4224     91.4866     26.4170
  2128.3000      7.9449      2.7259      0.0464     -4.5988     90.6177     26.8392
  2128.4000      7.9449      2.7131      0.0550     -3.8216     87.2003     26.4298
  2128.5000      7.9402      2.7133      0.0571     -3.8372     84.0855     25.6295
  2128.6000      7.9402      2.7227      0.0065     -4.4089     87.1248     25.5149
  2128.7000      7.9402      2.7458      0.0056     -5.8070     97.0238     25.9964
  2128.8000      7.9330      2.7695      0.0806     -7.2446    103.1937     26.3408
  2128.9000      7.9330      2.7671      0.0643     -7.0971    100.2831     26.5403
  2129.0000      7.9351      2.7401      0.0515     -5.4631     94.6936     26.7568
  2129.1000      7.9351      2.7057      0.0845     -3.3729     90.4125     26.6813
  2129.2000      7.9351      2.6850     -0.0175     -2.1216     89.0226     26.2638
  2129.3000      7.9445      2.6983      0.0427     -2.9301     92.6832     26.0955
  2129.4000      7.9445      2.7206      0.0664     -4.2791     98.9362     26.3628
  2129.5000      7.9436      2.7153      0.0436     -3.9600    101.2195     26.4590
  2129.6000      7.9436      2.6862      0.0547     -2.1931     99.4220     26.1555
  2129.7000      7.9436      2.6581      0.0039     -0.4935     97.2920     26.1121
  2129.8000      7.9446      2.6604     -0.0123     -0.6316     94.9764     26.5714
  2129.9000      7.9446      2.6966      0.0835     -2.8271     93.5974     26.9283
  2130.0000      7.9424      2.7263      0.0928     -4.6249     94.0235     27.1742
  2130.1000      7.9424      2.7316      0.0523     -4.9485     94.5573     27.7241
  2130.2000      7.9424      2.7410      0.0718     -5.5164     94.3137     28.1194
  2130.3000      7.9261      2.7624      0.1279     -6.8101     94.4059     27.7801
  2130.4000      7.9261      2.7790      0.1345     -7.8184     94.9880     27.1209
  2130.5000      7.9117      2.7863      0.1470     -8.2616     94.0225     26.7943
  2130.6000      7.9117      2.7839      0.1552     -8.1172     92.5709     26.6292
  2130.7000      7.9117      2.7766      0.0691     -7.6708     97.1048     26.2654
  2130.8000      7.9087      2.7777      0.0913     -7.7381    107.8793     26.0558
  2130.9000      7.9087      2.7940      0.1025     -8.7258    116.0333     26.3322
  2131.0000      7.9093      2.8223      0.1079    -10.4453    115.3309     26.7804
  2131.1000      7.9093      2.8423      0.1351    -11.6520    108.7261     27.1504
  2131.2000      7.9093      2.8298      0.0756    -10.8967    105.2038     27.4158
  2131.3000      7.9144      2.7914      0.0956     -8.5676    105.9586     27.2258
  2131.4000      7.9144      2.7584     -0.0411     -6.5712    103.8701     26.6164
  2131.5000      7.9404      2.7544      0.0268     -6.3295     99.5709     26.4281
  2131.6000      7.9404      2.7582      0.0909     -6.5606     98.3184     26.9421
  2131.7000      7.9404      2.7352      0.0975     -5.1606    101.3096     27.4412
  2131.8000      7.9587      2.7011      0.0200     -3.0963    107.8397     27.4921
  2131.9000      7.9587      2.6982      0.0069     -2.9192    114.7431     27.2173
