~Version Information
 VERS.                      2.0: CWLS Log ASCII Standard - VERSION 2.0
 WRAP.                       NO: One line per depth step
 ~Well Information Block
 STRT.FT               462.4000: 
 STOP.FT              2260.5000: 
 STEP.FT                 0.1000: 
 NULL.                -999.2500: 
 COMP.          Petrogulf Corporation: COMPANY
 WELL.             McLeod 9-42V: WELL
 FLD.           Purgatorie River: FIELD
 LOC.           1658' FNL & 415' FEL: LOCATION
 CNTY.               Las Animas: COUNTY
 SRVC.                         : SERVICE COMPANY
 DATE.          Fri Nov 12 10:12:24 2004: LOG DATE
 UWI.           05 071 08071 00: UNIQUE WELL ID
 STAT.                 Colorado: STATE
 PROV.                         :Province
 ~Curve Information Block
 DEPT.FT            0 000 00 00: Depth
 DCAL.in                       : CDL Caliper
 RHOB.g/cc                     : CDL Bulk Density
 RHOC.g/cc                     : CDL Density Correction
 DPOR.pu                       : CDL Density Porosity
 GR.GAPI                       : Gamma Ray
 NPOR.pu                       : Neutron Porosity
 ~Parameter Information Block
 ~A  Depth       DCAL        RHOB        RHOC        DPOR         GR         NPOR    
# ...
  1422.4000      7.9527      2.5919      0.1219      3.5186    136.4155     28.8366
  1422.5000      7.9443      2.5998      0.1336      3.0454    135.5648     28.2060
  1422.6000      7.9443      2.6121      0.1319      2.2993    134.6550     28.2700
  1422.7000      7.9443      2.6141      0.1299      2.1775    132.2572     28.8820
  1422.8000      7.9448      2.6040      0.0399      2.7862    131.6725     29.1241
  1422.9000      7.9448      2.5926      0.1147      3.4813    135.1078     28.6873
  1423.0000      7.9418      2.5744      0.0877      4.5798    138.6200     28.3057
  1423.1000      7.9418      2.5506      0.0586      6.0222    138.3195     28.4287
  1423.2000      7.9418      2.5350      0.0446      6.9706    135.0179     28.5873
  1423.3000      7.9406      2.5331      0.0624      7.0854    131.4304     28.4786
  1423.4000      7.9406      2.5442      0.0551      6.4125    128.9948     28.2657
  1423.5000      7.9420      2.5575      0.0920      5.6064    128.7101     27.8791
  1423.6000      7.9420      2.5582      0.0029      5.5631    130.6259     27.1959
  1423.7000      7.9420      2.5475      0.0544      6.2150    130.8021     26.4878
  1423.8000      7.9356      2.5328      0.0269      7.1023    126.2333     25.9759
  1423.9000      7.9356      2.5201      0.0441      7.8719    120.1733     25.5035
  1424.0000      7.9190      2.5196     -0.0261      7.9052    115.8267     25.0300
  1424.1000      7.9190      2.5374      0.0128      6.8254    113.8776     24.7414
  1424.2000      7.9190      2.5620      0.0732      5.3334    113.2359     24.7443
  1424.3000      7.9279      2.5807      0.0694      4.1973    110.8592     24.9769
  1424.4000      7.9279      2.5995      0.1128      3.0628    105.2124     25.0248
  1424.5000      7.9033      2.6251      0.0902      1.5092     98.9700     24.4496
  1424.6000      7.9033      2.6475      0.1312      0.1534     94.8379     23.4912
  1424.7000      7.9033      2.6497      0.1383      0.0155     92.6006     22.7333
  1424.8000      7.8931      2.6339      0.1104      0.9779     91.1306     22.2652
  1424.9000      7.8931      2.6190      0.0706      1.8763     88.1622     21.5969
  1425.0000      7.9064      2.6086      0.0876      2.5063     82.9955     20.4499
  1425.1000      7.9064      2.5852      0.0454      3.9249     77.8254     19.0859
  1425.2000      7.9064      2.5471     -0.0057      6.2351     74.6261     17.9952
  1425.3000      7.9225      2.5148     -0.0265      8.1933     73.1265     17.2564
  1425.4000      7.9225      2.5012      0.0113      9.0179     71.8229     16.5864
  1425.5000      7.9386      2.4983      0.0182      9.1939     70.0585     15.9965
  1425.6000      7.9386      2.4966     -0.0180      9.2968     67.9525     15.7854
  1425.7000      7.9386      2.4993     -0.0283      9.1338     65.5928     16.1577
  1425.8000      7.9611      2.5026      0.0292      8.9339     63.5611     16.5676
  1425.9000      7.9611      2.4876      0.0182      9.8422     64.0474     16.2442
  1426.0000      7.9690      2.4462      0.0137     12.3521     67.1527     15.3582
  1426.1000      7.9690      2.3884     -0.0092     15.8540     69.1974     14.6844
  1426.2000      7.9690      2.3306     -0.0490     19.3579     68.2672     14.4047
  1426.3000      7.9682      2.2921     -0.0628     21.6932     67.5921     14.2394
  1426.4000      7.9682      2.2837     -0.0480     22.1977     69.9968     14.0933
  1426.5000      7.9651      2.2973     -0.0634     21.3784     72.3987     14.1962
  1426.6000      7.9651      2.3196     -0.0374     20.0245     72.1365     14.7419
  1426.7000      7.9651      2.3520     -0.0171     18.0594     70.8513     15.4096
  1426.8000      7.9693      2.4024      0.0462     15.0075     69.1411     15.8700
  1426.9000      7.9693      2.4649      0.0838     11.2160     65.2301     16.3223
  1427.0000      7.9894      2.5152      0.2132      8.1693     60.7352     16.7731
  1427.1000      7.9894      2.5345      0.1301      7.0014     58.4562     16.9846
  1427.2000      7.9894      2.5356      0.0743      6.9332     57.5188     16.9225
  1427.3000      7.9442      2.5314      0.0997      7.1858     56.8776     16.5966
  1427.4000      7.9442      2.5200      0.0521      7.8760     57.1195     16.2069
  1427.5000      7.9387      2.5118      0.0554      8.3772     58.8920     16.0281
  1427.6000      7.9387      2.5187      0.0671      7.9592     62.2841     15.8996
  1427.7000      7.9387      2.5405      0.0614      6.6335     66.4245     15.9664
  1427.8000      7.9417      2.5712      0.1094      4.7730     69.0757     16.8206
  1427.9000      7.9417      2.5964      0.1060      3.2510     68.0415     18.2668
  1428.0000      7.9628      2.5999      0.1055      3.0334     64.4457     19.5025
  1428.1000      7.9628      2.5775      0.1039      4.3940     61.4686     20.0437
  1428.2000      7.9628      2.5438      0.0439      6.4376     60.1180     20.2303
  1428.3000      7.9646      2.5278     -0.0479      7.4065     60.7030     20.8004
  1428.4000      7.9646      2.5415      0.0387      6.5739     63.3601     21.6534
  1428.5000      7.9635      2.5655      0.0671      5.1236     66.6345     22.1188
  1428.6000      7.9635      2.5798      0.0282      4.2537     69.9371     22.1717
  1428.7000      7.9635      2.5759      0.0513      4.4882     74.7657     22.2036
  1428.8000      7.9547      2.5541      0.0200      5.8120     81.0561     22.2397
  1428.9000      7.9547      2.5273      0.0734      7.4357     87.4276     22.3924
  1429.0000      7.9507      2.5028      0.0319      8.9229     94.8826     22.9219
  1429.1000      7.9507      2.4815      0.0253     10.2092    103.3823     23.5285
  1429.2000      7.9507      2.4715      0.0107     10.8164    112.4747     24.1274
  1429.3000      8.0209      2.4789      0.0191     10.3721    123.5655     25.0428
  1429.4000      8.0209      2.4913      0.0881      9.6184    133.8307     25.9939
  1429.5000      8.1957      2.4914      0.0365      9.6095    138.5758     26.7076
  1429.6000      8.1957      2.4815      0.0307     10.2128    139.2411     27.5130
  1429.7000      8.1957      2.4728      0.0450     10.7423    141.8915     28.5067
  1429.8000      8.1445      2.4677      0.0416     11.0515    147.1647     29.2670
  1429.9000      8.1445      2.4675      0.0221     11.0621    150.3473     29.3108
  1430.0000      7.9675      2.4840      0.0199     10.0609    149.8293     28.7546
  1430.1000      7.9675      2.5280      0.0474      7.3912    146.4945     28.3993
  1430.2000      7.9675      2.5867      0.1137      3.8368    142.8362     28.5668
  1430.3000      7.9402      2.6310      0.1572      1.1491    139.5498     29.0410
  1430.4000      7.9402      2.6446      0.1663      0.3303    136.0259     29.5944
  1430.5000      7.9596      2.6305      0.1562      1.1819    134.6443     29.8667
  1430.6000      7.9596      2.6086      0.0821      2.5113    133.3950     29.7398
  1430.7000      7.9596      2.6090      0.0345      2.4853    129.6182     29.5656
  1430.8000      7.9462      2.6386      0.1067      0.6893    125.8484     29.5831
  1430.9000      7.9462      2.6683      0.0465     -1.1101    124.2299     29.5689
  1431.0000      7.9233      2.6755      0.0555     -1.5434    123.7148     29.4250
  1431.1000      7.9233      2.6642      0.0451     -0.8593    120.7231     29.2009
  1431.2000      7.9233      2.6485      0.0691      0.0885    113.1214     28.7851
  1431.3000      7.8981      2.6372      0.0356      0.7760    104.5641     28.0525
  1431.4000      7.8981      2.6373      0.0688      0.7696     99.0740     27.1722
  1431.5000      7.8309      2.6450      0.1948      0.3049     96.6216     26.4942
  1431.6000      7.8309      2.6438      0.1438      0.3736     96.5576     26.0403
  1431.7000      7.8309      2.6328      0.0782      1.0420     98.8222     25.6291
  1431.8000      7.8258      2.6185      0.0763      1.9116    101.8436     25.1517
  1431.9000      7.8258      2.5938      0.0856      3.4045    104.4846     24.6482
