~Version Information
 VERS.                                  2.0 : CWLS LAS VERSION
 WRAP.                                   NO : WRAPING MODE
 SWARE .                 MController 2.5.0I : SOFTWARE VERSION
~Well Information
 WELL.                       Montoya 13-41v : WELL
 COMP.                        Pertogulf Corp: COMPANY
 FLD.                      Pergatorie River : FIELD
 LOC.                NE/NE Sec 13 T33S R68W : LOCATION
 DATE.                           8/16-17/04 : DATE(S) LOGGED
 SRVC.       Blanco Geological Services LLC : SERVICE COMPANY
 STAT.                                   CO : STATE
 CNTY.                           Las Animas : COUNTY
 CTRY.                                  USA : COUNTRY
 API.                       05-071-08021-00 : API NUMBER
 STRT.FT                             767.00 : START DEPTH
 STOP.FT                            2499.00 : STOP DEPTH
 STEP.FT                               1.00 : DEPTH INCREMENT
 NULL.                                -9999 : NULL VALUE
~Curve information
 DEPTH.FT                                   :
 ROP.MIN/FT                                 :
 GAS.UNITS                                  :
~ASCII Log data
       767.0      -9999.0          2.6 
       768.0         10.1          3.2 
       769.0          0.1          3.1 
       770.0          0.6          3.1 
       771.0          0.4          1.3 
       772.0          0.3          1.5 
       773.0          0.2          1.4 
       774.0          9.1          1.8 
       775.0          0.1          0.2 
       776.0          0.4          1.5 
       777.0          0.3          1.2 
       778.0          0.3          1.4 
       779.0          0.3          1.6 
       780.0          0.5          1.7 
       781.0          0.8          1.6 
       782.0          0.1          1.2 
       783.0          0.1          1.2 
       784.0          0.1          1.5 
       785.0          0.1          1.3 
       786.0          0.1          1.2 
       787.0          0.1          1.5 
       788.0          0.1          1.3 
       789.0          0.1          1.4 
       790.0          0.2          1.5 
       791.0          0.1          1.5 
       792.0          0.1          1.4 
       793.0          0.2          1.3 
       794.0          0.2          1.8 
       795.0          0.2          1.7 
       796.0          0.2          1.6 
       797.0          0.2          1.5 
       798.0          0.1          1.5 
       799.0          0.2          1.6 
       800.0          0.1          1.5 
       801.0          0.1          1.5 
       802.0          0.1          1.4 
       803.0          0.2          1.8 
       804.0          0.2          1.7 
       805.0          0.2          1.5 
       806.0          0.3          1.5 
       807.0          0.2          1.7 
       808.0          1.6          1.8 
       809.0          0.2          1.6 
       810.0          0.2          1.5 
       811.0          0.1          1.4 
       812.0          0.2          1.7 
       813.0          0.3          1.5 
       814.0          0.2          1.8 
       815.0          0.2          1.5 
       816.0          0.2          1.5 
       817.0          0.2          1.5 
       818.0          0.2          1.7 
       819.0          0.2          1.8 
       820.0          0.2          1.7 
       821.0          0.2          1.6 
       822.0          0.2          1.6 
       823.0          0.2          1.5 
       824.0          0.2          1.7 
       825.0          0.2          1.6 
       826.0          0.2          1.5 
       827.0          0.2          1.6 
       828.0          0.2          1.5 
       829.0          0.2          1.6 
       830.0          0.2          1.6 
       831.0          0.2          1.7 
       832.0          0.2          1.7 
       833.0          0.2          1.6 
       834.0          0.2          1.6 
       835.0          0.2          1.8 
       836.0          0.1          1.6 
       837.0          0.1          1.7 
       838.0          1.9          1.8 
       839.0          0.2          1.7 
       840.0          0.2          1.6 
       841.0          0.3          1.6 
       842.0          0.2          1.7 
       843.0          0.1          1.6 
       844.0          0.2          1.7 
       845.0          0.2          1.7 
       846.0          0.2          1.8 
       847.0          0.2          1.7 
       848.0          0.1          1.6 
       849.0          0.2          1.8 
       850.0          0.1          1.7 
       851.0          0.1          1.6 
       852.0          0.1          1.7 
       853.0          0.2          1.6 
       854.0          0.2          1.5 
       855.0          0.2          1.5 
       856.0          0.2          1.6 
       857.0          0.1          1.7 
       858.0          0.2          1.5 
       859.0          0.2          1.6 
       860.0          0.2          1.7 
       861.0          0.2          1.8 
       862.0          0.2          1.6 
       863.0          0.2          1.8 
       864.0          0.2          1.6 
       865.0          0.2          1.5 
       866.0          0.2          1.8 
       867.0          0.2          1.6 
       868.0          2.0          2.1 
       869.0          0.3          2.0 
       870.0          0.3          2.0 
       871.0          0.2          1.9 
       872.0          0.2          1.9 
       873.0          0.2          1.7 
       874.0          0.2          1.7 
       875.0          0.2          1.8 
       876.0          0.3          1.7 
       877.0          0.2          1.8 
       878.0          0.2          1.7 
       879.0          0.2          1.8 
       880.0          0.2          1.9 
       881.0          0.2          1.9 
       882.0          0.2          1.8 
       883.0          0.2          1.8 
       884.0          0.2          1.9 
       885.0          0.2          1.9 
       886.0          0.2          1.6 
       887.0          0.2          1.7 
       888.0          0.2          1.8 
       889.0          0.3          2.0 
       890.0          0.2          1.9 
       891.0          0.2          1.8 
       892.0          0.1          1.6 
       893.0          0.2          1.7 
       894.0          0.1          1.6 
       895.0          0.2          1.8 
       896.0          0.1          1.7 
       897.0          0.2          1.7 
       898.0          1.9          2.1 
       899.0          0.2          1.8 
       900.0          0.2          2.0 
       901.0          0.2          2.0 
       902.0          0.2          2.1 
       903.0          0.2          2.0 
       904.0          0.2          2.1 
       905.0          0.2          2.3 
       906.0          0.2          2.0 
       907.0          0.1          2.3 
       908.0          0.1          2.1 
       909.0          0.1          1.9 
       910.0          0.2          2.1 
       911.0          0.2          2.1 
       912.0          0.2          2.0 
       913.0          0.2          1.8 
       914.0          0.2          2.1 
       915.0          0.2          2.2 
       916.0          0.2          2.2 
       917.0          0.2          2.0 
       918.0          0.2          2.1 
       919.0          0.2          2.1 
       920.0          0.2          2.0 
       921.0          0.2          2.0 
       922.0          0.2          2.1 
       923.0          0.2          2.0 
       924.0          0.2          1.9 
       925.0          0.2          2.1 
       926.0          0.2          2.1 
       927.0          0.2          2.2 
       928.0          2.3          2.2 
       929.0          0.1          2.2 
       930.0          0.3          2.3 
       931.0          0.2          2.1 
       932.0          0.2          2.2 
       933.0          0.2          2.3 
       934.0          0.2          2.2 
       935.0          0.2          2.2 
       936.0          3.8          2.5 
       937.0          0.2          2.4 
       938.0          0.2          2.4 
       939.0          0.1          2.2 
       940.0          0.2          2.1 
       941.0          0.2          2.1 
       942.0          0.2          2.2 
       943.0          0.2          2.4 
       944.0          0.2          2.3 
       945.0          0.1          2.3 
       946.0          0.1          2.3 
       947.0          0.2          2.3 
       948.0          0.2          2.4 
       949.0          0.2          2.6 
       950.0          0.2          2.6 
       951.0          0.2          2.4 
       952.0          0.2          2.6 
       953.0          0.2          2.6 
       954.0          0.2          2.5 
       955.0          0.2          2.5 
       956.0          0.2          2.5 
       957.0          0.2          2.5 
       958.0          2.4          2.7 
       959.0          0.2          2.4 
       960.0          0.3          2.3 
       961.0          0.3          2.5 
       962.0          0.3          2.3 
       963.0          0.2          2.2 
       964.0          0.2          2.5 
       965.0          0.2          2.6 
       966.0          0.2          2.7 
