~Version Information
VERS.                      2.0: CWLS Log ASCII Standard - VERSION 2.0
WRAP.                       NO: One line per depth step
~Well Information Block
STRT.FT               720.0000: 
STOP.FT              2265.7000: 
STEP.FT                 0.1000: 
NULL.                -999.2500: 
COMP.          Pioneer Natural Resources: COMPANY
WELL.          Casablanca 11-28 Tr: WELL
FLD.           Purgatoire River: FIELD
LOC.           422' FNL & 215' FWL----: LOCATION
PROV.                 Colorado: PROVINCE
CNTY.               Las Animas: COUNTRY
SRVC.                Patterson: SERVICE COMPANY
DATE.          Mon Mar 07 07:16:34 2005: LOG DATE
UWI.           05 071 08314 00: UNIQUE WELL ID
~Curve Information Block
DEPT.FT            0 000 00 00: Depth
DCAL.in                       : CDL Caliper
RHOB.g/cc                     : CDL Bulk Density
RHOC.g/cc                     : CDL Density Correction
DPOR.pu                       : CDL Density Porosity
NPOR.pu                       : Neutron Porosity
GR.GAPI                       : Gamma Ray
~Parameter Information Block
~A  Depth       DCAL        RHOB        RHOC        DPOR        NPOR         GR     
# ...
   921.6000      8.3082      2.4357      0.0688     12.9892     20.2692    110.1233
   921.7000      8.3082      2.4159      0.0371     14.1853     21.0740    116.4351
   921.8000      8.3159      2.4086      0.0383     14.6302     21.6315    121.6969
   921.9000      8.3159      2.4132      0.0571     14.3538     22.3428    121.6675
   922.0000      8.3154      2.4248      0.0269     13.6465     23.2537    117.4327
   922.1000      8.3154      2.4401      0.0211     12.7228     23.9716    114.1388
   922.2000      8.3154      2.4571      0.0477     11.6901     24.4359    115.1367
   922.3000      8.3100      2.4704      0.0567     10.8822     24.7698    118.2124
   922.4000      8.3100      2.4783      0.0458     10.4054     25.0969    120.0428
   922.5000      8.2928      2.4837      0.0879     10.0814     25.5486    122.1344
   922.6000      8.2928      2.4847      0.0849     10.0153     26.1099    124.5511
   922.7000      8.2928      2.4830      0.0938     10.1197     26.7029    123.8562
   922.8000      8.2589      2.4839      0.1041     10.0658     27.2601    121.1233
   922.9000      8.2589      2.4883      0.0622      9.7978     27.6942    122.6609
   923.0000      8.2201      2.4928      0.1108      9.5283     27.9626    131.3998
   923.1000      8.2201      2.4864      0.0716      9.9174     27.8116    141.0443
   923.2000      8.2201      2.4591      0.0649     11.5711     27.1759    142.2815
   923.3000      8.1948      2.4180     -0.0123     14.0599     26.7333    135.1066
   923.4000      8.1948      2.3918     -0.0397     15.6508     26.7117    127.9756
   923.5000      8.1963      2.3972     -0.0168     15.3242     26.3920    123.1868
   923.6000      8.1963      2.4123      0.0599     14.4079     25.3588    117.8390
   923.7000      8.1963      2.4142      0.0225     14.2892     24.0553    112.4644
   923.8000      8.2135      2.4161      0.0010     14.1738     23.2267    110.9525
   923.9000      8.2135      2.4348      0.0331     13.0408     23.1254    116.3520
   924.0000      8.2248      2.4514      0.0875     12.0385     23.2235    126.0897
   924.1000      8.2248      2.4306      0.0805     13.2950     23.1704    133.2540
   924.2000      8.2248      2.3723      0.0068     16.8280     23.0321    135.8754
   924.3000      8.2250      2.3182     -0.0521     20.1104     22.8542    135.6637
   924.4000      8.2250      2.3111     -0.0463     20.5414     22.9063    131.6413
   924.5000      8.2139      2.3595      0.0025     17.6068     23.2782    125.8316
   924.6000      8.2139      2.4350      0.0811     13.0287     23.5392    124.8221
   924.7000      8.2139      2.5103      0.0706      8.4692     23.3579    130.1795
   924.8000      8.1948      2.5795      0.1697      4.2717     23.0419    135.4662
   924.9000      8.1948      2.6325      0.1903      1.0598     23.1368    132.9685
   925.0000      8.1773      2.6539      0.1841     -0.2335     23.6614    122.2246
   925.1000      8.1773      2.6472      0.1730      0.1722     24.1700    110.9937
   925.2000      8.1773      2.6263      0.1464      1.4357     24.4694    106.1499
   925.3000      8.1621      2.5964      0.0976      3.2471     24.7958    105.2917
   925.4000      8.1621      2.5648      0.0463      5.1633     25.3248    102.6688
   925.5000      8.1488      2.5468      0.0214      6.2519     25.8537     98.6559
   925.6000      8.1488      2.5508     -0.0272      6.0109     26.0294     94.6257
   925.7000      8.1488      2.5677      0.0362      4.9856     25.9650     90.9834
   925.8000      8.1420      2.5823      0.0315      4.1032     26.2570     89.3269
   925.9000      8.1420      2.5899      0.0439      3.6409     27.0749     89.0875
   926.0000      8.1409      2.5889      0.0171      3.7014     27.7796     88.2865
   926.1000      8.1409      2.5822      0.0135      4.1081     27.6954     88.2743
   926.2000      8.1409      2.5873     -0.0226      3.7994     27.1216     91.4070
   926.3000      8.1401      2.6200      0.0126      1.8161     26.8556     94.8626
   926.4000      8.1401      2.6685      0.0754     -1.1212     27.2003     94.5335
   926.5000      8.1396      2.6994      0.0866     -2.9934     27.8717     93.7594
   926.6000      8.1396      2.6945      0.0647     -2.6994     28.3810     94.8635
   926.7000      8.1396      2.6702      0.0226     -1.2236     28.6990     93.0097
   926.8000      8.1403      2.6520     -0.0087     -0.1218     29.2339     88.5242
   926.9000      8.1403      2.6376      0.0537      0.7534     29.9323     86.7964
   927.0000      8.1420      2.6058      0.0450      2.6771     30.4918     86.9096
   927.1000      8.1420      2.5619     -0.0030      5.3377     30.9927     86.4344
   927.2000      8.1420      2.5285      0.0074      7.3606     31.5091     88.3331
   927.3000      8.1437      2.5126      0.0025      8.3253     31.9636     93.9890
   927.4000      8.1437      2.5100     -0.0171      8.4840     32.1659    100.5890
   927.5000      8.1450      2.5132     -0.0070      8.2920     32.1712    105.1867
   927.6000      8.1450      2.5051      0.0680      8.7829     32.5194    106.1410
   927.7000      8.1450      2.4715     -0.0010     10.8158     33.1353    105.4811
   927.8000      8.1444      2.4154      0.0311     14.2165     33.3697    107.0168
   927.9000      8.1444      2.3590     -0.0125     17.6390     33.1458    110.8300
   928.0000      8.1372      2.3450     -0.0401     18.4861     32.7120    114.6636
   928.1000      8.1372      2.3930      0.0462     15.5748     31.9795    119.6490
   928.2000      8.1372      2.4705      0.1249     10.8787     30.9030    129.0124
   928.3000      8.1273      2.5296      0.1850      7.2985     29.5836    140.8174
   928.4000      8.1273      2.5485      0.1653      6.1511     28.1478    149.1775
   928.5000      8.1333      2.5484      0.1362      6.1570     27.0107    151.9661
   928.6000      8.1333      2.5651      0.0876      5.1461     26.6151    150.2800
   928.7000      8.1333      2.6019      0.1534      2.9182     26.9294    142.0798
   928.8000      8.1604      2.6305      0.1750      1.1789     27.5108    129.9037
   928.9000      8.1604      2.6342      0.1432      0.9547     27.8096    122.3395
   929.0000      8.1891      2.6183      0.1145      1.9205     27.5571    122.0699
   929.1000      8.1891      2.5929      0.0645      3.4580     27.1299    125.5423
   929.2000      8.1891      2.5751     -0.0270      4.5401     27.3048    127.1365
   929.3000      8.2009      2.5796      0.0097      4.2677     28.3010    125.4250
   929.4000      8.2009      2.5914      0.0801      3.5496     29.2185    123.6397
   929.5000      8.1975      2.5872      0.0108      3.8035     29.3442    122.9755
   929.6000      8.1975      2.5688      0.0113      4.9217     29.2628    122.3539
   929.7000      8.1975      2.5504      0.0169      6.0391     29.5974    122.4639
   929.8000      8.1903      2.5423     -0.0072      6.5265     30.2491    123.6688
   929.9000      8.1903      2.5436      0.0423      6.4500     30.8820    123.8046
   930.0000      8.1875      2.5372      0.0332      6.8363     30.9481    123.9700
   930.1000      8.1875      2.5134      0.0325      8.2805     30.3449    126.5781
   930.2000      8.1875      2.4837     -0.0174     10.0758     29.9568    127.8716
   930.3000      8.1900      2.4568     -0.0200     11.7096     30.0717    125.4334
   930.4000      8.1900      2.4276     -0.0172     13.4806     30.0381    125.9579
   930.5000      8.1940      2.3955     -0.0325     15.4242     29.8612    132.5602
   930.6000      8.1940      2.3668     -0.0341     17.1653     29.7913    138.5520
   930.7000      8.1940      2.3470     -0.0380     18.3625     29.3760    139.4759
   930.8000      8.1973      2.3368     -0.0085     18.9794     28.3186    138.7254
   930.9000      8.1973      2.3400     -0.0193     18.7886     27.0533    139.7536
   931.0000      8.1957      2.3731      0.0429     16.7793     26.4893    138.7631
   931.1000      8.1957      2.4446      0.0732     12.4476     26.8755    133.7252
