~Version Information
VERS.                      2.0: CWLS Log ASCII Standard - VERSION 2.0
WRAP.                       NO: One line per depth step
~Well Information Block
STRT.FT               520.0000: 
STOP.FT              2183.5000: 
STEP.FT                 0.1000: 
NULL.                -999.2500: 
COMP.          Pioneer Natural Resources: COMPANY
WELL.             Enzo 43-8 Tr: WELL
FLD.           Purgatoire River: FIELD
LOC.           2303' FSL & 604' FEL: LOCATION
PROV.                 Colorado: PROVINCE
CNTY.               Las Animas: COUNTRY
SRVC.                Patterson: SERVICE COMPANY
DATE.          Sun Oct 31 15:10:54 2004: LOG DATE
UWI.           05 071 08213 00: UNIQUE WELL ID
~Curve Information Block
DEPT.FT            0 000 00 00: Depth
DCAL.in                       : CDL Caliper
RHOB.g/cc                     : CDL Bulk Density
RHOC.g/cc                     : CDL Density Correction
DPOR.pu                       : CDL Density Porosity
NPOR.pu                       : Neutron Porosity
GR.GAPI                       : Gamma Ray
~Parameter Information Block
~A  Depth       DCAL        RHOB        RHOC        DPOR        NPOR         GR     
# ...
  1172.8000      8.0826      2.6563      0.0012     -0.3818     25.8288    123.3773
  1172.9000      8.0826      2.6303      0.0525      1.1953     25.3793    126.7433
  1173.0000      8.0823      2.6021      0.0466      2.9050     25.3477    127.0202
  1173.1000      8.0823      2.5734      0.0365      4.6419     25.6624    122.6052
  1173.2000      8.0823      2.5494      0.0290      6.0999     25.9301    117.0395
  1173.3000      8.0817      2.5329     -0.0104      7.0956     26.0343    112.6716
  1173.4000      8.0817      2.5208      0.0337      7.8301     26.1497    110.9616
  1173.5000      8.0813      2.5136     -0.0262      8.2690     26.3646    111.1107
  1173.6000      8.0813      2.5275     -0.0191      7.4213     26.8552    109.6116
  1173.7000      8.0813      2.5620      0.0605      5.3352     27.7619    107.2045
  1173.8000      8.0804      2.5942      0.0393      3.3824     28.6215    106.9561
  1173.9000      8.0804      2.6234      0.0450      1.6143     28.8504    106.6070
  1174.0000      8.0797      2.6617      0.0616     -0.7075     28.5346    104.9695
  1174.1000      8.0797      2.7066      0.0980     -3.4331     28.2185    105.5040
  1174.2000      8.0797      2.7413      0.1515     -5.5324     28.1002    108.0378
  1174.3000      8.0800      2.7482      0.1300     -5.9510     28.0865    109.4423
  1174.4000      8.0800      2.7293      0.1058     -4.8058     28.1372    109.9310
  1174.5000      8.0809      2.6950      0.0691     -2.7295     28.1159    110.7229
  1174.6000      8.0809      2.6504      0.0234     -0.0225     27.9125    112.3675
  1174.7000      8.0809      2.6040     -0.0183      2.7857     27.6825    115.1687
  1174.8000      8.0835      2.5791     -0.1335      4.2961     27.2880    117.1814
  1174.9000      8.0835      2.5937     -0.0343      3.4142     26.4305    116.4692
  1175.0000      8.0856      2.6316     -0.0017      1.1171     25.5159    115.2732
  1175.1000      8.0856      2.6659      0.0660     -0.9643     25.0565    117.8309
  1175.2000      8.0856      2.6835      0.0776     -2.0316     24.9337    124.6157
  1175.3000      8.0849      2.6807      0.0650     -1.8594     24.7364    129.4337
  1175.4000      8.0849      2.6617      0.0594     -0.7091     24.2344    126.7068
  1175.5000      8.0827      2.6408      0.0359      0.5599     23.5888    120.5238
  1175.6000      8.0827      2.6337      0.0071      0.9909     23.2346    118.6215
  1175.7000      8.0827      2.6401      0.0668      0.6021     23.4928    123.0378
  1175.8000      8.0805      2.6452      0.0458      0.2934     24.2783    129.0439
  1175.9000      8.0805      2.6423      0.0348      0.4657     25.3514    130.2223
  1176.0000      8.0800      2.6376      0.0262      0.7488     26.4155    127.1456
  1176.1000      8.0800      2.6381      0.0541      0.7206     27.0725    123.7797
  1176.2000      8.0800      2.6416      0.0747      0.5064     27.3643    118.6445
  1176.3000      8.0822      2.6345      0.0719      0.9379     27.8092    111.4343
  1176.4000      8.0822      2.6105      0.0120      2.3923     28.4147    106.4395
  1176.5000      8.0845      2.5869     -0.0191      3.8260     28.6876    104.4376
  1176.6000      8.0845      2.5839     -0.0407      4.0050     28.8348    104.8567
  1176.7000      8.0845      2.5991     -0.0398      3.0826     29.3643    108.2268
  1176.8000      8.0845      2.6096     -0.0256      2.4506     29.9774    113.0025
  1176.9000      8.0845      2.6060     -0.0360      2.6651     30.1070    116.8199
  1177.0000      8.0824      2.5983     -0.0063      3.1360     29.4877    119.1406
  1177.1000      8.0824      2.5868     -0.0475      3.8287     28.3784    122.0297
  1177.2000      8.0824      2.5703     -0.0471      4.8294     27.2867    127.1016
  1177.3000      8.0802      2.5616     -0.0210      5.3563     26.4100    131.9884
  1177.4000      8.0802      2.5805     -0.0283      4.2125     25.8532    132.8449
  1177.5000      8.0792      2.6200      0.0553      1.8163     25.6128    129.6775
  1177.6000      8.0792      2.6376      0.0723      0.7542     25.4967    125.3984
  1177.7000      8.0792      2.6174     -0.0157      1.9783     25.3768    120.8182
  1177.8000      8.0800      2.5886      0.0040      3.7190     25.4593    115.0499
  1177.9000      8.0800      2.5733      0.0084      4.6474     25.8718    110.6020
  1178.0000      8.0809      2.5742     -0.0177      4.5966     26.2254    111.5632
  1178.1000      8.0809      2.5866      0.0276      3.8407     25.9043    116.3349
  1178.2000      8.0809      2.5933      0.0600      3.4334     24.9376    119.6799
  1178.3000      8.0815      2.5846      0.0101      3.9666     24.2565    118.8610
  1178.4000      8.0815      2.5790     -0.0115      4.3047     24.1939    116.4716
  1178.5000      8.0827      2.5914      0.0139      3.5528     24.3430    118.0479
  1178.6000      8.0827      2.6091      0.0245      2.4811     24.7343    123.0680
  1178.7000      8.0827      2.6185      0.0463      1.9070     25.4460    126.2670
  1178.8000      8.0830      2.6183      0.0456      1.9200     26.0084    126.8457
  1178.9000      8.0830      2.6100      0.0286      2.4265     26.2240    125.3579
  1179.0000      8.0833      2.6008     -0.0230      2.9848     26.4282    119.8146
  1179.1000      8.0833      2.6014     -0.0244      2.9445     26.7338    112.7823
  1179.2000      8.0833      2.6132      0.0074      2.2328     26.8792    109.1947
  1179.3000      8.0844      2.6272      0.0164      1.3801     26.7945    109.9733
  1179.4000      8.0844      2.6331      0.0263      1.0218     26.8413    113.7256
  1179.5000      8.0846      2.6261     -0.0249      1.4462     27.3886    115.1893
  1179.6000      8.0846      2.6154     -0.0016      2.0955     28.2868    110.6361
  1179.7000      8.0846      2.6081      0.0477      2.5423     28.9305    106.9746
  1179.8000      8.0833      2.6008      0.0126      2.9812     29.0536    108.1744
  1179.9000      8.0833      2.5964      0.0005      3.2512     28.9830    107.0080
  1180.0000      8.0810      2.6005      0.0221      2.9978     28.9362    100.9802
  1180.1000      8.0810      2.6109      0.0410      2.3681     28.7350     97.9662
  1180.2000      8.0810      2.6249      0.0398      1.5205     28.3726    100.0698
  1180.3000      8.0746      2.6404      0.0947      0.5831     28.1213    100.4443
  1180.4000      8.0746      2.6537      0.0396     -0.2223     27.9580     98.8568
  1180.5000      8.0684      2.6612      0.0721     -0.6774     27.9120     99.8637
  1180.6000      8.0684      2.6580      0.0725     -0.4834     28.1648    102.4558
  1180.7000      8.0684      2.6538      0.0455     -0.2284     28.4169    103.7579
  1180.8000      8.0728      2.6612      0.1003     -0.6817     28.3808    106.8618
  1180.9000      8.0728      2.6765      0.0859     -1.6049     28.2368    113.4074
  1181.0000      8.0790      2.6896      0.1174     -2.4002     28.0665    118.2034
  1181.1000      8.0790      2.6906      0.0964     -2.4580     27.8486    117.8861
  1181.2000      8.0790      2.6770      0.1116     -1.6350     27.6654    113.7838
  1181.3000      8.0812      2.6617      0.0402     -0.7069     27.5665    108.0426
  1181.4000      8.0812      2.6589      0.0800     -0.5399     27.6042    103.7075
  1181.5000      8.0822      2.6616      0.0667     -0.7011     27.6961    103.3726
  1181.6000      8.0822      2.6585      0.0467     -0.5162     27.8283    104.1026
  1181.7000      8.0822      2.6469      0.0488      0.1876     28.0060    101.6405
  1181.8000      8.0841      2.6297      0.0002      1.2325     27.9695    100.4051
  1181.9000      8.0841      2.6178     -0.0058      1.9507     27.7341    105.1775
  1182.0000      8.0856      2.6105      0.0061      2.3948     27.6000    111.9770
  1182.1000      8.0856      2.5964      0.0052      3.2457     27.5965    114.5481
  1182.2000      8.0856      2.5870     -0.0317      3.8167     27.6104    112.0637
  1182.3000      8.0844      2.5986      0.0089      3.1171     27.4670    109.8784
