~Version Information
VERS.                      2.0: CWLS Log ASCII Standard - VERSION 2.0
WRAP.                       NO: One line per depth step
~Well Information Block
STRT.FT               890.0000: 
STOP.FT              1589.0000: 
STEP.FT                 0.2500: 
NULL.                -999.2500: 
COMP.          Evergreen Operating Corporation: COMPANY
WELL.            Tomahawk 44-9: WELL
FLD.           Purgatorie River: FIELD
LOC.           434' FSL & 491' FEL: LOCATION
PROV.                 Colorado: PROVINCE
CNTY.               Las Animas: COUNTRY
SRVC.                         : SERVICE COMPANY
DATE.          Sat Sep 11 23:05:26 2004: LOG DATE
UWI.           05 071 08133 00: UNIQUE WELL ID
~Curve Information Block
DEPT.FT            0 000 00 00: Depth
LTEN.lb                       : Surface Line Tension
SN.Ohm-m                      : IEL Short Normal
SP.mV                         : IEL Spontaneous Potential
DIR.Ohm-m                     : IEL Induction Resistivity
GR.GAPI                       : Gamma Ray
~Parameter Information Block
~A  Depth       LTEN         SN          SP         DIR          GR     
# ...
  1030.0000    847.5500   2000.0000   2040.0000     12.3001    155.9807
  1030.2500    841.0106   2000.0000   2040.0000     12.9596    154.6052
  1030.5000    836.5306   2000.0000   2040.0000     13.5725    147.4155
  1030.7500    835.8882   2000.0000   2040.0000     14.1065    140.3016
  1031.0000    839.6907   2000.0000   2040.0000     14.5389    128.9476
  1031.2500    847.5876   2000.0000   2040.0000     14.8554    121.9388
  1031.5000    858.4905   2000.0000   2040.0000     15.0433    112.5892
  1031.7500    870.2745   2000.0000   2040.0000     15.0970    107.0800
  1032.0000    880.0259   2000.0000   2040.0000     15.0396    100.2579
  1032.2500    885.3965   2000.0000   2040.0000     14.9263     97.1974
  1032.5000    885.9872   2000.0000   2040.0000     14.8150     96.0279
  1032.7500    883.4956   2000.0000   2040.0000     14.7284     98.1952
  1033.0000    880.4261   2000.0000   2040.0000     14.6479    106.6444
  1033.2500    878.4799   2000.0000   2040.0000     14.5401    115.8575
  1033.5000    878.0420   2000.0000   2040.0000     14.3932    134.2133
  1033.7500    878.6490   2000.0000   2040.0000     14.2284    148.0132
  1034.0000    879.3139   2000.0000   2040.0000     14.0814    166.9229
  1034.2500    878.8130   2000.0000   2040.0000     13.9730    175.8114
  1034.5000    876.3749   2000.0000   2040.0000     13.8924    181.4163
  1034.7500    872.0648   2000.0000   2040.0000     13.8100    180.7208
  1035.0000    866.6026   2000.0000   2040.0000     13.7106    176.3031
  1035.2500    861.2113   2000.0000   2040.0000     13.6186    172.5437
  1035.5000    857.2299   2000.0000   2040.0000     13.5891    165.6484
  1035.7500    855.2916   2000.0000   2040.0000     13.6739    159.4331
  1036.0000    855.1670   2000.0000   2040.0000     13.8911    147.3545
  1036.2500    856.3531   2000.0000   2040.0000     14.2177    138.1972
  1036.5000    858.2629   2000.0000   2040.0000     14.6056    124.4890
  1036.7500    860.2448   2000.0000   2040.0000     15.0132    116.1216
  1037.0000    862.2368   2000.0000   2040.0000     15.4292    105.9977
  1037.2500    864.9159   2000.0000   2040.0000     15.8684    101.8496
  1037.5000    868.3705   2000.0000   2040.0000     16.3501    101.0073
  1037.7500    871.0908   2000.0000   2040.0000     16.8760    104.1992
  1038.0000    871.1592   2000.0000   2040.0000     17.4267    113.4124
  1038.2500    868.3410   2000.0000   2040.0000     17.9646    121.0783
  1038.5000    864.3134   2000.0000   2040.0000     18.4333    131.5255
  1038.7500    860.8771   2000.0000   2040.0000     18.7597    135.8257
  1039.0000    858.6776   2000.0000   2040.0000     18.8800    136.7259
  1039.2500    857.7374   2000.0000   2040.0000     18.7917    134.5217
  1039.5000    858.1777   2000.0000   2040.0000     18.5861    130.7807
  1039.7500    859.6988   2000.0000   2040.0000     18.4184    129.9859
  1040.0000    861.0150   2000.0000   2040.0000     18.4340    131.9032
  1040.2500    860.8915   2000.0000   2040.0000     18.7112    133.7719
  1040.5000    859.8134   2000.0000   2040.0000     19.2536    133.8177
  1040.7500    859.6951   2000.0000   2040.0000     20.0250    130.7117
  1041.0000    861.5474   2000.0000   2040.0000     21.0027    122.0024
  1041.2500    864.1419   2000.0000   2040.0000     22.1966    115.1719
  1041.5000    865.3220   2000.0000   2040.0000     23.6052    106.3497
  1041.7500    864.0068   2000.0000   2040.0000     25.1288    102.2695
  1042.0000    860.8525   2000.0000   2040.0000     26.4895     98.6381
  1042.2500    857.7688   2000.0000   2040.0000     27.2642     97.3090
  1042.5000    856.8747   2000.0000   2040.0000     27.1256     96.4038
  1042.7500    859.0805   2000.0000   2040.0000     26.1408     96.7271
  1043.0000    863.3431   2000.0000   2040.0000     24.7750     99.2385
  1043.2500    867.5350   2000.0000   2040.0000     23.5568    102.1345
  1043.5000    870.0696   2000.0000   2040.0000     22.8118    106.7557
  1043.7500    870.7494   2000.0000   2040.0000     22.6239    108.9365
  1044.0000    870.4183   2000.0000   2040.0000     22.9030    110.1181
  1044.2500    870.1023   2000.0000   2040.0000     23.4483    109.6979
  1044.5000    870.3915   2000.0000   2040.0000     23.9993    107.4345
  1044.7500    871.2118   2000.0000   2040.0000     24.2993    104.7246
  1045.0000    871.8284   2000.0000   2040.0000     24.1712     99.3077
  1045.2500    871.3144   2000.0000   2040.0000     23.5753     95.5520
  1045.5000    869.5150   2000.0000   2040.0000     22.6305     90.6700
  1045.7500    867.5190   2000.0000   2040.0000     21.5769     87.9893
  1046.0000    866.8442   2000.0000   2040.0000     20.6893     85.1165
  1046.2500    868.2352   2000.0000   2040.0000     20.1837     84.7666
  1046.5000    871.2323   2000.0000   2040.0000     20.1637     88.4541
  1046.7500    874.2710   2000.0000   2040.0000     20.6057     94.2653
  1047.0000    875.1799   2000.0000   2040.0000     21.3569    106.9469
  1047.2500    872.6339   2000.0000   2040.0000     22.1464    116.3271
  1047.5000    867.6882   2000.0000   2040.0000     22.6394    128.1625
  1047.7500    863.1884   2000.0000   2040.0000     22.5708    133.0199
  1048.0000    861.3510   2000.0000   2040.0000     21.9054    135.5581
  1048.2500    862.4036   2000.0000   2040.0000     20.8675    135.3747
  1048.5000    865.1285   2000.0000   2040.0000     19.7932    135.0378
  1048.7500    867.6737   2000.0000   2040.0000     18.9460    135.4994
  1049.0000    868.3842   2000.0000   2040.0000     18.4485    136.3399
  1049.2500    867.1522   2000.0000   2040.0000     18.3083    135.8374
  1049.5000    865.7151   2000.0000   2040.0000     18.4603    131.9862
  1049.7500    865.7684   2000.0000   2040.0000     18.7856    127.3511
  1050.0000    867.0643   2000.0000   2040.0000     19.1232    118.8802
  1050.2500    867.9767   2000.0000   2040.0000     19.3169    113.5730
  1050.5000    867.5412   2000.0000   2040.0000     19.2970    107.9608
  1050.7500    866.1544   2000.0000   2040.0000     19.1219    106.2722
  1051.0000    864.5107   2000.0000   2040.0000     18.9218    106.8904
  1051.2500    862.9326   2000.0000   2040.0000     18.7984    109.2753
  1051.5000    861.9678   2000.0000   2040.0000     18.7727    115.5857
  1051.7500    862.4853   2000.0000   2040.0000     18.7972    121.4129
  1052.0000    864.6035   2000.0000   2040.0000     18.7916    131.7813
  1052.2500    867.2112   2000.0000   2040.0000     18.6692    138.9382
  1052.5000    868.8176   2000.0000   2040.0000     18.3559    148.1729
  1052.7500    868.4963   2000.0000   2040.0000     17.8151    152.2877
  1053.0000    866.2610   2000.0000   2040.0000     17.0662    154.4672
  1053.2500    863.1431   2000.0000   2040.0000     16.1767    153.5889
  1053.5000    860.9203   2000.0000   2040.0000     15.2335    150.6883
  1053.7500    861.2733   2000.0000   2040.0000     14.3144    148.9532
  1054.0000    864.5828   2000.0000   2040.0000     13.4750    147.8799
  1054.2500    869.2628   2000.0000   2040.0000     12.7467    148.3692
  1054.5000    872.6329   2000.0000   2040.0000     12.1403    150.9249
  1054.7500    873.2357   2000.0000   2040.0000     11.6545    153.5984
  1055.0000    872.4482   2000.0000   2040.0000     11.2817    157.7436
  1055.2500    873.1255   2000.0000   2040.0000     11.0074    159.6856
  1055.5000    876.4200   2000.0000   2040.0000     10.8032    161.1473
  1055.7500    880.6155   2000.0000   2040.0000     10.6264    162.0079
  1056.0000    883.2658   2000.0000   2040.0000     10.4336    164.7708
  1056.2500    883.5666   2000.0000   2040.0000     10.2043    167.7872
  1056.5000    882.1966   2000.0000   2040.0000      9.9509    172.8800
  1056.7500    879.7281   2000.0000   2040.0000      9.7016    175.5810
  1057.0000    876.2640   2000.0000   2040.0000      9.4767    177.3864
  1057.2500    872.4291   2000.0000   2040.0000      9.2823    177.2500
  1057.5000    869.4272   2000.0000   2040.0000      9.1218    176.6994
  1057.7500    867.6400   2000.0000   2040.0000      9.0052    177.2441
