~Version Information
 VERS.                                  2.0 : CWLS LAS VERSION
 WRAP.                                   NO : WRAPING MODE
 SWARE .                 MController 2.5.0N : SOFTWARE VERSION
~Well Information
 WELL.                                  N/A : WELL
 COMP.                                  N/A : COMPANY
 FLD.                                   N/A : FIELD
 LOC.                                   N/A : LOCATION
 DATE.                                  N/A : DATE(S) LOGGED
 SRVC.                                  N/A : SERVICE COMPANY
 STAT.                                  N/A : STATE
 CNTY.                                  N/A : COUNTY
 CTRY.                                  N/A : COUNTRY
 API.                                   N/A : API NUMBER
 STRT.FT                               0.00 : START DEPTH
 STOP.FT                            2050.00 : STOP DEPTH
 STEP.FT                               1.00 : DEPTH INCREMENT
 NULL.                                -9999 : NULL VALUE
~Curve information
 DEPTH.FT                                   :
 ROP.MIN/FT                                 :
 GAS.UNITS                                  :
~ASCII Log data
# ...
       600.0         0.17          1.7 
       601.0         0.20          1.9 
       602.0         0.20          2.0 
       603.0         0.17          1.9 
       604.0         0.20          2.0 
       605.0         0.17          2.0 
       606.0         0.17          2.0 
       607.0         0.20          2.0 
       608.0         0.20          1.9 
       609.0         0.20          1.8 
       610.0         0.32          2.0 
       611.0         0.30          1.7 
       612.0         0.23          1.9 
       613.0         0.23          1.9 
       614.0         0.23          1.8 
       615.0         0.30          1.9 
       616.0         0.30          1.8 
       617.0         0.30          1.7 
       618.0         0.30          1.9 
       619.0         0.33          1.7 
       620.0         0.30          1.7 
       621.0         0.27          1.7 
       622.0         0.32          1.8 
       623.0         0.27          1.8 
       624.0         0.27          1.9 
       625.0         0.27          1.6 
       626.0         1.70          2.0 
       627.0         0.35          1.9 
       628.0         0.30          2.1 
       629.0         0.30          2.0 
       630.0         0.27          2.0 
       631.0         0.30          2.1 
       632.0         0.33          2.1 
       633.0         0.40          2.2 
       634.0         0.30          1.8 
       635.0         0.30          2.3 
       636.0         0.30          2.2 
       637.0         0.30          2.2 
       638.0         0.38          2.1 
       639.0         0.40          2.3 
       640.0         0.33          2.2 
       641.0         0.37          2.3 
       642.0         0.37          2.2 
       643.0         0.33          2.4 
       644.0         0.33          2.2 
       645.0         0.33          2.6 
       646.0         0.37          3.4 
       647.0         0.42          3.5 
       648.0         0.37          3.1 
       649.0         0.33          2.2 
       650.0         0.33          2.2 
       651.0         0.30          2.0 
       652.0         0.27          2.2 
       653.0         0.33          2.1 
       654.0         0.37          2.2 
       655.0         0.27          2.0 
       656.0         2.28          2.2 
       657.0         0.37          1.9 
       658.0         0.37          1.7 
       659.0         0.32          1.8 
       660.0         0.27          1.8 
       661.0         0.30          1.9 
       662.0         0.33          2.0 
       663.0         0.37          2.0 
       664.0         0.37          1.7 
       665.0         0.30          1.6 
       666.0         0.33          1.9 
       667.0         0.30          1.9 
       668.0         0.37          1.6 
       669.0         0.35          1.8 
       670.0         0.33          1.9 
       671.0         0.37          1.6 
       672.0         0.37          1.8 
       673.0         0.30          1.7 
       674.0         0.33          1.7 
       675.0         0.27          1.6 
       676.0         0.40          1.6 
       677.0         0.37          1.7 
       678.0         0.32          1.8 
       679.0         0.27          1.7 
       680.0         0.30          1.7 
       681.0         0.27          1.9 
       682.0         0.23          1.9 
       683.0         0.23          1.9 
       684.0         0.37          2.1 
       685.0         0.40          2.0 
       686.0         1.18          2.7 
       687.0         0.30          2.0 
       688.0         0.13          1.9 
       689.0         0.13          6.5 
       690.0         0.17         65.0 
       691.0         0.17        122.1 
       692.0         0.13        119.1 
       693.0         0.23         88.6 
       694.0         0.37         36.9 
       695.0         0.33          8.2 
       696.0         0.30          3.0 
       697.0         0.27          2.1 
       698.0         0.30          1.7 
       699.0         0.35          1.7 
       700.0         0.30          1.8 
       701.0         0.23          1.6 
       702.0         0.23          1.6 
       703.0         0.20          1.6 
       704.0         0.23          1.9 
       705.0         0.13          1.6 
       706.0         0.23          2.1 
       707.0         0.30          2.2 
       708.0         0.30          2.0 
       709.0         0.17          1.7 
       710.0         0.23          1.8 
       711.0         0.40          1.8 
       712.0         0.45          2.0 
       713.0         0.33          2.1 
       714.0         0.37          1.8 
       715.0         0.33          2.1 
       716.0         1.62          2.4 
       717.0         0.37          2.3 
       718.0         0.40          2.2 
       719.0         0.30          2.5 
       720.0         0.30          2.0 
       721.0         0.33          2.1 
       722.0         0.40          2.5 
       723.0         0.33          2.1 
       724.0         0.37          2.3 
       725.0         0.33          2.3 
       726.0         0.42          2.6 
       727.0         0.37          2.4 
       728.0         0.37          2.3 
       729.0         0.43          2.4 
       730.0         0.43          2.6 
       731.0         0.30          2.2 
       732.0         0.30          2.4 
       733.0         0.30          2.5 
       734.0         0.27          2.3 
       735.0         0.35          2.6 
       736.0         0.47          2.5 
       737.0         0.73          2.5 
       738.0         0.37          2.5 
       739.0         0.20          2.4 
       740.0         0.27          2.5 
       741.0         0.30          2.4 
       742.0         0.33          2.6 
       743.0         0.28          2.4 
       744.0         0.20          2.5 
       745.0         0.17          2.6 
       746.0         1.73          2.5 
       747.0         0.43          2.4 
       748.0         0.33          2.5 
       749.0         0.32          2.5 
       750.0         0.27          2.4 
       751.0         0.23          2.6 
       752.0         0.27          2.4 
       753.0         0.27          2.4 
       754.0         0.20          2.2 
       755.0         0.23          2.7 
       756.0         0.27          2.4 
       757.0         0.30          2.4 
       758.0         0.33          2.5 
       759.0         0.33          2.3 
       760.0         0.32          2.2 
       761.0         0.27          2.4 
       762.0         0.27          2.4 
       763.0         0.23          2.3 
       764.0         0.33          2.5 
       765.0         0.27          2.5 
       766.0         0.27          2.3 
       767.0         0.23          2.5 
       768.0         0.27          2.5 
       769.0         0.23          2.5 
       770.0         0.20          2.6 
       771.0         0.23          2.4 
       772.0         0.30          2.5 
       773.0         0.25          2.9 
       774.0         0.23          2.9 
       775.0         0.20          3.0 
       776.0         1.97         15.8 
       777.0         0.23         14.9 
       778.0         0.20         14.0 
       779.0         0.20         12.5 
       780.0         0.22         11.8 
       781.0         0.17         10.7 
       782.0         0.23         10.5 
       783.0         0.17         10.4 
       784.0         0.20         10.6 
       785.0         0.17         10.9 
       786.0         0.27         10.7 
       787.0         0.30         10.4 
       788.0         0.30         10.5 
       789.0         0.27         10.3 
       790.0         0.20          9.6 
       791.0         0.20         10.0 
       792.0         0.27          9.6 
       793.0         0.30          9.7 
       794.0         0.32          9.5 
       795.0         0.30          8.9 
       796.0         0.30          8.5 
       797.0         0.30          8.9 
       798.0         0.23          8.7 
       799.0         0.23          6.2 
