~Version Information
VERS.                      2.0: CWLS Log ASCII Standard - VERSION 2.0
WRAP.                       NO: One line per depth step
~Well Information Block
STRT.FT               758.7500: 
STOP.FT              2420.7500: 
STEP.FT                 0.2500: 
NULL.                -999.2500: 
COMP.          Petrogulf Corporation: COMPANY
WELL.            Montoya 7-21V: WELL
FLD.           Purgatorie River: FIELD
LOC.           738' FSL & 2070' FWL: LOCATION
CNTY.               Las Animas: COUNTY
SRVC.                         : SERVICE COMPANY
DATE.          Fri Aug 20 07:13:07 2004: LOG DATE
UWI.           05 071 08018 00: UNIQUE WELL ID
STAT.                 Colorado: STATE
~Curve Information Block
DEPT.FT            0 000 00 00: Depth
SP.mV                         : DIL Spontaneous Potential
RILD.Ohm-m                    : DIL Deep Resistivity
RILM.Ohm-m                    : DIL Medium Resistivity
RLL3.Ohm-m                    : DIL Shallow Resistivity
GR.GAPI                       : Gamma Ray
~Parameter Information Block
~A  Depth        SP         RILD        RILM        RLL3         GR     
# ...
  1542.7500    -19.9049     11.2553     12.6684     16.7816    192.3619
  1543.0000    -19.9643     11.2552     13.0604     19.1794    181.2418
  1543.2500    -19.9985     11.2490     13.4063     21.3034    173.4117
  1543.5000    -20.0115     11.2480     13.6781     22.6517    163.6458
  1543.7500    -20.0085     11.2606     13.8584     22.9411    159.5716
  1544.0000    -19.9952     11.2925     13.9445     22.2215    157.8277
  1544.2500    -19.9758     11.3471     13.9487     20.8268    159.2807
  1544.5000    -19.9520     11.4246     13.8938     19.1875    163.8261
  1544.7500    -19.9224     11.5199     13.8071     17.6315    167.1015
  1545.0000    -19.8825     11.6222     13.7150     16.3007    170.4522
  1545.2500    -19.8264     11.7155     13.6394     15.2096    171.4565
  1545.5000    -19.7482     11.7827     13.5961     14.3623    172.3962
  1545.7500    -19.6436     11.8111     13.5946     13.8152    173.2872
  1546.0000    -19.5106     11.7974     13.6393     13.6473    174.1428
  1546.2500    -19.3498     11.7504     13.7303     13.8826    173.0720
  1546.5000    -19.1642     11.6889     13.8643     14.4445    167.8150
  1546.7500    -18.9588     11.6354     14.0364     15.1779    162.5694
  1547.0000    -18.7405     11.6097     14.2411     15.9226    154.5964
  1547.2500    -18.5169     11.6242     14.4732     16.5868    150.3573
  1547.5000    -18.2967     11.6818     14.7286     17.1816    146.1658
  1547.7500    -18.0891     11.7776     15.0040     17.8046    144.5649
  1548.0000    -17.9030     11.9018     15.2965     18.5810    143.3320
  1548.2500    -17.7472     12.0429     15.6016     19.5865    142.9673
  1548.5000    -17.6292     12.1899     15.9132     20.7843    142.4303
  1548.7500    -17.5539     12.3353     16.2227     22.0158    141.6536
  1549.0000    -17.5230     12.4766     16.5205     23.0602    139.7997
  1549.2500    -17.5330     12.6179     16.7980     23.7279    138.7188
  1549.5000    -17.5749     12.7674     17.0503     23.9177    138.9664
  1549.7500    -17.6354     12.9330     17.2786     23.6152    140.9555
  1550.0000    -17.6981     13.1173     17.4907     22.8736    146.2247
  1550.2500    -17.7471     13.3148     17.6995     21.8340    150.4888
  1550.5000    -17.7691     13.5144     17.9202     20.7600    157.0953
  1550.7500    -17.7561     13.7057     18.1675     20.0021    161.4441
  1551.0000    -17.7058     13.8841     18.4517     19.8512    167.0914
  1551.2500    -17.6211     14.0545     18.7782     20.3655    169.3917
  1551.5000    -17.5096     14.2304     19.1468     21.3194    169.5968
  1551.7500    -17.3814     14.4303     19.5525     22.3448    167.7865
  1552.0000    -17.2479     14.6733     19.9872     23.1828    163.5470
  1552.2500    -17.1202     14.9744     20.4415     23.8643    160.4000
  1552.5000    -17.0084     15.3391     20.9056     24.6881    155.2041
  1552.7500    -16.9198     15.7602     21.3707     26.0076    150.9323
  1553.0000    -16.8592     16.2182     21.8300     27.9507    142.9489
  1553.2500    -16.8279     16.6860     22.2808     30.2401    137.1309
  1553.5000    -16.8241     17.1390     22.7266     32.2373    129.7278
  1553.7500    -16.8425     17.5655     23.1794     33.2346    127.1220
  1554.0000    -16.8756     17.9723     23.6597     32.8631    128.4852
  1554.2500    -16.9142     18.3805     24.1941     31.3755    132.7804
  1554.5000    -16.9486     18.8130     24.8101     29.5978    141.5030
  1554.7500    -16.9704     19.2817     25.5289     28.5533    146.3805
  1555.0000    -16.9734     19.7817     26.3584     28.9773    148.8118
  1555.2500    -16.9548     20.2949     27.2878     30.9989    146.2511
  1555.5000    -16.9154     20.8036     28.2861     34.1415    136.5740
  1555.7500    -16.8593     21.3028     29.3083     37.5927    127.5246
  1556.0000    -16.7931     21.8050     30.3060     40.5614    113.3137
  1556.2500    -16.7244     22.3325     31.2428     42.5391    105.1160
  1556.5000    -16.6617     22.9045     32.1065     43.3873     96.0304
  1556.7500    -16.6132     23.5254     32.9115     43.2889     91.9381
  1557.0000    -16.5866     24.1823     33.6916     42.6309     87.7836
  1557.2500    -16.5879     24.8495     34.4852     41.8643     85.7905
  1557.5000    -16.6215     25.4994     35.3206     41.3707     83.1715
  1557.7500    -16.6884     26.1113     36.2065     41.3736     81.2370
  1558.0000    -16.7869     26.6768     37.1276     41.9227     77.6065
  1558.2500    -16.9127     27.1982     38.0487     42.9367     74.8648
  1558.5000    -17.0598     27.6823     38.9234     44.2588     71.1789
  1558.7500    -17.2221     28.1333     39.7049     45.6958     69.4946
  1559.0000    -17.3939     28.5480     40.3554     47.0436     68.3382
  1559.2500    -17.5701     28.9170     40.8534     48.1168     68.3419
  1559.5000    -17.7462     29.2300     41.1948     48.7852     69.1861
  1559.7500    -17.9172     29.4834     41.3908     49.0010     70.0914
  1560.0000    -18.0779     29.6823     41.4635     48.7978     71.5253
  1560.2500    -18.2232     29.8398     41.4418     48.2653     72.3350
  1560.5000    -18.3490     29.9725     41.3538     47.5168     73.1859
  1560.7500    -18.4539     30.0959     41.2239     46.6667     73.4461
  1561.0000    -18.5400     30.2198     41.0694     45.8169     73.2934
  1561.2500    -18.6132     30.3487     40.9009     45.0459     72.9444
  1561.5000    -18.6823     30.4876     40.7254     44.4038     72.5426
  1561.7500    -18.7568     30.6522     40.5511     43.9243     72.5936
  1562.0000    -18.8444     30.8751     40.3928     43.6586     73.1376
  1562.2500    -18.9479     31.1986     40.2730     43.7023     73.5512
  1562.5000    -19.0637     31.6502     40.2201     44.1783     73.5419
  1562.7500    -19.1811     32.2117     40.2629     45.1654     72.8210
  1563.0000    -19.2840     32.8002     40.4228     46.6171     70.9672
  1563.2500    -19.3539     33.2808     40.7062     48.3354     69.7946
  1563.5000    -19.3737     33.5150     41.0983     50.0242     68.9000
  1563.7500    -19.3314     33.4246     41.5579     51.3872     68.8558
  1564.0000    -19.2221     33.0253     42.0123     52.2060     69.0400
  1564.2500    -19.0486     32.4044     42.3540     52.3789     69.0308
  1564.5000    -18.8200     31.6609     42.4420     51.9501     68.8357
  1564.7500    -18.5492     30.8543     42.1124     51.1501     68.9873
  1565.0000    -18.2509     29.9842     41.2073     50.3967     70.6715
  1565.2500    -17.9391     29.0036     39.6208     50.1750     73.1852
  1565.5000    -17.6265     27.8528     37.3484     50.7764     78.8301
  1565.7500    -17.3243     26.4987     34.5121     52.0165     83.1731
  1566.0000    -17.0425     24.9603     31.3358     53.1297     89.2655
  1566.2500    -16.7904     23.3086     28.0811     52.9861     92.8580
  1566.5000    -16.5762     21.6408     24.9765     50.5878     98.8388
  1566.7500    -16.4062     20.0481     22.1757     45.5985    104.6278
  1567.0000    -16.2836     18.5937     19.7521     38.5846    118.1129
  1567.2500    -16.2072     17.3065     17.7160     30.7970    130.4745
  1567.5000    -16.1713     16.1858     16.0391     23.6167    151.6260
  1567.7500    -16.1662     15.2123     14.6749     18.0069    164.8739
  1568.0000    -16.1801     14.3592     13.5719     14.2697    179.6330
  1568.2500    -16.2012     13.6009     12.6818     12.1592    185.4920
  1568.5000    -16.2203     12.9188     11.9624     11.1781    189.9838
  1568.7500    -16.2317     12.3032     11.3792     10.8448    191.3102
  1569.0000    -16.2338     11.7522     10.9050     10.8263    191.4016
  1569.2500    -16.2285     11.2686     10.5192     10.9486    189.9885
  1569.5000    -16.2198     10.8563     10.2064     11.1437    186.0110
  1569.7500    -16.2127     10.5186      9.9550     11.3845    183.1328
  1570.0000    -16.2123     10.2560      9.7565     11.6383    180.6277
  1570.2500    -16.2229     10.0663      9.6042     11.8549    180.7296
  1570.5000    -16.2479      9.9435      9.4928     11.9891    182.4672
