~Version Information
VERS.                      2.0: CWLS Log ASCII Standard - VERSION 2.0
WRAP.                       NO: One line per depth step
~Well Information Block
STRT.FT               545.0000: 
STOP.FT              1922.0000: 
STEP.FT                 0.2500: 
NULL.                -999.2500: 
COMP.          Pioneer Natural Resources: COMPANY
WELL.            Summers 21-19: WELL
FLD.           Purgatoire River: FIELD
LOC.           900' FNL & 1950' FWL: LOCATION
PROV.                 Colorado: PROVINCE
CNTY.               Las Animas: COUNTRY
SRVC.                Patterson: SERVICE COMPANY
DATE.          Sat Oct 15 03:34:13 2005: LOG DATE
UWI.           05 071 08315 00: UNIQUE WELL ID
~Curve Information Block
DEPT.FT            0 000 00 00: Depth
SN.Ohm-m                      : IEL Short Normal
SP.mV                         : IEL Spontaneous Potential
DIR.Ohm-m                     : IEL Induction Resistivity
GR.GAPI                       : Gamma Ray
~Parameter Information Block
~A  Depth        SN          SP         DIR          GR     
# ...
  1717.5000     43.8426    -86.3220     21.5588     48.1025
  1717.7500     45.9435    -85.2551     21.9611     47.3929
  1718.0000     46.6731    -84.0156     22.2668     49.5185
  1718.2500     45.9874    -82.7468     22.4610     53.2511
  1718.5000     43.9760    -81.6131     22.5359     62.1464
  1718.7500     41.0056    -80.7428     22.4779     69.8629
  1719.0000     37.6993    -80.1857     22.2663     83.1106
  1719.2500     34.6933    -79.9134     21.8921     92.3032
  1719.5000     32.3808    -79.8532     21.3790    104.8661
  1719.7500     30.8186    -79.9257     20.7820    111.3110
  1720.0000     29.8368    -80.0594     20.1620    117.1061
  1720.2500     29.2063    -80.1842     19.5582    118.7663
  1720.5000     28.7183    -80.2255     18.9800    119.8195
  1720.7500     28.1809    -80.1190     18.4188    120.7213
  1721.0000     27.4364    -79.8392     17.8697    123.3708
  1721.2500     26.4478    -79.4224     17.3467    125.7940
  1721.5000     25.3005    -78.9694     16.8835    129.1691
  1721.7500     24.0722    -78.6226     16.5195    130.4538
  1722.0000     22.8321    -78.5226     16.2853    130.0560
  1722.2500     21.7856    -78.7592     16.1951    128.1760
  1722.5000     21.2438    -79.3413     16.2497    123.6634
  1722.7500     21.4121    -80.1955     16.4429    120.1576
  1723.0000     22.2601    -81.1932     16.7656    114.5021
  1723.2500     23.5230    -82.1930     17.2030    109.9034
  1723.5000     24.8306    -83.0784     17.7282    100.0770
  1723.7500     25.9709    -83.7708     18.2974     90.9457
  1724.0000     27.0794    -84.2117     18.8565     74.2128
  1724.2500     28.6210    -84.3320     19.3619     62.7316
  1724.5000     31.2097    -84.0511     19.8034     48.5822
  1724.7500     35.2485    -83.3190     20.2105     42.5903
  1725.0000     40.4162    -82.1702     20.6337     39.1895
  1725.2500     45.5273    -80.7301     21.1122     40.0120
  1725.5000     49.2735    -79.1605     21.6420     43.9710
  1725.7500     51.0320    -77.5945     22.1605     47.1307
  1726.0000     50.8377    -76.1168     22.5563     50.9025
  1726.2500     49.0150    -74.7908     22.7124     52.4462
  1726.5000     45.9701    -73.6830     22.5615     54.2030
  1726.7500     42.1120    -72.8470     22.1148     56.1040
  1727.0000     37.9447    -72.2855     21.4421     61.7413
  1727.2500     34.0957    -71.9382     20.6298     67.4754
  1727.5000     31.0427    -71.7118     19.7505     77.3939
  1727.7500     28.8434    -71.5286     18.8543     83.4789
  1728.0000     27.2226    -71.3541     17.9729     90.2871
  1728.2500     25.8800    -71.1929     17.1293     93.2762
  1728.5000     24.6743    -71.0633     16.3437     96.4798
  1728.7500     23.5894    -70.9695     15.6339     98.4127
  1729.0000     22.6348    -70.8914     15.0112    101.1711
  1729.2500     21.7898    -70.7966     14.4774    102.3690
  1729.5000     20.9503    -70.6666     14.0269    102.2311
  1729.7500     19.9619    -70.5133     13.6517    100.9244
  1730.0000     18.7993    -70.3717     13.3438     98.3475
  1730.2500     17.6774    -70.2728     13.0955     97.0128
  1730.5000     16.8966    -70.2216     12.9009     96.3840
  1730.7500     16.5804    -70.2046     12.7583     96.9459
  1731.0000     16.6075    -70.2155     12.6716     98.8385
  1731.2500     16.7569    -70.2694     12.6471    100.4307
  1731.5000     16.9031    -70.3816     12.6872    102.6458
  1731.7500     17.0900    -70.5371     12.7885    103.5046
  1732.0000     17.4071    -70.6866     12.9434    102.9653
  1732.2500     17.7941    -70.7805     13.1444    101.2781
  1732.5000     18.0069    -70.8096     13.3849     97.7220
  1732.7500     17.8695    -70.8166     13.6580     95.5546
  1733.0000     17.5216    -70.8678     13.9562     93.6767
  1733.2500     17.3271    -71.0141     14.2745     93.4141
  1733.5000     17.6532    -71.2689     14.6158     93.8574
  1733.7500     18.7133    -71.6107     14.9920     94.3137
  1734.0000     20.3952    -72.0019     15.4184     95.2241
  1734.2500     22.2698    -72.4064     15.9019     96.1962
  1734.5000     23.9235    -72.7961     16.4340     97.8851
  1734.7500     25.2092    -73.1484     16.9932     98.3458
  1735.0000     26.1655    -73.4440     17.5551     96.4328
  1735.2500     26.8707    -73.6717     18.1007     93.1379
  1735.5000     27.4146    -73.8327     18.6162     86.2734
  1735.7500     27.9202    -73.9412     19.0876     81.4763
  1736.0000     28.4797    -74.0222     19.5004     75.2442
  1736.2500     29.0632    -74.1074     19.8464     72.0468
  1736.5000     29.5978    -74.2294     20.1332     68.8786
  1736.7500     30.0678    -74.4118     20.3872     67.8193
  1737.0000     30.4541    -74.6617     20.6413     67.3681
  1737.2500     30.7169    -74.9660     20.9101     67.4207
  1737.5000     30.8600    -75.2940     21.1634     67.4487
  1737.7500     30.9210    -75.6063     21.3191     67.3031
  1738.0000     30.9307    -75.8645     21.2713     66.9247
  1738.2500     30.8942    -76.0373     20.9433     66.5738
  1738.5000     30.8075    -76.1005     20.3319     65.5537
  1738.7500     30.6609    -76.0360     19.5073     64.3432
  1739.0000     30.3694    -75.8385     18.5734     62.0704
  1739.2500     29.8056    -75.5297     17.6254     60.8510
  1739.5000     28.9106    -75.1722     16.7300     60.4514
  1739.7500     27.6257    -74.8639     15.9250     61.4141
  1740.0000     25.8821    -74.7049     15.2258     65.0022
  1740.2500     23.8158    -74.7547     14.6299     69.0689
  1740.5000     21.7957    -75.0139     14.1226     77.4693
  1740.7500     20.1588    -75.4400     13.6843     83.6387
  1741.0000     19.0019    -75.9782     13.2984     91.4668
  1741.2500     18.2045    -76.5855     12.9562     95.1086
  1741.5000     17.5870    -77.2383     12.6593     98.9449
  1741.7500     17.0429    -77.9281     12.4202    101.1112
  1742.0000     16.5873    -78.6505     12.2581    103.9103
  1742.2500     16.3025    -79.3940     12.1927    104.9615
  1742.5000     16.2358    -80.1322     12.2361    104.3266
  1742.7500     16.3982    -80.8238     12.3906    102.0457
  1743.0000     16.8204    -81.4236     12.6477     95.3773
  1743.2500     17.5142    -81.9013     12.9905     88.6348
  1743.5000     18.4261    -82.2516     13.3960     75.5411
  1743.7500     19.5526    -82.4817     13.8384     65.6496
  1744.0000     21.0793    -82.5916     14.2946     51.0622
  1744.2500     23.3486    -82.5682     14.7493     42.6597
  1744.5000     26.6659    -82.4062     15.1993     33.6027
  1744.7500     30.8886    -82.1378     15.6523     30.4492
  1745.0000     35.0460    -81.8405     16.1197     30.0370
  1745.2500     37.7019    -81.6055     16.6050     32.1463
  1745.5000     37.9981    -81.4915     17.0968     37.7042
  1745.7500     36.2124    -81.5071     17.5727     42.3864
  1746.0000     33.2840    -81.6322     18.0087     49.9306
  1746.2500     30.1285    -81.8456     18.3835     54.7175
  1746.5000     27.3721    -82.1313     18.6770     60.6320
  1746.7500     25.3143    -82.4694     18.8723     63.4720
  1747.0000     23.9967    -82.8337     18.9636     66.0461
  1747.2500     23.3251    -83.1999     18.9612     66.6297
  1747.5000     23.1172    -83.5515     18.8887     65.7557
  1747.7500     23.1538    -83.8797     18.7741     64.1978
  1748.0000     23.2968    -84.1776     18.6456     61.3242
  1748.2500     23.5294    -84.4373     18.5331     59.7117
  1748.5000     23.9039    -84.6488     18.4704     58.3501
  1748.7500     24.4766    -84.8012     18.4935     57.9864
  1749.0000     25.2310    -84.8861     18.6317     57.4919
  1749.2500     26.0547    -84.9028     18.8967     56.9551
  1749.5000     26.8031    -84.8612     19.2779     56.2538
  1749.7500     27.3950    -84.7784     19.7478     56.2808
  1750.0000     27.8576    -84.6703     20.2761     57.2171
  1750.2500     28.2277    -84.5471     20.8357     58.1017
  1750.5000     28.4777    -84.4163     21.3886     59.1267
  1750.7500     28.6085    -84.2892     21.8649     59.4934
