~Version Information
VERS.                      2.0: CWLS Log ASCII Standard - VERSION 2.0
WRAP.                       NO: One line per depth step
~Well Information Block
STRT.FT               480.0000: 
STOP.FT              1629.0000: 
STEP.FT                 0.2500: 
NULL.                -999.2500: 
COMP.          Pioneer Natural Resources: COMPANY
WELL.          Dude Canyon 22-32 Tr: WELL
FLD.           Purgatoire River: FIELD
LOC.           1741' FNL & 2331' FWL: LOCATION
PROV.                 Colorado: PROVINCE
CNTY.               Las Animas: COUNTRY
SRVC.                Patterson: SERVICE COMPANY
DATE.          Sat Jul 09 01:36:28 2005: LOG DATE
UWI.           05 071 08421 00: UNIQUE WELL ID
~Curve Information Block
DEPT.FT            0 000 00 00: Depth
SN.Ohm-m                      : IEL Short Normal
SP.mV                         : IEL Spontaneous Potential
DIR.Ohm-m                     : IEL Induction Resistivity
GR.GAPI                       : Gamma Ray
~Parameter Information Block
~A  Depth        SN          SP         DIR          GR     
# ...
  1518.5000     11.4934     43.7538      9.1460    130.0651
  1518.7500     11.7043     43.7008      9.2455    128.3110
  1519.0000     11.8324     43.6146      9.3203    125.9422
  1519.2500     11.9123     43.5042      9.3643    124.1757
  1519.5000     11.9746     43.3819      9.3767    121.0358
  1519.7500     11.9401     43.2554      9.3623    119.1491
  1520.0000     11.7300     43.1247      9.3292    118.0504
  1520.2500     11.4219     42.9863      9.2861    118.9279
  1520.5000     11.1349     42.8382      9.2395    122.3377
  1520.7500     10.8840     42.6815      9.1905    125.3726
  1521.0000     10.6464     42.5181      9.1339    129.6439
  1521.2500     10.4156     42.3439      9.0600    131.4928
  1521.5000     10.1839     42.1364      8.9593    132.1527
  1521.7500      9.9568     41.8514      8.8267    131.5666
  1522.0000      9.7678     41.4410      8.6642    130.5896
  1522.2500      9.6447     40.8874      8.4806    130.5752
  1522.5000      9.5975     40.2205      8.2895    131.8618
  1522.7500      9.6317     39.4994      8.1062    133.4372
  1523.0000      9.7018     38.7797      7.9439    136.3755
  1523.2500      9.7185     38.0980      7.8112    138.2813
  1523.5000      9.6728     37.4777      7.7118    140.1558
  1523.7500      9.6507     36.9410      7.6459    140.4825
  1524.0000      9.6838     36.5101      7.6118    140.0485
  1524.2500      9.7074     36.2022      7.6088    139.6966
  1524.5000      9.6595     36.0287      7.6366    139.6015
  1524.7500      9.5331     35.9995      7.6951    139.6931
  1525.0000      9.4157     36.1264      7.7816    139.4207
  1525.2500      9.4468     36.4161      7.8907    138.6564
  1525.5000      9.6303     36.8572      8.0140    136.4363
  1525.7500      9.8232     37.4102      8.1419    134.1531
  1526.0000      9.9151     38.0089      8.2657    129.2456
  1526.2500      9.8461     38.5767      8.3782    124.9606
  1526.5000      9.5665     39.0489      8.4742    117.7074
  1526.7500      9.1609     39.3859      8.5515    113.0929
  1527.0000      8.9035     39.5678      8.6120    107.7608
  1527.2500      9.0310     39.5871      8.6630    105.6474
  1527.5000      9.5163     39.4538      8.7136    104.5403
  1527.7500     10.1418     39.2122      8.7699    104.8343
  1528.0000     10.7022     38.9613      8.8309    106.2269
  1528.2500     11.1092     38.8698      8.8882    107.6369
  1528.5000     11.3558     39.1629      8.9306    110.6349
  1528.7500     11.4479     40.0469      8.9488    113.4668
  1529.0000     11.4000     41.5724      8.9373    119.0710
  1529.2500     11.2399     43.5266      8.8938    123.1803
  1529.5000     11.0280     45.4903      8.8182    128.0545
  1529.7500     10.8760     47.0636      8.7136    129.5856
  1530.0000     10.8673     48.0723      8.5887    129.5310
  1530.2500     10.9421     48.5894      8.4573    128.9229
  1530.5000     10.9382     48.8038      8.3356    128.9398
  1530.7500     10.7813     48.8927      8.2379    130.0422
  1531.0000     10.5973     48.9702      8.1740    132.8552
  1531.2500     10.5665     49.0870      8.1488    134.6401
  1531.5000     10.7149     49.2388      8.1628    135.5658
  1531.7500     10.9169     49.3822      8.2133    134.6007
  1532.0000     11.0294     49.4667      8.2947    131.5825
  1532.2500     11.0068     49.4710      8.3992    129.5259
  1532.5000     10.9351     49.4196      8.5191    127.4897
  1532.7500     10.9245     49.3772      8.6500    126.6296
  1533.0000     10.9814     49.4391      8.7925    125.0210
  1533.2500     11.0525     49.7280      8.9526    123.5123
  1533.5000     11.1260     50.3682      9.1390    121.3423
  1533.7500     11.2160     51.4149      9.3607    120.5899
  1534.0000     11.3257     52.7786      9.6245    121.0132
  1534.2500     11.4785     54.2400      9.9327    122.1848
  1534.5000     11.7443     55.5731     10.2841    124.4014
  1534.7500     12.1816     56.6606     10.6766    125.4415
  1535.0000     12.7569     57.4944     11.1105    125.1830
  1535.2500     13.3644     58.1038     11.5877    123.4653
  1535.5000     13.9450     58.5205     12.1082    118.5117
  1535.7500     14.5211     58.7908     12.6656    113.6584
  1536.0000     15.1116     58.9787     13.2496    104.3051
  1536.2500     15.7344     59.1427     13.8556     97.2665
  1536.5000     16.4765     59.3137     14.4945     87.3084
  1536.7500     17.4403     59.4919     15.1932     82.1315
  1537.0000     18.6395     59.6559     15.9828     77.3603
  1537.2500     19.9356     59.7799     16.8824     75.8604
  1537.5000     21.0971     59.8506     17.8889     74.7963
  1537.7500     22.0241     59.8709     18.9795     74.1265
  1538.0000     22.8460     59.8500     20.1232     72.4826
  1538.2500     23.7495     59.7942     21.2930     70.9286
  1538.5000     24.7799     59.7073     22.4669     68.4269
  1538.7500     25.8066     59.5997     23.6135     67.0781
  1539.0000     26.7102     59.4930     24.6720     65.8077
  1539.2500     27.5563     59.4120     25.5518     65.2381
  1539.5000     28.4575     59.3666     26.1703     64.3496
  1539.7500     29.3515     59.3378     26.5146     63.6470
  1540.0000     30.0538     59.2828     26.6700     62.2282
  1540.2500     30.4555     59.1525     26.7878     60.7732
  1540.5000     30.6256     58.9074     27.0201     57.6712
  1540.7500     30.7630     58.5290     27.4658     55.4076
  1541.0000     30.9996     58.0200     28.1380     53.0978
  1541.2500     31.2295     57.3934     28.9414     53.0143
  1541.5000     31.2345     56.6549     29.6778     55.5397
  1541.7500     30.9438     55.7979     30.1221     58.7507
  1542.0000     30.4659     54.8157     30.1673     64.9077
  1542.2500     29.9690     53.7225     29.9120     69.1991
  1542.5000     29.6249     52.5648     29.5887     74.5434
  1542.7500     29.5858     51.4091     29.4058     76.6371
  1543.0000     29.9140     50.3155     29.4492     77.1740
  1543.2500     30.5564     49.3194     29.6812     76.3586
  1543.5000     31.4470     48.4335     30.0050     75.0432
  1543.7500     32.6190     47.6604     30.3454     74.7102
  1544.0000     34.1714     47.0008     30.7007     74.6758
  1544.2500     36.1256     46.4570     31.1364     74.2935
  1544.5000     38.3717     46.0334     31.7359     72.4239
  1544.7500     40.7794     45.7333     32.5462     70.3530
  1545.0000     43.2673     45.5549     33.5500     66.4890
  1545.2500     45.7259     45.4917     34.6834     63.6643
  1545.5000     48.0470     45.5399     35.8635     59.3846
  1545.7500     50.2258     45.7043     36.9905     56.6424
  1546.0000     52.2726     45.9954     37.8663     52.7097
  1546.2500     54.0987     46.4202     38.1160     50.0848
  1546.5000     55.5897     46.9736     37.3421     46.1121
  1546.7500     56.7077     47.6355     35.5650     43.7347
  1547.0000     57.5013     48.3770     33.4418     41.3204
  1547.2500     58.1005     49.1700     31.8765     40.6370
  1547.5000     58.6653     49.9941     31.5273     40.5025
  1547.7500     59.2877     50.8382     32.6660     40.5612
  1548.0000     59.9725     51.6987     35.2093     40.5431
  1548.2500     60.6938     52.5755     38.7100     40.6205
  1548.5000     61.4428     53.4682     42.4375     41.3226
  1548.7500     62.2338     54.3756     45.7234     42.1653
  1549.0000     63.0342     55.3003     48.2996     43.1870
  1549.2500     63.7185     56.2528     50.2209     43.1041
  1549.5000     64.1833     57.2498     51.5591     41.5545
  1549.7500     64.4649     58.3029     52.2928     40.0155
  1550.0000     64.6562     59.4044     52.4331     38.1107
  1550.2500     64.7385     60.5224     52.1415     37.5428
  1550.5000     64.5555     61.6153     51.6779     37.6873
  1550.7500     63.9453     62.6525     51.2623     38.0993
  1551.0000     62.8528     63.6254     50.9490     38.6063
  1551.2500     61.3141     64.5450     50.6138     38.7518
  1551.5000     59.4063     65.4383     50.0059     38.9018
  1551.7500     57.2155     66.3486     48.8449     39.2217
