~Version Information
VERS.                      2.0: CWLS Log ASCII Standard - VERSION 2.0
WRAP.                       NO: One line per depth step
~Well Information Block
STRT.FT               745.0000: 
STOP.FT              2945.7000: 
STEP.FT                 0.1000: 
NULL.                -999.2500: 
COMP.          Pioneer Natural Resources: COMPANY
WELL.          Old Yeller 31-32: WELL
FLD.           Purgatoire River: FIELD
LOC.           1832' FEL & 793' FNL--: LOCATION
STAT.                 Colorado: State
CNTY.               Las Animas: COUNTY
CTRY. USA : Country
SECT. 32 : Section
TOWN. 32S : Township
RANG. 67W : Range
SRVC.                Patterson: SERVICE COMPANY
DATE.          Mon Aug 29 11:12:35 2005: LOG DATE
API.           05 071 08356 00: UNIQUE WELL ID
~Curve Information Block
DEPT.FT            0 000 00 00: Depth
DCAL.in                       : CDL Caliper
RHOB.g/cc                     : CDL Bulk Density
RHOC.g/cc                     : CDL Density Correction
DPOR.pu                       : CDL Density Porosity
NPOR.pu                       : Neutron Porosity
GR.GAPI                       : Gamma Ray
~Parameter Information Block
~A  Depth       DCAL        RHOB        RHOC        DPOR        NPOR         GR     
# ...
  2626.6000      7.8835      2.5949      0.0600      3.3387     24.5540    115.7993
  2626.7000      7.8835      2.5795      0.0566      4.2757     24.5359    126.0294
  2626.8000      7.8845      2.5565      0.0269      5.6651     24.2094    127.9049
  2626.9000      7.8845      2.5420      0.0042      6.5484     24.2217    125.2063
  2627.0000      7.8844      2.5455      0.0055      6.3343     24.7611    123.5141
  2627.1000      7.8844      2.5624      0.0186      5.3082     25.2945    123.4962
  2627.2000      7.8844      2.5820      0.0582      4.1203     25.4782    119.7120
  2627.3000      7.8843      2.5926      0.0487      3.4772     25.4763    108.7741
  2627.4000      7.8843      2.5912      0.0206      3.5633     25.4871    100.3130
  2627.5000      7.8857      2.5827      0.0388      4.0780     25.5344    102.2526
  2627.6000      7.8857      2.5693      0.0642      4.8906     25.4369    107.3627
  2627.7000      7.8857      2.5576      0.0166      5.5997     25.2459    107.5093
  2627.8000      7.8873      2.5544      0.0506      5.7922     25.1009    106.3460
  2627.9000      7.8873      2.5570      0.0257      5.6351     24.8946    108.9848
  2628.0000      7.8863      2.5597      0.0038      5.4755     24.7603    113.5777
  2628.1000      7.8863      2.5519      0.0636      5.9439     24.8592    116.6437
  2628.2000      7.8863      2.5310      0.0267      7.2142     24.9124    117.8622
  2628.3000      7.8846      2.5032      0.0234      8.8986     24.8003    118.8750
  2628.4000      7.8846      2.4580      0.0218     11.6351     24.6954    118.2665
  2628.5000      7.8845      2.3866     -0.0421     15.9664     24.6664    114.5961
  2628.6000      7.8845      2.3104     -0.0698     20.5797     24.7992    111.3959
  2628.7000      7.8845      2.2524     -0.0510     24.0990     25.0816    108.8725
  2628.8000      7.8840      2.2049     -0.0226     26.9745     25.3613    103.8236
  2628.9000      7.8840      2.1583     -0.0789     29.8003     25.3325    100.7401
  2629.0000      7.8845      2.1311     -0.0810     31.4491     24.9360    103.1742
  2629.1000      7.8845      2.1381     -0.0366     31.0241     24.8357    105.8095
  2629.2000      7.8845      2.1599      0.0377     29.7017     25.3949    102.9860
  2629.3000      7.8852      2.1679      0.0386     29.2196     26.0628     94.8738
  2629.4000      7.8852      2.1636      0.0308     29.4818     26.1803     86.8445
  2629.5000      7.8839      2.1667      0.0352     29.2883     25.6709     83.8015
  2629.6000      7.8839      2.1804      0.0836     28.4630     25.1583     87.0381
  2629.7000      7.8839      2.2015      0.0597     27.1815     25.0805     94.7484
  2629.8000      7.8825      2.2458      0.0553     24.4962     25.2640    101.3612
  2629.9000      7.8825      2.3194      0.1084     20.0381     25.5057    102.9710
  2630.0000      7.8836      2.3936      0.1021     15.5395     25.5599     99.5616
  2630.1000      7.8836      2.4406      0.0899     12.6922     25.1658     94.2755
  2630.2000      7.8836      2.4676      0.1141     11.0566     24.5181     89.0428
  2630.3000      7.8861      2.5027      0.1122      8.9243     23.7973     82.5930
  2630.4000      7.8861      2.5634      0.1244      5.2456     22.9432     75.6343
  2630.5000      7.8865      2.6362      0.1643      0.8389     21.8485     70.0620
  2630.6000      7.8865      2.6893      0.1673     -2.3829     20.4414     65.8511
  2630.7000      7.8865      2.7111      0.1419     -3.7020     18.7590     62.8014
  2630.8000      7.8844      2.7167      0.1262     -4.0431     17.3088     60.7947
  2630.9000      7.8844      2.7232      0.0778     -4.4386     16.7173     59.2139
  2631.0000      7.8815      2.7318      0.0794     -4.9600     16.4437     58.7369
  2631.1000      7.8815      2.7319      0.1030     -4.9613     15.7664     61.0885
  2631.2000      7.8815      2.7210      0.0274     -4.3027     15.1246     64.8484
  2631.3000      7.8811      2.7064      0.0392     -3.4192     14.8906     65.6674
  2631.4000      7.8811      2.6875      0.0402     -2.2747     14.8429     62.7568
  2631.5000      7.8824      2.6702     -0.0211     -1.2216     14.6671     59.6840
  2631.6000      7.8824      2.6710     -0.0245     -1.2728     14.1261     59.0942
  2631.7000      7.8824      2.6948     -0.0418     -2.7172     13.4754     59.8304
  2631.8000      7.8839      2.7252      0.0408     -4.5599     13.3691     58.3227
  2631.9000      7.8839      2.7358      0.0800     -5.1979     14.0039     54.6289
  2632.0000      7.8864      2.7307      0.0066     -4.8925     14.8796     52.4863
  2632.1000      7.8864      2.7374      0.0343     -5.2980     15.3653     53.5691
  2632.2000      7.8864      2.7484      0.0867     -5.9640     15.1981     56.5852
  2632.3000      7.8889      2.7438      0.0133     -5.6826     14.3687     58.3848
  2632.4000      7.8889      2.7303      0.0228     -4.8652     13.5287     58.4223
  2632.5000      7.8891      2.7134      0.0617     -3.8396     13.3493     61.4947
  2632.6000      7.8891      2.6938     -0.0003     -2.6527     13.6478     66.6438
  2632.7000      7.8891      2.6880     -0.0361     -2.3023     13.9494     65.9266
  2632.8000      7.8912      2.7061      0.0288     -3.4007     14.1099     58.6049
  2632.9000      7.8912      2.7341      0.0055     -5.0981     14.4309     49.9354
  2633.0000      7.8998      2.7540      0.0901     -6.3060     14.9932     44.9427
  2633.1000      7.8998      2.7596      0.0403     -6.6445     15.3050     46.4094
  2633.2000      7.8998      2.7554      0.0552     -6.3895     15.1309     51.6193
  2633.3000      7.9121      2.7351      0.0726     -5.1550     14.7853     54.6236
  2633.4000      7.9121      2.7012     -0.0174     -3.1034     14.5254     52.8992
  2633.5000      7.9188      2.6861     -0.0016     -2.1892     14.3623     49.9287
  2633.6000      7.9188      2.6996      0.0115     -3.0045     14.2792     50.2956
  2633.7000      7.9188      2.7177      0.0126     -4.1015     14.3699     55.0857
  2633.8000      7.9176      2.7241      0.0278     -4.4909     14.7223     62.4994
  2633.9000      7.9176      2.7167      0.0056     -4.0399     15.0403     70.0555
  2634.0000      7.9145      2.7019      0.0200     -3.1428     14.9568     77.0700
  2634.1000      7.9145      2.6929      0.0041     -2.5993     14.5408     80.3227
  2634.2000      7.9145      2.6955      0.0101     -2.7552     14.2028     75.1810
  2634.3000      7.9151      2.7067     -0.0057     -3.4372     14.2188     65.4321
  2634.4000      7.9151      2.7260     -0.0189     -4.6081     14.3248     60.1243
  2634.5000      7.9180      2.7492      0.0683     -6.0126     14.3744     61.6351
  2634.6000      7.9180      2.7686      0.0985     -7.1902     14.6257     67.6309
  2634.7000      7.9180      2.7897      0.0639     -8.4688     15.0553     76.6705
  2634.8000      7.9195      2.8170      0.0630    -10.1214     15.5652     84.8814
  2634.9000      7.9195      2.8386      0.0830    -11.4327     16.1705     88.4577
  2635.0000      7.9203      2.8469      0.0627    -11.9335     16.5889     88.6930
  2635.1000      7.9203      2.8430      0.1014    -11.6998     16.5879     86.4574
  2635.2000      7.9203      2.8343      0.0138    -11.1708     16.4365     80.1737
  2635.3000      7.9218      2.8217      0.0705    -10.4059     16.5103     72.4001
  2635.4000      7.9218      2.7866      0.0575     -8.2812     16.6433     67.2576
  2635.5000      7.9232      2.7410     -0.0740     -5.5156     16.2983     64.1764
  2635.6000      7.9232      2.7267     -0.0192     -4.6509     15.6130     63.5537
  2635.7000      7.9232      2.7437      0.0141     -5.6768     15.1476     66.3118
  2635.8000      7.9230      2.7608      0.0223     -6.7136     15.0559     70.4891
  2635.9000      7.9230      2.7714      0.0034     -7.3560     15.0972     73.3362
  2636.0000      7.9205      2.7775      0.0612     -7.7262     15.0962     72.4421
  2636.1000      7.9205      2.7689      0.0191     -7.2045     15.1536     68.3233
