~Version Information
VERS.                      2.0: CWLS Log ASCII Standard - VERSION 2.0
WRAP.                       NO: One line per depth step
~Well Information Block
STRT.FT               -12.5000: 
STOP.FT              2742.5000: 
STEP.FT                 0.2500: 
NULL.                -999.2500: 
COMP.          Pioneer Natural Resources: COMPANY
WELL.            Rangely 22-28: WELL
FLD.           Purgatorie River: FIELD
LOC.           720' FSL & 1036' FEL--: LOCATION
PROV.                       CO: PROVINCE
CNTY.               Las Animas: COUNTRY
SRVC.                         : SERVICE COMPANY
DATE.          Wed Nov 10 08:59:10 2004: LOG DATE
UWI.                          : UNIQUE WELL ID
~Curve Information Block
DEPT.FT            0 000 00 00: Depth
GR.GAPI                       : Gamma Ray
CCL.                          : Casing Collar Locator
TT3.usec                      : CBL 3' Travel Time
AMP3.mV                       : CBL 3' Amplitude
~Parameter Information Block
~A  Depth        GR         CCL         TT3         AMP3    
   -12.5000   -999.2500   -999.2500   -999.2500   -999.2500
   -12.2500   -999.2500   -999.2500   -999.2500   -999.2500
   -12.0000   -999.2500   -999.2500   -999.2500   -999.2500
   -11.7500   -999.2500   -999.2500   -999.2500   -999.2500
   -11.5000   -999.2500   -999.2500   -999.2500   -999.2500
   -11.2500   -999.2500   -999.2500   -999.2500   -999.2500
   -11.0000   -999.2500   -999.2500    921.0000      0.9810
   -10.7500   -999.2500   -999.2500    921.0000      1.0076
   -10.5000   -999.2500   -999.2500    921.0000      1.0179
   -10.2500   -999.2500   -999.2500    921.0000      1.0191
   -10.0000   -999.2500   -999.2500    921.0000      1.0164
    -9.7500   -999.2500   -999.2500    921.0000      1.0099
    -9.5000   -999.2500   -999.2500    921.0000      0.9977
    -9.2500   -999.2500   -999.2500    921.0000      0.9790
    -9.0000   -999.2500   -999.2500    921.0000      0.9523
    -8.7500   -999.2500   -999.2500    921.0000      0.9154
    -8.5000   -999.2500   -999.2500    921.0000      0.8719
    -8.2500   -999.2500   -999.2500    921.0000      0.8363
    -8.0000   -999.2500   -999.2500    921.0000      0.8261
    -7.7500   -999.2500   -999.2500    921.0000      0.8474
    -7.5000   -999.2500   -999.2500    921.0000      0.8894
    -7.2500   -999.2500   -999.2500    921.0000      0.9370
    -7.0000   -999.2500   -999.2500    921.0000      0.9837
    -6.7500   -999.2500   -999.2500    921.0000      1.0274
    -6.5000   -999.2500   -999.2500    921.0000      1.0604
    -6.2500   -999.2500   -999.2500    921.0000      1.0727
    -6.0000   -999.2500   -999.2500    921.0000      1.0635
    -5.7500   -999.2500      0.0000    921.0000      1.0427
    -5.5000   -999.2500      0.0000    921.0000      1.0203
    -5.2500   -999.2500      0.0000    921.0000      1.0009
    -5.0000   -999.2500      0.0000    921.0000      0.9916
    -4.7500   -999.2500      0.0000    921.0000      1.0056
    -4.5000   -999.2500      0.0000    921.0000      1.0492
    -4.2500   -999.2500      0.0000    921.0000      1.1041
    -4.0000   -999.2500      0.0000    921.0000      1.1349
    -3.7500   -999.2500      0.0000    921.0000      1.1182
    -3.5000   -999.2500      0.0000    921.0000      1.0645
    -3.2500   -999.2500      0.0000    921.0000      1.0108
    -3.0000   -999.2500      0.0000    921.0000      0.9904
    -2.7500   -999.2500      0.0000    921.0000      1.0074
    -2.5000   -999.2500      0.0000    921.0000      1.0366
    -2.2500   -999.2500      0.0000    921.0000      1.0520
    -2.0000   -999.2500      0.0000    921.0000      1.0509
    -1.7500   -999.2500      0.0000    921.0000      1.0479
    -1.5000   -999.2500      1.9659    921.0000      1.0509
    -1.2500   -999.2500      0.0000    921.0000      1.0486
    -1.0000     29.7213      0.0000    921.0000      1.0247
    -0.7500     27.6024      0.0000    921.0000      0.9777
    -0.5000     26.4919     -2.0000    921.0000      0.9234
    -0.2500     25.4716      1.9287    921.0000      0.8667
     0.0000     24.1815      1.8622    921.0000      0.8830
     0.2500     22.9490      0.0000    921.0000      0.9263
     0.5000     22.4225      0.0000    921.0000      0.9775
     0.7500     23.1176      0.0000    921.0000      1.0057
     1.0000     25.2096      0.0000    921.0000      0.9877
     1.2500     28.5879      0.0000    921.0000      0.9309
     1.5000     32.9594      0.0000    921.0000      0.8754
     1.7500     37.8832      0.0000    921.0000      0.8611
     2.0000     42.8285      0.0000    921.0000      0.8918
     2.2500     47.3390      0.0000    921.0000      0.9354
     2.5000     51.2639      0.0000    921.0000      0.9576
     2.7500     54.8596      0.0000    921.0000      0.9484
     3.0000     58.4237      0.0000    921.0000      0.9203
     3.2500     61.6377      0.0000    921.0000      0.8923
     3.5000     63.5122      0.0000    921.0000      0.8790
     3.7500     63.2869      0.0000    921.0000      0.8909
     4.0000     61.3139      0.0000    921.0000      0.9337
     4.2500     58.8754      0.0000    921.0000      1.0043
     4.5000     57.2337      0.0000    921.0000      1.0844
     4.7500     56.9351      0.0000    921.0000      1.1412
     5.0000     57.8264      0.0000    921.0000      1.1425
     5.2500     59.4378      0.0000    920.9719      1.0843
     5.5000     61.2957      0.0000    920.7834      1.0014
     5.7500     62.9579      0.0000    919.8235      0.9447
     6.0000     63.7969      0.0000    915.9990      0.9456
     6.2500     62.9970      0.0000    904.1264      1.0115
     6.5000     60.1158      0.0000    875.4111      1.1492
     6.7500     55.7570      0.0000    821.3416      1.3745
     7.0000     51.5082      0.0000    742.2798      1.6839
     7.2500     48.9290      0.0000    652.9743      2.0315
     7.5000     48.3249      0.0000    576.0027      2.3512
     7.7500     48.4168     -1.6309    526.7341      2.6053
     8.0000     47.4860      0.0000    504.1656      2.7987
     8.2500     45.1314      0.0000    495.0981      2.9521
     8.5000     42.8115      0.0000    485.6745      3.0754
     8.7500     42.5535      0.0000    470.2650      3.1685
     9.0000     45.2817      0.0000    452.1111      3.2394
     9.2500     50.1488      0.0000    437.4790      3.3142
     9.5000     54.9749      0.0000    430.2473      3.4217
     9.7500     57.4286      0.0000    431.1490      3.5665
    10.0000     56.5189      0.0000    439.1241      3.7170
    10.2500     53.3099      0.0000    451.1707      3.8272
    10.5000     49.9677      0.0000    461.8977      3.8681
    10.7500     47.9966      0.0000    465.8970      3.8371
    11.0000     47.4056      0.0000    461.7244      3.7461
    11.2500     47.3153      0.0000    453.0059      3.6132
    11.5000     47.0401      0.0000    445.4650      3.4652
    11.7500     46.5236      0.0000    443.1729      3.3367
    12.0000     45.9828      0.0000    447.0096      3.2578
    12.2500     45.5696      0.0000    455.4867      3.2392
    12.5000     45.6002      0.0000    466.4331      3.2664
    12.7500     46.5937      0.0000    477.9079      3.3078
    13.0000     48.5656      0.0000    488.1870      3.3312
    13.2500     50.5879      0.0000    496.0468      3.3227
    13.5000     51.6122      0.0000    501.5425      3.2947
    13.7500     51.5898      0.0000    506.2786      3.2762
    14.0000     51.2927      0.0000    512.4567      3.2880
    14.2500     51.0717      0.0000    521.0421      3.3243
    14.5000     50.4068      0.0000    530.4990      3.3564
    14.7500     48.8578      0.0000    538.1607      3.3568
    15.0000     46.9601      0.0000    543.4623      3.3242
    15.2500     45.8533      0.0000    548.6416      3.2843
    15.5000     46.2105      0.0000    555.6005      3.2674
    15.7500     47.7370      0.0000    564.1057      3.2797
    16.0000     49.4714      0.0000    574.0633      3.2983
    16.2500     50.2740      0.0000    586.8071      3.2911
    16.5000     49.4405      0.0000    602.0856      3.2424
    16.7500     47.4222      0.0000    615.7131      3.1630
    17.0000     45.8254      0.0000    622.3451      3.0828
    17.2500     46.3477      0.0000    620.2299      3.0319
    17.5000     49.6958      0.0000    612.6180      3.0201
    17.7500     55.3054      0.0000    605.0135      3.0313
    18.0000     61.6045      0.0000    601.1106      3.0390
    18.2500     66.4482      0.0000    600.4779      3.0291
    18.5000     67.8957      0.0000    598.8764      3.0054
    18.7500     65.3414      0.0000    590.8849      2.9775
    19.0000     60.3077      0.0000    574.4151      2.9499
    19.2500     56.0158      0.0000    554.3615      2.9253
    19.5000     55.5186      0.0000    540.6239      2.9101
    19.7500     59.5759      0.0000    540.2817      2.9096
    20.0000     66.1458      0.0000    550.9380      2.9198
    20.2500     72.0314      0.0000    563.1096      2.9312
    20.5000     74.9956      0.0000    570.9039      2.9423
    20.7500     74.6160      0.0000    579.3340      2.9653
