~Version Information
VERS.                      2.0: CWLS Log ASCII Standard - VERSION 2.0
WRAP.                       NO: One line per depth step
~Well Information Block
STRT.FT               950.0000: 
STOP.FT              2417.7000: 
STEP.FT                 0.1000: 
NULL.                -999.2500: 
COMP.          Pioneer Natural Resources: COMPANY
WELL.            Chevron 13-13: WELL
FLD.           Purgatoire River: FIELD
LOC.           1560' FSL & 711' FWL--: LOCATION
CNTY.               Las Animas: COUNTY
SRVC.          Superior Well Services: SERVICE COMPANY
DATE.          Mon Feb 12 14:55:24 2007: LOG DATE
UWI.           05 071 08319 00: UNIQUE WELL ID
STAT.                 Colorado: STATE
~Curve Information Block
DEPT.FT            0 000 00 00: Depth
DCAL.in                       : CDL Caliper
RHOB.g/cc                     : CDL Bulk Density
RHOC.g/cc                     : CDL Density Correction
DPOR.pu                       : CDL Density Porosity
GR.GAPI                       : Gamma Ray
~Parameter Information Block
~A  Depth       DCAL        RHOB        RHOC        DPOR         GR     
# ...
  1711.6000      7.9646      2.5410      0.0806      6.6086    123.4392
  1711.7000      7.9646      2.5560      0.1213      5.6973    132.2211
  1711.8000      7.9677      2.5965      0.1861      3.2435    136.9373
  1711.9000      7.9677      2.6323      0.2451      1.0744    140.9996
  1712.0000      7.9716      2.6351      0.1994      0.9000    144.3601
  1712.1000      7.9716      2.6106      0.0654      2.3883    141.1462
  1712.2000      7.9716      2.5802      0.1113      4.2328    131.3606
  1712.3000      7.9735      2.5499      0.0670      6.0675    128.5371
  1712.4000      7.9735      2.5279      0.0560      7.3993    141.9178
  1712.5000      7.9756      2.5208      0.0710      7.8308    158.6557
  1712.6000      7.9756      2.5043      0.0870      8.8300    162.8956
  1712.7000      7.9756      2.4624      0.0166     11.3695    158.8533
  1712.8000      7.9794      2.4227     -0.0038     13.7737    157.5532
  1712.9000      7.9794      2.4033      0.0121     14.9530    160.7827
  1713.0000      7.9836      2.3831      0.0710     16.1767    161.9022
  1713.1000      7.9836      2.3534      0.0160     17.9772    156.5868
  1713.2000      7.9836      2.3423      0.0438     18.6492    150.6053
  1713.3000      7.9881      2.3742      0.0497     16.7173    149.1509
  1713.4000      7.9881      2.4432      0.1882     12.5359    149.7777
  1713.5000      7.9935      2.5196      0.2355      7.9019    149.7954
  1713.6000      7.9935      2.5784      0.2547      4.3398    152.0969
  1713.7000      7.9935      2.6054      0.2632      2.7034    156.6637
  1713.8000      8.0076      2.5952      0.2254      3.3184    155.5313
  1713.9000      8.0076      2.5736      0.1621      4.6324    144.4186
  1714.0000      8.0247      2.5784      0.1456      4.3364    131.0122
  1714.1000      8.0247      2.6029      0.2035      2.8525    125.5050
  1714.2000      8.0247      2.6074      0.1526      2.5816    128.0969
  1714.3000      8.0157      2.5945      0.0729      3.3637    131.0842
  1714.4000      8.0157      2.5987      0.0539      3.1063    127.9752
  1714.5000      7.9846      2.6157      0.1115      2.0768    119.4809
  1714.6000      7.9846      2.6179      0.0525      1.9450    112.5986
  1714.7000      7.9846      2.6033      0.0485      2.8312    111.4458
  1714.8000      7.9640      2.5843      0.0320      3.9804    113.9657
  1714.9000      7.9640      2.5684      0.0454      4.9451    117.1890
  1715.0000      7.9583      2.5627      0.0038      5.2913    117.6426
  1715.1000      7.9583      2.5751      0.0426      4.5400    113.8683
  1715.2000      7.9583      2.5983      0.0185      3.1338    109.6360
  1715.3000      7.9578      2.6154      0.0618      2.0956    106.4980
  1715.4000      7.9578      2.6161      0.0607      2.0562    104.1487
  1715.5000      7.9614      2.6014      0.0677      2.9474    106.7929
  1715.6000      7.9614      2.5851      0.0341      3.9352    112.7250
  1715.7000      7.9614      2.5756      0.0746      4.5085    116.4939
  1715.8000      7.9724      2.5640      0.0741      5.2123    118.8790
  1715.9000      7.9724      2.5462      0.0381      6.2894    120.6654
  1716.0000      7.9914      2.5320      0.0536      7.1522    122.0975
  1716.1000      7.9914      2.5275      0.0722      7.4218    126.0789
  1716.2000      7.9914      2.5296      0.0543      7.2987    130.3168
  1716.3000      8.0053      2.5224      0.1045      7.7308    131.5051
  1716.4000      8.0053      2.4869      0.0371      9.8879    135.4621
  1716.5000      8.0096      2.4331      0.0039     13.1478    142.5762
  1716.6000      8.0096      2.3934      0.0020     15.5492    145.5069
  1716.7000      8.0096      2.3770     -0.0104     16.5451    145.1873
  1716.8000      8.0115      2.3613      0.0534     17.4991    147.1492
  1716.9000      8.0115      2.3316     -0.0078     19.2986    150.7145
  1717.0000      8.0136      2.3087      0.0149     20.6869    152.8517
  1717.1000      8.0136      2.3183      0.0228     20.1003    153.1665
  1717.2000      8.0136      2.3553      0.1419     17.8622    152.7672
  1717.3000      8.0218      2.3995      0.1583     15.1839    154.9418
  1717.4000      8.0218      2.4497      0.1287     12.1375    162.3754
  1717.5000      8.0650      2.5048      0.2178      8.7970    170.3283
  1717.6000      8.0650      2.5477      0.2616      6.2010    169.7838
  1717.7000      8.0650      2.5713      0.2466      4.7712    159.4305
  1717.8000      8.1583      2.5799      0.2635      4.2475    147.1132
  1717.9000      8.1583      2.5782      0.1858      4.3497    140.4285
  1718.0000      8.2248      2.5748      0.1866      4.5549    141.3894
  1718.1000      8.2248      2.5812      0.1543      4.1696    145.6706
  1718.2000      8.2248      2.6008      0.1577      2.9795    147.9196
  1718.3000      8.1928      2.6167      0.1681      2.0164    145.0322
  1718.4000      8.1928      2.6121      0.0880      2.2955    139.0441
  1718.5000      8.1156      2.5956      0.0508      3.2957    137.4858
  1718.6000      8.1156      2.5834      0.0908      4.0357    141.1248
  1718.7000      8.1156      2.5768      0.0580      4.4353    144.0595
  1718.8000      8.0553      2.5744      0.0458      4.5813    144.7181
  1718.9000      8.0553      2.5708      0.0754      4.7988    144.3725
  1719.0000      8.0318      2.5591      0.0567      5.5098    143.9938
  1719.1000      8.0318      2.5547      0.0391      5.7763    143.2943
  1719.2000      8.0318      2.5689      0.1051      4.9178    141.7819
  1719.3000      8.0311      2.5818      0.0869      4.1345    140.5582
  1719.4000      8.0311      2.5776      0.0929      4.3861    142.4673
  1719.5000      8.0387      2.5591      0.0714      5.5071    149.5157
  1719.6000      8.0387      2.5351      0.0719      6.9631    157.6511
  1719.7000      8.0387      2.5180      0.0702      8.0015    157.7285
  1719.8000      8.0513      2.5122      0.0370      8.3514    151.9237
  1719.9000      8.0513      2.5120      0.0307      8.3646    156.0296
  1720.0000      8.0666      2.5148      0.0528      8.1915    168.5004
  1720.1000      8.0666      2.5249      0.0368      7.5820    170.4193
  1720.2000      8.0666      2.5454      0.0879      6.3373    158.5368
  1720.3000      8.0798      2.5659      0.1382      5.0992    147.1253
  1720.4000      8.0798      2.5684      0.1138      4.9429    143.6133
  1720.5000      8.0914      2.5521      0.0647      5.9327    145.0607
  1720.6000      8.0914      2.5310      0.0901      7.2103    149.9460
  1720.7000      8.0914      2.5036      0.1146      8.8701    158.4505
  1720.8000      8.1056      2.4507      0.1254     12.0802    165.1864
  1720.9000      8.1056      2.3797      0.0385     16.3843    166.5657
  1721.0000      8.1210      2.3294      0.0210     19.4283    166.0889
  1721.1000      8.1210      2.3226      0.0412     19.8423    163.6417
  1721.2000      8.1210      2.3548      0.0614     17.8897    159.5941
  1721.3000      8.1317      2.4073      0.1030     14.7069    158.0826
  1721.4000      8.1317      2.4526      0.1157     11.9647    157.7493
  1721.5000      8.1396      2.4754      0.1479     10.5819    154.0119
  1721.6000      8.1396      2.4875      0.1624      9.8498    146.3157
  1721.7000      8.1396      2.5073      0.1567      8.6456    140.0633
  1721.8000      8.1538      2.5290      0.2248      7.3351    134.6090
  1721.9000      8.1538      2.5323      0.2439      7.1350    126.7199
  1722.0000      8.1788      2.5311      0.1049      7.2066    122.5106
  1722.1000      8.1788      2.5547      0.1568      5.7773    125.5254
  1722.2000      8.1788      2.5853      0.1574      3.9188    130.2972
  1722.3000      8.1727      2.5962      0.0804      3.2626    131.8983
  1722.4000      8.1727      2.6040      0.0778      2.7906    128.6818
  1722.5000      8.1109      2.6284      0.0852      1.3091    120.0571
  1722.6000      8.1109      2.6533      0.1065     -0.2018    111.2102
  1722.7000      8.1109      2.6575      0.0854     -0.4565    111.7174
