~Version Information
VERS.                      2.0: CWLS Log ASCII Standard - VERSION 2.0
WRAP.                       NO: One line per depth step
~Well Information Block
STRT.FT               665.0000: 
STOP.FT              1972.0000: 
STEP.FT                 0.2500: 
NULL.                -999.2500: 
COMP.          Petrogulf Corporation: COMPANY
WELL.          Great Plains 22-21V: WELL
FLD.           Purgatorie River: FIELD
LOC.           63' FNL & 1895' FWL: LOCATION
PROV.                 Colorado: PROVINCE
CNTY.               Las Animas: COUNTRY
SRVC.                Patterson: SERVICE COMPANY
DATE.          Thu Sep 01 07:36:33 2005: LOG DATE
UWI.                          : UNIQUE WELL ID
~Curve Information Block
DEPT.FT            0 000 00 00: Depth
SP.mV                         : DIL Spontaneous Potential
RILD.Ohm-m                    : DIL Deep Resistivity
RILM.Ohm-m                    : DIL Medium Resistivity
RLL3.Ohm-m                    : DIL Shallow Resistivity
GR.GAPI                       : Gamma Ray
~Parameter Information Block
~A  Depth        SP         RILD        RILM        RLL3         GR     
# ...
  1169.0000   2000.0000     12.9331     14.5763   2000.0000    104.2686
  1169.2500   2000.0000     12.3909     13.5354   2000.0000    104.3897
  1169.5000   2000.0000     11.6296     12.3851   2000.0000    129.9112
  1169.7500   2000.0000     11.0498     11.3203   2000.0000    127.5629
  1170.0000   2000.0000     10.4752     10.4202   2000.0000    126.0734
  1170.2500   2000.0000      9.9954      9.6386   2000.0000    116.6866
  1170.5000   2000.0000      9.5192      8.9687   2000.0000    120.9208
  1170.7500   2000.0000      9.2481      8.4554   2000.0000    136.1860
  1171.0000   2000.0000      8.8103      8.1875   2000.0000    146.3104
  1171.2500   2000.0000      8.5734      7.7970   2000.0000    135.7858
  1171.5000   2000.0000      8.3038      7.4714   2000.0000    147.2621
  1171.7500   2000.0000      8.1271      7.2169   2000.0000    143.9690
  1172.0000   2000.0000      7.9368      6.9875   2000.0000    131.2858
  1172.2500   2000.0000      7.7101      6.9122   2000.0000    126.9329
  1172.5000   2000.0000      7.4686      6.9740   2000.0000    119.2997
  1172.7500   2000.0000      7.4442      7.0463   2000.0000    133.5392
  1173.0000   2000.0000      7.3143      7.1277   2000.0000    143.4620
  1173.2500   2000.0000      7.0550      7.1206   2000.0000    137.9543
  1173.5000   2000.0000      6.9797      7.0820   2000.0000    129.2786
  1173.7500   2000.0000      6.8272      7.0773   2000.0000    118.1441
  1174.0000   2000.0000      6.6987      6.9475   2000.0000    123.7302
  1174.2500   2000.0000      6.5580      6.8399   2000.0000    115.5540
  1174.5000   2000.0000      6.5475      6.6008   2000.0000    123.1157
  1174.7500   2000.0000      6.5040      6.4665   2000.0000    116.5155
  1175.0000   2000.0000      6.4227      6.2376   2000.0000    115.7237
  1175.2500   2000.0000      6.3502      6.0424   2000.0000    113.3037
  1175.5000   2000.0000      6.3293      5.8768   2000.0000    130.9932
  1175.7500   2000.0000      6.3566      5.6499   2000.0000    138.9172
  1176.0000   2000.0000      6.5001      5.4765   2000.0000    132.8934
  1176.2500   2000.0000      6.5964      5.4024   2000.0000    137.1952
  1176.5000   2000.0000      6.9518      5.3571   2000.0000    140.6782
  1176.7500   2000.0000      7.2719      5.4776   2000.0000    136.7296
  1177.0000   2000.0000      7.5456      5.7738   2000.0000    110.6610
  1177.2500   2000.0000      7.7503      6.3031   2000.0000    105.0041
  1177.5000   2000.0000      8.0566      6.9967   2000.0000    109.5786
  1177.7500   2000.0000      8.4044      7.9836   2000.0000     82.3719
  1178.0000   2000.0000      8.7063      9.0201   2000.0000     77.4065
  1178.2500   2000.0000      9.1310     10.0893   2000.0000     71.4985
  1178.5000   2000.0000      9.6250     10.8781   2000.0000     74.7510
  1178.7500   2000.0000     10.5600     11.6861   2000.0000     85.8119
  1179.0000   2000.0000     11.5276     12.7470   2000.0000     78.2176
  1179.2500   2000.0000     12.9717     13.9900   2000.0000     71.7139
  1179.5000   2000.0000     14.2518     15.3398   2000.0000     85.8105
  1179.7500   2000.0000     16.1521     17.7312   2000.0000     81.0767
  1180.0000   2000.0000     17.8757     20.8209   2000.0000     70.1844
  1180.2500   2000.0000     18.7978     23.1985   2000.0000     68.4490
  1180.5000   2000.0000     19.4571     25.7681   2000.0000     79.1048
  1180.7500   2000.0000     18.8962     26.4454   2000.0000     79.2972
  1181.0000   2000.0000     18.9733     27.4384   2000.0000     72.6888
  1181.2500   2000.0000     18.5198     27.1099   2000.0000     66.8474
  1181.5000   2000.0000     17.1286     25.9006   2000.0000     72.6836
  1181.7500   2000.0000     16.8418     25.8909   2000.0000     78.9603
  1182.0000   2000.0000     15.4862     24.8072   2000.0000     85.0073
  1182.2500   2000.0000     14.8320     23.3177   2000.0000     84.1461
  1182.5000   2000.0000     13.9363     20.4569   2000.0000     87.9327
  1182.7500   2000.0000     13.2109     18.5886   2000.0000     93.7350
  1183.0000   2000.0000     12.1393     16.1049   2000.0000     96.2661
  1183.2500   2000.0000     11.5255     14.5270   2000.0000    104.8398
  1183.5000   2000.0000     11.3933     12.6516   2000.0000    113.8734
  1183.7500   2000.0000     10.7241     11.1836   2000.0000    122.5278
  1184.0000   2000.0000     10.7015     10.0276   2000.0000    115.3211
  1184.2500   2000.0000     10.6370      9.3683   2000.0000    109.5053
  1184.5000   2000.0000     10.5110      8.9195   2000.0000    116.2291
  1184.7500   2000.0000     10.5634      8.6010   2000.0000    132.5990
  1185.0000   2000.0000     10.7565      8.6111   2000.0000    125.1764
  1185.2500   2000.0000     10.9207      8.8967   2000.0000    127.7736
  1185.5000   2000.0000     10.8394      9.1618   2000.0000    103.1334
  1185.7500   2000.0000     10.6210      9.7935   2000.0000    100.9298
  1186.0000   2000.0000     11.0133     10.4254   2000.0000     80.0230
  1186.2500   2000.0000     11.4356     11.4945   2000.0000     81.6927
  1186.5000   2000.0000     11.6027     12.4960   2000.0000     63.5360
  1186.7500   2000.0000     12.1169     13.9965   2000.0000     56.1883
  1187.0000   2000.0000     12.2433     15.5318   2000.0000     52.4465
  1187.2500   2000.0000     12.7790     16.0649   2000.0000     54.1255
  1187.5000   2000.0000     13.4660     16.5899   2000.0000     51.5814
  1187.7500   2000.0000     14.4852     16.8394   2000.0000     62.8845
  1188.0000   2000.0000     15.3155     17.2001   2000.0000     74.5563
  1188.2500   2000.0000     16.2656     17.7694   2000.0000     74.2336
  1188.5000   2000.0000     17.6070     18.3208   2000.0000     88.3904
  1188.7500   2000.0000     17.4863     19.4321   2000.0000     84.3470
  1189.0000   2000.0000     17.5617     20.2799   2000.0000     80.4050
  1189.2500   2000.0000     16.9068     22.1451   2000.0000     81.4993
  1189.5000   2000.0000     15.5418     23.1364   2000.0000     76.1278
  1189.7500   2000.0000     14.5537     21.7346   2000.0000     83.8693
  1190.0000   2000.0000     13.4312     19.5887   2000.0000     80.0979
  1190.2500   2000.0000     12.2875     17.3696   2000.0000     78.4202
  1190.5000   2000.0000     11.6152     14.6522   2000.0000     73.1762
  1190.7500   2000.0000     11.0227     12.5908   2000.0000     92.7297
  1191.0000   2000.0000     10.5652     10.9152   2000.0000    112.1754
  1191.2500   2000.0000     10.4248      9.8245   2000.0000    123.8720
  1191.5000   2000.0000     10.2371      8.9693   2000.0000    120.4230
  1191.7500   2000.0000      9.9908      8.5691   2000.0000    131.7314
  1192.0000   2000.0000      9.7244      8.4429   2000.0000    141.8927
  1192.2500   2000.0000      9.4388      8.3162   2000.0000    137.0970
  1192.5000   2000.0000      9.1023      8.1769   2000.0000    140.3615
  1192.7500   2000.0000      8.7095      7.9911   2000.0000    138.6530
  1193.0000   2000.0000      8.3784      7.9492   2000.0000    125.9080
  1193.2500   2000.0000      8.1026      7.9010   2000.0000    128.9236
  1193.5000   2000.0000      7.8862      7.8815   2000.0000    121.7420
  1193.7500   2000.0000      7.9989      7.8671   2000.0000    122.7453
  1194.0000   2000.0000      7.8967      8.0002   2000.0000    111.8009
  1194.2500   2000.0000      8.0536      8.0565   2000.0000    116.6473
  1194.5000   2000.0000      8.1849      8.0240   2000.0000    116.5533
  1194.7500   2000.0000      8.3797      7.9785   2000.0000    112.2219
  1195.0000   2000.0000      8.5723      7.8729   2000.0000    111.0524
  1195.2500   2000.0000      8.8400      7.9524   2000.0000    113.5123
  1195.5000   2000.0000      9.1132      8.0528   2000.0000    134.0606
  1195.7500   2000.0000      9.3933      8.4398   2000.0000    137.0062
  1196.0000   2000.0000      9.4027      8.9100   2000.0000    100.8973
  1196.2500   2000.0000      9.4804      9.3337   2000.0000     86.6277
  1196.5000   2000.0000      9.7271      9.7197   2000.0000     97.0816
  1196.7500   2000.0000      9.8868     10.1712   2000.0000     97.6838
