~Version Information
VERS.                      2.0: CWLS Log ASCII Standard - VERSION 2.0
WRAP.                       NO: One line per depth step
~Well Information Block
STRT.FT               259.0000: 
STOP.FT              2379.0000: 
STEP.FT                 0.2500: 
NULL.                -999.2500: 
COMP.          Pioneer Natural Resources: COMPANY
WELL.          Foothills 12-36: WELL
FLD.           Purgatoire River: FIELD
LOC.           2450' FNL & 201' FWL: LOCATION
PROV.                 Colorado: PROVINCE
CNTY.               Las Animas: COUNTRY
SRVC.                Patterson: SERVICE COMPANY
DATE.          Thu Apr 21 09:19:57 2005: LOG DATE
UWI.           05 071 08339 00: UNIQUE WELL ID
~Curve Information Block
DEPT.FT            0 000 00 00: Depth
DCAL.in                       : CDL Caliper
RHOB.g/cc                     : CDL Bulk Density
RHOC.g/cc                     : CDL Density Correction
DPOR.pu                       : CDL Density Porosity
GR.GAPI                       : Gamma Ray
NPOR.pu                       : Neutron Porosity
~Parameter Information Block
~A  Depth       DCAL        RHOB        RHOC        DPOR         GR         NPOR    
# ...
  2203.0000      7.8807      2.4279     -0.0488     13.4635     43.7549     19.0542
  2203.2500      7.8695      2.4984      0.0656      9.1881     45.2488     20.5718
  2203.5000      7.8633      2.4838      0.0005     10.0733     41.4504     20.5734
  2203.7500      7.8585      2.4990      0.0492      9.1493     44.8586     18.4635
  2204.0000      7.8560      2.4706      0.0449     10.8716     46.4712     20.0358
  2204.2500      7.8536      2.4962      0.0236      9.3188     44.9176     20.0222
  2204.5000      7.8507      2.5073      0.0395      8.6466     48.4329     17.0884
  2204.7500      7.8488      2.4818     -0.0014     10.1934     47.8782     17.6062
  2205.0000      7.8494      2.5152      0.0145      8.1723     40.6139     18.0293
  2205.2500      7.8517      2.4861      0.0187      9.9339     38.0204     18.1613
  2205.5000      7.8503      2.4526      0.0145     11.9613     36.2571     15.8214
  2205.7500      7.8450      2.4639      0.0383     11.2797     48.1031     14.8945
  2206.0000      7.8410      2.4849      0.0889     10.0054     44.3093     18.7989
  2206.2500      7.8402      2.4656      0.0324     11.1737     42.6218     20.9619
  2206.5000      7.8430      2.4503      0.0152     12.1024     45.3275     16.9063
  2206.7500      7.8489      2.3792      0.0137     16.4101     53.1476     18.8320
  2207.0000      7.8518      2.1189     -0.0677     32.1870     56.6730     25.5567
  2207.2500      7.8504      2.0624     -0.0932     35.6106     65.5662     27.8271
  2207.5000      7.8462      2.2208      0.1651     26.0107     66.7304     26.8087
  2207.7500      7.8401      2.3315      0.1740     19.3021     74.7218     27.2621
  2208.0000      7.8392      2.4474      0.0535     12.2765     86.4006     27.9371
  2208.2500      7.8455      2.4797      0.0623     10.3214     78.0945     27.5318
  2208.5000      7.8519      2.5110      0.0735      8.4223     67.7871     27.1619
  2208.7500      7.8526      2.5119      0.0346      8.3721     59.6016     25.4189
  2209.0000      7.8469      2.5694      0.0921      4.8838     55.3410     24.1874
  2209.2500      7.8358      2.6015      0.0114      2.9414     44.0654     24.2675
  2209.5000      7.8249      2.6433      0.0499      0.4046     31.0984     24.1633
  2209.7500      7.8229      2.6674      0.0845     -1.0568     29.9655     24.8087
  2210.0000      7.8266      2.6668      0.0339     -1.0173     30.6853     25.6958
  2210.2500      7.8317      2.6500      0.0370      0.0018     31.6966     26.0596
  2210.5000      7.8349      2.6535      0.0463     -0.2120     34.9901     25.0852
  2210.7500      7.8344      2.6509      0.0661     -0.0564     33.9434     24.8643
  2211.0000      7.8301      2.6010     -0.0404      2.9715     46.4152     26.2226
  2211.2500      7.8216      2.6082      0.0121      2.5350     47.7926     24.5617
  2211.5000      7.8123      2.6740      0.0401     -1.4538     55.5631     25.1261
  2211.7500      7.8062      2.6682      0.0366     -1.1046     62.1557     26.0691
  2212.0000      7.8064      2.5914      0.0541      3.5510     86.1137     24.7452
  2212.2500      7.8171      2.5313      0.0054      7.1962     87.0640     22.6709
  2212.5000      7.8385      2.5046      0.0251      8.8117     81.8905     22.6606
  2212.7500      7.8669      2.4857      0.0125      9.9554     89.8045     23.1160
  2213.0000      7.8944      2.4574      0.0142     11.6714     99.2951     25.2881
  2213.2500      7.9092      2.4554      0.0136     11.7942     97.4644     25.5674
  2213.5000      7.9123      2.4484     -0.0143     12.2168     70.3945     26.7603
  2213.7500      7.9038      2.4948      0.0165      9.4063     62.6061     25.5834
  2214.0000      7.8860      2.5040      0.0291      8.8486     60.3852     24.3266
  2214.2500      7.8706      2.5407      0.0190      6.6216     66.8105     25.3273
  2214.5000      7.8630      2.5644      0.0403      5.1901     67.2386     27.6608
  2214.7500      7.8597      2.5465     -0.0119      6.2754     77.9383     27.4532
  2215.0000      7.8504      2.5262      0.0325      7.5021     86.1253     27.3080
  2215.2500      7.8354      2.4889      0.0583      9.7664     83.1344     27.0650
  2215.5000      7.8322      2.3794     -0.0108     16.4012     72.7475     27.3193
  2215.7500      7.8471      2.3251     -0.0135     19.6914     81.0778     27.7787
  2216.0000      7.8634      2.3670      0.1195     17.1542     92.2602     27.3975
  2216.2500      7.8721      2.3393      0.0467     18.8295     93.3167     28.1743
  2216.5000      7.8824      2.3065      0.0538     20.8153     89.8919     29.2057
  2216.7500      7.8941      2.2819      0.0632     22.3087     80.8186     31.4205
  2217.0000      7.8911      2.2505      0.0494     24.2145     70.0367     29.7040
  2217.2500      7.8700      2.2128      0.0795     26.4961     71.9136     29.0325
  2217.5000      7.8584      2.0848     -0.0201     34.2522     71.9030     31.1231
  2217.7500      7.8604      2.1033      0.0689     33.1335     86.7664     32.6203
  2218.0000      7.8610      2.1445      0.1172     30.6341     76.0195     32.4237
  2218.2500      7.8608      2.1809      0.0745     28.4285     78.0167     32.1239
  2218.5000      7.8662      2.3958      0.1927     15.4060     86.3748     29.8031
  2218.7500      7.8779      2.4349      0.1814     13.0365     81.2191     27.4619
  2219.0000      7.8867      2.4601      0.1141     11.5113     73.7433     28.9863
  2219.2500      7.8832      2.5085      0.1024      8.5731     70.4041     28.1430
  2219.5000      7.8708      2.5455      0.0743      6.3316     67.6749     25.0416
  2219.7500      7.8619      2.5713      0.1233      4.7713     71.4481     23.7947
  2220.0000      7.8594      2.5256      0.0544      7.5377     62.2165     24.7339
  2220.2500      7.8609      2.4801      0.0063     10.2953     53.4384     23.3362
  2220.5000      7.8669      2.4846      0.0571     10.0239     66.7043     24.3874
  2220.7500      7.8786      2.4910      0.0030      9.6384     74.0818     25.2539
  2221.0000      7.8901      2.4430      0.0126     12.5453     78.7874     25.2174
  2221.2500      7.8930      2.3848     -0.0095     16.0709     76.8535     24.9520
  2221.5000      7.8881      2.4199     -0.0061     13.9425     83.2703     26.3762
  2221.7500      7.8765      2.4257      0.0505     13.5940     80.2865     26.7902
  2222.0000      7.8559      2.4224      0.0597     13.7967     85.2991     27.0971
  2222.2500      7.8365      2.4165      0.0434     14.1505     81.5180     26.2316
  2222.5000      7.8291      2.4486      0.0695     12.2033     85.6846     23.5834
  2222.7500      7.8316      2.4935      0.0751      9.4824     86.2165     24.9393
  2223.0000      7.8392      2.4617      0.0171     11.4094     78.5514     26.2500
  2223.2500      7.8490      2.4763      0.0460     10.5301     79.5435     26.3207
  2223.5000      7.8572      2.4221      0.0230     13.8136     90.3549     27.1972
  2223.7500      7.8658      2.3844     -0.0197     16.0959     91.2144     24.1512
  2224.0000      7.8723      2.3888     -0.0429     15.8311     90.0693     25.7527
  2224.2500      7.8700      2.4487      0.0680     12.1973     89.2280     28.6966
  2224.5000      7.8660      2.4279      0.0483     13.4610     92.7429     27.1887
  2224.7500      7.8628      2.3867      0.0223     15.9605     87.5886     27.5313
  2225.0000      7.8555      2.3978      0.0281     15.2869     81.0768     27.8993
  2225.2500      7.8516      2.4142      0.0269     14.2885     83.3261     26.9354
  2225.5000      7.8567      2.3672      0.0079     17.1416     87.8985     28.3824
  2225.7500      7.8652      2.3685      0.0213     17.0636     82.7552     28.6010
  2226.0000      7.8648      2.3577      0.0845     17.7144     81.5312     28.2485
  2226.2500      7.8563      2.1658      0.0507     29.3467     65.7503     30.0607
  2226.5000      7.8571      1.8282     -0.0803     49.8088     63.1771     32.4134
  2226.7500      7.8876      1.8413     -0.0690     49.0126     66.4664     32.3924
