~Version Information
 VERS.                      2.0: CWLS Log ASCII Standard - VERSION 2.0
 WRAP.                       NO: One line per depth step
 ~Well Information Block
 STRT.FT               115.0000: 
 STOP.FT              1768.2500: 
 STEP.FT                 0.2500: 
 NULL.                -999.2500: 
 COMP.          Petrogulf Corporation: COMPANY
 WELL.           Parsons 23-15V: WELL
 FLD.           Purgatorie River: FIELD
 LOC.           2095' FSL & 1817' FWL--API 05 071 07556 00----: LOCATION
 CNTY.               Las Animas: COUNTY
 SRVC.                         : SERVICE COMPANY
 DATE.          Fri Apr 19 16:58:41 2002: LOG DATE
 UWI.                          : UNIQUE WELL ID
 STAT.                       CO: STATE
 PROV.                         :Province
 ~Curve Information Block
 DEPT.FT            0 000 00 00: Depth
 SP.mV                         : DIL Spontaneous Potential
 RILD.Ohm-m                    : DIL Deep Resistivity
 RILM.Ohm-m                    : DIL Medium Resistivity
 RLL3.Ohm-m                    : DIL Shallow Resistivity
 GR.GAPI                       : Gamma Ray
 ~Parameter Information Block
 ~A  Depth        SP         RILD        RILM        RLL3         GR     
# ...
   899.0000   -219.3760     14.9410     16.0975     14.3495    181.6270
   899.2500   -219.3351     14.3005     15.0667     12.8939    179.0286
   899.5000   -219.2815     13.6775     14.2078     12.2410    174.2135
   899.7500   -219.2223     13.0907     13.4823     12.0356    169.4168
   900.0000   -219.1656     12.5562     12.8545     12.0171    166.0034
   900.2500   -219.1132     12.0881     12.2994     12.0445    164.6534
   900.5000   -219.0540     11.6979     11.8048     12.0604    165.5697
   900.7500   -218.9688     11.3937     11.3681     12.0444    168.2338
   901.0000   -218.8410     11.1788     10.9931     11.9768    171.1210
   901.2500   -218.6661     11.0521     10.6868     11.8285    172.4286
   901.5000   -218.4512     11.0093     10.4584     11.5846    171.6396
   901.7500   -218.2116     11.0451     10.3173     11.2814    170.0197
   902.0000   -217.9658     11.1549     10.2721     11.0151    169.0410
   902.2500   -217.7318     11.3345     10.3295     10.9019    168.5294
   902.5000   -217.5235     11.5780     10.4950     11.0151    166.9412
   902.7500   -217.3489     11.8776     10.7737     11.3505    163.2640
   903.0000   -217.2093     12.2246     11.1718     11.8588    157.8685
   903.2500   -217.1016     12.6129     11.6969     12.5244    151.4931
   903.5000   -217.0239     13.0417     12.3578     13.4212    144.4898
   903.7500   -216.9797     13.5165     13.1639     14.6941    137.4970
   904.0000   -216.9781     14.0443     14.1237     16.4952    131.8169
   904.2500   -217.0274     14.6273     15.2410     18.9461    128.3855
   904.5000   -217.1285     15.2548     16.5085     22.1160    126.7788
   904.7500   -217.2710     15.8995     17.8974     25.9107    125.5189
   905.0000   -217.4370     16.5169     19.3456     29.8863    123.1760
   905.2500   -217.6079     17.0517     20.7505     33.2432    119.3946
   905.5000   -217.7695     17.4493     21.9719     35.2022    115.3709
   905.7500   -217.9118     17.6702     22.8535     35.5061    113.2509
   906.0000   -218.0261     17.7010     23.2577     34.5354    114.5270
   906.2500   -218.1042     17.5560     23.1036     32.8903    118.7797
   906.5000   -218.1402     17.2686     22.3948     30.8696    124.2282
   906.7500   -218.1325     16.8762     21.2310     28.3613    129.5816
   907.0000   -218.0842     16.4094     19.7891     25.1978    135.0190
   907.2500   -218.0039     15.8867     18.2732     21.5379    141.2478
   907.5000   -217.9052     15.3179     16.8560     17.8912    148.0198
   907.7500   -217.8029     14.7099     15.6413     14.8372    153.9554
   908.0000   -217.7071     14.0735     14.6598     12.7515    157.4981
   908.2500   -217.6214     13.4267     13.8876     11.7144    157.7045
   908.5000   -217.5478     12.7941     13.2697     11.5582    154.6101
   908.7500   -217.4923     12.2029     12.7426     11.9486    149.5758
   909.0000   -217.4625     11.6776     12.2545     12.4731    145.2409
   909.2500   -217.4586     11.2353     11.7793     12.7630    144.4979
   909.5000   -217.4673     10.8839     11.3193     12.6333    148.7728
   909.7500   -217.4669     10.6230     10.8970     12.1517    156.8435
   910.0000   -217.4386     10.4464     10.5393     11.5667    165.5171
   910.2500   -217.3736     10.3440     10.2656     11.1361    171.9545
   910.5000   -217.2705     10.3039     10.0818     10.9769    175.4921
   910.7500   -217.1310     10.3134      9.9826     11.0332    177.1254
   911.0000   -216.9595     10.3610      9.9560     11.1619    177.6573
   911.2500   -216.7646     10.4387      9.9904     11.2586    176.9614
   911.5000   -216.5587     10.5445     10.0789     11.3262    174.8634
   911.7500   -216.3554     10.6827     10.2203     11.4545    171.9710
   912.0000   -216.1665     10.8622     10.4173     11.7527    169.2699
   912.2500   -216.0006     11.0921     10.6722     12.2897    167.1879
   912.5000   -215.8617     11.3789     10.9848     13.0585    165.1368
   912.7500   -215.7540     11.7263     11.3537     13.9510    161.8036
   913.0000   -215.6846     12.1361     11.7788     14.7655    156.1833
   913.2500   -215.6615     12.6102     12.2671     15.3124    148.7886
   913.5000   -215.6857     13.1504     12.8354     15.5924    141.6264
   913.7500   -215.7464     13.7585     13.5114     15.8837    136.5779
   914.0000   -215.8234     14.4341     14.3294     16.6212    133.8949
   914.2500   -215.8971     15.1736     15.3222     18.1744    132.2878
   914.5000   -215.9563     15.9686     16.5104     20.7063    130.0463
   914.7500   -215.9982     16.8040     17.8929     24.1413    125.9721
   915.0000   -216.0249     17.6573     19.4420     28.1681    119.8792
   915.2500   -216.0434     18.4987     21.1055     32.2939    112.8381
   915.5000   -216.0638     19.2894     22.8155     36.0223    106.7397
   915.7500   -216.0933     19.9808     24.4939     39.0976    102.9440
   916.0000   -216.1318     20.5164     26.0442     41.6092    101.1701
   916.2500   -216.1757     20.8419     27.3335     43.8424     99.9611
   916.5000   -216.2227     20.9191     28.1828     45.9779     98.1467
   916.7500   -216.2712     20.7371     28.3993     47.8187     95.6174
   917.0000   -216.3173     20.3160     27.8549     48.6828     93.2569
   917.2500   -216.3586     19.7034     26.5707     47.6279     92.9859
   917.5000   -216.3976     18.9661     24.7319     44.0555     97.6237
   917.7500   -216.4410     18.1758     22.6153     38.2889    109.4683
   918.0000   -216.4923     17.3923     20.4862     31.5244    128.0301
   918.2500   -216.5477     16.6523     18.5334     25.1341    149.0630
   918.5000   -216.5978     15.9676     16.8579     19.9781    166.4280
   918.7500   -216.6298     15.3312     15.4923     16.2588    175.7155
   919.0000   -216.6276     14.7285     14.4249     13.8018    176.6585
   919.2500   -216.5739     14.1486     13.6178     12.3612    172.3531
   919.5000   -216.4578     13.5923     13.0185     11.7394    166.3568
   919.7500   -216.2799     13.0724     12.5685     11.7484    160.6237
   920.0000   -216.0506     12.6090     12.2116     12.1323    155.8309
   920.2500   -215.7854     12.2229     11.9048     12.5686    152.7305
   920.5000   -215.5050     11.9315     11.6261     12.7818    152.3597
   920.7500   -215.2345     11.7468     11.3774     12.6736    154.9876
   921.0000   -214.9969     11.6746     11.1791     12.3393    159.4350
   921.2500   -214.8048     11.7139     11.0606     11.9631    163.5345
   921.5000   -214.6619     11.8570     11.0513     11.7044    165.1076
   921.7500   -214.5757     12.0899     11.1738     11.6746    162.9352
   922.0000   -214.5629     12.3950     11.4409     11.9888    157.4269
   922.2500   -214.6398     12.7547     11.8545     12.7963    150.3210
   922.5000   -214.8049     13.1565     12.4048     14.2117    143.2793
   922.7500   -215.0318     13.5964     13.0702     16.1702    136.7818
   923.0000   -215.2790     14.0786     13.8205     18.3394    130.5847
   923.2500   -215.5051     14.6125     14.6249     20.2354    124.8550
   923.5000   -215.6804     15.2096     15.4630     21.5138    120.2902
   923.7500   -215.7911     15.8815     16.3354     22.1900    117.2687
   924.0000   -215.8410     16.6401     17.2664     22.5580    115.3542
   924.2500   -215.8503     17.4957     18.2976     22.9145    113.6359
   924.5000   -215.8462     18.4521     19.4723     23.4291    111.2076
   924.7500   -215.8486     19.4974     20.8171     24.2966    107.3941
   925.0000   -215.8616     20.5968     22.3265     25.9028    102.0437
   925.2500   -215.8768     21.6939     23.9595     28.6817     95.7448
   925.5000   -215.8835     22.7218     25.6470     32.7078     89.3711
   925.7500   -215.8765     23.6181     27.3053     37.4080     83.4315
   926.0000   -215.8557     24.3322     28.8468     41.7322     78.3438
   926.2500   -215.8230     24.8266     30.1870     44.7053     75.1203
   926.5000   -215.7831     25.0789     31.2480     45.8891     74.9891
   926.7500   -215.7440     25.0845     31.9621     45.3928     78.3916
