~Version Information
VERS.                      2.0: CWLS Log ASCII Standard - VERSION 2.0
WRAP.                       NO: One line per depth step
~Well Information Block
STRT.FT               -12.2500: 
STOP.FT              2183.0000: 
STEP.FT                 0.2500: 
NULL.                -999.2500: 
COMP.          Petrogulf Corporation: COMPANY
WELL.            Montoya 6-14R: WELL
FLD.           Purgatorie River: FIELD
LOC.           867' FSL & 751' FWL: LOCATION
CNTY.               Las Animas: COUNTY
SRVC.                         : SERVICE COMPANY
DATE.          Mon Nov 22 13:07:31 2004: LOG DATE
UWI.           05-071-08242-00: UNIQUE WELL ID
STAT.                 Colorado: STATE
~Curve Information Block
DEPT.FT            0 000 00 00: Depth
TT3.usec                      : CBL 3' Travel Time
AMP3.mV                       : CBL 3' Amplitude
GR.GAPI                       : Gamma Ray
CCL.                          : Casing Collar Locator
~Parameter Information Block
~A  Depth       TT3         AMP3         GR         CCL     
# ...
  1997.7500    783.6138      4.6569     64.4472      0.0000
  1998.0000    787.2903      4.5606     65.6913      0.0000
  1998.2500    792.9088      4.4425     64.9783      0.0000
  1998.5000    801.3566      4.2861     62.6592      0.0000
  1998.7500    812.8219      4.0701     60.1922      0.0000
  1999.0000    825.9146      3.7880     58.9018      0.0000
  1999.2500    837.8151      3.4553     59.1054      0.0000
  1999.5000    845.5024      3.1036     60.5430      0.0000
  1999.7500    846.7794      2.7666     63.2742      0.0000
  2000.0000    841.0751      2.4673     68.0314      0.0000
  2000.2500    830.6633      2.2140     76.0209      0.0000
  2000.5000    820.8271      2.0037     88.2675      0.0000
  2000.7500    817.5768      1.8261    104.4560      0.0000
  2001.0000    824.1497      1.6693    122.2499      0.0000
  2001.2500    838.0178      1.5245    138.3397      0.0000
  2001.5000    850.6736      1.3920    150.4180      0.0000
  2001.7500    852.9057      1.2809    158.1321      0.0000
  2002.0000    842.3742      1.2027    162.5535      0.0000
  2002.2500    825.0801      1.1624    165.1613      0.0000
  2002.5000    809.1257      1.1567    167.0223      0.0000
  2002.7500    798.6077      1.1783    168.3557      0.0000
  2003.0000    793.2171      1.2196    168.5973      0.0000
  2003.2500    791.0757      1.2748    167.0717      0.0000
  2003.5000    790.7587      1.3398    163.8658      0.0000
  2003.7500    791.5792      1.4128    159.9174      0.0000
  2004.0000    793.0621      1.4952    156.0939      0.0000
  2004.2500    794.3575      1.5934    152.7005      0.0000
  2004.5000    794.1149      1.7151    150.2675      0.0000
  2004.7500    791.0953      1.8634    149.9809      0.0000
  2005.0000    785.3498      2.0332    152.5268      0.0000
  2005.2500    779.1490      2.2164    157.0705      0.0000
  2005.5000    776.6307      2.4051    162.0818      0.0000
  2005.7500    781.7556      2.5880    166.7190      0.0000
  2006.0000    795.9811      2.7453    170.7885      0.0000
  2006.2500    817.1669      2.8539    173.8424      0.0000
  2006.5000    839.4873      2.8989    175.1517      0.0000
  2006.7500    854.4117      2.8808    174.6525      0.0000
  2007.0000    854.5820      2.8125    173.4930      0.0000
  2007.2500    839.3064      2.7139    173.3542      0.0000
  2007.5000    815.5677      2.6076    175.2026      0.0000
  2007.7500    792.6379      2.5136    178.6741      0.0000
  2008.0000    776.5032      2.4413    182.3085      0.0000
  2008.2500    768.8098      2.3862    184.3085      0.0000
  2008.5000    768.2651      2.3346    183.7717      0.0000
  2008.7500    771.9023      2.2736    181.6048      0.0000
  2009.0000    776.5100      2.1974    179.7650      0.0000
  2009.2500    780.2861      2.1084    179.4071      0.0000
  2009.5000    783.3817      2.0142    180.1541      0.0000
  2009.7500    786.6526      1.9242    180.9555      0.0000
  2010.0000    789.8525      1.8462    180.9060      0.0000
  2010.2500    791.2634      1.7825    179.3907      0.0000
  2010.5000    789.6422      1.7275    176.2883      0.0000
  2010.7500    786.3484      1.6717    172.1512      0.0000
  2011.0000    784.5387      1.6103    167.8780      0.0000
  2011.2500    785.9426      1.5496    164.2624      0.0000
  2011.5000    789.2534      1.5013    161.6806      0.0000
  2011.7500    791.9294      1.4713    159.4869      0.0000
  2012.0000    792.6752      1.4546    155.5473      0.0000
  2012.2500    791.8635      1.4397    147.1329      0.0000
  2012.5000    790.1367      1.4182    132.9540      0.0000
  2012.7500    786.8591      1.3899    114.4374      0.0000
  2013.0000    779.3091      1.3622     95.0464      0.0000
  2013.2500    763.6809      1.3439     78.3641      0.0000
  2013.5000    738.8603      1.3397     66.4357      0.0000
  2013.7500    710.5374      1.3478     59.2965      0.0000
  2014.0000    689.5266      1.3624     55.6504      0.0000
  2014.2500    683.2692      1.3796     53.9896      0.0000
  2014.5000    689.7631      1.4014     53.3458      0.0000
  2014.7500    701.5798      1.4379     53.3220      0.0000
  2015.0000    714.1656      1.5053     53.7820      0.0000
  2015.2500    728.3026      1.6183     54.6740      0.0000
  2015.5000    745.8392      1.7800     55.9203      0.0000
  2015.7500    765.1527      1.9760     57.2089      0.0000
  2016.0000    781.0494      2.1817     58.0046      0.0000
  2016.2500    788.6098      2.3827     57.9640      0.0000
  2016.5000    786.6296      2.5929     57.2983      0.0000
  2016.7500    777.2139      2.8479     56.6642      0.0000
  2017.0000    762.4715      3.1740     56.8031      0.0000
  2017.2500    743.1082      3.5570     58.2602      0.0000
  2017.5000    720.9995      3.9365     61.1018      0.0000
  2017.7500    702.2077      4.2291     64.5471      0.0000
  2018.0000    695.2228      4.3674     67.0232      0.0000
  2018.2500    704.7367      4.3393     67.0983      0.0000
  2018.5000    727.5195      4.1997     64.6859      0.0000
  2018.7500    754.7459      4.0271     61.2342      0.0000
  2019.0000    777.4924      3.8576     58.6443      0.0000
  2019.2500    790.6825      3.6693     58.1384      0.0000
  2019.5000    794.3148      3.4303     59.9602      0.0000
  2019.7500    792.1274      3.1476     63.5229      0.0000
  2020.0000    788.3645      2.8681     67.6217      0.0000
  2020.2500    785.1055      2.6486     70.9367      0.0000
  2020.5000    781.9353      2.5333     72.7099      0.0000
  2020.7500    777.2716      2.5419     73.0308      0.0000
  2021.0000    769.8656      2.6641     72.5241      0.0000
  2021.2500    759.9862      2.8636     71.8310      0.0000
  2021.5000    749.4849      3.0924     71.3777      0.0000
  2021.7500    740.3188      3.3061     71.4388      0.0000
  2022.0000    732.9740      3.4705     72.0683      0.0000
  2022.2500    726.7660      3.5616     72.7785      0.0000
  2022.5000    721.3544      3.5673     72.5927      0.0000
  2022.7500    717.3031      3.4872     70.8052      0.0000
  2023.0000    715.4110      3.3300     67.6247      0.0000
  2023.2500    716.0186      3.1151     63.9597      0.0000
  2023.5000    718.6896      2.8766     60.7704      0.0000
  2023.7500    722.1436      2.6570     58.6784      0.0000
  2024.0000    724.9443      2.4866     57.8894      0.0000
  2024.2500    726.7193      2.3658     58.2731      0.0000
  2024.5000    728.1487      2.2744     59.4684      0.0000
  2024.7500    729.3751      2.2001     60.9106      0.0000
  2025.0000    729.3756      2.1605     61.9965      0.0000
  2025.2500    727.5183      2.1981     62.5119      0.0000
  2025.5000    724.8553      2.3522     62.8587      0.0000
  2025.7500    723.4230      2.6265     63.6449      0.0000
  2026.0000    724.9951      2.9745     65.0405      0.0000
  2026.2500    730.2922      3.3161     66.6616      0.0000
  2026.5000    738.3254      3.5785     68.0675      0.0000
  2026.7500    746.6453      3.7299     69.1522      0.0000
  2027.0000    753.0475      3.7768     70.0188      0.0000
  2027.2500    756.9575      3.7335     70.7603      0.0000
  2027.5000    758.9935      3.6021     71.4142      0.0000
  2027.7500    759.5465      3.3814     71.8137      0.0000
  2028.0000    758.1457      3.0876     71.4194      0.0000
  2028.2500    754.2046      2.7574     69.6419      0.0000
  2028.5000    748.2929      2.4356     66.4978      0.0000
  2028.7500    742.5349      2.1621     62.8460      0.0000
  2029.0000    739.6899      1.9630     59.9627      0.0000
  2029.2500    741.7723      1.8476     58.8931      0.0000
  2029.5000    748.9201      1.8091     59.9157      0.0000
  2029.7500    758.8727      1.8305     62.2369      0.0000
  2030.0000    767.9009      1.8888     64.2916      0.0000
  2030.2500    773.0226      1.9619     64.8194      0.0000
  2030.5000    773.5895      2.0358     63.9302      0.0000
  2030.7500    770.9625      2.1045     63.0009      0.0000
  2031.0000    767.3351      2.1632     63.4733      0.0000
