~Version Information
VERS.                      2.0: CWLS Log ASCII Standard - VERSION 2.0
WRAP.                       NO: One line per depth step
~Well Information Block
STRT.FT                -3.0000: 
STOP.FT              1828.0000: 
STEP.FT                 0.2500: 
NULL.                -999.2500: 
COMP.          Pioneer Natural Resources: COMPANY
WELL.           Guajardo 24-16: WELL
FLD.           Purgatorie River: FIELD
LOC.           883' FSL & 2147' FWL--: LOCATION
PROV.                       CO: PROVINCE
CNTY.               Las Animas: COUNTRY
SRVC.          Patterson Wireline: SERVICE COMPANY
DATE.          Wed Aug 10 11:02:25 2005: LOG DATE
UWI.           05 071 08377 00: UNIQUE WELL ID
~Curve Information Block
DEPT.FT            0 000 00 00: Depth
CCL.                          : Casing Collar Locator
TT3.usec                      : CBL 3' Travel Time
AMP3.mV                       : CBL 3' Amplitude
GR.GAPI                       : Gamma Ray
~Parameter Information Block
~A  Depth       CCL         TT3         AMP3         GR     
# ...
   466.0000      0.0000   1098.1373     11.6205     95.1027
   466.2500      0.0000   1099.0724     11.5483     91.8112
   466.5000      0.0000   1100.4537     11.4552     86.4759
   466.7500      0.0000   1098.7997     11.3648     81.0479
   467.0000      0.0000   1090.1437     11.3017     77.0031
   467.2500      0.0000   1072.1735     11.2753     74.7032
   467.5000      0.0000   1046.4121     11.2716     73.6475
   467.7500      0.0000   1018.8141     11.2666     72.8053
   468.0000      0.0000    998.0402     11.2486     71.0591
   468.2500      0.0000    992.1628     11.2286     68.0065
   468.5000      0.0000   1004.1138     11.2280     64.4182
   468.7500      0.0000   1027.7847     11.2572     61.6332
   469.0000      0.0000   1050.3848     11.3083     60.3969
   469.2500      0.0000   1062.0034     11.3655     60.3021
   469.5000      0.0000   1063.4756     11.4211     60.3055
   469.7500      0.0000   1064.1132     11.4784     59.7876
   470.0000      0.0000   1072.0533     11.5390     59.2022
   470.2500      0.0000   1087.4349     11.5953     59.6891
   470.5000      0.0000   1104.2275     11.6377     62.0208
   470.7500      0.0000   1116.7404     11.6649     65.8335
   471.0000      0.0000   1123.5182     11.6837     69.7978
   471.2500      0.0000   1125.9291     11.6992     72.6413
   471.5000      0.0000   1124.9086     11.7057     74.1386
   471.7500      0.0000   1120.2899     11.6865     75.1171
   472.0000      0.0000   1112.5735     11.6261     76.4877
   472.2500      0.0000   1103.5382     11.5220     78.3712
   472.5000      0.0000   1094.7029     11.3867     80.2762
   472.7500      0.0000   1086.3988     11.2387     81.9630
   473.0000      0.0000   1078.9508     11.0962     83.6582
   473.2500      0.0000   1073.6272     10.9766     85.2676
   473.5000      0.0000   1071.6095     10.8974     85.9224
   473.7500      0.0000   1072.5903     10.8735     85.0300
   474.0000      0.0000   1075.1243     10.9108     83.4841
   474.2500      0.0000   1078.0538     11.0021     82.8837
   474.5000      0.0000   1080.8514     11.1297     83.4162
   474.7500      0.0000   1082.7460     11.2697     83.3727
   475.0000      0.0000   1082.6284     11.3980     81.1839
   475.2500      0.0000   1079.7472     11.4959     77.3767
   475.5000      0.0000   1073.4457     11.5567     74.2011
   475.7500      0.0000   1062.4969     11.5853     73.7770
   476.0000      0.0000   1046.0100     11.5936     76.7773
   476.2500      0.0000   1024.8068     11.5956     82.2657
   476.5000      0.0000   1001.1348     11.6037     88.1607
   476.7500      0.0000    978.0248     11.6251     92.0268
   477.0000      0.0000    959.6509     11.6584     92.0904
   477.2500      0.0000    951.0172     11.6945     88.0720
   477.5000      0.0000    956.1031     11.7200     81.2874
   477.7500      0.0000    975.5584     11.7228     73.8654
   478.0000      0.0000   1004.8499     11.6963     67.6005
   478.2500      0.0000   1034.0446     11.6393     63.3928
   478.5000      0.0000   1051.5518     11.5554     61.3360
   478.7500      0.0000   1050.9106     11.4530     60.8622
   479.0000      0.0000   1035.3848     11.3459     60.9752
   479.2500      0.0000   1015.4600     11.2516     60.8193
   479.5000      0.0000   1001.2997     11.1867     60.0505
   479.7500      0.0000    997.4874     11.1612     58.6418
   480.0000      0.0000   1003.8287     11.1759     56.6849
   480.2500      0.0000   1018.1787     11.2226     54.4688
   480.5000      0.0000   1036.9877     11.2866     52.5647
   480.7500      0.0000   1055.3696     11.3520     51.7891
   481.0000      0.0000   1069.4819     11.4097     52.7924
   481.2500      0.0000   1078.9991     11.4590     55.3084
   481.5000      0.0000   1086.1218     11.5025     58.0024
   481.7500      0.0000   1092.3337     11.5388     59.3885
   482.0000      0.0000   1097.0662     11.5628     58.8998
   482.2500      0.0000   1099.2952     11.5704     57.2067
   482.5000      0.0000   1099.4968     11.5640     55.7504
   482.7500      0.0000   1099.1459     11.5533     55.8056
   483.0000      0.0000   1098.1488     11.5512     57.5788
   483.2500      0.0000   1092.7677     11.5648     60.2167
   483.5000      0.0000   1076.8215     11.5892     62.8524
   483.7500      0.0000   1047.1858     11.6065     65.4443
   484.0000      0.0000   1010.5023     11.5954     68.4402
   484.2500      0.0000    982.7687     11.5438     71.8962
   484.5000      0.0000    976.9325     11.4562     75.1364
   484.7500      0.0000    989.2950     11.3496     77.1913
   485.0000      0.0000   1002.6635     11.2432     77.6499
   485.2500      0.0000   1005.2688     11.1517     77.3226
   485.5000      0.0000   1002.9709     11.0817     77.8940
   485.7500      0.0000   1010.3031     11.0306     80.4883
   486.0000      0.0000   1032.9132     10.9897     84.5486
   486.2500      0.0000   1062.5909     10.9524     88.3926
   486.5000      0.0000   1087.1758     10.9140     90.8434
   486.7500      0.0000   1100.1056     10.8569     92.0433
   487.0000      0.0000   1099.9081     10.7325     92.6887
   487.2500      0.0000   1084.6567     10.4696     93.0299
   487.5000      0.0000   1051.0509     10.0358     92.9582
   487.7500      0.0000   1001.5032      9.5082     92.5770
   488.0000      0.0000    951.8682      9.0480     92.0636
   488.2500      0.0000    926.8599      8.7622     91.0617
   488.5000      0.0000    941.5389      8.6139     88.8300
   488.7500      0.0000    987.4553      8.5040     85.2326
   489.0000      0.0000   1040.5470      8.3951     81.2105
   489.2500      1.4420   1081.3990      8.3148     78.0964
   489.5000      0.0000   1105.5529      8.2771     76.8257
   489.7500     -2.0000   1118.2311      8.2528     77.7722
   490.0000      1.3205   1125.1884      8.2130     80.6028
   490.2500      0.0000   1128.7256      8.1977     83.9729
   490.5000      0.0000   1128.2813      8.3369     86.1945
   490.7500      0.0000   1122.4841      8.7658     86.8137
   491.0000      0.0000   1110.6289      9.4779     86.9460
   491.2500      0.0000   1092.1968     10.2847     87.5963
   491.5000      0.0000   1065.9652     10.9528     88.2984
   491.7500      0.0000   1032.2794     11.3663     87.8862
   492.0000      0.0000    996.7128     11.5498     86.0055
   492.2500      0.0000    968.5873     11.5912     83.3838
   492.5000      0.0000    954.8610     11.5744     81.2146
   492.7500      0.0000    956.9080     11.5539     80.7845
   493.0000      0.0000    972.3557     11.5548     82.9326
   493.2500      0.0000    997.4241     11.5808     87.0010
   493.5000      0.0000   1027.8197     11.6247     90.7300
   493.7500      0.0000   1059.1313     11.6774     92.0817
   494.0000      0.0000   1086.2443     11.7319     91.1883
   494.2500      0.0000   1102.0221     11.7845     90.1343
   494.5000      0.0000   1098.2844     11.8332     91.0065
   494.7500      0.0000   1070.5334     11.8799     94.2723
   495.0000      0.0000   1023.4597     11.9349     98.5871
   495.2500      0.0000    972.1027     12.0122    101.6144
   495.5000      0.0000    935.1796     12.1167    101.1443
   495.7500      0.0000    923.6678     12.2345     96.2599
   496.0000      0.0000    933.4948     12.3374     88.1056
   496.2500      0.0000    948.9288     12.4016     79.3706
   496.5000      0.0000    954.3325     12.4214     72.7116
   496.7500      0.0000    944.1428     12.4059     69.6356
   497.0000      0.0000    923.2025     12.3689     70.5318
   497.2500      0.0000    899.8933     12.3257     74.9327
   497.5000      0.0000    880.3216     12.2898     81.3654
   497.7500      0.0000    867.1307     12.2624     87.5267
   498.0000      0.0000    860.8461     12.2259     91.2547
   498.2500      0.0000    861.1111     12.1560     91.6731
   498.5000      0.0000    866.9683     12.0477     89.6445
   498.7500      0.0000    876.4548     11.9245     87.1669
   499.0000      0.0000    886.5081     11.8249     86.0201
   499.2500      0.0000    893.9572     11.7786     86.5789
