~Version Information
VERS.                      2.0: CWLS Log ASCII Standard - VERSION 2.0
WRAP.                       NO: One line per depth step
~Well Information Block
STRT.FT               350.0000: 
STOP.FT              2264.0000: 
STEP.FT                 0.1000: 
NULL.                -999.2500: 
COMP.          Pioneer Natural Resources: COMPANY
WELL.             Warrior 32-1: WELL
FLD.           Purgatoire River: FIELD
LOC.           2624' FNL & 2392' FEL: LOCATION
PROV.                 Colorado: PROVINCE
CNTY.               Las Animas: COUNTRY
SRVC.                Patterson: SERVICE COMPANY
DATE.          Tue Oct 05 06:54:20 2004: LOG DATE
UWI.           05 071 08176 00: UNIQUE WELL ID
~Curve Information Block
DEPT.FT            0 000 00 00: Depth
DCAL.in                       : CDL Caliper
RHOB.g/cc                     : CDL Bulk Density
RHOC.g/cc                     : CDL Density Correction
DPOR.pu                       : CDL Density Porosity
NPOR.pu                       : Neutron Porosity
GR.GAPI                       : Gamma Ray
~Parameter Information Block
~A  Depth       DCAL        RHOB        RHOC        DPOR        NPOR         GR     
# ...
   599.6000      8.3842      2.0825      0.2796     34.3913     10.4688     87.0019
   599.7000      8.3842      2.2068      0.3247     26.8619     10.5693     91.7512
   599.8000      8.3575      2.3055      0.2933     20.8762     10.8778     96.0129
   599.9000      8.3575      2.3790      0.2615     16.4270     11.0818     95.2788
   600.0000      8.3417      2.4341      0.1951     13.0861     11.4279     95.1013
   600.1000      8.3417      2.4696      0.1671     10.9321     12.1410     98.5795
   600.2000      8.3417      2.4822      0.0909     10.1705     13.0713    103.4588
   600.3000      8.3389      2.4866      0.0493      9.9016     14.3998    108.9658
   600.4000      8.3389      2.4946      0.0631      9.4211     16.0691    114.0402
   600.5000      8.3405      2.5011      0.0630      9.0252     17.5872    115.9297
   600.6000      8.3405      2.5053      0.0166      8.7667     18.8306    113.5330
   600.7000      8.3405      2.5083      0.0282      8.5862     20.1026    109.8559
   600.8000      8.3376      2.5084     -0.0114      8.5811     21.7936    109.3725
   600.9000      8.3376      2.5069      0.0315      8.6754     23.6355    112.5305
   601.0000      8.3347      2.5014      0.0388      9.0067     24.7019    116.5527
   601.1000      8.3347      2.4880      0.0181      9.8199     24.7849    118.6995
   601.2000      8.3347      2.4703      0.0303     10.8915     24.7419    117.2407
   601.3000      8.3335      2.4579      0.0400     11.6409     25.1714    110.7528
   601.4000      8.3335      2.4561      0.0340     11.7523     25.7289    103.1111
   601.5000      8.3325      2.4534      0.0512     11.9181     26.0842     99.7919
   601.6000      8.3325      2.4308      0.0733     13.2829     26.2564    100.6561
   601.7000      8.3325      2.3959     -0.0484     15.4004     26.1306    105.3746
   601.8000      8.3331      2.3791     -0.0418     16.4177     26.0031    113.3425
   601.9000      8.3331      2.3835     -0.0114     16.1512     26.2032    119.1054
   602.0000      8.3331      2.3812      0.0384     16.2903     26.3304    117.6252
   602.1000      8.3331      2.3586      0.0055     17.6601     26.0946    114.7221
   602.2000      8.3331      2.3322     -0.0226     19.2589     25.8902    119.1861
   602.3000      8.3330      2.3140      0.0185     20.3657     25.8603    124.3465
   602.4000      8.3330      2.2920      0.0251     21.6949     25.5981    123.9338
   602.5000      8.3335      2.2607     -0.0124     23.5936     24.9735    125.7360
   602.6000      8.3335      2.2386     -0.0163     24.9356     24.5195    129.0773
   602.7000      8.3335      2.2457      0.0457     24.5022     24.5460    128.0731
   602.8000      8.3333      2.2756      0.1111     22.6889     24.4775    125.0405
   602.9000      8.3333      2.2982      0.1652     21.3214     24.0436    122.6475
   603.0000      8.3324      2.2944      0.1169     21.5511     23.5163    120.8393
   603.1000      8.3324      2.2811      0.0997     22.3603     22.9909    119.7725
   603.2000      8.3324      2.2821      0.1304     22.2955     22.6449    120.2258
   603.3000      8.3312      2.2980      0.1094     21.3347     22.4860    121.3682
   603.4000      8.3312      2.3175      0.0977     20.1501     22.3109    120.8213
   603.5000      8.3268      2.3281      0.1114     19.5079     22.1682    119.5074
   603.6000      8.3268      2.3219      0.0566     19.8865     22.0001    119.6240
   603.7000      8.3268      2.3082      0.0205     20.7182     21.7612    117.0767
   603.8000      8.3183      2.3041      0.0202     20.9664     21.6754    109.7347
   603.9000      8.3183      2.3163      0.0284     20.2238     21.6418    104.7122
   604.0000      8.3101      2.3341      0.0723     19.1453     21.4835    105.8259
   604.1000      8.3101      2.3404      0.0573     18.7628     21.4063    110.2281
   604.2000      8.3101      2.3339      0.0294     19.1568     21.5624    114.8432
   604.3000      8.3059      2.3228      0.0463     19.8295     21.9982    118.3671
   604.4000      8.3059      2.3130      0.0125     20.4217     22.7304    120.2859
   604.5000      8.3054      2.3164      0.0140     20.2207     23.3260    118.3797
   604.6000      8.3054      2.3355      0.0612     19.0631     23.2483    113.9884
   604.7000      8.3054      2.3549      0.0659     17.8857     22.7517    112.3380
   604.8000      8.3061      2.3615      0.0897     17.4878     22.5202    114.7077
   604.9000      8.3061      2.3558      0.0630     17.8291     22.6946    119.3551
   605.0000      8.3064      2.3529      0.0420     18.0079     22.9405    123.2952
   605.1000      8.3064      2.3673      0.0391     17.1318     23.0014    124.0849
   605.2000      8.3064      2.3931      0.1085     15.5684     22.9443    123.2829
   605.3000      8.3061      2.4110      0.1221     14.4855     22.7031    121.4321
   605.4000      8.3061      2.4174      0.0820     14.0981     22.2717    116.8147
   605.5000      8.3059      2.4186      0.1124     14.0213     22.3003    110.1644
   605.6000      8.3059      2.4151      0.0333     14.2393     23.1581    105.1676
   605.7000      8.3059      2.4163      0.0269     14.1636     24.0723    106.5237
   605.8000      8.3072      2.4302      0.0591     13.3242     24.1273    114.5407
   605.9000      8.3072      2.4435      0.0571     12.5147     23.6173    123.7825
   606.0000      8.3082      2.4457      0.0382     12.3847     23.0975    128.8060
   606.1000      8.3082      2.4463      0.0350     12.3440     22.4216    125.6781
   606.2000      8.3082      2.4550      0.0671     11.8152     21.8837    118.3420
   606.3000      8.3075      2.4641      0.0460     11.2683     21.8644    115.8396
   606.4000      8.3075      2.4702      0.0046     10.8951     22.0017    118.8721
   606.5000      8.3074      2.4844      0.0331     10.0372     22.1623    121.3719
   606.6000      8.3074      2.5021      0.0863      8.9648     22.3707    119.4959
   606.7000      8.3074      2.5023      0.0926      8.9528     22.3597    111.8408
   606.8000      8.3087      2.4828      0.0515     10.1355     22.4743    102.4887
   606.9000      8.3087      2.4713      0.0090     10.8296     22.9646     97.9271
   607.0000      8.3077      2.4915      0.0556      9.6058     23.1902     98.4943
   607.1000      8.3077      2.5334      0.0900      7.0637     22.9779    103.0789
   607.2000      8.3077      2.5701      0.1241      4.8426     22.7084    111.2679
   607.3000      8.3058      2.5896      0.1079      3.6601     22.4284    117.4501
   607.4000      8.3058      2.6039      0.0993      2.7910     21.9181    116.0595
   607.5000      8.3054      2.6240      0.1194      1.5754     21.2506    109.6790
   607.6000      8.3054      2.6405      0.1374      0.5765     20.8580    104.1785
   607.7000      8.3054      2.6419      0.1258      0.4912     20.8308    100.7349
   607.8000      8.3049      2.6326      0.0869      1.0532     20.8711     95.7051
   607.9000      8.3049      2.6227      0.0467      1.6553     20.8302     89.4495
   608.0000      8.3037      2.6144      0.0242      2.1573     20.5891     85.0871
   608.1000      8.3037      2.6072     -0.0065      2.5962     20.2712     80.4282
   608.2000      8.3037      2.5935      0.0492      3.4232     20.1643     74.1816
   608.3000      8.2987      2.5673     -0.0486      5.0095     20.2530     68.5884
   608.4000      8.2987      2.5468     -0.0763      6.2558     20.4875     63.9211
   608.5000      8.2895      2.5408     -0.0320      6.6185     20.7453     58.7970
   608.6000      8.2895      2.5308     -0.0153      7.2235     20.6824     52.8916
   608.7000      8.2895      2.5165     -0.0038      8.0887     20.2425     49.7453
   608.8000      8.2822      2.5226     -0.0229      7.7237     19.8907     51.1532
   608.9000      8.2822      2.5490      0.0847      6.1238     19.7987     52.2673
   609.0000      8.2768      2.5653      0.0656      5.1349     19.5754     51.4617
   609.1000      8.2768      2.5644      0.0796      5.1886     18.9596     51.0923
