~Version Information
VERS.                      2.0: CWLS Log ASCII Standard - VERSION 2.0
WRAP.                       NO: One line per depth step
~Well Information Block
STRT.FT               750.0000: 
STOP.FT              2433.0000: 
STEP.FT                 0.2500: 
NULL.                -999.2500: 
COMP.          Petrogulf Corporation: COMPANY
WELL.           McDaniel 9-34V: WELL
FLD.           Purgatorie River: FIELD
LOC.           620' FSL & 1800' FEL: LOCATION
PROV.                 Colorado: PROVINCE
CNTY.               Las Animas: COUNTRY
SRVC.                Patterson: SERVICE COMPANY
DATE.          Tue Sep 27 19:56:11 2005: LOG DATE
UWI.                          : UNIQUE WELL ID
~Curve Information Block
DEPT.FT            0 000 00 00: Depth
SP.mV                         : DIL Spontaneous Potential
RILD.Ohm-m                    : DIL Deep Resistivity
RILM.Ohm-m                    : DIL Medium Resistivity
RLL3.Ohm-m                    : DIL Shallow Resistivity
GR.GAPI                       : Gamma Ray
~Parameter Information Block
~A  Depth        SP         RILD        RILM        RLL3         GR     
# ...
   974.0000    201.1969     13.7460     14.1620     19.1638    115.6289
   974.2500    201.3068     13.5347     13.7976     17.8294    114.2592
   974.5000    201.3096     13.3197     13.4293     16.3088    115.6723
   974.7500    201.1964     13.0824     13.0697     15.0420    118.1429
   975.0000    200.9716     12.8130     12.7244     14.3597    122.0641
   975.2500    200.6539     12.5165     12.3932     14.3106    124.1690
   975.5000    200.2742     12.2106     12.0728     14.6786    126.6704
   975.7500    199.8717     11.9184     11.7612     15.1144    128.1399
   976.0000    199.4886     11.6602     11.4604     15.2909    129.9332
   976.2500    199.1651     11.4498     11.1776     15.0424    130.4720
   976.5000    198.9345     11.2939     10.9246     14.4158    129.4660
   976.7500    198.8202     11.1947     10.7154     13.6023    127.3802
   977.0000    198.8332     11.1510     10.5632     12.8290    123.1407
   977.2500    198.9709     11.1585     10.4783     12.2962    120.9629
   977.5000    199.2175     11.2103     10.4670     12.1550    120.7822
   977.7500    199.5454     11.2981     10.5309     12.4806    122.7730
   978.0000    199.9198     11.4151     10.6673     13.2322    126.9568
   978.2500    200.3038     11.5593     10.8705     14.2406    129.1871
   978.5000    200.6648     11.7342     11.1336     15.2656    130.6807
   978.7500    200.9791     11.9473     11.4507     16.0957    130.5226
   979.0000    201.2347     12.2075     11.8189     16.6273    128.6603
   979.2500    201.4302     12.5231     12.2398     16.9045    126.2346
   979.5000    201.5711     12.9019     12.7189     17.1084    121.4461
   979.7500    201.6647     13.3521     13.2641     17.4729    118.6560
   980.0000    201.7152     13.8804     13.8835     18.1607    117.2287
   980.2500    201.7205     14.4884     14.5832     19.1920    118.1571
   980.5000    201.6720     15.1694     15.3655     20.4616    119.4215
   980.7500    201.5568     15.9098     16.2297     21.8127    117.8634
   981.0000    201.3622     16.6949     17.1732     23.1129    110.4082
   981.2500    201.0800     17.5141     18.1933     24.2934    103.3202
   981.5000    200.7117     18.3617     19.2890     25.3464     93.7636
   981.7500    200.2706     19.2310     20.4604     26.3269     90.1243
   982.0000    199.7818     20.1087     21.7062     27.3676     89.1996
   982.2500    199.2791     20.9753     23.0202     28.6641     90.1024
   982.5000    198.8000     21.8122     24.3860     30.3970     90.4458
   982.7500    198.3782     22.6115     25.7734     32.6194     89.0527
   983.0000    198.0383     23.3785     27.1365     35.1672     85.0824
   983.2500    197.7910     24.1237     28.4173     37.6378     81.9738
   983.5000    197.6316     24.8515     29.5546     39.4959     77.5161
   983.7500    197.5419     25.5524     30.4978     40.3395     75.0553
   984.0000    197.4948     26.2055     31.2203     40.1650     72.9444
   984.2500    197.4597     26.7861     31.7256     39.3325     72.8537
   984.5000    197.4099     27.2731     32.0435     38.2358     74.1063
   984.7500    197.3271     27.6549     32.2174     37.0876     75.2968
   985.0000    197.2062     27.9302     32.2893     36.0342     77.5760
   985.2500    197.0550     28.1070     32.2899     35.2912     79.9893
   985.5000    196.8931     28.1983     32.2354     35.0152     85.4530
   985.7500    196.7467     28.2167     32.1315     35.1137     89.7226
   986.0000    196.6427     28.1693     31.9789     35.2847     94.9163
   986.2500    196.6035     28.0554     31.7792     35.2364     96.3712
   986.5000    196.6426     27.8669     31.5358     34.8557     94.7153
   986.7500    196.7631     27.5911     31.2523     34.2362     91.6615
   987.0000    196.9586     27.2135     30.9271     33.5996     87.0206
   987.2500    197.2164     26.7182     30.5483     33.1494     85.9151
   987.5000    197.5215     26.0890     30.0892     32.9277     89.2111
   987.7500    197.8598     25.3145     29.5076     32.8125     94.1901
   988.0000    198.2204     24.3953     28.7507     32.7163    102.5844
   988.2500    198.5956     23.3520     27.7690     32.7944    106.7867
   988.5000    198.9803     22.2278     26.5345     33.3423    109.4621
   988.7500    199.3701     21.0814     25.0601     34.3530    109.0651
   989.0000    199.7604     19.9734     23.4060     35.1925    106.2043
   989.2500    200.1459     18.9520     21.6687     34.8553    103.4203
   989.5000    200.5212     18.0466     19.9561     32.6614     99.5558
   989.7500    200.8817     17.2696     18.3622     28.7710     98.3383
   990.0000    201.2243     16.6208     16.9518     24.0942     99.7715
   990.2500    201.5481     16.0907     15.7585     19.7486    102.8106
   990.5000    201.8548     15.6626     14.7905     16.5095    109.2521
   990.7500    202.1483     15.3161     14.0396     14.5648    113.7669
   991.0000    202.4344     15.0315     13.4893     13.6312    119.1946
   991.2500    202.7204     14.7948     13.1203     13.2916    121.4349
   991.5000    203.0130     14.6006     12.9139     13.3051    123.2631
   991.7500    203.3170     14.4523     12.8531     13.6744    124.3194
   992.0000    203.6329     14.3607     12.9235     14.4951    126.7155
   992.2500    203.9562     14.3398     13.1128     15.7818    128.5291
   992.5000    204.2773     14.4024     13.4108     17.4043    129.5307
   992.7500    204.5844     14.5564     13.8087     19.1336    127.9162
   993.0000    204.8651     14.8040     14.2983     20.7535    122.0238
   993.2500    205.1101     15.1457     14.8723     22.1917    116.9752
   993.5000    205.3141     15.5835     15.5235     23.5572    110.3125
   993.7500    205.4754     16.1228     16.2454     24.9883    107.3420
   994.0000    205.5942     16.7675     17.0330     26.3977    105.0123
   994.2500    205.6696     17.5110     17.8836     27.4046    104.4360
   994.5000    205.6984     18.3252     18.7962     27.6010    104.4668
   994.7500    205.6747     19.1557     19.7689     26.9382    104.7782
   995.0000    205.5929     19.9276     20.7918     25.8907    104.9867
   995.2500    205.4512     20.5640     21.8369     25.3007    104.7519
   995.5000    205.2559     21.0082     22.8481     26.0090    104.1968
   995.7500    205.0229     21.2380     23.7362     28.3759    103.8922
   996.0000    204.7768     21.2655     24.3892     31.8925    103.0849
   996.2500    204.5458     21.1273     24.7016     35.2387    101.8260
   996.5000    204.3549     20.8748     24.6136     36.9263     98.5750
   996.7500    204.2188     20.5647     24.1401     36.1241     95.7832
   997.0000    204.1373     20.2495     23.3665     33.0827     91.4481
   997.2500    204.0950     19.9677     22.4171     28.9144     88.9852
   997.5000    204.0642     19.7394     21.4148     24.9206     87.0695
   997.7500    204.0117     19.5667     20.4563     21.9415     87.5190
   998.0000    203.9065     19.4395     19.6048     20.1447     90.5632
   998.2500    203.7266     19.3414     18.8957     19.2535     93.3854
   998.5000    203.4636     19.2583     18.3461     18.8733     97.6187
   998.7500    203.1240     19.1848     17.9632     18.6799    100.2976
   999.0000    202.7278     19.1279     17.7490     18.5063    104.2126
   999.2500    202.3032     19.1029     17.7024     18.4109    106.5360
   999.5000    201.8811     19.1246     17.8187     18.6755    108.8341
   999.7500    201.4879     19.2001     18.0876     19.6328    109.3876
  1000.0000    201.1406     19.3262     18.4911     21.3904    109.1251
  1000.2500    200.8444     19.4922     19.0014     23.7042    108.3374
  1000.5000    200.5936     19.6854     19.5793     26.1404    105.4277
  1000.7500    200.3756     19.8945     20.1761     28.3422    101.7048
  1001.0000    200.1768     20.1114     20.7373     30.1250     93.9060
  1001.2500    199.9888     20.3284     21.2094     31.3681     88.7232
  1001.5000    199.8122     20.5328     21.5485     31.8987     84.0372
  1001.7500    199.6573     20.7037     21.7271     31.5206     83.8066
