~Version Information
VERS.                      2.0: CWLS Log ASCII Standard - VERSION 2.0
WRAP.                       NO: One line per depth step
~Well Information Block
STRT.FT               704.0000: 
STOP.FT              2530.0000: 
STEP.FT                 0.2500: 
NULL.                -999.2500: 
COMP.          Pioneer Natural Resources: COMPANY
WELL.          Aztec Federal 41-15: WELL
FLD.           Purgatorie River: FIELD
LOC.           706' FNL & 1253' FEL: LOCATION
CNTY.               Las Animas: COUNTY
SRVC.          Superior Well Services: SERVICE COMPANY
DATE.          Tue Mar 18 09-04-19 2008: LOG DATE
UWI.           05-071-08342-00: UNIQUE WELL ID
STAT.                       CO: STATE
~Curve Information Block
DEPT.FT            0 000 00 00: Depth
DIR.Ohm-m                     : IEL Induction Resistivity
SN.Ohm-m                      : IEL Short Normal
SP.mV                         : IEL Spontaneous Potential
GR.GAPI                       : Gamma Ray
~Parameter Information Block
~A  Depth       DIR          SN          SP          GR     
# ...
  1809.5000     24.0411     33.8559     98.3956    104.4438
  1809.7500     25.1467     34.8516     98.4182     98.9611
  1810.0000     25.9572     36.3071     98.5143     95.3849
  1810.2500     27.2552     37.2306     98.6353     91.3502
  1810.5000     28.1621     38.4176     98.8853     89.7036
  1810.7500     29.5581     38.9957     99.0708     88.2523
  1811.0000     30.4847     39.4774     99.3304     87.6295
  1811.2500     31.8000     39.5754     99.4741     87.1748
  1811.5000     32.5886     39.5437     99.6364     87.3235
  1811.7500     33.6033     39.5003     99.7128     88.1890
  1812.0000     34.1654     39.5057     99.7970     89.0331
  1812.2500     34.8424     39.5632     99.8477     90.4341
  1812.5000     35.1807     39.6519     99.9376     91.2345
  1812.7500     35.5063     39.6473    100.0104     91.5497
  1813.0000     35.5997     39.4824    100.1281     90.8173
  1813.2500     35.5667     39.2847    100.2040     88.4474
  1813.5000     35.4396     38.9310    100.3132     86.5659
  1813.7500     35.0812     38.6628    100.3916     84.4250
  1814.0000     34.6979     38.1154    100.5347     83.8918
  1814.2500     33.8253     37.5744    100.6495     84.6023
  1814.5000     33.0145     36.4017    100.8374     85.9043
  1814.7500     31.4794     35.3596    100.9626     88.5830
  1815.0000     30.3003     33.4321    101.1447     90.6130
  1815.2500     28.4157     31.9473    101.2672     93.9075
  1815.5000     27.1358     29.5271    101.4637     96.3090
  1815.7500     25.2371     27.8581    101.6032    100.2969
  1816.0000     24.0065     25.4075    101.8084    103.3345
  1816.2500     22.2459     23.8853    101.9258    108.7834
  1816.5000     21.1472     21.8723    102.0459    112.9584
  1816.7500     19.6377     20.7384    102.0814    119.1129
  1817.0000     18.7346     19.3375    102.0726    122.4810
  1817.2500     17.5459     18.5852    102.0338    126.2250
  1817.5000     16.8661     17.7002    101.9419    128.3671
  1817.7500     16.0117     17.2477    101.8708    131.9730
  1818.0000     15.5469     16.7160    101.7850    134.6499
  1818.2500     14.9938     16.4282    101.7674    138.2700
  1818.5000     14.7122     16.0746    101.8291    139.9663
  1818.7500     14.4014     15.9029    101.9251    141.3507
  1819.0000     14.2548     15.7801    102.1086    141.7175
  1819.2500     14.0956     15.7907    102.2204    141.5174
  1819.5000     14.0095     15.8879    102.3138    140.5598
  1819.7500     13.8772     15.9630    102.3063    137.0920
  1820.0000     13.7737     16.0677    102.1894    133.3055
  1820.2500     13.5887     16.1523    102.0601    126.5854
  1820.5000     13.4506     16.3270    101.8433    122.8478
  1820.7500     13.2409     16.4492    101.7127    120.8204
  1821.0000     13.1145     16.5155    101.5600    122.4461
  1821.2500     12.9728     16.4021    101.4830    128.4208
  1821.5000     12.9239     15.9693    101.3926    133.4788
  1821.7500     12.9325     15.5877    101.3486    140.3112
  1822.0000     12.9932     15.0936    101.3183    143.4235
  1822.2500     13.1535     14.8963    101.3298    145.7473
  1822.5000     13.2940     14.8059    101.3992    146.2579
  1822.7500     13.5327     14.8525    101.4734    146.0609
  1823.0000     13.7010     15.0107    101.5968    144.9984
  1823.2500     13.9589     15.1437    101.6643    141.1685
  1823.5000     14.1325     15.4120    101.7094    137.1146
  1823.7500     14.3959     15.7001    101.6917    129.8366
  1824.0000     14.5791     16.4440    101.5926    125.0295
  1824.2500     14.8916     17.2321    101.4860    119.1017
  1824.5000     15.1518     18.9055    101.2897    116.5430
  1824.7500     15.6767     20.2662    101.1523    115.4441
  1825.0000     16.1472     22.3528    100.9649    116.5310
  1825.2500     17.0660     23.5813    100.8616    119.7329
  1825.5000     17.8182     25.0013    100.7405    121.7000
  1825.7500     19.1010     25.6451    100.6803    122.4577
  1826.0000     19.9925     26.2218    100.6290    121.0686
  1826.2500     21.2251     26.4529    100.6352    117.0243
  1826.5000     21.8823     26.8018    100.7321    114.1927
  1826.7500     22.5148     27.1097    100.8606    111.5905
  1827.0000     22.6865     27.5993    101.1316    111.2387
  1827.2500     22.6042     27.7962    101.3428    111.6808
  1827.5000     22.3534     27.6325    101.6665    111.6397
  1827.7500     21.7275     27.1490    101.8706    110.2018
  1828.0000     21.1691     25.9688    102.1479    108.5886
  1828.2500     20.1793     25.0458    102.3168    106.5514
  1828.5000     19.4627     23.7354    102.5600    106.3901
  1828.7500     18.3772     22.9615    102.7208    109.2107
  1829.0000     17.6769     21.8540    102.9552    113.3739
  1829.2500     16.6825     21.0701    103.0980    122.1143
  1829.5000     16.0562     19.7586    103.2721    128.3102
  1829.7500     15.1660     18.8126    103.3507    135.7449
  1830.0000     14.6079     17.3895    103.4062    138.7677
  1830.2500     13.8425     16.5198    103.4137    140.8979
  1830.5000     13.3958     15.4751    103.4285    141.4436
  1830.7500     12.8469     14.9974    103.4741    141.7919
  1831.0000     12.5726     14.5959    103.6386    141.8699
  1831.2500     12.3084     14.5080    103.8208    141.8405
  1831.5000     12.2321     14.6154    104.1863    141.7569
  1831.7500     12.2641     14.8480    104.4673    141.4957
  1832.0000     12.3784     15.4594    104.8912    141.0672
  1832.2500     12.6771     16.0559    105.1458    139.3335
  1832.5000     12.9533     17.2406    105.4556    136.7973
  1832.7500     13.4685     18.2227    105.6145    129.8769
  1833.0000     13.8696     20.0518    105.8078    123.0101
  1833.2500     14.5379     21.6155    105.9288    110.1585
  1833.5000     15.0170     24.6292    106.1365    100.9003
  1833.7500     15.7805     26.9731    106.3134     88.0492
  1834.0000     16.3318     30.2603    106.6667     81.3344
  1834.2500     17.2692     31.7699    106.9703     75.6518
  1834.5000     17.9999     32.6771    107.5188     75.2518
  1834.7500     19.2864     32.6372    107.9259     79.0908
  1835.0000     20.2619     32.3075    108.5493     83.3902
  1835.2500     21.8294     32.1462    108.9473     90.0376
  1835.5000     22.8728     32.0260    109.4888     93.7666
  1835.7500     24.2887     31.9487    109.7996     98.1463
  1836.0000     25.0516     31.7150    110.1637    100.4397
  1836.2500     25.8260     31.4507    110.3224    103.0020
  1836.5000     26.0758     30.9242    110.4303    104.0699
  1836.7500     26.0776     30.5518    110.4362    104.9185
  1837.0000     25.8693     30.0719    110.4120    105.3100
  1837.2500     25.3290     29.8015    110.4145    106.1286
  1837.5000     24.8734     29.3424    110.4922    106.8783
  1837.7500     24.1439     28.9185    110.5993    108.1123
  1838.0000     23.6691     28.0632    110.8210    108.9280
  1838.2500     22.9901     27.3862    110.9857    110.1147
  1838.5000     22.5285     26.3136    111.2233    110.7893
  1838.7500     21.7282     25.5872    111.3695    111.2815
  1839.0000     21.0778     24.4287    111.5830    111.1398
  1839.2500     19.9288     23.5582    111.7306    110.5010
  1839.5000     19.0974     22.0726    111.9593    110.2164
  1839.7500     17.8706     21.0048    112.1091    110.8106
  1840.0000     17.1195     19.4531    112.3225    112.2501
  1840.2500     16.1297     18.5495    112.4612    116.2737
  1840.5000     15.5566     17.4642    112.6623    120.0742
  1840.7500     14.8036     16.9064    112.7724    126.4677
  1841.0000     14.3621     16.2335    112.8560    130.3157
  1841.2500     13.7866     15.8397    112.8476    134.4316
  1841.5000     13.4639     15.2935    112.7687    136.1766
  1841.7500     13.0781     14.9830    112.7014    138.2846
  1842.0000     12.8886     14.6756    112.6190    139.6896
  1842.2500     12.7073     14.6017    112.5870    141.2341
  1842.5000     12.6560     14.6737    112.5747    141.2541
  1842.7500     12.6867     14.8213    112.5860    139.3057
