~Version Information
VERS.                      2.0: CWLS Log ASCII Standard - VERSION 2.0
WRAP.                       NO: One line per depth step
~Well Information Block
STRT.FT               710.0000: 
STOP.FT              2921.0000: 
STEP.FT                 0.1000: 
NULL.                -999.2500: 
COMP.          Petrogulf Corporation: COMPANY
WELL.            Montoya 1-41V: WELL
FLD.           Purgatorie River: FIELD
LOC.           610' FNL & 1205' FEL: LOCATION
PROV.                 Colorado: PROVINCE
CNTY.               Las Animas: COUNTRY
SRVC.                Patterson: SERVICE COMPANY
DATE.          Mon Aug 22 07:54:27 2005: LOG DATE
UWI.                          : UNIQUE WELL ID
~Curve Information Block
DEPT.FT            0 000 00 00: Depth
DCAL.in                       : CDL Caliper
RHOB.g/cc                     : CDL Bulk Density
RHOC.g/cc                     : CDL Density Correction
DPOR.pu                       : CDL Density Porosity
GR.GAPI                       : Gamma Ray
NPOR.pu                       : Neutron Porosity
~Parameter Information Block
~A  Depth       DCAL        RHOB        RHOC        DPOR         GR         NPOR    
# ...
  1593.2000      7.9570      2.6058      0.1044      2.6808    139.1626     25.5129
  1593.3000      8.0113      2.5954      0.1555      3.3115    140.9860     25.5073
  1593.4000      8.0113      2.5914      0.1123      3.5522    145.4199     25.6750
  1593.5000      8.0891      2.5945      0.0294      3.3609    150.7881     26.1545
  1593.6000      8.0891      2.6133      0.1059      2.2271    154.4185     26.6215
  1593.7000      8.0891      2.6477      0.1359      0.1403    155.1830     27.0342
  1593.8000      8.1071      2.7021      0.1482     -3.1546    152.3486     27.3990
  1593.9000      8.1071      2.7713      0.2093     -7.3522    148.9851     27.4069
  1594.0000      8.0791      2.8268      0.2803    -10.7169    146.4587     27.0076
  1594.1000      8.0791      2.8473      0.2369    -11.9578    140.5635     26.7532
  1594.2000      8.0791      2.8359      0.2363    -11.2692    131.8885     27.1035
  1594.3000      8.0356      2.7991      0.1942     -9.0358    127.6123     27.5913
  1594.4000      8.0356      2.7420      0.1199     -5.5728    130.0056     27.5437
  1594.5000      8.0587      2.6797      0.0265     -1.8030    135.2415     27.2289
  1594.6000      8.0587      2.6285     -0.0079      1.3054    138.2647     27.1674
  1594.7000      8.0587      2.5904     -0.0192      3.6117    137.1838     27.1314
  1594.8000      8.0637      2.5640     -0.0857      5.2124    136.4439     26.8044
  1594.9000      8.0637      2.5510     -0.0391      6.0016    138.3611     26.1537
  1595.0000      8.1810      2.5518     -0.0507      5.9487    140.4210     25.2071
  1595.1000      8.1810      2.5642      0.0221      5.1980    143.3751     24.3229
  1595.2000      8.1810      2.5737      0.0726      4.6225    145.9855     23.7872
  1595.3000      8.1179      2.5678      0.0795      4.9838    143.4527     23.4080
  1595.4000      8.1179      2.5552      0.0058      5.7454    138.2516     23.1155
  1595.5000      8.1403      2.5508      0.0521      6.0143    136.1026     23.0440
  1595.6000      8.1403      2.5544      0.0444      5.7933    137.5859     22.9387
  1595.7000      8.1403      2.5602      0.0465      5.4444    140.5902     22.5663
  1595.8000      8.1490      2.5664      0.0300      5.0678    141.8456     22.2275
  1595.9000      8.1490      2.5759      0.0271      4.4918    139.0833     22.1064
  1596.0000      8.1262      2.5881      0.0765      3.7493    133.3671     21.9451
  1596.1000      8.1262      2.5985      0.0377      3.1236    128.3794     21.6599
  1596.2000      8.1262      2.6081      0.0594      2.5415    125.4839     21.5119
  1596.3000      8.1441      2.6175      0.0606      1.9703    124.8913     21.5599
  1596.4000      8.1441      2.6224      0.0485      1.6698    128.5039     21.6041
  1596.5000      8.1747      2.6193      0.0794      1.8627    132.7507     21.4654
  1596.6000      8.1747      2.6129      0.0343      2.2488    134.6009     21.2271
  1596.7000      8.1747      2.6135      0.0444      2.2114    135.6868     21.1928
  1596.8000      8.1453      2.6208      0.0340      1.7697    132.9783     21.3358
  1596.9000      8.1453      2.6273      0.0235      1.3756    127.2562     21.1632
  1597.0000      8.1353      2.6245      0.0806      1.5469    124.5411     20.5918
  1597.1000      8.1353      2.6161     -0.0032      2.0550    124.3570     20.0392
  1597.2000      8.1353      2.6190      0.0426      1.8792    123.4812     19.8452
  1597.3000      8.1504      2.6290      0.0478      1.2703    120.3824     19.9461
  1597.4000      8.1504      2.6291      0.0346      1.2676    114.6589     19.9813
  1597.5000      8.1442      2.6169      0.0264      2.0062    109.5866     19.9079
  1597.6000      8.1442      2.6016      0.0004      2.9354    110.7621     19.8016
  1597.7000      8.1442      2.5869      0.0090      3.8241    117.9094     19.5793
  1597.8000      8.1296      2.5682     -0.0117      4.9582    122.7424     19.2817
  1597.9000      8.1296      2.5425     -0.0029      6.5154    119.7990     19.0213
  1598.0000      8.1304      2.5105      0.0072      8.4545    114.6935     18.8382
  1598.1000      8.1304      2.4836     -0.0376     10.0870    114.2467     18.6948
  1598.2000      8.1304      2.4798     -0.0216     10.3143    115.7833     18.7265
  1598.3000      8.1145      2.5055      0.0136      8.7549    115.3255     19.1284
  1598.4000      8.1145      2.5513      0.0521      5.9799    113.2920     19.6668
  1598.5000      8.1182      2.6006      0.0706      2.9959    110.4812     19.9807
  1598.6000      8.1182      2.6461      0.0884      0.2393    107.9413     20.0898
  1598.7000      8.1182      2.6890      0.1304     -2.3666    106.8620     20.4999
  1598.8000      8.0695      2.7269      0.1311     -4.6587    108.1199     21.3951
  1598.9000      8.0695      2.7567      0.1774     -6.4662    111.0333     22.1327
  1599.0000      8.0499      2.7766      0.1389     -7.6747    112.8190     22.4248
  1599.1000      8.0499      2.7802      0.1818     -7.8914    114.1568     22.8759
  1599.2000      8.0499      2.7618      0.1621     -6.7785    118.0461     23.6746
  1599.3000      7.9188      2.7322      0.1433     -4.9809    123.1909     24.4102
  1599.4000      7.9188      2.7075      0.1265     -3.4828    127.4083     24.8530
  1599.5000      7.9195      2.6878      0.1133     -2.2897    131.6981     25.0709
  1599.6000      7.9195      2.6635      0.1221     -0.8190    137.0447     25.2347
  1599.7000      7.9195      2.6355      0.0892      0.8795    142.5059     25.3115
  1599.8000      8.0356      2.6212      0.0598      1.7475    146.7509     25.3486
  1599.9000      8.0356      2.6271      0.1558      1.3880    149.8075     25.6255
  1600.0000      8.1010      2.6304      0.1578      1.1863    152.7686     26.3033
  1600.1000      8.1010      2.6124      0.1904      2.2778    154.1314     27.2396
  1600.2000      8.1010      2.5876      0.1339      3.7837    154.7393     27.9186
  1600.3000      8.1137      2.5771      0.1502      4.4195    158.9710     27.9033
  1600.4000      8.1137      2.5716      0.1424      4.7542    165.6142     27.4152
  1600.5000      8.1157      2.5599      0.1039      5.4581    168.9314     27.0022
  1600.6000      8.1157      2.5574      0.0827      5.6146    167.5859     26.9581
  1600.7000      8.1157      2.5729      0.1501      4.6733    164.1611     27.2837
  1600.8000      8.1709      2.5927      0.1433      3.4757    159.0273     27.8620
  1600.9000      8.1709      2.6049      0.1923      2.7304    152.6091     28.4387
  1601.0000      8.2277      2.6142      0.1594      2.1686    148.5316     28.6675
  1601.1000      8.2277      2.6280      0.1466      1.3357    149.2297     28.4548
  1601.2000      8.2277      2.6376      0.1643      0.7492    152.2552     28.0226
  1601.3000      8.1327      2.6365      0.1052      0.8164    154.6965     27.5032
  1601.4000      8.1327      2.6383      0.1034      0.7101    155.8281     26.7873
  1601.5000      8.1118      2.6461      0.1628      0.2371    154.9102     25.9406
  1601.6000      8.1118      2.6456      0.0935      0.2692    152.3679     25.4353
  1601.7000      8.1118      2.6416      0.0352      0.5115    151.7431     25.6134
  1601.8000      8.1427      2.6516      0.1182     -0.0942    153.2292     26.2663
  1601.9000      8.1427      2.6749      0.0716     -1.5112    151.3654     26.7437
  1602.0000      8.1971      2.7038      0.0800     -3.2623    146.4548     26.6231
  1602.1000      8.1971      2.7305      0.0842     -4.8810    144.5762     26.0571
  1602.2000      8.1971      2.7517      0.0717     -6.1620    146.4583     25.5511
  1602.3000      8.1745      2.7691      0.0865     -7.2204    147.4285     25.5929
  1602.4000      8.1745      2.7713      0.1242     -7.3531    145.4034     26.2574
  1602.5000      8.1697      2.7398      0.0713     -5.4402    143.3360     26.9955
  1602.6000      8.1697      2.6795     -0.0054     -1.7852    142.4141     27.0541
  1602.7000      8.1697      2.6101     -0.0559      2.4178    142.3851     26.5725
