~Version Information
VERS.                      2.0: CWLS Log ASCII Standard - VERSION 2.0
WRAP.                       NO: One line per depth step
~Well Information Block
STRT.FT               350.0000: 
STOP.FT              2264.0000: 
STEP.FT                 0.1000: 
NULL.                -999.2500: 
COMP.          Pioneer Natural Resources: COMPANY
WELL.             Warrior 32-1: WELL
FLD.           Purgatoire River: FIELD
LOC.           2624' FNL & 2392' FEL: LOCATION
PROV.                 Colorado: PROVINCE
CNTY.               Las Animas: COUNTRY
SRVC.                Patterson: SERVICE COMPANY
DATE.          Tue Oct 05 06:54:20 2004: LOG DATE
UWI.           05 071 08176 00: UNIQUE WELL ID
~Curve Information Block
DEPT.FT            0 000 00 00: Depth
DCAL.in                       : CDL Caliper
RHOB.g/cc                     : CDL Bulk Density
RHOC.g/cc                     : CDL Density Correction
DPOR.pu                       : CDL Density Porosity
NPOR.pu                       : Neutron Porosity
GR.GAPI                       : Gamma Ray
~Parameter Information Block
~A  Depth       DCAL        RHOB        RHOC        DPOR        NPOR         GR     
# ...
  1732.4000      8.0004      2.6090      0.1232      2.4852     19.9259     96.3700
  1732.5000      8.0023      2.6077      0.0703      2.5647     20.1273    100.0330
  1732.6000      8.0023      2.5829      0.1115      4.0658     20.4961    104.3322
  1732.7000      8.0023      2.5459      0.0788      6.3114     20.5581    112.3327
  1732.8000      8.0041      2.5096     -0.0008      8.5088     20.1459    120.0794
  1732.9000      8.0041      2.4907      0.0165      9.6530     19.7696    117.5683
  1733.0000      8.0043      2.4957     -0.0148      9.3507     20.0652    108.5365
  1733.1000      8.0043      2.5180      0.0429      7.9976     20.8756    106.3672
  1733.2000      8.0043      2.5369      0.0508      6.8576     21.6015    110.4263
  1733.3000      8.0040      2.5387      0.0367      6.7450     21.9928    108.5547
  1733.4000      8.0040      2.5351      0.0401      6.9622     21.8437    101.7809
  1733.5000      8.0017      2.5433      0.0461      6.4667     21.3703     99.7970
  1733.6000      8.0017      2.5626      0.0754      5.2954     21.1425    103.9258
  1733.7000      8.0017      2.5734      0.0764      4.6424     21.2101    109.7679
  1733.8000      7.9982      2.5601      0.0677      5.4502     21.4037    110.8889
  1733.9000      7.9982      2.5322      0.0469      7.1408     21.5845    106.8965
  1734.0000      7.9980      2.5119      0.0225      8.3714     21.3162    106.5442
  1734.1000      7.9980      2.5110      0.0022      8.4237     20.8545    111.9963
  1734.2000      7.9980      2.5218      0.0484      7.7714     20.6994    116.4221
  1734.3000      8.0009      2.5273      0.0465      7.4392     20.7765    116.3734
  1734.4000      8.0009      2.5277      0.0097      7.4132     21.1941    112.9053
  1734.5000      8.0024      2.5337      0.0274      7.0457     21.7463    109.0937
  1734.6000      8.0024      2.5409      0.0847      6.6120     21.9436    106.8172
  1734.7000      8.0024      2.5455      0.0243      6.3320     21.7846    100.7473
  1734.8000      8.0027      2.5566      0.0526      5.6580     21.4522     90.5751
  1734.9000      8.0027      2.5666      0.0931      5.0570     21.1503     84.9344
  1735.0000      8.0029      2.5634      0.0491      5.2499     21.1059     88.7953
  1735.1000      8.0029      2.5589      0.0586      5.5233     21.1926     97.8997
  1735.2000      8.0029      2.5633      0.0459      5.2572     21.1079    104.0688
  1735.3000      8.0020      2.5746      0.0504      4.5674     20.9778    106.5045
  1735.4000      8.0020      2.5913      0.0731      3.5593     20.7038    108.8125
  1735.5000      8.0016      2.6009      0.1112      2.9729     19.9730    109.2250
  1735.6000      8.0016      2.5901      0.0634      3.6329     19.2485    105.9243
  1735.7000      8.0016      2.5647      0.0536      5.1714     19.1922    101.1095
  1735.8000      8.0052      2.5427      0.0122      6.5036     19.6199     98.3785
  1735.9000      8.0052      2.5379      0.0360      6.7963     19.7544     99.2356
  1736.0000      8.0082      2.5422      0.0634      6.5348     19.2412     98.2337
  1736.1000      8.0082      2.5414      0.0337      6.5801     18.7537     91.7766
  1736.2000      8.0082      2.5425      0.0322      6.5124     19.1464     85.6328
  1736.3000      8.0064      2.5489      0.0677      6.1269     20.0106     81.6741
  1736.4000      8.0064      2.5492      0.0302      6.1113     20.2911     77.9890
  1736.5000      8.0045      2.5467      0.0282      6.2579     19.8153     75.0980
  1736.6000      8.0045      2.5526      0.0438      5.9050     19.2783     75.7605
  1736.7000      8.0045      2.5602      0.0809      5.4414     19.0525     81.4972
  1736.8000      8.0044      2.5609      0.0446      5.4023     19.0709     89.0612
  1736.9000      8.0044      2.5585      0.0668      5.5478     19.3696     95.6595
  1737.0000      8.0058      2.5556      0.0477      5.7190     19.6744     98.5887
  1737.1000      8.0058      2.5516      0.0363      5.9631     19.7542     95.5405
  1737.2000      8.0058      2.5434      0.0450      6.4620     19.8099     94.1987
  1737.3000      8.0083      2.5269      0.0065      7.4612     20.0911     99.3412
  1737.4000      8.0083      2.5084      0.0287      8.5791     20.4336    102.9505
  1737.5000      8.0079      2.5000      0.0168      9.0893     20.4165    100.7087
  1737.6000      8.0079      2.5007      0.0578      9.0487     20.1547     96.2787
  1737.7000      8.0079      2.4999      0.0693      9.0979     20.1489     92.4329
  1737.8000      8.0060      2.5042     -0.0033      8.8368     20.6137     88.4960
  1737.9000      8.0060      2.5238      0.0441      7.6455     21.1389     84.0705
  1738.0000      8.0053      2.5375      0.0714      6.8191     21.0586     80.2379
  1738.1000      8.0053      2.5210      0.0512      7.8193     20.3767     76.8032
  1738.2000      8.0053      2.4919     -0.0119      9.5796     19.5642     75.4705
  1738.3000      8.0047      2.4859      0.0039      9.9445     18.7852     77.5488
  1738.4000      8.0047      2.5072      0.0551      8.6571     18.0026     77.0067
  1738.5000      8.0044      2.5358      0.0683      6.9215     17.1434     69.7089
  1738.6000      8.0044      2.5591      0.0961      5.5118     16.3037     62.9701
  1738.7000      8.0044      2.5711      0.1311      4.7810     15.8336     61.2167
  1738.8000      8.0050      2.5700      0.0898      4.8492     15.8127     59.6797
  1738.9000      8.0050      2.5642      0.0739      5.1988     16.0105     56.1498
  1739.0000      8.0044      2.5623      0.0882      5.3137     16.2794     52.6683
  1739.1000      8.0044      2.5646      0.0532      5.1768     16.5382     51.9451
  1739.2000      8.0044      2.5694      0.0480      4.8853     16.4430     55.0009
  1739.3000      8.0033      2.5701      0.0836      4.8453     15.8812     58.4847
  1739.4000      8.0033      2.5648      0.0333      5.1646     15.2149     59.2483
  1739.5000      8.0044      2.5675      0.0183      4.9995     14.9621     58.6016
  1739.6000      8.0044      2.5798      0.1130      4.2522     15.2182     58.1771
  1739.7000      8.0044      2.5857      0.0718      3.8940     15.4687     56.6715
  1739.8000      8.0058      2.5819      0.0722      4.1258     15.5543     55.0488
  1739.9000      8.0058      2.5713      0.0528      4.7673     15.5815     55.2974
  1740.0000      8.0041      2.5491      0.0454      6.1145     15.4749     57.0106
  1740.1000      8.0041      2.5163      0.0171      8.1050     15.3162     59.2319
  1740.2000      8.0041      2.4939     -0.0232      9.4593     15.2071     59.3610
  1740.3000      8.0024      2.5004      0.0173      9.0674     15.1507     56.4875
  1740.4000      8.0024      2.5274      0.0078      7.4319     15.1575     53.7759
  1740.5000      8.0081      2.5577      0.0599      5.5968     15.0944     53.5264
  1740.6000      8.0081      2.5805      0.0595      4.2137     14.8767     54.1861
  1740.7000      8.0081      2.5890      0.0919      3.6953     14.9153     55.5860
  1740.8000      8.0201      2.5788      0.0916      4.3140     15.3311     57.7240
  1740.9000      8.0201      2.5598      0.0386      5.4656     15.7874     58.3847
  1741.0000      8.0292      2.5524      0.0249      5.9174     16.2804     57.8828
  1741.1000      8.0292      2.5584      0.0460      5.5491     16.8810     59.7960
  1741.2000      8.0292      2.5646      0.0421      5.1752     17.4671     63.1246
  1741.3000      8.0314      2.5665      0.0575      5.0609     17.9643     63.6137
  1741.4000      8.0314      2.5708      0.0480      4.8005     18.5878     62.8425
  1741.5000      8.0336      2.5803      0.0893      4.2238     19.3235     62.2705
  1741.6000      8.0336      2.5833      0.0862      4.0440     19.7432     61.4714
  1741.7000      8.0336      2.5732      0.0609      4.6544     19.9185     62.7605
  1741.8000      8.0422      2.5676      0.0347      4.9928     20.2679     67.3954
  1741.9000      8.0422      2.5797      0.0677      4.2596     20.5994     73.9152
