~Version Information
VERS.                      2.0: CWLS Log ASCII Standard - VERSION 2.0
WRAP.                       NO: One line per depth step
~Well Information Block
STRT.FT               -12.5000: 
STOP.FT              2487.7500: 
STEP.FT                 0.2500: 
NULL.                -999.2500: 
COMP.          Petrogulf Corporation: COMPANY
WELL.             Royal 8-33 V: WELL
FLD.           Purgatorie River: FIELD
LOC.           2365' FSL & 2336' FEL--: LOCATION
CNTY.               Las Animas: COUNTY
SRVC.                         : SERVICE COMPANY
DATE.          Sat Jan 17 11:43:49 2004: LOG DATE
UWI.           05 071 07934 00: UNIQUE WELL ID
STAT.                       CO: STATE
~Curve Information Block
DEPT.FT            0 000 00 00: Depth
CCL.                          : Casing Collar Locator
TT3.usec                      : CBL 3' Travel Time
AMP3.mV                       : CBL 3' Amplitude
GR.GAPI                       : Gamma Ray
~Parameter Information Block
~A  Depth       CCL         TT3         AMP3         GR     
# ...
  1629.0000      4.0000    804.5070      2.8318    111.1675
  1629.2500      4.0000    801.0585      2.7098     98.5936
  1629.5000      0.0000    788.2023      2.5523     91.1174
  1629.7500      0.0000    772.7372      2.4489     90.6090
  1630.0000      0.0000    762.4634      2.4326     96.0680
  1630.2500      0.0000    761.1553      2.4441    104.8838
  1630.5000      0.0000    765.4077      2.3979    114.6876
  1630.7500      0.0000    766.8847      2.2838    123.9861
  1631.0000      0.0000    760.6519      2.1851    131.6794
  1631.2500      0.0000    751.4557      2.1974    136.9153
  1631.5000      0.0000    749.6134      2.3455    139.4869
  1631.7500      0.0000    760.6122      2.5847    139.7876
  1632.0000      0.0000    780.1226      2.8518    138.4326
  1632.2500      0.0000    798.5421      3.0965    136.3161
  1632.5000      0.0000    808.5519      3.2807    134.5700
  1632.7500      0.0000    808.7147      3.3832    133.7265
  1633.0000      0.0000    802.5931      3.4202    133.1560
  1633.2500      0.0000    796.0137      3.4456    131.7730
  1633.5000      0.0000    793.8607      3.5106    129.0943
  1633.7500      0.0000    797.5240      3.6136    125.6939
  1634.0000      0.0000    804.5950      3.6915    123.1975
  1634.2500      0.0000    811.0089      3.6743    123.6311
  1634.5000      0.0000    813.8875      3.5619    127.8113
  1634.7500      0.0000    813.0397      3.4448    133.9848
  1635.0000      0.0000    810.3068      3.4265    138.4817
  1635.2500      0.0000    807.5805      3.5152    138.2641
  1635.5000      0.0000    805.2128      3.6106    133.1961
  1635.7500      0.0000    801.6944      3.6135    126.1628
  1636.0000      0.0000    794.4033      3.5337    121.1301
  1636.2500      0.0000    781.1713      3.4769    120.7594
  1636.5000      0.0000    762.3012      3.5357    125.1589
  1636.7500      0.0000    741.4878      3.7039    132.2956
  1637.0000      0.0000    724.1033      3.8880    139.5418
  1637.2500      0.0000    714.0645      3.9906    145.2322
  1637.5000      0.0000    712.1589      3.9913    149.0877
  1637.7500      0.0000    716.5552      3.9597    151.3099
  1638.0000      0.0000    724.2210      3.9871    151.6511
  1638.2500      0.0000    732.7603      4.1005    149.6294
  1638.5000      0.0000    742.0537      4.2482    145.3172
  1638.7500      0.0000    753.5499      4.3726    139.5765
  1639.0000      0.0000    767.1844      4.4746    133.7122
  1639.2500      0.0000    779.8757      4.5887    129.0869
  1639.5000      0.0000    787.8149      4.7108    126.8180
  1639.7500      0.0000    789.6721      4.7840    127.4267
  1640.0000      0.0000    787.4299      4.7562    130.4503
  1640.2500      0.0000    784.6821      4.6265    134.3788
  1640.5000      0.0000    783.7114      4.4295    137.4037
  1640.7500      0.0000    783.1490      4.1935    138.5352
  1641.0000      0.0000    778.8901      3.9356    137.9112
  1641.2500      0.0000    768.6314      3.6879    136.2772
  1641.5000      0.0000    755.1689      3.4963    134.7234
  1641.7500      0.0000    743.8627      3.3774    134.5007
  1642.0000      0.0000    737.3314      3.2949    135.9608
  1642.2500      0.0000    734.1114      3.1925    137.5164
  1642.5000      0.0000    731.7329      3.0435    136.7143
  1642.7500      0.0000    729.1554      2.8625    132.8840
  1643.0000      0.0000    726.4254      2.6873    128.0154
  1643.2500      0.0000    723.7667      2.5671    124.6964
  1643.5000      0.0000    721.5461      2.5526    123.9743
  1643.7500      0.0000    720.3489      2.6667    125.5099
  1644.0000      0.0000    720.5549      2.8732    128.8407
  1644.2500      0.0000    722.1578      3.0902    133.7243
  1644.5000      0.0000    725.4500      3.2474    139.5407
  1644.7500      0.0000    731.4879      3.3266    144.8265
  1645.0000      0.0000    740.7170      3.3556    147.7027
  1645.2500      0.0000    750.8042      3.3821    147.0538
  1645.5000      0.0000    757.2737      3.4516    143.4001
  1645.7500      0.0000    757.4687      3.5810    138.5212
  1646.0000      0.0000    753.3269      3.7382    134.3177
  1646.2500      0.0000    749.7349      3.8593    132.0100
  1646.5000      0.0000    750.7722      3.8960    131.9346
  1646.7500      0.0000    757.5010      3.8491    133.5581
  1647.0000      0.0000    768.0263      3.7551    135.7765
  1647.2500      0.0000    778.5938      3.6460    137.7872
  1647.5000      0.0000    784.7667      3.5232    139.7682
  1647.7500      0.0000    783.2173      3.3668    142.3430
  1648.0000      0.0000    774.5274      3.1647    145.5841
  1648.2500      0.0000    764.4035      2.9362    149.0308
  1648.5000      0.0000    759.9049      2.7326    152.3568
  1648.7500      0.0000    763.1558      2.6075    155.2673
  1649.0000      0.0000    769.6241      2.5867    156.9115
  1649.2500      0.0000    772.8348      2.6613    156.0883
  1649.5000      0.0000    769.9503      2.7942    152.2289
  1649.7500      0.0000    763.2493      2.9284    146.0445
  1650.0000      0.0000    757.4241      3.0084    139.1853
  1650.2500     -4.0000    755.1472      3.0079    133.2237
  1650.5000      0.0000    754.1497      2.9448    128.8917
  1650.7500      0.0000    749.1874      2.8841    126.3063
  1651.0000      0.0000    738.1020      2.9088    125.7161
  1651.2500      0.0000    725.2829      3.0611    127.5945
  1651.5000      0.0000    718.7225      3.3069    131.7668
  1651.7500      0.0000    725.1525      3.5724    136.7210
  1652.0000      0.0000    747.7897      3.8139    140.5091
  1652.2500      0.0000    785.4562      4.0397    142.7430
  1652.5000      0.0000    830.8363      4.2728    145.1159
  1652.7500      0.0000    869.5641      4.5113    149.1308
  1653.0000      0.0000    884.7401      4.7342    153.7890
  1653.2500      0.0000    867.8342      4.9285    156.4948
  1653.5000      0.0000    826.9218      5.0975    156.0770
  1653.7500      0.0000    781.5076      5.2469    154.1062
  1654.0000      0.0000    747.9499      5.3765    153.1737
  1654.2500      0.0000    730.5818      5.4921    154.3395
  1654.5000      0.0000    724.5622      5.6136    156.2593
  1654.7500      0.0000    723.2551      5.7710    156.5210
  1655.0000      0.0000    722.5646      5.9914    153.7086
  1655.2500      0.0000    721.7526      6.2889    148.3098
  1655.5000      0.0000    723.3748      6.6536    142.1355
  1655.7500      0.0000    733.5530      7.0418    137.4972
  1656.0000      0.0000    760.8690      7.3835    136.6556
  1656.2500      0.0000    810.9437      7.6205    140.9772
  1656.5000      0.0000    879.0616      7.7478    149.8753
  1656.7500      0.0000    950.1597      7.8083    160.5883
  1657.0000      0.0000   1008.6154      7.8385    169.3362
  1657.2500      0.0000   1045.0574      7.8225    173.2734
  1657.5000      0.0000   1053.3375      7.7047    172.0841
  1657.7500      0.0000   1031.1096      7.4477    167.9693
  1658.0000      0.0000    990.5646      7.0608    164.0296
  1658.2500      0.0000    960.6282      6.5672    162.5838
  1658.5000      0.0000    966.9089      5.9669    164.6572
  1658.7500      0.0000   1006.5670      5.2611    170.1509
  1659.0000      0.0000   1046.4535      4.5131    177.5561
  1659.2500      0.0000   1050.4418      3.8613    183.4736
  1659.5000      0.0000   1009.5466      3.4455    183.7103
  1659.7500      0.0000    944.0176      3.3046    176.1743
  1660.0000      0.0000    879.6074      3.3442    162.6650
  1660.2500      0.0000    828.1151      3.4187    147.6291
  1660.5000      0.0000    788.7145      3.4427    135.5090
  1660.7500      0.0000    758.6965      3.4195    128.9023
  1661.0000      0.0000    738.4429      3.3915    128.0181
  1661.2500      0.0000    729.2040      3.3993    131.3125
  1661.5000      0.0000    729.5861      3.4640    136.7785
  1661.7500      0.0000    734.6086      3.5703    142.9904
  1662.0000      0.0000    738.0916      3.6677    149.3904
  1662.2500      0.0000    737.0515      3.7064    155.7845
