~Version Information
VERS.                      2.0: CWLS Log ASCII Standard - VERSION 2.0
WRAP.                       NO: One line per depth step
~Well Information Block
STRT.FT               588.6000: 
STOP.FT              2281.0000: 
STEP.FT                 0.1000: 
NULL.                -999.2500: 
COMP.          Petrogulf Corporation: COMPANY
WELL.             State 16-41V: WELL
FLD.           Purgatorie River: FIELD
LOC.           335' FNL & 823' FEL: LOCATION
CNTY.               Las Animas: COUNTY
SRVC.                         : SERVICE COMPANY
DATE.          Tue Aug 02 07:31:25 2005: LOG DATE
UWI.                          : UNIQUE WELL ID
STAT.                 Colorado: STATE
~Curve Information Block
DEPT.FT            0 000 00 00: Depth
DCAL.in                       : CDL Caliper
RHOB.g/cc                     : CDL Bulk Density
RHOC.g/cc                     : CDL Density Correction
DPOR.pu                       : CDL Density Porosity
GR.GAPI                       : Gamma Ray
NPOR.pu                       : Neutron Porosity
~Parameter Information Block
~A  Depth       DCAL        RHOB        RHOC        DPOR         GR         NPOR    
# ...
  1587.0000      8.0737      2.4483      0.1143     12.2262     56.8331     15.2454
  1587.1000      8.0737      2.4490      0.1110     12.1836     57.0736     15.4724
  1587.2000      8.0737      2.4414      0.0990     12.6410     54.4704     15.7291
  1587.3000      8.0975      2.4227      0.0969     13.7737     51.0110     16.0147
  1587.4000      8.0975      2.3995      0.0379     15.1827     49.3131     16.3287
  1587.5000      8.1384      2.3847      0.0737     16.0778     49.8677     16.6711
  1587.6000      8.1384      2.3855      0.0301     16.0329     52.0535     17.0421
  1587.7000      8.1384      2.4054      0.0776     14.8240     56.1375     17.4420
  1587.8000      8.1506      2.4413      0.0944     12.6513     60.7095     17.8707
  1587.9000      8.1506      2.4814      0.1493     10.2212     63.8662     18.3273
  1588.0000      8.1836      2.5140      0.1587      8.2418     65.9560     18.8100
  1588.1000      8.1836      2.5390      0.1295      6.7302     67.5678     19.3159
  1588.2000      8.1836      2.5641      0.1264      5.2071     70.0917     19.8404
  1588.3000      8.1294      2.5825      0.2047      4.0925     76.0540     20.3772
  1588.4000      8.1294      2.5803      0.1534      4.2229     85.7032     20.9180
  1588.5000      8.0976      2.5636      0.1200      5.2353     97.0139     21.4530
  1588.6000      8.0976      2.5454      0.0786      6.3398    108.9568     21.9708
  1588.7000      8.0976      2.5281      0.0744      7.3870    121.5176     22.4594
  1588.8000      8.0288      2.5101      0.0465      8.4780    132.4215     22.9071
  1588.9000      8.0288      2.4942      0.0518      9.4448    138.4436     23.3033
  1589.0000      8.0533      2.4859      0.0434      9.9472    141.6315     23.6401
  1589.1000      8.0533      2.4850      0.0911      9.9973    146.0135     23.9127
  1589.2000      8.0533      2.4811      0.0841     10.2392    151.3743     24.1205
  1589.3000      8.0927      2.4666      0.1218     11.1166    155.4570     24.2668
  1589.4000      8.0927      2.4428      0.1355     12.5587    157.9285     24.3590
  1589.5000      8.0745      2.4184      0.1239     14.0364    159.5641     24.4071
  1589.6000      8.0745      2.4115      0.1436     14.4534    160.2561     24.4231
  1589.7000      8.0745      2.4347      0.1477     13.0500    160.6773     24.4195
  1589.8000      8.1034      2.4813      0.2650     10.2221    162.3790     24.4083
  1589.9000      8.1034      2.5340      0.2946      7.0280    165.2323     24.4000
  1590.0000      8.0712      2.5785      0.3531      4.3341    165.0960     24.4027
  1590.1000      8.0712      2.6059      0.3542      2.6718    161.3656     24.4229
  1590.2000      8.0712      2.6188      0.3456      1.8925    160.8086     24.4647
  1590.3000      8.1432      2.6308      0.3434      1.1630    163.8130     24.5309
  1590.4000      8.1432      2.6511      0.2795     -0.0647    163.0526     24.6230
  1590.5000      8.1264      2.6697      0.2857     -1.1922    157.5126     24.7418
  1590.6000      8.1264      2.6648      0.2862     -0.8978    152.5811     24.8870
  1590.7000      8.1264      2.6333      0.1906      1.0110    152.1425     25.0574
  1590.8000      8.0590      2.5946      0.1839      3.3579    155.5811     25.2506
  1590.9000      8.0590      2.5640      0.1159      5.2098    159.4395     25.4630
  1591.0000      8.0221      2.5409      0.1118      6.6098    160.2413     25.6898
  1591.1000      8.0221      2.5181      0.0959      7.9916    159.6305     25.9254
  1591.2000      8.0221      2.4992      0.0776      9.1410    161.6821     26.1643
  1591.3000      8.0503      2.4916      0.0667      9.6025    163.3856     26.4007
  1591.4000      8.0503      2.4919      0.0972      9.5825    160.3198     26.6299
  1591.5000      8.0722      2.4972      0.1002      9.2577    157.7522     26.8483
  1591.6000      8.0722      2.5093      0.1363      8.5298    160.7967     27.0532
  1591.7000      8.0722      2.5175      0.1754      8.0283    164.4030     27.2436
  1591.8000      8.0708      2.5132      0.1614      8.2882    163.6766     27.4194
  1591.9000      8.0708      2.5078      0.1734      8.6152    160.3906     27.5819
  1592.0000      8.0708      2.5112      0.1938      8.4094    156.3679     27.7331
  1592.1000      8.0708      2.5225      0.1974      7.7283    153.0206     27.8755
  1592.2000      8.0708      2.5440      0.2140      6.4259    152.3557     28.0118
  1592.3000      8.0783      2.5736      0.2027      4.6321    152.1816     28.1437
  1592.4000      8.0783      2.6004      0.2315      3.0032    150.9014     28.2723
  1592.5000      8.1043      2.6208      0.2180      1.7682    149.2872     28.3967
  1592.6000      8.1043      2.6380      0.2204      0.7258    146.9524     28.5144
  1592.7000      8.1043      2.6474      0.2211      0.1553    145.0137     28.6211
  1592.8000      8.0973      2.6425      0.1684      0.4517    143.9618     28.7116
  1592.9000      8.0973      2.6294      0.1458      1.2510    141.9356     28.7797
  1593.0000      8.0544      2.6177      0.1241      1.9605    138.4260     28.8196
  1593.1000      8.0544      2.6061      0.1712      2.6600    135.9965     28.8266
  1593.2000      8.0544      2.5879      0.1133      3.7606    137.8149     28.7975
  1593.3000      8.0260      2.5713      0.0867      4.7712    143.4972     28.7313
  1593.4000      8.0260      2.5710      0.0605      4.7881    147.6092     28.6289
  1593.5000      8.0075      2.5836      0.0925      4.0259    144.8877     28.4928
  1593.6000      8.0075      2.5929      0.0807      3.4606    138.0773     28.3272
  1593.7000      8.0075      2.5932      0.0694      3.4424    133.2480     28.1360
  1593.8000      8.0060      2.5889      0.0784      3.7058    131.9576     27.9233
  1593.9000      8.0060      2.5886      0.0520      3.7221    133.1291     27.6919
  1594.0000      8.0079      2.5967      0.0745      3.2295    133.8698     27.4428
  1594.1000      8.0079      2.6025      0.1201      2.8775    131.6928     27.1752
  1594.2000      8.0079      2.5938      0.1052      3.4038    127.4668     26.8862
  1594.3000      8.0562      2.5734      0.0327      4.6437    123.6745     26.5709
  1594.4000      8.0562      2.5510      0.0309      6.0006    119.4112     26.2239
  1594.5000      8.0465      2.5314      0.0241      7.1908    111.8900     25.8392
  1594.6000      8.0465      2.5186     -0.0105      7.9666    103.1383     25.4119
  1594.7000      8.0465      2.5191     -0.0076      7.9335     97.3973     24.9395
  1594.8000      8.0383      2.5258      0.0373      7.5255     94.6949     24.4224
  1594.9000      8.0383      2.5287     -0.0111      7.3534     92.7084     23.8644
  1595.0000      8.0396      2.5307      0.0378      7.2284     91.1206     23.2731
  1595.1000      8.0396      2.5275      0.0649      7.4234     89.5085     22.6588
  1595.2000      8.0396      2.5172      0.0527      8.0458     86.8419     22.0338
  1595.3000      8.0261      2.5101      0.0834      8.4798     83.5610     21.4108
  1595.4000      8.0261      2.5044      0.0832      8.8269     80.7841     20.8020
  1595.5000      8.0183      2.4954      0.0623      9.3678     79.4153     20.2182
  1595.6000      8.0183      2.4896      0.0845      9.7237     79.3363     19.6678
  1595.7000      8.0183      2.4884      0.0948      9.7950     78.7634     19.1572
  1595.8000      8.0249      2.4863      0.0759      9.9184     76.2768     18.6902
  1595.9000      8.0249      2.4772      0.1237     10.4703     72.4556     18.2689
  1596.0000      8.0538      2.4600      0.0800     11.5151     69.8107     17.8933
  1596.1000      8.0538      2.4460      0.0874     12.3665     69.8845     17.5621
  1596.2000      8.0538      2.4455      0.0752     12.3949     71.3683     17.2727
  1596.3000      8.0802      2.4563      0.0494     11.7390     72.3841     17.0213
  1596.4000      8.0802      2.4639      0.0565     11.2765     72.6906     16.8036
  1596.5000      8.1385      2.4572      0.0687     11.6828     72.6822     16.6148
