~Version Information
VERS.                      2.0: CWLS Log ASCII Standard - VERSION 2.0
WRAP.                       NO: One line per depth step
~Well Information Block
STRT.FT               375.0000: 
STOP.FT              2795.7000: 
STEP.FT                 0.1000: 
NULL.                -999.2500: 
COMP.          Pioneer Natural Resources: COMPANY
WELL.              Getem 21-23: WELL
FLD.           Purgatoire River: FIELD
LOC.           2623' FWL & 790' FNL--: LOCATION
PROV.                 Colorado: PROVINCE
CNTY.               Las Animas: COUNTRY
SRVC.                Patterson: SERVICE COMPANY
DATE.          Mon Jun 20 07:26:21 2005: LOG DATE
UWI.           05 071 08411 00: UNIQUE WELL ID
~Curve Information Block
DEPT.FT            0 000 00 00: Depth
DCAL.in                       : CDL Caliper
RHOB.g/cc                     : CDL Bulk Density
RHOC.g/cc                     : CDL Density Correction
DPOR.pu                       : CDL Density Porosity
NPOR.pu                       : Neutron Porosity
GR.GAPI                       : Gamma Ray
~Parameter Information Block
~A  Depth       DCAL        RHOB        RHOC        DPOR        NPOR         GR     
# ...
  1651.8000      8.1798      2.3456      0.0197     18.4466     23.0620    139.7603
  1651.9000      8.1798      2.2721     -0.0669     22.9018     21.8602    139.1897
  1652.0000      8.2024      2.2134     -0.0548     26.4632     20.6905    139.8064
  1652.1000      8.2024      2.1471     -0.0635     30.4814     19.4284    135.4799
  1652.2000      8.2024      2.0632     -0.0796     35.5627     18.0335    129.0403
  1652.3000      8.2405      1.9736     -0.0630     40.9952     16.7794    125.4770
  1652.4000      8.2405      1.9029     -0.0142     45.2803     15.8723    125.7102
  1652.5000      8.3178      1.9015     -0.0271     45.3645     15.4377    128.7850
  1652.6000      8.3178      2.0165      0.0916     38.3920     15.4674    131.4496
  1652.7000      8.3178      2.2102      0.3500     26.6545     15.7118    130.6873
  1652.8000      8.3981      2.3800      0.4441     16.3631     15.9893    126.6722
  1652.9000      8.3981      2.4638      0.4592     11.2834     16.2707    123.1712
  1653.0000      8.3959      2.4668      0.4527     11.1012     16.5952    121.1689
  1653.1000      8.3959      2.4318      0.3778     13.2261     16.9869    117.8282
  1653.2000      8.3959      2.4093      0.3093     14.5905     17.4265    117.5274
  1653.3000      8.3128      2.4179      0.2761     14.0662     17.8523    122.8132
  1653.4000      8.3128      2.4281      0.2896     13.4460     18.2297    129.5862
  1653.5000      8.2378      2.4130      0.1616     14.3646     18.6950    135.1671
  1653.6000      8.2378      2.3893      0.0902     15.8023     19.0577    137.0919
  1653.7000      8.2378      2.3746      0.1212     16.6938     19.1375    136.8215
  1653.8000      8.1940      2.3662      0.1294     17.2004     19.0643    137.5796
  1653.9000      8.1940      2.3761      0.1017     16.6024     18.8701    139.9604
  1654.0000      8.1735      2.4177      0.2370     14.0765     18.9328    144.0521
  1654.1000      8.1735      2.4693      0.3009     10.9489     19.7285    146.8444
  1654.2000      8.1735      2.4960      0.2796      9.3311     20.8749    145.0894
  1654.3000      8.1646      2.4902      0.2346      9.6846     21.4859    141.4191
  1654.4000      8.1646      2.4705      0.1394     10.8794     21.4177    138.8535
  1654.5000      8.1597      2.4473      0.1555     12.2838     21.1651    136.1207
  1654.6000      8.1597      2.4138      0.0925     14.3140     20.9727    132.5915
  1654.7000      8.1597      2.3769      0.0714     16.5530     20.8173    130.8847
  1654.8000      8.1594      2.3516      0.0325     18.0827     20.6596    133.2883
  1654.9000      8.1594      2.3312      0.0892     19.3224     20.5807    139.1244
  1655.0000      8.1637      2.3059      0.0085     20.8527     20.5561    144.4191
  1655.1000      8.1637      2.2914      0.0010     21.7356     20.4220    145.3017
  1655.2000      8.1637      2.2942      0.0423     21.5631     20.0604    141.7832
  1655.3000      8.1817      2.2934      0.0986     21.6105     19.3266    135.9542
  1655.4000      8.1817      2.2696      0.0802     23.0539     18.1580    132.4743
  1655.5000      8.2189      2.2202      0.1058     26.0478     16.8337    134.7918
  1655.6000      8.2189      2.1493      0.1183     30.3438     15.8628    137.7451
  1655.7000      8.2189      2.0724      0.1155     35.0050     15.2308    136.2678
  1655.8000      8.2555      2.0105      0.1113     38.7588     14.5043    134.5410
  1655.9000      8.2555      1.9642      0.1209     41.5611     13.8295    135.5054
  1656.0000      8.3011      1.9202      0.1448     44.2327     13.7164    136.6692
  1656.1000      8.3011      1.8904      0.0851     46.0357     14.2984    139.0064
  1656.2000      8.3011      1.9271      0.0869     43.8115     15.3575    144.9553
  1656.3000      8.4170      2.0621      0.3918     35.6329     16.4547    150.8780
  1656.4000      8.4170      2.2551      0.5801     23.9315     17.3602    151.8165
  1656.5000      8.5576      2.4315      0.6557     13.2397     18.5792    148.7026
  1656.6000      8.5576      2.5360      0.6351      6.9101     20.4093    146.2092
  1656.7000      8.5576      2.5714      0.4534      4.7618     22.0279    148.7407
  1656.8000      8.5309      2.5885      0.4204      3.7288     22.9779    154.5610
  1656.9000      8.5309      2.6101      0.4546      2.4197     23.6912    156.1379
  1657.0000      8.3559      2.6208      0.4113      1.7697     24.1947    152.0605
  1657.1000      8.3559      2.6208      0.3442      1.7691     24.2079    150.0308
  1657.2000      8.3559      2.6218      0.3578      1.7116     23.7966    153.3877
  1657.3000      8.2394      2.6169      0.3354      2.0077     23.2193    154.4979
  1657.4000      8.2394      2.5914      0.2956      3.5524     22.9081    148.6963
  1657.5000      8.2115      2.5493      0.1726      6.1046     23.0990    144.7136
  1657.6000      8.2115      2.5124      0.1374      8.3375     23.1324    148.6731
  1657.7000      8.2115      2.4913      0.1395      9.6187     22.6156    152.7664
  1657.8000      8.2065      2.4827      0.1078     10.1411     22.1151    150.6343
  1657.9000      8.2065      2.4828      0.1177     10.1324     22.0455    148.3037
  1658.0000      8.2028      2.4871      0.1130      9.8757     22.2705    149.3798
  1658.1000      8.2028      2.4911      0.1066      9.6320     22.3356    147.9595
  1658.2000      8.2028      2.4926      0.1011      9.5417     22.0238    143.4831
  1658.3000      8.2017      2.4836      0.0984     10.0874     21.5915    140.9306
  1658.4000      8.2017      2.4546      0.0884     11.8439     21.3595    138.6966
  1658.5000      8.2039      2.4224      0.0006     13.7918     21.3435    133.2598
  1658.6000      8.2039      2.4160      0.0409     14.1835     21.3288    129.2045
  1658.7000      8.2039      2.4327      0.0609     13.1727     21.1967    128.7766
  1658.8000      8.2068      2.4517      0.0870     12.0203     20.8990    126.9981
  1658.9000      8.2068      2.4518      0.0929     12.0131     20.5956    122.8655
  1659.0000      8.2072      2.4229      0.0549     13.7637     20.4841    121.9031
  1659.1000      8.2072      2.3878     -0.0231     15.8930     20.3867    125.4383
  1659.2000      8.2072      2.3780      0.0223     16.4876     20.0717    129.3542
  1659.3000      8.2085      2.3911      0.0674     15.6893     19.8628    131.7939
  1659.4000      8.2085      2.4089      0.0636     14.6116     20.1641    134.4885
  1659.5000      8.2097      2.4322      0.0657     13.1973     20.9348    138.6783
  1659.6000      8.2097      2.4711      0.1147     10.8441     22.2616    142.8768
  1659.7000      8.2097      2.5204      0.1797      7.8554     24.0396    142.7831
  1659.8000      8.2105      2.5582      0.2037      5.5621     25.3748    138.6591
  1659.9000      8.2105      2.5605      0.1955      5.4234     25.5532    136.7494
  1660.0000      8.2176      2.5196      0.1618      7.9027     24.6344    137.3015
  1660.1000      8.2176      2.4399      0.1249     12.7326     23.1138    136.5235
  1660.2000      8.2176      2.3224      0.0847     19.8558     21.5960    136.3889
  1660.3000      8.2421      2.1759     -0.0560     28.7350     20.3530    138.8201
  1660.4000      8.2421      2.0315     -0.1753     37.4839     19.2236    139.2581
  1660.5000      8.2786      1.9116     -0.1415     44.7487     17.8332    134.9831
  1660.6000      8.2786      1.8149     -0.1263     50.6099     16.4773    129.7295
  1660.7000      8.2786      1.7477     -0.1356     54.6878     15.9512    128.2817
  1660.8000      8.3239      1.7228     -0.1134     56.1937     16.3638    133.1161
  1660.9000      8.3239      1.7491     -0.0651     54.5993     17.1662    139.2015
  1661.0000      8.3883      1.8458      0.0533     48.7378     18.0024    141.2682
  1661.1000      8.3883      2.0186      0.2913     38.2665     19.1299    141.9169
  1661.2000      8.3883      2.2192      0.5942     26.1120     20.6759    143.3904
  1661.3000      8.4513      2.3940      0.5623     15.5177     21.9967    144.9536
