~Version Information
VERS.                      2.0: CWLS Log ASCII Standard - VERSION 2.0
WRAP.                       NO: One line per depth step
~Well Information Block
STRT.FT               507.5000: 
STOP.FT              2145.0000: 
STEP.FT                 0.2500: 
NULL.                -999.2500: 
COMP.          Petrogulf Corporation: COMPANY
WELL.            Montoya 1-44R: WELL
FLD.           Purgatorie River: FIELD
LOC.           658' FSL & 1052' FWL: LOCATION
CNTY.               Las Animas: COUNTY
SRVC.                         : SERVICE COMPANY
DATE.          Tue Nov 16 02:59:24 2004: LOG DATE
UWI.           05 071 08239 00: UNIQUE WELL ID
STAT.                 Colorado: STATE
~Curve Information Block
DEPT.FT            0 000 00 00: Depth
SP.mV                         : DIL Spontaneous Potential
RILD.Ohm-m                    : DIL Deep Resistivity
RILM.Ohm-m                    : DIL Medium Resistivity
RLL3.Ohm-m                    : DIL Shallow Resistivity
GR.GAPI                       : Gamma Ray
~Parameter Information Block
~A  Depth        SP         RILD        RILM        RLL3         GR     
# ...
  1151.5000    -58.9650     37.5473     42.8201     50.4019    107.5568
  1151.7500    -57.4901     38.1063     42.8431     50.4145    110.4228
  1152.0000    -56.0117     38.6444     42.8706     50.6689    112.8793
  1152.2500    -54.6299     39.0778     42.9363     51.2005    112.7587
  1152.5000    -53.4346     39.3330     43.0736     52.0201    110.2109
  1152.7500    -52.5070     39.3635     43.3112     53.1137    107.5698
  1153.0000    -51.9223     39.1624     43.6682     54.4479    103.4266
  1153.2500    -51.7454     38.7611     44.1513     55.9800    100.9572
  1153.5000    -52.0181     38.2161     44.7505     57.6705     97.5930
  1153.7500    -52.7393     37.5968     45.4400     59.4938     95.2981
  1154.0000    -53.8534     36.9697     46.1779     61.4416     91.5719
  1154.2500    -55.2466     36.3920     46.9074     63.5139     88.9514
  1154.5000    -56.7638     35.9088     47.5659     65.6986     84.8546
  1154.7500    -58.2344     35.5521     48.0869     67.9471     82.0158
  1155.0000    -59.5022     35.3411     48.4077     70.1563     77.7566
  1155.2500    -60.4482     35.2815     48.4771     72.1683     75.0225
  1155.5000    -61.0037     35.3638     48.2569     73.7913     71.1505
  1155.7500    -61.1504     35.5589     47.7260     74.8333     68.8093
  1156.0000    -60.9126     35.8195     46.8801     75.1382     65.9888
  1156.2500    -60.3415     36.0791     45.7331     74.6105     64.7978
  1156.5000    -59.5086     36.2606     44.3157     73.2237     64.5139
  1156.7500    -58.4933     36.2865     42.6753     71.0109     65.6351
  1157.0000    -57.3772     36.0953     40.8734     68.0482     69.5219
  1157.2500    -56.2417     35.6536     38.9796     64.4390     73.4318
  1157.5000    -55.1772     34.9651     37.0660     60.3073     80.7407
  1157.7500    -54.2793     34.0652     35.1993     55.8011     86.2364
  1158.0000    -53.6581     33.0096     33.4364     51.1003     94.8611
  1158.2500    -53.4307     31.8598     31.8180     46.4183    100.6329
  1158.5000    -53.7046     30.6703     30.3689     41.9920    109.2551
  1158.7500    -54.5493     29.4814     29.0965     38.0549    115.0825
  1159.0000    -55.9650     28.3189     27.9922     34.8010    123.9955
  1159.2500    -57.8624     27.1975     27.0338     32.3463    129.7758
  1159.5000    -60.0570     26.1255     26.1872     30.7006    137.1146
  1159.7500    -62.2996     25.1098     25.4128     29.7575    140.4157
  1160.0000    -64.3190     24.1571     24.6703     29.3093    142.4400
  1160.2500    -65.8867     23.2756     23.9263     29.0888    142.0220
  1160.5000    -66.8733     22.4717     23.1611     28.8289    139.5811
  1160.7500    -67.2759     21.7490     22.3716     28.3259    137.4478
  1161.0000    -67.2120     21.1059     21.5710     27.4833    135.1579
  1161.2500    -66.8748     20.5356     20.7828     26.3226    135.2968
  1161.5000    -66.4668     20.0259     20.0335     24.9575    138.8846
  1161.7500    -66.1318     19.5625     19.3474     23.5452    143.0210
  1162.0000    -65.9146     19.1311     18.7405     22.2355    149.6185
  1162.2500    -65.7537     18.7202     18.2204     21.1354    152.9433
  1162.5000    -65.5190     18.3227     17.7861     20.2958    154.9424
  1162.7500    -65.0720     17.9377     17.4306     19.7164    154.0503
  1163.0000    -64.3219     17.5686     17.1430     19.3606    149.8460
  1163.2500    -63.2675     17.2224     16.9110     19.1712    145.9634
  1163.5000    -61.9983     16.9070     16.7225     19.0850    140.6518
  1163.7500    -60.6778     16.6304     16.5670     19.0431    138.5709
  1164.0000    -59.4990     16.3990     16.4364     18.9985    138.1529
  1164.2500    -58.6437     16.2175     16.3259     18.9191    139.0294
  1164.5000    -58.2468     16.0890     16.2331     18.7899    140.4610
  1164.7500    -58.3707     16.0151     16.1594     18.6106    140.9715
  1165.0000    -58.9966     15.9966     16.1092     18.3945    141.0137
  1165.2500    -60.0251     16.0332     16.0904     18.1665    140.6276
  1165.5000    -61.2927     16.1239     16.1136     17.9633    139.5881
  1165.7500    -62.5986     16.2676     16.1913     17.8332    138.9967
  1166.0000    -63.7445     16.4629     16.3370     17.8374    139.4740
  1166.2500    -64.5741     16.7092     16.5644     18.0479    141.1536
  1166.5000    -65.0057     17.0070     16.8862     18.5432    145.0483
  1166.7500    -65.0476     17.3577     17.3146     19.3997    147.4040
  1167.0000    -64.7903     17.7650     17.8605     20.6814    148.5642
  1167.2500    -64.3773     18.2336     18.5342     22.4311    147.2500
  1167.5000    -63.9670     18.7693     19.3465     24.6658    142.5994
  1167.7500    -63.6881     19.3779     20.3076     27.3800    138.3669
  1168.0000    -63.6073     20.0644     21.4280     30.5521    131.5157
  1168.2500    -63.7153     20.8314     22.7166     34.1500    127.2004
  1168.5000    -63.9289     21.6779     24.1800     38.1303    121.6214
  1168.7500    -64.1199     22.5972     25.8191     42.4295    118.3981
  1169.0000    -64.1513     23.5756     27.6261     46.9511    113.6778
  1169.2500    -63.9210     24.5912     29.5803     51.5552    110.2110
  1169.5000    -63.3899     25.6124     31.6421     56.0618    104.0517
  1169.7500    -62.5964     26.5981     33.7471     60.2682     99.2324
  1170.0000    -61.6458     27.4996     35.7988     63.9799     91.4721
  1170.2500    -60.6874     28.2640     37.6685     67.0425     86.6984
  1170.5000    -59.8798     28.8412     39.2007     69.3602     81.6101
  1170.7500    -59.3611     29.1910     40.2364     70.8879     80.0320
  1171.0000    -59.2282     29.2920     40.6448     71.5986     79.7935
  1171.2500    -59.5263     29.1464     40.3665     71.4425     80.1184
  1171.5000    -60.2430     28.7805     39.4334     70.3238     79.8810
  1171.7500    -61.3096     28.2392     37.9675     68.1177     79.1363
  1172.0000    -62.5972     27.5768     36.1454     64.7348     78.4973
  1172.2500    -63.9338     26.8467     34.1564     60.2052     79.5732
  1172.5000    -65.1227     26.0929     32.1641     54.7459     84.8954
  1172.7500    -65.9770     25.3446     30.2880     48.7711     91.0698
  1173.0000    -66.3590     24.6148     28.6005     42.8343    103.3094
  1173.2500    -66.2097     23.9029     27.1343     37.5197    112.2785
  1173.5000    -65.5585     23.1987     25.8909     33.3211    124.3429
  1173.7500    -64.5089     22.4888     24.8521     30.5412    130.1673
  1174.0000    -63.2064     21.7624     23.9869     29.2358    134.7515
  1174.2500    -61.7974     21.0170     23.2567     29.2061    135.3123
  1174.5000    -60.3978     20.2602     22.6201     30.0405    133.1960
  1174.7500    -59.0803     19.5083     22.0369     31.2013    130.2478
  1175.0000    -57.8789     18.7827     21.4716     32.1420    124.8137
  1175.2500    -56.8065     18.1043     20.8968     32.4321    121.7596
  1175.5000    -55.8698     17.4893     20.2961     31.8501    120.1706
  1175.7500    -55.0797     16.9470     19.6660     30.4120    121.6868
  1176.0000    -54.4541     16.4794     19.0141     28.3293    127.0931
  1176.2500    -54.0057     16.0820     18.3571     25.9163    131.6256
  1176.5000    -53.7357     15.7465     17.7161     23.4880    137.7871
  1176.7500    -53.6307     15.4631     17.1121     21.2873    140.7756
  1177.0000    -53.6697     15.2226     16.5632     19.4568    143.2947
  1177.2500    -53.8334     15.0181     16.0820     18.0483    143.8492
  1177.5000    -54.1215     14.8459     15.6755     17.0519    143.9237
  1177.7500    -54.5556     14.7057     15.3455     16.4247    144.3319
  1178.0000    -55.1704     14.5995     15.0898     16.1124    146.6419
  1178.2500    -55.9918     14.5311     14.9045     16.0619    149.1904
  1178.5000    -57.0107     14.5050     14.7850     16.2250    152.8912
  1178.7500    -58.1710     14.5254     14.7273     16.5591    154.0525
  1179.0000    -59.3702     14.5961     14.7291     17.0224    152.1520
  1179.2500    -60.4826     14.7194     14.7893     17.5689    147.9948
