~Version Information
 VERS.                                  2.0 : CWLS LAS VERSION
 WRAP.                                   NO : WRAPING MODE
 SWARE .                 MController 2.5.0E : SOFTWARE VERSION
~Well Information
 WELL.                       Parklane 43-34 : WELL
 COMP.             Evergreen Operating Corp : COMPANY
 FLD.                      Purgatorie River : FIELD
 LOC.                NE/SE Sec 34 T32S R66W : LOCATION
 DATE.                          10/04-06/04 : DATE(S) LOGGED
 SRVC.       Blanco Geological Services LLC : SERVICE COMPANY
 STAT.                                   CO : STATE
 CNTY.                           Las Animas : COUNTY
 CTRY.                                  USA : COUNTRY
 API.                       05-071-08162-00 : API NUMBER
 STRT.FT                             467.00 : START DEPTH
 STOP.FT                            2245.00 : STOP DEPTH
 STEP.FT                               1.00 : DEPTH INCREMENT
 NULL.                                -9999 : NULL VALUE
~Curve information
 DEPTH.FT                                   :
 ROP.MIN/FT                                 :
 GAS.UNITS                                  :
~ASCII Log data
# ...
     1467.00        0.333         88.2 
     1468.00        0.300         79.5 
     1469.00        0.300         73.0 
     1470.00        0.350         67.4 
     1471.00        0.300         60.3 
     1472.00        0.267         55.5 
     1473.00        0.267         50.9 
     1474.00        0.300         47.6 
     1475.00        0.267         45.8 
     1476.00        0.267         45.5 
     1477.00        0.233         44.3 
     1478.00        0.300         43.0 
     1479.00        0.233         42.7 
     1480.00        0.200         42.1 
     1481.00        0.200         43.7 
     1482.00        0.200         47.5 
     1483.00        0.183         47.5 
     1484.00        0.200         45.4 
     1485.00        0.133         44.9 
     1486.00        0.167         43.5 
     1487.00        0.200         41.2 
     1488.00        0.167         35.2 
     1489.00        0.167         29.5 
     1490.00        0.167         24.0 
     1491.00        0.133         22.7 
     1492.00        0.100         21.4 
     1493.00        0.267         22.5 
     1494.00        0.167         23.9 
     1495.00        0.167         27.9 
     1496.00        4.050        199.9 
     1497.00        0.400         74.2 
     1498.00        0.417         64.3 
     1499.00        0.367         53.6 
     1500.00        0.267         47.5 
     1501.00        0.233         45.1 
     1502.00        0.233         46.2 
     1503.00        0.233         47.5 
     1504.00        0.233         48.1 
     1505.00        0.333         48.0 
     1506.00        0.367         45.8 
     1507.00        0.300         43.6 
     1508.00        0.333         42.9 
     1509.00        0.250         41.8 
     1510.00        0.367         40.6 
     1511.00        0.367         38.0 
     1512.00        0.300         36.9 
     1513.00        0.300         35.9 
     1514.00        0.267         34.4 
     1515.00        0.267         34.3 
     1516.00        2.783         53.3 
     1517.00        0.400         55.3 
     1518.00        0.300         52.4 
     1519.00        0.333         47.0 
     1520.00        0.267         35.8 
     1521.00        0.267         26.2 
     1522.00        0.233         20.6 
     1523.00        0.217         21.2 
     1524.00        0.200         25.0 
     1525.00        2.633         78.7 
     1526.00        0.167         76.2 
     1527.00        0.233         75.5 
     1528.00        0.250         73.1 
     1529.00        0.267         70.5 
     1530.00        0.200         68.4 
     1531.00        0.233         65.6 
     1532.00        0.233         61.8 
     1533.00        0.267         58.5 
     1534.00        0.233         56.6 
     1535.00        0.233         55.7 
     1536.00        0.167         54.8 
     1537.00        0.133         53.6 
     1538.00        0.167         52.4 
     1539.00        0.233         50.8 
     1540.00        0.200         48.4 
     1541.00        0.233         47.6 
     1542.00        0.233         45.3 
     1543.00        0.183         43.7 
     1544.00        0.200         43.7 
     1545.00        0.200         45.7 
     1546.00        0.233         47.3 
     1547.00        0.167         46.5 
     1548.00        0.233         44.9 
     1549.00        0.400         43.7 
     1550.00        0.400         36.4 
     1551.00        0.200         25.3 
     1552.00        0.133         21.5 
     1553.00        0.167         21.0 
     1554.00        0.133         22.2 
     1555.00        0.233         27.1 
     1556.00        2.383         88.8 
     1557.00        0.333         85.9 
     1558.00        0.233         75.9 
     1559.00        0.333         68.6 
     1560.00        0.233         60.5 
     1561.00        0.267         56.8 
     1562.00        0.217         56.8 
     1563.00        0.233         58.4 
     1564.00        0.167         60.0 
     1565.00        0.200         62.0 
     1566.00        0.167         63.4 
     1567.00        0.167         63.9 
     1568.00        0.233         63.9 
     1569.00        0.233         63.0 
     1570.00        0.267         61.1 
     1571.00        0.267         58.4 
     1572.00        0.233         55.8 
     1573.00        0.267         53.7 
     1574.00        0.267         51.3 
     1575.00        0.300         50.0 
     1576.00        0.317         49.2 
     1577.00        0.300         48.5 
     1578.00        0.333         47.8 
     1579.00        0.367         47.0 
     1580.00        0.333         49.0 
     1581.00        0.333         48.7 
     1582.00        0.367         47.1 
     1583.00        0.433         44.8 
     1584.00        0.400         35.2 
     1585.00        0.417         30.4 
     1586.00        2.833         91.2 
     1587.00        0.267         89.0 
     1588.00        0.350         85.4 
     1589.00        0.367         75.7 
     1590.00        0.333         66.8 
     1591.00        0.333         62.7 
     1592.00        0.300         59.9 
     1593.00        0.300         61.8 
     1594.00        0.267         58.1 
     1595.00        0.300         43.9 
     1596.00        0.300         25.1 
     1597.00        0.717         34.6 
     1598.00        0.700         50.1 
     1599.00        0.667         60.8 
     1600.00        0.467         61.3 
     1601.00        0.267         60.9 
     1602.00        0.233         59.6 
     1603.00        0.233         57.8 
     1604.00        0.200         56.4 
     1605.00        0.200         61.0 
     1606.00        0.200         63.0 
     1607.00        0.283         63.0 
     1608.00        0.300         58.1 
     1609.00        0.200         46.4 
     1610.00        0.267         37.4 
     1611.00        0.200         28.8 
     1612.00        0.233         27.0 
     1613.00        0.200         29.7 
     1614.00        0.200         37.9 
     1615.00        0.167         46.0 
     1616.00        2.683        118.4 
     1617.00        0.267        104.5 
     1618.00        0.200         97.1 
     1619.00        0.167         93.0 
     1620.00        0.133         90.5 
     1621.00        0.167         88.7 
     1622.00        0.133         86.2 
     1623.00        0.200         84.0 
     1624.00        0.200         80.5 
     1625.00        0.267         77.2 
     1626.00        0.233         72.8 
     1627.00        0.250         69.3 
     1628.00        0.267         65.8 
     1629.00        0.167         63.6 
     1630.00        0.200         62.2 
     1631.00        0.233         61.0 
     1632.00        0.233         59.7 
     1633.00        0.167         58.5 
     1634.00        0.200         57.6 
     1635.00        0.200         60.0 
     1636.00        0.300         61.8 
     1637.00        0.267         60.9 
     1638.00        0.267         57.5 
     1639.00        0.200         48.9 
     1640.00        0.233         39.8 
     1641.00        0.250         30.9 
     1642.00        0.233         25.8 
     1643.00        0.200         26.0 
     1644.00        0.167         27.7 
     1645.00        0.167         31.7 
     1646.00        2.983        125.3 
     1647.00        0.300        104.7 
     1648.00        0.300         94.5 
     1649.00        0.300         88.4 
     1650.00        0.267         84.6 
     1651.00        0.233         81.4 
     1652.00        0.267         78.6 
     1653.00        0.333         75.2 
     1654.00        0.233         70.7 
     1655.00        0.200         67.5 
     1656.00        0.200         64.9 
     1657.00        0.200         62.1 
     1658.00        0.217         59.8 
     1659.00        0.200         58.0 
     1660.00        0.167         56.6 
     1661.00        0.200         55.6 
     1662.00        0.200         54.0 
     1663.00        0.167         52.7 
     1664.00        0.167         51.8 
     1665.00        0.233         55.9 
     1666.00        0.233         59.5 
