~Version Information
VERS.                      2.0: CWLS Log ASCII Standard - VERSION 2.0
WRAP.                       NO: One line per depth step
~Well Information Block
STRT.FT                -9.0000: 
STOP.FT              2518.0000: 
STEP.FT                 0.2500: 
NULL.                -999.2500: 
COMP.          Petrogulf Corporation: COMPANY
WELL.            Montoya 7-12V: WELL
FLD.           Purgatorie River: FIELD
LOC.           1764' FNL & 728' FWL: LOCATION
CNTY.               Las Animas: COUNTY
SRVC.                         : SERVICE COMPANY
DATE.          Mon Mar 08 16:11:04 2004: LOG DATE
UWI.           05-071-07887-00: UNIQUE WELL ID
STAT.                 Colorado: STATE
~Curve Information Block
DEPT.FT            0 000 00 00: Depth
GR.GAPI                       : Gamma Ray
CCL.                          : Casing Collar Locator
TT3.usec                      : CBL 3' Travel Time
AMP3.mV                       : CBL 3' Amplitude
~Parameter Information Block
~A  Depth        GR         CCL         TT3         AMP3    
# ...
  2470.0000     83.8690      0.0000    536.6196      1.8528
  2470.2500     87.3248      0.0000    546.8085      1.8417
  2470.5000     93.1696      0.0000    569.0313      1.8288
  2470.7500    100.4682      0.0000    591.0089      1.7920
  2471.0000    107.9059      0.0000    597.7092      1.7421
  2471.2500    114.1584      0.0000    582.3623      1.7058
  2471.5000    118.0858      0.0000    559.4304      1.6942
  2471.7500    119.1304      0.0000    551.2848      1.7103
  2472.0000    117.5876      0.0000    557.0715      1.7528
  2472.2500    114.5949      0.0000    556.0114      1.7860
  2472.5000    111.9802      0.0000    542.1809      1.7703
  2472.7500    111.6044      0.0000    531.6255      1.7522
  2473.0000    114.1548      0.0000    533.0596      1.8401
  2473.2500    118.5685      0.0000    538.4655      2.0371
  2473.5000    122.8384      0.0000    542.6782      2.2135
  2473.7500    125.1966      0.0000    542.1671      2.2815
  2474.0000    124.5577      0.0000    532.2850      2.2671
  2474.2500    120.5495      0.0000    522.6078      2.2272
  2474.5000    113.6202      4.7742    525.9229      2.1938
  2474.7500    104.9470      0.0000    540.9287      2.1676
  2475.0000     96.0908      0.0000    563.4417      2.1293
  2475.2500     88.6773      0.0000    587.5905      2.0856
  2475.5000     83.9334      0.0000    596.9781      2.0877
  2475.7500     82.1366      0.0000    581.3145      2.1278
  2476.0000     82.5952      0.0000    546.2438      2.0729
  2476.2500     84.1626      0.0000    502.4018      1.8519
  2476.5000     85.5912      0.0000    465.8803      1.5961
  2476.7500     85.7053      0.0000    460.5927      1.4488
  2477.0000     83.8166      0.0000    499.0936      1.4112
  2477.2500     80.1131      0.0000    562.9742      1.4233
  2477.5000     75.5117      0.0000    617.0769      1.4502
  2477.7500     71.1754      0.0000    643.8621      1.4815
  2478.0000     68.1220      0.0000    651.7882      1.5150
  2478.2500     66.9124      0.0000    654.4357      1.5569
  2478.5000     67.3498      0.0000    654.7695      1.6134
  2478.7500     68.4706      0.0000    650.8504      1.6675
  2479.0000     69.0709      0.0000    645.7175      1.6895
  2479.2500     68.4927      0.0000    640.7648      1.6804
  2479.5000     67.0635      0.0000    627.7039      1.6834
  2479.7500     65.7780      0.0000    605.1066      1.7300
  2480.0000     65.4710      0.0000    593.2805      1.7991
  2480.2500     66.3215      0.0000    608.0352      1.8540
  2480.5000     68.0537      0.0000    635.3467      1.8799
  2480.7500     70.3051      0.0000    654.4863      1.8763
  2481.0000     72.5604      0.0000    662.3386      1.8498
  2481.2500     73.9715      0.0000    665.1431      1.8158
  2481.5000     73.6847      0.0000    666.7703      1.7853
  2481.7500     71.5430      0.0000    668.0677      1.7466
  2482.0000     68.4452      0.0000    669.1171      1.6784
  2482.2500     65.8665      0.0000    670.1058      1.5848
  2482.5000     64.8307      0.0000    671.0729      1.5003
  2482.7500     65.3411      0.0000    671.6661      1.4544
  2483.0000     66.8661      0.0000    671.6113      1.4536
  2483.2500     69.0671      0.0000    670.8250      1.4991
  2483.5000     71.6435      0.0000    669.0783      1.5907
  2483.7500     73.7489      0.0000    666.9583      1.7066
  2484.0000     74.4249      0.0000    666.3518      1.8038
  2484.2500     73.8327      0.0000    668.4259      1.8466
  2484.5000     73.3268      0.0000    672.0671      1.8261
  2484.7500     73.8285      0.0000    675.2073      1.7578
  2485.0000     74.5686      0.0000    676.8628      1.6845
  2485.2500     73.9849      0.0000    677.2990      1.6632
  2485.5000     71.6423      0.0000    677.0540      1.7074
  2485.7500     68.7240      0.0000    676.4134      1.7563
  2486.0000     66.7274      0.0000    675.4603      1.7419
  2486.2500     66.2464      0.0000    674.2851      1.6744
  2486.5000     67.0091      0.0000    673.0375      1.6289
  2486.7500     68.4373      0.0000    671.8451      1.6501
  2487.0000     69.8954      0.0000    670.8331      1.7103
  2487.2500     70.7845      0.0000    670.1960      1.7743
  2487.5000     70.8076      0.0000    670.2798      1.8321
  2487.7500     70.2401      0.0000    672.0003      1.8612
  2488.0000     69.7503      0.0000    678.0623      1.8339
  2488.2500     69.7072      0.0000    693.1713      1.7548
  2488.5000     69.6909      0.0000    717.0870      1.6750
  2488.7500     68.8814      0.0000    735.0527      1.6688
  2489.0000     66.8950      0.0000    728.0612      1.7614
  2489.2500     64.0539      0.0000    697.5751      1.8868
  2489.5000     61.0135      0.0000    665.6158      1.9554
  2489.7500     58.5220      0.0000    649.9373      1.9438
  2490.0000     57.4425      0.0000    650.9521      1.8937
  2490.2500     58.3668      0.0000    660.9380      1.8616
  2490.5000     60.8921      0.0000    675.0292      1.8908
  2490.7500     63.6256      0.0000    689.6367      1.9687
  2491.0000     65.2835      0.0000    698.0444      2.0160
  2491.2500     65.8335      0.0000    695.3115      1.9807
  2491.5000     66.4038      0.0000    685.0421      1.9076
  2491.7500     67.9373      0.0000    675.5829      1.8643
  2492.0000     69.9855      0.0000    671.0184      1.8424
  2492.2500     71.0419      0.0000    669.9904      1.7922
  2492.5000     70.0725      0.0000    670.1741      1.7043
  2492.7500     67.5777      0.0000    669.6679      1.6080
  2493.0000     65.2904      0.0000    665.9526      1.5411
  2493.2500     64.9498      0.0000    657.2473      1.5342
  2493.5000     67.0136      0.0000    645.5430      1.5993
  2493.7500     70.1749      0.0000    635.5631      1.7166
  2494.0000     72.2502      0.0000    629.8932      1.8171
  2494.2500     71.9227      0.0000    627.5266      1.8187
  2494.5000     69.7591      0.0000    626.4711      1.7216
  2494.7500     67.4836      0.0000    625.6132      1.6311
  2495.0000     66.3390      0.0000    624.7486      1.6321
  2495.2500     66.2198      0.0000    624.0623      1.6730
  2495.5000     66.1601      0.0000    623.8169      1.6559
  2495.7500     65.3840      0.0000    624.4745      1.6048
  2496.0000     63.9807      0.0000    627.1337      1.6224
  2496.2500     62.8093      0.0000    633.7086      1.7050
  2496.5000     62.8486      0.0000    645.2465      1.7398
  2496.7500     64.5331      0.0000    659.0657      1.6810
  2497.0000     67.4042      0.0000    670.1031      1.6157
  2497.2500     70.1811      0.0000    676.0925      1.6367
  2497.5000     71.3963      0.0000    678.5206      1.7232
  2497.7500     70.4021      0.0000    679.2257      1.7974
  2498.0000     68.0152      0.0000    678.3677      1.8480
  2498.2500     66.1675      0.0000    674.9755      1.9063
  2498.5000     66.6239      0.0000    669.7292      1.9386
  2498.7500     69.6303      0.0000    666.5417      1.8794
  2499.0000     73.6317      0.0000    667.5399      1.7526
  2499.2500     76.4013      0.0000    668.6396      1.6754
  2499.5000     76.6723      0.0000    665.0753      1.7276
  2499.7500     74.9150      0.0000    657.6586      1.8567
  2500.0000     72.6971      0.0000    649.9984      1.9349
  2500.2500     71.2903      0.0000    643.1166      1.8934
  2500.5000     70.7786      0.0000    636.1312      1.7913
  2500.7500     70.3226      0.0000    629.4113      1.7311
  2501.0000     69.2081      0.0000    623.4294      1.7250
  2501.2500     67.7320      0.0000    617.6431      1.7169
  2501.5000     67.1263      0.0000    612.6053      1.6967
  2501.7500     68.5244      0.0000    609.4980      1.7028
  2502.0000     71.9033      0.0000    608.1085      1.7536
  2502.2500     75.9513      0.0000    607.5192      1.8308
  2502.5000     78.9111      0.0000    607.3666      1.9012
  2502.7500     79.7129      0.0000    608.1526      1.9474
  2503.0000     78.6430      0.0000    611.9386      1.9917
  2503.2500     77.0397      0.0000    622.7251      2.0666
