~Version Information
VERS.                      2.0: CWLS Log ASCII Standard - VERSION 2.0
WRAP.                       NO: One line per depth step
~Well Information Block
STRT.FT               546.0000: 
STOP.FT              1771.5000: 
STEP.FT                 0.2500: 
NULL.                -999.2500: 
COMP.          Petrogulf Corporation: COMPANY
WELL.             McLeod 9-42R: WELL
FLD.           Purgatorie River: FIELD
LOC.           1748' FNL & 372' FEL: LOCATION
PROV.                 Colorado: PROVINCE
CNTY.               Las Animas: COUNTRY
SRVC.                Patterson: SERVICE COMPANY
DATE.          Tue Aug 16 11:11:38 2005: LOG DATE
UWI.           071 08092  : UNIQUE WELL ID
~Curve Information Block
DEPT.FT            0 000 00 00: Depth
SP.mV                         : DIL Spontaneous Potential
RILD.Ohm-m                    : DIL Deep Resistivity
RILM.Ohm-m                    : DIL Medium Resistivity
RLL3.Ohm-m                    : DIL Shallow Resistivity
GR.GAPI                       : Gamma Ray
~Parameter Information Block
~A  Depth        SP         RILD        RILM        RLL3         GR     
   546.0000   2000.0000     34.3219     38.2120   1998.0000     70.1382
   546.2500   2000.0000     27.8256     39.6582   1998.0000     72.5857
   546.5000   2000.0000     31.8096     38.3671   1998.0000     78.6380
   546.7500   2000.0000     36.1435     43.6967   1998.0000     84.3549
   547.0000   2000.0000     26.3948     41.1137   1998.0000     96.2588
   547.2500   2000.0000     30.3899     40.5411   1998.0000     99.1077
   547.5000   2000.0000     33.2786     40.8080   1998.0000     86.6850
   547.7500   2000.0000     36.8660     42.1467   1998.0000     82.8407
   548.0000   2000.0000     28.7680     38.7873   1998.0000     88.7361
   548.2500   2000.0000     29.4679     40.2346   1998.0000     86.1814
   548.5000   2000.0000     28.4058     37.7001   1998.0000     75.4252
   548.7500   2000.0000     32.9868     36.9856   1998.0000     79.1746
   549.0000   2000.0000     29.2226     38.1071   1998.0000     75.8080
   549.2500   2000.0000     31.1076     38.0618   1998.0000     80.2503
   549.5000   2000.0000     35.2786     42.7716   1998.0000     74.3014
   549.7500   2000.0000     36.4897     41.7327   1998.0000     68.8273
   550.0000   2000.0000     33.2399     40.6476   1998.0000     68.1295
   550.2500   2000.0000     28.3145     41.0337   1998.0000     67.9004
   550.5000   2000.0000     31.6103     42.8187   1998.0000     62.0279
   550.7500   2000.0000     35.4016     46.3790   1998.0000     62.9805
   551.0000   2000.0000     28.3768     42.0227   1998.0000     62.7364
   551.2500   2000.0000     32.1324     39.7621   1998.0000     61.8240
   551.5000   2000.0000     30.7834     41.2989   1998.0000     61.4753
   551.7500   2000.0000     27.0392     49.0681   1998.0000     61.2143
   552.0000   2000.0000     28.9684     45.2768   1998.0000     59.1358
   552.2500   2000.0000     28.4614     49.3685   1998.0000     62.0081
   552.5000   2000.0000     32.6547     46.3783   1998.0000     64.3798
   552.7500   2000.0000     28.9645     46.6791   1998.0000     71.7703
   553.0000   2000.0000     27.9334     40.9146   1998.0000     75.0513
   553.2500   2000.0000     23.4287     42.4959   1998.0000     73.1783
   553.5000   2000.0000     24.5382     41.8940   1998.0000     73.2762
   553.7500   2000.0000     25.9625     43.0198   1998.0000     74.8288
   554.0000   2000.0000     25.1896     53.0841   1998.0000     77.8919
   554.2500   2000.0000     28.2668     62.6601   1998.0000     73.2502
   554.5000   2000.0000     26.4933     58.3455   1998.0000     68.4344
   554.7500   2000.0000     26.9603     52.2859   1998.0000     68.4233
   555.0000   2000.0000     29.1607     40.3636   1998.0000     74.6649
   555.2500   2000.0000     30.4449     46.1335   1998.0000     81.1532
   555.5000   2000.0000     30.1542     41.1554   1998.0000     89.8740
   555.7500   2000.0000     35.6331     37.2090   1998.0000     97.5411
   556.0000   2000.0000     30.5873     39.9572   1998.0000     91.9727
   556.2500   2000.0000     29.7780     39.9912   1998.0000     90.7981
   556.5000   2000.0000     29.6508     42.7156   1998.0000     91.3563
   556.7500   2000.0000     31.5129     40.9502   1998.0000     88.2146
   557.0000   2000.0000     33.6893     39.9741   1998.0000     92.7954
   557.2500   2000.0000     33.0134     40.3248   1998.0000     92.4033
   557.5000   2000.0000     30.8403     47.8600   1998.0000     88.4604
   557.7500   2000.0000     27.6555     41.0605   1998.0000     87.3648
   558.0000   2000.0000     21.0560     41.2064   1998.0000     97.7804
   558.2500   2000.0000     19.5115     38.2905   1998.0000     97.4916
   558.5000   2000.0000     20.9930     35.1172   1998.0000     99.2399
   558.7500   2000.0000     23.2819     38.7684   1998.0000     95.0864
   559.0000   2000.0000     25.5788     38.6821   1998.0000    105.0663
   559.2500   2000.0000     24.9013     37.9569   1998.0000    102.7347
   559.5000   2000.0000     25.3774     38.4399   1998.0000    102.9237
   559.7500   2000.0000     28.0739     36.1565   1998.0000    105.9124
   560.0000   2000.0000     27.1371     36.3673   1998.0000    112.0581
   560.2500   2000.0000     21.4635     36.7143   1998.0000    115.3990
   560.5000   2000.0000     16.5558     39.6275   1998.0000    112.4693
   560.7500   2000.0000     15.7515     38.9972   1998.0000    114.0206
   561.0000   2000.0000     38.1500     39.8383   1998.0000    113.2197
   561.2500   2000.0000 100000.0000     41.2590   1998.0000    113.2878
   561.5000   2000.0000 100000.0000     43.6833   1998.0000    115.2029
   561.7500   2000.0000 100000.0000     37.1091   1998.0000    117.3013
   562.0000   2000.0000 100000.0000     35.9160   1998.0000    116.7750
   562.2500   2000.0000    180.8401     42.1947   1998.0000    109.8488
   562.5000   2000.0000     90.5474     42.0897   1998.0000    109.9095
   562.7500   2000.0000     98.8811     41.5654   1998.0000    108.7616
   563.0000   2000.0000     88.6680     39.6529   1998.0000     99.6053
   563.2500   2000.0000     76.8160     38.2144   1998.0000    102.4333
   563.5000   2000.0000     47.8699     36.4812   1998.0000     99.1710
   563.7500   2000.0000     26.2948     37.6494   1998.0000    100.9162
   564.0000   2000.0000     39.8801     38.7327   1998.0000     92.4957
   564.2500   2000.0000    134.2144     41.9041   1998.0000     92.7631
   564.5000   2000.0000 100000.0000     41.3699   1998.0000     94.5821
   564.7500   2000.0000 100000.0000     40.5240   1998.0000     95.9194
   565.0000   2000.0000 100000.0000     40.2544   1998.0000    101.2756
   565.2500   2000.0000 100000.0000     40.2449   1998.0000    111.3258
   565.5000   2000.0000 100000.0000     38.8440   1998.0000    128.4476
   565.7500   2000.0000 100000.0000     40.3596   1998.0000    133.9754
   566.0000   2000.0000 100000.0000     38.2011   1998.0000    143.6179
   566.2500   2000.0000 100000.0000     36.6264   1998.0000    141.8168
   566.5000   2000.0000 100000.0000     36.5439   1998.0000    149.0231
   566.7500   2000.0000 100000.0000     38.2044   1998.0000    169.9177
   567.0000   2000.0000 100000.0000     40.0480   1998.0000    213.1987
   567.2500   2000.0000 100000.0000     40.4106   1998.0000    204.1695
   567.5000   2000.0000 100000.0000     42.5120   1998.0000    183.2546
   567.7500   2000.0000      2.8267     38.7657   1998.0000    171.2965
   568.0000   2000.0000      1.3236     34.7920   1998.0000    148.5315
   568.2500   2000.0000      1.7055     11.2097   1998.0000    144.6389
   568.5000   2000.0000      3.1822      2.3197   1998.0000    146.1075
   568.7500   2000.0000      5.1748      2.9259   1998.0000    150.2153
   569.0000   2000.0000      6.8130      6.8579   1998.0000    151.4911
   569.2500   2000.0000      7.8582     24.0402   1998.0000    154.3774
   569.5000   2000.0000      8.2736     16.3656   1998.0000    152.8016
   569.7500   2000.0000      9.7275     10.6566   1998.0000    155.5125
   570.0000   2000.0000     27.4347      9.6281   1998.0000    160.5934
   570.2500   2000.0000 100000.0000      9.5385   1998.0000    154.6685
   570.5000   2000.0000 100000.0000      9.8881   1998.0000    147.9021
   570.7500   2000.0000 100000.0000     11.3862   1998.0000    152.6425
   571.0000   2000.0000     18.4443     24.5152   1998.0000    164.3308
   571.2500   2000.0000     13.2467 100000.0000   1998.0000    164.8240
   571.5000   2000.0000     14.7666     38.0605   1998.0000    168.4580
   571.7500   2000.0000     15.7841     17.1585   1998.0000    164.6409
   572.0000   2000.0000     15.9840     14.6210   1998.0000    161.0071
   572.2500   2000.0000     15.4029     13.0439   1998.0000    175.7515
   572.5000   2000.0000     16.6261     12.8646   1998.0000    177.8225
   572.7500   2000.0000     15.6239     12.8599   1998.0000    173.6379
   573.0000   2000.0000     17.6849     12.2775   1998.0000    157.8239
   573.2500   2000.0000     23.4014     11.9233   1998.0000    164.5032
   573.5000   2000.0000     23.8662     11.1984   1998.0000    168.3186
   573.7500   2000.0000     19.6363     10.8777   1998.0000    161.5355
