~Version Information
VERS.                      2.0: CWLS Log ASCII Standard - VERSION 2.0
WRAP.                       NO: One line per depth step
~Well Information Block
STRT.FT               858.7000: 
STOP.FT              2478.2000: 
STEP.FT                 0.1000: 
NULL.                -999.2500: 
COMP.          Petrogulf Corporation: COMPANY
WELL.           Torcom 17-33 V: WELL
FLD.           Purgatoire River: FIELD
LOC.           1544' FSL & 1746' FEL: LOCATION
PROV.                 Colorado: PROVINCE
CNTY.               Las Animas: COUNTRY
SRVC.                Patterson: SERVICE COMPANY
DATE.          Wed Dec 03 09:22:08 2003: LOG DATE
UWI.                          : UNIQUE WELL ID
~Curve Information Block
DEPT.FT            0 000 00 00: Depth
DCAL.in                       : CDL Caliper
RHOB.g/cc                     : CDL Bulk Density
RHOC.g/cc                     : CDL Density Correction
DPOR.pu                       : CDL Density Porosity
GR.GAPI                       : Gamma Ray
NPOR.pu                       : Neutron Porosity
~Parameter Information Block
~A  Depth       DCAL        RHOB        RHOC        DPOR         GR         NPOR    
# ...
  1722.7000      8.2203      2.5960      0.0298      3.2737    137.9518     25.4183
  1722.8000      8.2409      2.6049      0.0588      2.7343    150.2517     25.4134
  1722.9000      8.2409      2.6134      0.1335      2.2178    152.9020     25.5166
  1723.0000      8.2600      2.6077      0.0753      2.5616    148.6546     25.5986
  1723.1000      8.2600      2.5873      0.0803      3.8022    142.4142     25.7260
  1723.2000      8.2600      2.5687      0.0459      4.9275    138.0189     26.1339
  1723.3000      8.2668      2.5685      0.0152      4.9383    138.6525     26.6974
  1723.4000      8.2668      2.5827      0.1130      4.0812    140.4803     26.8594
  1723.5000      8.2470      2.6055      0.0544      2.6949    137.9144     26.3956
  1723.6000      8.2470      2.6331      0.1448      1.0254    135.4694     25.8202
  1723.7000      8.2470      2.6401      0.0682      0.5990    137.1656     25.2819
  1723.8000      8.2246      2.6233      0.0457      1.6167    136.4429     24.3363
  1723.9000      8.2246      2.6044      0.0745      2.7634    129.0689     23.2157
  1724.0000      8.2575      2.5786      0.1233      4.3293    120.3877     22.2710
  1724.1000      8.2575      2.5341      0.0300      7.0258    116.8447     21.3724
  1724.2000      8.2575      2.4916     -0.0337      9.5975    120.9068     20.5998
  1724.3000      8.2844      2.4653     -0.0263     11.1946    130.9081     20.0036
  1724.4000      8.2844      2.4261      0.0177     13.5693    142.5771     19.6062
  1724.5000      8.2930      2.3618     -0.0771     17.4641    153.4160     19.8823
  1724.6000      8.2930      2.3061     -0.0290     20.8430    161.7790     20.8636
  1724.7000      8.2930      2.2856     -0.0894     22.0843    167.9955     21.4994
  1724.8000      8.3015      2.3078     -0.0670     20.7407    170.2597     21.4066
  1724.9000      8.3015      2.3654      0.0503     17.2468    164.6855     21.2591
  1725.0000      8.2953      2.4259      0.1638     13.5837    156.9427     21.5862
  1725.1000      8.2953      2.4481      0.2318     12.2393    155.5687     22.6603
  1725.2000      8.2953      2.4260      0.1930     13.5745    162.1341     24.0175
  1725.3000      8.3448      2.4000      0.2124     15.1494    170.8217     24.7084
  1725.4000      8.3448      2.3920      0.4207     15.6346    173.3335     24.8822
  1725.5000      8.4382      2.3834      0.3155     16.1567    167.6122     25.0135
  1725.6000      8.4382      2.3862      0.2106     15.9873    158.9805     24.9100
  1725.7000      8.4382      2.4338      0.2861     13.1061    154.5183     24.8810
  1725.8000      8.5199      2.5247      0.3093      7.5968    157.8990     25.4576
  1725.9000      8.5199      2.6259      0.4439      1.4623    165.5680     26.0794
  1726.0000      8.3717      2.6888      0.5296     -2.3519    166.7568     25.9809
  1726.1000      8.3717      2.6826      0.5083     -1.9758    158.4498     25.5624
  1726.2000      8.3717      2.6199      0.4222      1.8222    149.9420     25.4500
  1726.3000      8.4127      2.5379      0.3083      6.7922    147.9205     25.1944
  1726.4000      8.4127      2.4690      0.1723     10.9720    149.1402     24.3524
  1726.5000      8.4723      2.4232      0.1224     13.7451    151.0797     23.0085
  1726.6000      8.4723      2.3862      0.1735     15.9897    156.3746     21.4553
  1726.7000      8.4723      2.3528      0.1364     18.0123    162.3914     20.3741
  1726.8000      8.4455      2.3462      0.2214     18.4124    160.1603     20.1332
  1726.9000      8.4455      2.3674      0.3303     17.1250    151.1595     20.1625
  1727.0000      8.5535      2.3785      0.3777     16.4527    144.8331     19.7509
  1727.1000      8.5535      2.3589      0.3544     17.6416    143.8582     18.9809
  1727.2000      8.5535      2.3265      0.3214     19.6081    147.5380     18.1713
  1727.3000      8.7008      2.3000      0.3882     21.2144    152.4807     17.1793
  1727.4000      8.7008      2.2873      0.2971     21.9803    155.1013     15.9647
  1727.5000      8.8228      2.3019      0.3596     21.0991    156.4010     14.7362
  1727.6000      8.8228      2.3460      0.4392     18.4252    156.4192     13.6648
  1727.7000      8.8228      2.3909      0.6094     15.7015    153.9696     13.2730
  1727.8000      9.0888      2.3966      0.5885     15.3588    149.5857     14.0337
  1727.9000      9.0888      2.3345      0.5771     19.1203    146.3258     15.5422
  1728.0000      9.6043      2.1913      0.5649     27.8027    145.3251     17.0398
  1728.1000      9.6043      2.0071      0.4987     38.9646    143.8017     18.4944
  1728.2000      9.6043      1.8726      0.4305     47.1169    142.3413     20.5003
  1728.3000      9.7104      1.8395      0.5110     49.1195    145.0224     22.9851
  1728.4000      9.7104      1.9137      0.5142     44.6254    148.9784     25.0539
  1728.5000      9.7030      2.0981      0.5958     33.4463    145.5574     26.2309
  1728.6000      9.7030      2.3525      0.6978     18.0296    138.0899     26.8326
  1728.7000      9.7030      2.5819      0.8623      4.1297    139.4409     27.5293
  1728.8000      9.7599      2.7183      0.8708     -4.1422    150.6996     28.5372
  1728.9000      9.7599      2.7650      0.9242     -6.9688    161.6622     29.2108
  1729.0000      9.9156      2.7549      0.8785     -6.3586    163.3451     29.0520
  1729.1000      9.9156      2.7104      0.6650     -3.6633    153.4919     28.4507
  1729.2000      9.9156      2.6402      0.4400      0.5968    137.5189     28.0240
  1729.3000      9.3680      2.5702      0.1697      4.8362    125.2429     28.0419
  1729.4000      9.3680      2.5406      0.1328      6.6280    121.4332     28.2659
  1729.5000      8.3410      2.5513      0.1556      5.9832    124.0048     28.2759
  1729.6000      8.3410      2.5746      0.1324      4.5717    127.8482     27.9781
  1729.7000      8.3410      2.5976      0.1571      3.1772    128.2850     27.5920
  1729.8000      8.1615      2.6141      0.1091      2.1779    125.2520     27.1649
  1729.9000      8.1615      2.6157      0.1116      2.0761    120.5606     26.5533
  1730.0000      8.1784      2.5961      0.1249      3.2645    115.2242     26.1556
  1730.1000      8.1784      2.5709      0.0549      4.7925    113.8839     26.4757
  1730.2000      8.1784      2.5685      0.1073      4.9386    119.3254     27.3265
  1730.3000      8.1579      2.5914      0.0925      3.5535    123.9505     28.2686
  1730.4000      8.1579      2.6258      0.1271      1.4682    123.6706     28.7818
  1730.5000      8.1656      2.6547      0.1461     -0.2863    122.6340     28.5521
  1730.6000      8.1656      2.6595      0.1672     -0.5780    123.1519     27.9714
  1730.7000      8.1656      2.6417      0.1505      0.5050    123.8099     27.5439
  1730.8000      8.1433      2.6316      0.0778      1.1147    120.2506     27.2054
  1730.9000      8.1433      2.6436      0.1034      0.3877    113.4615     26.6359
  1731.0000      8.1589      2.6519      0.1660     -0.1167    107.8680     25.8063
  1731.1000      8.1589      2.6433      0.0685      0.4042    103.1087     25.2154
  1731.2000      8.1589      2.6371      0.1117      0.7792     99.2943     25.2245
  1731.3000      8.1429      2.6425      0.1229      0.4546     98.0640     25.4444
  1731.4000      8.1429      2.6544      0.1009     -0.2669     97.5336     25.4177
  1731.5000      8.1027      2.6633      0.1062     -0.8085     97.6488     25.4141
  1731.6000      8.1027      2.6542      0.1146     -0.2550     99.2232     25.6426
  1731.7000      8.1027      2.6255      0.1133      1.4852     99.3180     25.5517
  1731.8000      8.1181      2.5929      0.1133      3.4619     97.4261     24.8812
  1731.9000      8.1181      2.5687      0.1062      4.9302     97.5469     24.3150
  1732.0000      8.0874      2.5640      0.0599      5.2124     98.0737     24.1593
  1732.1000      8.0874      2.5807      0.1008      4.2018     94.1253     23.9038
  1732.2000      8.0874      2.6013      0.0902      2.9519     88.8949     23.3459
