~Version Information
VERS.                      2.0: CWLS Log ASCII Standard - VERSION 2.0
WRAP.                       NO: One line per depth step
~Well Information Block
STRT.FT               241.5000: 
STOP.FT              2340.7500: 
STEP.FT                 0.2500: 
NULL.                -999.2500: 
COMP.          Petrogulf Corporation: COMPANY
WELL.            Montoya 1-24V: WELL
FLD.           Purgatorie River: FIELD
LOC.           605' FSL & 2557' FWL: LOCATION
CNTY.               Las Animas: COUNTY
SRVC.                         : SERVICE COMPANY
DATE.          Tue Nov 30 10:28:39 2004: LOG DATE
UWI.           05 071 08194 00: UNIQUE WELL ID
STAT.                 Colorado: STATE
~Curve Information Block
DEPT.FT            0 000 00 00: Depth
GR.GAPI                       : Gamma Ray
CCL.                          : Casing Collar Locator
TT3.usec                      : CBL 3' Travel Time
AMP3.mV                       : CBL 3' Amplitude
~Parameter Information Block
~A  Depth        GR         CCL         TT3         AMP3    
   241.5000   -999.2500   -999.2500   -999.2500   -999.2500
   241.7500   -999.2500   -999.2500   -999.2500   -999.2500
   242.0000   -999.2500   -999.2500   -999.2500   -999.2500
   242.2500   -999.2500   -999.2500   -999.2500   -999.2500
   242.5000   -999.2500   -999.2500   -999.2500   -999.2500
   242.7500   -999.2500   -999.2500   -999.2500   -999.2500
   243.0000   -999.2500   -999.2500   -999.2500   -999.2500
   243.2500   -999.2500   -999.2500   -999.2500   -999.2500
   243.5000   -999.2500   -999.2500   -999.2500   -999.2500
   243.7500   -999.2500   -999.2500   -999.2500   -999.2500
   244.0000   -999.2500   -999.2500   -999.2500   -999.2500
   244.2500   -999.2500   -999.2500   -999.2500   -999.2500
   244.5000   -999.2500   -999.2500   1482.0000      1.2841
   244.7500   -999.2500   -999.2500   1482.0000      1.3541
   245.0000   -999.2500   -999.2500   1482.0000      1.3906
   245.2500   -999.2500   -999.2500   1482.0000      1.3852
   245.5000   -999.2500   -999.2500   1482.0000      1.3450
   245.7500   -999.2500   -999.2500   1482.0000      1.2852
   246.0000   -999.2500   -999.2500   1482.0000      1.2199
   246.2500   -999.2500   -999.2500   1482.0000      1.1598
   246.5000   -999.2500   -999.2500   1482.0000      1.1142
   246.7500   -999.2500   -999.2500   1482.0000      1.0895
   247.0000   -999.2500   -999.2500   1482.0000      1.0852
   247.2500   -999.2500   -999.2500   1482.0000      1.0930
   247.5000   -999.2500   -999.2500   1482.0000      1.1030
   247.7500   -999.2500   -999.2500   1482.0000      1.1117
   248.0000   -999.2500   -999.2500   1482.0000      1.1237
   248.2500   -999.2500   -999.2500   1482.0000      1.1473
   248.5000   -999.2500   -999.2500   1482.0000      1.1889
   248.7500   -999.2500   -999.2500   1482.0000      1.2485
   249.0000   -999.2500   -999.2500   1482.0000      1.3182
   249.2500   -999.2500   -999.2500   1482.0000      1.3832
   249.5000   -999.2500   -999.2500   1482.0000      1.4256
   249.7500   -999.2500      0.0000   1482.0000      1.4332
   250.0000   -999.2500      0.0000   1482.0000      1.4076
   250.2500   -999.2500      0.0000   1482.0000      1.3637
   250.5000   -999.2500      0.0000   1482.0000      1.3215
   250.7500   -999.2500      0.0000   1482.0000      1.2975
   251.0000   -999.2500      0.0000   1482.0000      1.2987
   251.2500   -999.2500      0.0000   1482.0000      1.3207
   251.5000   -999.2500      0.0000   1482.0000      1.3508
   251.7500   -999.2500      0.0000   1482.0000      1.3745
   252.0000   -999.2500      0.0000   1482.0000      1.3842
   252.2500   -999.2500      0.0000   1482.0000      1.3820
   252.5000   -999.2500      0.0000   1482.0000      1.3757
   252.7500   -999.2500      0.0000   1482.0000      1.3688
   253.0000   -999.2500      0.0000   1482.0000      1.3559
   253.2500   -999.2500      0.0000   1482.0000      1.3268
   253.5000   -999.2500      0.0000   1482.0000      1.2744
   253.7500   -999.2500      0.0000   1482.0000      1.2028
   254.0000   -999.2500      0.0000   1482.0000      1.1287
   254.2500   -999.2500      0.0000   1482.0000      1.0751
   254.5000   -999.2500      0.0000   1482.0000      1.0602
   254.7500    105.1646      0.0000   1482.0000      1.0911
   255.0000    103.4626      0.0000   1482.0000      1.1594
   255.2500    102.5498      0.0000   1482.0000      1.2405
   255.5000    101.4973      0.0000   1482.0000      1.3033
   255.7500     99.1298      0.0000   1482.0000      1.3287
   256.0000     95.0163      0.0000   1482.0000      1.3202
   256.2500     90.2340      0.0000   1482.0000      1.2953
   256.5000     86.8849      0.0000   1482.0000      1.2690
   256.7500     86.3403      0.0000   1482.0000      1.2498
   257.0000     87.8216      0.0000   1482.0000      1.2449
   257.2500     89.0036      0.0000   1482.0000      1.2599
   257.5000     88.2406      0.0000   1482.0000      1.2921
   257.7500     86.1083      0.0000   1482.0000      1.3317
   258.0000     84.7753      0.0000   1482.0000      1.3690
   258.2500     86.0432      0.0000   1482.0000      1.4011
   258.5000     90.0534      0.0000   1482.0000      1.4349
   258.7500     95.5629      0.0000   1482.0000      1.4907
   259.0000    100.9758      0.0000   1482.0000      1.5953
   259.2500    105.0403      0.0000   1482.0000      1.7587
   259.5000    107.0942      0.0000   1482.0000      1.9608
   259.7500    107.0814      0.0000   1482.0000      2.1667
   260.0000    105.3824      0.0000   1482.0000      2.3583
   260.2500    102.6698      0.0000   1482.0000      2.5505
   260.5000     99.8599      0.0000   1482.0000      2.7798
   260.7500     97.7859      0.0000   1482.0000      3.0774
   261.0000     96.6175      0.0000   1482.0000      3.4444
   261.2500     95.6966      0.0000   1482.0000      3.8482
   261.5000     94.1886      0.0000   1482.0000      4.2416
   261.7500     92.0207      0.0000   1482.0000      4.5839
   262.0000     90.1577      0.0000   1482.0000      4.8511
   262.2500     90.0309      0.0000   1482.0000      5.0384
   262.5000     92.6052      0.0000   1482.0000      5.1590
   262.7500     97.3848      0.0000   1482.0000      5.2345
   263.0000    101.9347      0.0000   1482.0000      5.2845
   263.2500    103.0748      0.0000   1482.0000      5.3235
   263.5000     99.3975      0.0000   1482.0000      5.3649
   263.7500     92.5330      0.0000   1482.0000      5.4217
   264.0000     85.6388      0.0000   1482.0000      5.5023
   264.2500     80.9909      0.0000   1482.0000      5.6057
   264.5000     79.3858      0.0000   1482.0000      5.7213
   264.7500     81.1410      0.0000   1482.0000      5.8365
   265.0000     86.2940      0.0000   1482.0000      5.9453
   265.2500     93.3114      0.0000   1482.0000      6.0448
   265.5000     98.6930      0.0000   1482.0000      6.1224
   265.7500     99.2536      0.0000   1482.0000      6.1578
   266.0000     94.9790      0.0000   1482.0000      6.1472
   266.2500     88.9930      0.0000   1482.0000      6.1122
   266.5000     84.6834      0.0000   1482.0000      6.0730
   266.7500     83.2982      0.0000   1482.0000      6.0287
   267.0000     84.0417      0.0000   1482.0000      5.9761
   267.2500     85.5226      0.0000   1482.0000      5.9329
   267.5000     86.7802      0.0000   1482.0000      5.9280
   267.7500     87.5888      0.0000   1482.0000      5.9722
   268.0000     88.3023      0.0000   1482.0000      6.0446
   268.2500     89.2126      0.0000   1482.0000      6.1047
   268.5000     90.0257      0.0000   1482.0000      6.1196
   268.7500     90.2299      0.0000   1482.0000      6.0868
   269.0000     89.8291      0.0000   1482.0000      6.0367
   269.2500     89.2950      0.0000   1482.0000      6.0103
   269.5000     88.8759      0.0000   1482.0000      6.0242
   269.7500     88.2325      0.0000   1482.0000      6.0510
   270.0000     86.7095      0.0000   1482.0000      6.0388
   270.2500     83.8842      0.0000   1482.0000      5.9597
   270.5000     80.0165      0.0000   1482.0000      5.8393
   270.7500     76.0593      0.0000   1482.0000      5.7382
   271.0000     73.2116      0.0000   1482.0000      5.7069
   271.2500     72.2897      0.0000   1482.0000      5.7497
   271.5000     73.3379      0.0000   1482.0000      5.8215
   271.7500     75.6923      0.0000   1482.0000      5.8600
   272.0000     78.3537      0.0000   1482.0000      5.8342
   272.2500     80.2894      0.0000   1482.0000      5.7683
   272.5000     80.5900      0.0000   1482.0000      5.7132
   272.7500     78.8094      0.0000   1482.0000      5.7005
   273.0000     75.4375      0.0000   1482.0000      5.7246
   273.2500     71.8767      0.0000   1482.0000      5.7632
   273.5000     69.7259      0.0000   1482.0000      5.8044
   273.7500     69.9129      0.0000   1482.0000      5.8544
   274.0000     72.1895      0.0000   1482.0000      5.9227
   274.2500     75.2878      0.0000   1482.0000      6.0033
   274.5000     77.8742      0.0000   1482.0000      6.0781
   274.7500     79.6611      0.0000   1482.0000      6.1394
