~Version Information
VERS.                      2.0: CWLS Log ASCII Standard - VERSION 2.0
WRAP.                       NO: One line per depth step
~Well Information Block
STRT.FT                 1.5000: 
STOP.FT              1895.2500: 
STEP.FT                 0.2500: 
NULL.                -999.2500: 
COMP.          Petrogulf Corporation: COMPANY
WELL.             State 16-32R: WELL
FLD.           Purgatorie River: FIELD
LOC.           1849' FNL & 1677' FEL: LOCATION
CNTY.               Las Animas: COUNTY
SRVC.                         : SERVICE COMPANY
DATE.          Thu May 20 08:40:19 2004: LOG DATE
UWI.           05 071 08033 00: UNIQUE WELL ID
STAT.                 Colorado: STATE
~Curve Information Block
DEPT.FT            0 000 00 00: Depth
GR.GAPI                       : Gamma Ray
CCL.                          : Casing Collar Locator
TT3.usec                      : CBL 3' Travel Time
AMP3.mV                       : CBL 3' Amplitude
~Parameter Information Block
~A  Depth        GR         CCL         TT3         AMP3    
# ...
  1140.5000     93.3050      0.0000    720.1971     12.4908
  1140.7500    107.6881      0.0000    704.4883     14.2128
  1141.0000    121.8917      0.0000    656.7586     16.1544
  1141.2500    133.6669      0.0000    563.7543     18.6304
  1141.5000    141.1409      0.0000    447.5017     22.0341
  1141.7500    144.2015      0.0000    354.2244     26.6575
  1142.0000    144.6375      0.0000    306.1040     32.4286
  1142.2500    144.7395      0.0000    290.0894     38.4339
  1142.5000    145.8082      0.0000    286.6370     43.2833
  1142.7500    147.7409      0.0000    286.1301     46.2668
  1143.0000    149.6044      0.0000    285.9798     47.6740
  1143.2500    150.4222      0.0000    285.7812     48.1459
  1143.5000    149.6480      0.0000    285.5497     48.1972
  1143.7500    147.4701      0.0000    285.3438     48.1661
  1144.0000    144.9228      0.0000    285.1654     48.2160
  1144.2500    143.2560      0.0000    284.8185     48.3736
  1144.5000    142.7562      0.0000    283.4687     48.7135
  1144.7500    142.4307      0.0000    279.3628     49.4423
  1145.0000    141.1156      0.0000    271.2891     50.6728
  1145.2500    138.6986      0.0000    261.1307     52.2166
  1145.5000    136.2187      0.0000    252.9040     53.7753
  1145.7500    134.9586      0.0000    248.5459     55.2539
  1146.0000    135.4853      0.0000    246.9421     56.7349
  1146.2500    137.3517      0.0000    246.4431     58.2274
  1146.5000    139.5484      0.0000    246.2751     59.6118
  1146.7500    141.1696      0.0000    246.2327     60.8557
  1147.0000    141.7304      0.0000    246.2481     62.1362
  1147.2500    141.1670      0.0000    246.2839     63.6725
  1147.5000    139.8401      0.0000    246.3232     65.4169
  1147.7500    138.4658      0.0000    246.3542     66.9081
  1148.0000    137.7681      0.0000    246.3613     67.6179
  1148.2500    138.1000      0.0000    246.3369     67.4475
  1148.5000    139.3881      0.0000    246.2981     66.7013
  1148.7500    141.2271      0.0000    246.2752     65.7743
  1149.0000    142.7424      0.0000    246.2873     65.0589
  1149.2500    142.5700      0.0000    246.3347     64.8290
  1149.5000    139.5886      0.0000    246.4033     65.0276
  1149.7500    133.7964      0.0000    246.4693     65.3478
  1150.0000    126.1055      0.0000    246.5149     65.5312
  1150.2500    117.3421      0.0000    246.5414     65.5068
  1150.5000    107.9494      0.0000    246.5561     65.2652
  1150.7500     98.5867      0.0000    246.5526     64.7415
  1151.0000     90.4909      0.0000    246.5199     63.9937
  1151.2500     85.1237      0.0000    246.4548     63.3433
  1151.5000     83.5651      0.0000    246.3609     63.0615
  1151.7500     85.9678      0.0000    246.2594     63.0256
  1152.0000     91.1498      0.0000    246.2221     62.8432
  1152.2500     96.7510      0.0000    246.4771     62.1815
  1152.5000    100.4175      0.0000    247.6971     60.7998
  1152.7500    101.3097      0.0000    251.0544     58.4177
  1153.0000    100.3496      0.0000    257.6633     55.1753
  1153.2500     98.7767      0.0000    270.0391     51.8494
  1153.5000     96.7858      0.0000    294.5467     48.2773
  1153.7500     93.9229      0.0000    330.2195     43.3440
  1154.0000     90.4613      0.0000    354.6311     38.2020
  1154.2500     87.7883      0.0000    347.8944     35.8349
  1154.5000     87.4502      0.0000    322.8461     36.7442
  1154.7500     90.2175      0.0000    303.4179     38.7530
  1155.0000     95.9804      2.0000    295.6616     40.1529
  1155.2500    103.7463      0.0000    293.8997     40.6005
  1155.5000    111.3851      0.0000    293.9035     40.0581
  1155.7500    116.3782      0.0000    296.2212     38.3553
  1156.0000    117.7772      0.0000    307.5127     35.6308
  1156.2500    116.8550      0.0000    337.6162     32.5563
  1156.5000    115.2349      0.0000    380.3240     29.9462
  1156.7500    113.1223      0.0000    401.4378     28.7146
  1157.0000    110.0726      0.0000    377.6722     29.6205
  1157.2500    106.8623      0.0000    332.6699     31.8750
  1157.5000    105.7641      0.0000    300.9477     33.5260
  1157.7500    108.8447      0.0000    288.8046     33.8178
  1158.0000    116.1574      0.0000    286.2124     33.5867
  1158.2500    125.6155      0.0000    285.9684     33.8433
  1158.5000    134.6561      0.0000    285.6545     35.1417
  1158.7500    142.0433      0.0000    284.0745     37.7880
  1159.0000    148.0071      0.0000    279.5729     41.7927
  1159.2500    152.7610      0.0000    271.1378     46.6611
  1159.5000    155.4647      0.0000    260.7119     51.5940
  1159.7500    155.1821      0.0000    252.2980     55.8476
  1160.0000    152.5048      0.0000    247.8993     59.0238
  1160.2500    149.4564      0.0000    246.4422     61.2810
  1160.5000    147.9261      0.0000    246.1932     63.2462
  1160.7500    148.7587      0.0000    246.2635     65.6359
  1161.0000    151.8310      0.0000    246.4048     68.6790
  1161.2500    156.0849      0.0000    246.5697     71.8053
  1161.5000    159.6156      0.0000    246.7455     74.1775
  1161.7500    160.5288      0.0000    246.9195     75.4556
  1162.0000    158.1591      0.0000    247.0723     75.8835
  1162.2500    153.6209      0.0000    247.1891     75.8571
  1162.5000    149.1454      0.0000    247.2734     75.6259
  1162.7500    146.4714      0.0000    247.3347     75.3461
  1163.0000    145.7109      0.0000    247.3715     75.1408
  1163.2500    145.8992      0.0000    247.3757     75.0136
  1163.5000    146.2666      0.0000    247.3480     74.8726
  1163.7500    146.4480      0.0000    247.2960     74.6381
  1164.0000    145.9427      0.0000    247.2175     74.2285
  1164.2500    144.3540      0.0000    247.1021     73.4973
  1164.5000    142.0450      0.0000    246.9571     72.3027
  1164.7500    139.8459      0.0000    246.8156     70.7077
  1165.0000    138.2278      0.0000    246.7078     69.0062
  1165.2500    137.3372      0.0000    246.6380     67.4340
  1165.5000    137.5294      0.0000    246.5907     65.9364
  1165.7500    139.3162      0.0000    246.5546     64.2731
  1166.0000    142.6320      0.0000    246.5303     62.3706
  1166.2500    146.3390      0.0000    246.5476     60.4949
  1166.5000    148.6110      0.0000    246.8273     58.8779
  1166.7500    147.8288      0.0000    248.2151     57.3545
  1167.0000    143.1202      0.0000    252.4090     55.5909
  1167.2500    134.4719      0.0000    260.5164     53.4361
  1167.5000    123.0393      0.0000    270.6026     50.9866
  1167.7500    111.2529      0.0000    278.7032     48.5239
  1168.0000    101.7251      0.0000    282.9571     46.3688
  1168.2500     95.6209      0.0000    284.4749     44.7028
  1168.5000     92.3690      0.0000    284.8516     43.5092
  1168.7500     90.9936      0.0000    284.8481     42.6738
  1169.0000     91.3344      0.0000    284.7000     42.1605
  1169.2500     93.7706      0.0000    284.5328     41.9680
  1169.5000     98.0382      0.0000    284.7407     41.7396
  1169.7500    102.6435      0.0000    287.6157     40.5280
  1170.0000    105.2677      0.0000    301.0287     37.3255
  1170.2500    103.6635      0.0000    338.3209     32.1203
  1170.5000     96.6779      0.0000    403.3952     26.1476
  1170.7500     85.0038      0.0000    479.4796     20.6533
  1171.0000     70.9379      0.0000    551.3634     15.9185
  1171.2500     57.2136      0.0000    616.9579     11.8669
  1171.5000     46.0308      0.0000    665.3711      8.7506
  1171.7500     38.9167      0.0000    686.1700      6.8194
  1172.0000     36.8914      0.0000    691.9810      5.9448
  1172.2500     40.2488      0.0000    700.3755      5.7486
  1172.5000     48.0335      0.0000    712.0079      5.8813
  1172.7500     57.9752      0.0000    719.6719      6.2335
  1173.0000     67.4347      0.0000    720.1519      6.9593
  1173.2500     74.7277      0.0000    709.2777      8.3220
  1173.5000     79.6823      0.0000    677.2844     10.4904
  1173.7500     83.1870      0.0000    620.9132     13.4578
