~Version Information
VERS.                      2.0: CWLS Log ASCII Standard - VERSION 2.0
WRAP.                       NO: One line per depth step
~Well Information Block
STRT.FT               -12.5000: 
STOP.FT              2487.7500: 
STEP.FT                 0.2500: 
NULL.                -999.2500: 
COMP.          Petrogulf Corporation: COMPANY
WELL.             Royal 8-33 V: WELL
FLD.           Purgatorie River: FIELD
LOC.           2365' FSL & 2336' FEL--: LOCATION
CNTY.               Las Animas: COUNTY
SRVC.                         : SERVICE COMPANY
DATE.          Sat Jan 17 11:43:49 2004: LOG DATE
UWI.           05 071 07934 00: UNIQUE WELL ID
STAT.                       CO: STATE
~Curve Information Block
DEPT.FT            0 000 00 00: Depth
CCL.                          : Casing Collar Locator
TT3.usec                      : CBL 3' Travel Time
AMP3.mV                       : CBL 3' Amplitude
GR.GAPI                       : Gamma Ray
~Parameter Information Block
~A  Depth       CCL         TT3         AMP3         GR     
# ...
  2299.0000      0.0000    694.9598      4.4458     53.0222
  2299.2500      0.0000    689.1539      4.6365     53.8784
  2299.5000      0.0000    680.1415      4.8174     54.3644
  2299.7500      0.0000    669.4410      5.0254     53.9381
  2300.0000      0.0000    659.2335      5.2494     52.6031
  2300.2500      0.0000    650.6780      5.4298     50.4854
  2300.5000      0.0000    643.5629      5.5084     47.7811
  2300.7500      0.0000    637.6904      5.4738     45.1895
  2301.0000      0.0000    633.9261      5.3673     43.8369
  2301.2500      0.0000    633.2374      5.2475     44.4656
  2301.5000      0.0000    635.0675      5.1463     46.8079
  2301.7500      0.0000    637.6007      5.0533     49.7628
  2302.0000      0.0000    639.7983      4.9399     52.0752
  2302.2500      0.0000    642.3842      4.8001     52.9735
  2302.5000      0.0000    646.4536      4.6745     52.4731
  2302.7500      0.0000    651.3760      4.6294     51.3119
  2303.0000      0.0000    654.4915      4.6986     50.5509
  2303.2500      0.0000    653.3585      4.8422     50.9520
  2303.5000      0.0000    648.7089      4.9735     52.5250
  2303.7500      0.0000    644.4465      5.0350     54.7310
  2304.0000      0.0000    643.9050      5.0474     57.1566
  2304.2500      0.0000    647.0262      5.0711     59.7599
  2304.5000      0.0000    651.7015      5.1149     62.4474
  2304.7500      0.0000    656.0657      5.1207     64.7816
  2305.0000      0.0000    658.5079      5.0590     66.2721
  2305.2500      0.0000    657.5150      4.9908     66.6519
  2305.5000      0.0000    653.7363      4.9977     65.7365
  2305.7500      0.0000    652.1158      5.0853     63.3721
  2306.0000      0.0000    659.8433      5.1829     59.8856
  2306.2500      0.0000    679.4954      5.2298     56.3885
  2306.5000     -4.0000    703.8912      5.2508     54.2134
  2306.7500      0.0000    720.2189      5.3414     53.9625
  2307.0000      0.0000    721.0986      5.5572     55.2083
  2307.2500      0.0000    711.1904      5.8075     57.0693
  2307.5000      0.0000    702.7615      5.8894     58.8948
  2307.7500      0.0000    705.4539      5.6745     60.4508
  2308.0000      0.0000    719.8497      5.2592     61.7124
  2308.2500      0.0000    738.8135      4.8881     62.6680
  2308.5000      0.0000    753.6334      4.7340     63.2377
  2308.7500      0.0000    759.4539      4.7783     63.2252
  2309.0000      0.0000    756.7242      4.8788     62.4356
  2309.2500      0.0000    749.5008      4.9079     61.0153
  2309.5000      0.0000    742.8270      4.8381     59.6211
  2309.7500      0.0000    739.9210      4.7273     59.0731
  2310.0000      0.0000    739.8892      4.6304     59.7377
  2310.2500      0.0000    738.3932      4.5332     61.1994
  2310.5000      0.0000    731.5803      4.3896     62.4863
  2310.7500      0.0000    719.1068      4.2147     62.6445
  2311.0000      0.0000    703.3134      4.1007     61.2314
  2311.2500      0.0000    686.9004      4.1313     58.4639
  2311.5000      0.0000    672.0659      4.3027     55.0588
  2311.7500      0.0000    660.5923      4.5440     51.8836
  2312.0000      0.0000    653.5307      4.7888     49.4552
  2312.2500      0.0000    651.0113      5.0032     47.7016
  2312.5000      0.0000    652.8360      5.1690     46.3487
  2312.7500      0.0000    658.9313      5.2746     45.4704
  2313.0000      0.0000    668.8539      5.3233     45.4875
  2313.2500      0.0000    681.0798      5.3299     46.6698
  2313.5000      0.0000    693.2568      5.3123     48.7105
  2313.7500      0.0000    703.2617      5.2834     50.7125
  2314.0000      0.0000    710.0234      5.2376     51.6778
  2314.2500      0.0000    713.5826      5.1468     51.2279
  2314.5000      0.0000    714.5128      4.9887     49.8866
  2314.7500      0.0000    713.1550      4.7827     48.5037
  2315.0000      0.0000    709.3484      4.5952     47.3917
  2315.2500      0.0000    702.5923      4.5100     46.2100
  2315.5000      0.0000    692.5330      4.5688     44.6594
  2315.7500      0.0000    680.3107      4.7133     42.9789
  2316.0000      0.0000    669.8369      4.8002     41.7844
  2316.2500      0.0000    665.9324      4.7015     41.7265
  2316.5000      0.0000    669.4776      4.3998     43.1972
  2316.7500      0.0000    675.4871      3.9884     46.0086
  2317.0000      0.0000    677.5797      3.5920     49.3589
  2317.2500      0.0000    673.9014      3.2891     52.3611
  2317.5000      0.0000    668.2189      3.0980     54.6648
  2317.7500      0.0000    666.2199      3.0081     56.5437
  2318.0000      0.0000    671.1176      3.0060     58.4941
  2318.2500      0.0000    682.0934      3.0732     60.8096
  2318.5000      0.0000    696.3864      3.1731     63.3621
  2318.7500      0.0000    712.3641      3.2545     65.6321
  2319.0000      0.0000    729.5909      3.2749     67.0090
  2319.2500      0.0000    745.8918      3.2214     67.0766
  2319.5000      0.0000    756.3317      3.1108     65.6923
  2319.7500      0.0000    756.4272      2.9751     63.0926
  2320.0000      0.0000    745.9442      2.8477     60.0553
  2320.2500      0.0000    729.5122      2.7509     57.5548
  2320.5000      0.0000    714.2704      2.6933     55.9856
  2320.7500      0.0000    705.7900      2.6820     54.9524
  2321.0000      0.0000    703.9208      2.7309     53.9740
  2321.2500      0.0000    702.0472      2.8437     53.1885
  2321.5000      0.0000    691.7758      2.9940     53.2123
  2321.7500      0.0000    670.1518      3.1327     54.3886
  2322.0000      0.0000    643.7016      3.2146     56.2872
  2322.2500      0.0000    625.3952      3.2202     57.9067
  2322.5000      0.0000    625.6864      3.1664     58.1861
  2322.7500      0.0000    644.8438      3.1065     56.4549
  2323.0000      0.0000    673.6317      3.1039     52.8196
  2323.2500      0.0000    700.8132      3.1822     48.2723
  2323.5000      0.0000    719.3918      3.3038     44.2252
  2323.7500      0.0000    726.9815      3.4191     41.7372
  2324.0000      0.0000    722.7493      3.5321     41.0188
  2324.2500      0.0000    705.9512      3.6899     41.4668
  2324.5000      0.0000    678.6270      3.9058     42.1313
  2324.7500      0.0000    649.4163      4.1207     42.3116
  2325.0000      0.0000    631.8906      4.2453     41.9604
  2325.2500      0.0000    635.5811      4.2218     41.6089
  2325.5000      0.0000    657.9503      4.0488     41.7619
  2325.7500      0.0000    686.4160      3.7683     42.2786
  2326.0000      0.0000    708.2020      3.4345     42.4447
  2326.2500      0.0000    718.2411      3.0993     41.7261
  2326.5000      0.0000    720.0533      2.8257     40.4623
  2326.7500      0.0000    721.1404      2.6768     39.7682
  2327.0000      0.0000    726.2044      2.6654     40.7143
  2327.2500      0.0000    733.5162      2.7357     43.6322
  2327.5000      0.0000    738.9207      2.8211     48.1418
  2327.7500      0.0000    742.7973      2.9090     53.6565
  2328.0000      0.0000    749.7598      3.0373     59.8052
  2328.2500      0.0000    761.4722      3.2450     66.3899
  2328.5000      0.0000    773.8449      3.5462     72.9043
  2328.7500      0.0000    782.5549      3.9424     78.2277
  2329.0000      0.0000    787.9190      4.4274     81.1963
  2329.2500     -4.0000    792.6166      4.9716     81.7266
  2329.5000      0.0000    797.1900      5.5153     81.2229
  2329.7500     -4.0000    799.9507      5.9881     81.5062
  2330.0000      0.0000    800.2924      6.3340     83.2980
  2330.2500      0.0000    800.3690      6.5208     85.9588
  2330.5000      0.0000    803.1423      6.5228     88.5462
  2330.7500      0.0000    809.2723      6.3032     90.6562
  2331.0000      0.0000    816.3662      5.8536     92.3000
  2331.2500      0.0000    821.0559      5.2646     93.4475
  2331.5000      0.0000    821.2041      4.7199     93.8243
  2331.7500      0.0000    816.4181      4.3888     92.9971
  2332.0000      0.0000    807.5519      4.3197     90.7470
  2332.2500      0.0000    796.1082      4.4316     87.6131
