~Version Information
VERS.                      2.0: CWLS Log ASCII Standard - VERSION 2.0
WRAP.                       NO: One line per depth step
~Well Information Block
STRT.FT               890.0000: 
STOP.FT              1588.2000: 
STEP.FT                 0.1000: 
NULL.                -999.2500: 
COMP.          Evergreen Operating Corporation: COMPANY
WELL.            Tomahawk 44-9: WELL
FLD.           Purgatorie River: FIELD
LOC.           434' FSL & 491' FEL: LOCATION
PROV.                 Colorado: PROVINCE
CNTY.               Las Animas: COUNTRY
SRVC.                         : SERVICE COMPANY
DATE.          Mon Sep 13 10:07:57 2004: LOG DATE
UWI.           05 071 08133 00: UNIQUE WELL ID
~Curve Information Block
DEPT.FT            0 000 00 00: Depth
LTEN.lb                       : Surface Line Tension
DCAL.in                       : CDL Caliper
RHOB.g/cc                     : CDL Bulk Density
RHOC.g/cc                     : CDL Density Correction
DPOR.pu                       : CDL Density Porosity
GR.GAPI                       : Gamma Ray
NPOR.pu                       : Neutron Porosity
~Parameter Information Block
~A  Depth       LTEN        DCAL        RHOB        RHOC        DPOR         GR         NPOR    
# ...
   982.4000   1053.0933      8.2660      2.5061      0.0276      8.7185    180.6175     26.9343
   982.5000   1032.4048      8.2670      2.5054      0.0435      8.7630    184.4056     26.4084
   982.6000   1032.4048      8.2670      2.5156      0.0650      8.1460    180.9452     26.1308
   982.7000   1032.4048      8.2670      2.5224      0.0846      7.7350    174.4858     26.8513
   982.8000   1016.3065      8.2678      2.5135      0.0816      8.2707    172.2043     27.9901
   982.9000   1016.3065      8.2678      2.4920      0.0430      9.5774    173.8996     28.5565
   983.0000   1034.7827      8.2674      2.4740      0.0495     10.6673    179.1429     28.4518
   983.1000   1034.7827      8.2674      2.4750      0.0626     10.6089    186.4405     28.4079
   983.2000   1034.7827      8.2674      2.4932      0.0725      9.5041    191.8294     28.7565
   983.3000   1022.6013      8.2664      2.5108      0.1183      8.4380    190.7576     29.0741
   983.4000   1022.6013      8.2664      2.5169      0.0814      8.0661    183.6026     29.1015
   983.5000   1033.4216      8.2699      2.5242      0.0719      7.6223    173.7808     29.1430
   983.6000   1033.4216      8.2699      2.5513      0.0714      5.9800    159.8683     29.4535
   983.7000   1033.4216      8.2699      2.6021      0.0847      2.9003    142.2817     29.7958
   983.8000   1058.1895      8.2688      2.6601      0.1588     -0.6123    128.5210     29.5985
   983.9000   1058.1895      8.2688      2.6969      0.2254     -2.8435    122.5285     28.7502
   984.0000   1054.8661      8.2668      2.6988      0.2085     -2.9600    120.7790     27.6283
   984.1000   1054.8661      8.2668      2.6775      0.1764     -1.6671    120.1194     26.6195
   984.2000   1054.8661      8.2668      2.6544      0.0951     -0.2639    120.3347     25.9735
   984.3000   1064.6816      8.2505      2.6417      0.1365      0.5044    118.3950     25.4839
   984.4000   1064.6816      8.2505      2.6319      0.0768      1.0998    113.7543     25.1062
   984.5000   1038.0566      8.2629      2.6137      0.1150      2.2010    111.5803     25.1815
   984.6000   1038.0566      8.2629      2.5893      0.0536      3.6787    114.9245     25.7421
   984.7000   1038.0566      8.2629      2.5658      0.0798      5.1026    120.3432     26.5219
   984.8000   1007.7833      8.2655      2.5494      0.0256      6.0980    122.9162     27.3705
   984.9000   1007.7833      8.2655      2.5556      0.0342      5.7218    122.2013     27.9526
   985.0000   1020.1962      8.2651      2.5916      0.0606      3.5420    122.2569     27.9067
   985.1000   1020.1962      8.2651      2.6426      0.1218      0.4495    124.4179     27.6776
   985.2000   1020.1962      8.2651      2.6874      0.1217     -2.2670    125.2885     27.7964
   985.3000   1022.4973      8.2632      2.7150      0.1812     -3.9381    122.1386     27.9225
   985.4000   1022.4973      8.2632      2.7260      0.1410     -4.6073    114.0927     27.3373
   985.5000   1035.3582      8.2573      2.7243      0.1383     -4.5004    103.4766     26.0741
   985.6000   1035.3582      8.2573      2.7061      0.1234     -3.3996     97.0983     24.9843
   985.7000   1035.3582      8.2573      2.6744      0.0621     -1.4767     96.1931     24.2636
   985.8000   1036.4951      8.2542      2.6458      0.0308      0.2554     94.9222     23.5277
   985.9000   1036.4951      8.2542      2.6295      0.0063      1.2399     89.8904     22.8614
   986.0000   1038.0875      8.2462      2.6219     -0.0042      1.7019     83.8154     22.5100
   986.1000   1038.0875      8.2462      2.6169     -0.0187      2.0058     80.6491     22.3013
   986.2000   1038.0875      8.2462      2.6114      0.0016      2.3403     81.3107     21.8408
   986.3000   1051.1437      8.2951      2.6088     -0.0088      2.4988     83.5001     21.0293
   986.4000   1051.1437      8.2951      2.6094      0.0253      2.4620     85.2564     20.1578
   986.5000   1035.6851      8.3300      2.6045      0.0249      2.7572     89.6098     19.7132
   986.6000   1035.6851      8.3300      2.5953      0.0140      3.3170     96.6327     19.8526
   986.7000   1035.6851      8.3300      2.5914     -0.0178      3.5524    100.3895     20.1715
   986.8000   1090.4926      8.3338      2.5893      0.0347      3.6771    100.6667     20.2662
   986.9000   1090.4926      8.3338      2.5684      0.0463      4.9475    101.1466     20.1156
   987.0000   1088.0679      8.3220      2.5228     -0.0155      7.7114    102.8413     20.0039
   987.1000   1088.0679      8.3220      2.4807     -0.0061     10.2608    103.9417     20.0953
   987.2000   1088.0679      8.3220      2.4692     -0.0191     10.9573    103.3363     20.1125
   987.3000   1078.2754      8.2714      2.4794      0.0219     10.3399    103.9619     19.7526
   987.4000   1078.2754      8.2714      2.4884      0.0193      9.7944    107.3544     19.3535
   987.5000   1083.9166      8.2323      2.4962      0.0353      9.3227    111.0780     19.2650
   987.6000   1083.9166      8.2323      2.5095      0.0798      8.5145    110.7877     19.2122
   987.7000   1083.9166      8.2323      2.5283      0.0872      7.3731    104.1973     19.0675
   987.8000   1073.8295      8.2307      2.5564      0.1046      5.6744     96.8614     19.1056
   987.9000   1073.8295      8.2307      2.5853      0.2178      3.9202     95.1047     19.5104
   988.0000   1077.9301      8.2289      2.5953      0.1792      3.3129     94.1901     19.9291
   988.1000   1077.9301      8.2289      2.5855      0.1417      3.9094     88.2782     19.8658
   988.2000   1077.9301      8.2289      2.5656      0.1193      5.1127     83.7173     19.4457
   988.3000   1078.8517      8.2341      2.5401      0.1139      6.6625     85.5958     19.3220
   988.4000   1078.8517      8.2341      2.5158      0.0874      8.1338     87.5823     19.7642
   988.5000   1078.4517      8.2607      2.5028      0.0908      8.9188     86.0609     20.3617
   988.6000   1078.4517      8.2607      2.5088      0.0799      8.5552     85.9214     20.6406
   988.7000   1078.4517      8.2607      2.5319      0.0944      7.1553     88.9222     20.5836
   988.8000   1068.1622      8.2734      2.5530      0.0714      5.8776     92.7510     20.6264
   988.9000   1068.1622      8.2734      2.5471      0.1222      6.2347     96.7295     20.8672
   989.0000   1072.7312      8.2795      2.5092      0.0759      8.5312     98.1479     20.9658
   989.1000   1072.7312      8.2795      2.4662      0.0265     11.1412     94.3722     20.8487
   989.2000   1072.7312      8.2795      2.4447      0.0128     12.4445     91.0037     20.5717
   989.3000   1061.4485      8.2779      2.4431      0.0433     12.5371     95.0431     20.1850
   989.4000   1061.4485      8.2779      2.4533      0.0026     11.9189    102.5756     20.0301
   989.5000   1041.8032      8.2685      2.4780      0.0223     10.4259    105.2059     20.3218
   989.6000   1041.8032      8.2685      2.5097      0.0695      8.5011    102.7323     20.7183
   989.7000   1041.8032      8.2685      2.5288      0.1011      7.3460     99.5211     20.7564
   989.8000   1049.9128      8.2661      2.5237      0.1353      7.6571     95.9010     20.4737
   989.9000   1049.9128      8.2661      2.4986      0.1036      9.1727     90.6038     20.1745
   990.0000   1099.7383      8.2673      2.4710      0.0537     10.8503     87.2421     19.8516
   990.1000   1099.7383      8.2673      2.4549      0.0528     11.8258     87.8132     19.4484
   990.2000   1099.7383      8.2673      2.4492      0.0666     12.1705     88.9387     19.3843
   990.3000   1100.8632      8.2676      2.4429      0.0635     12.5488     89.2208     19.7245
   990.4000   1100.8632      8.2676      2.4305      0.0366     13.3030     88.0526     19.8100
   990.5000   1059.2963      8.2679      2.4135      0.0030     14.3348     83.6065     19.4321
   990.6000   1059.2963      8.2679      2.3935      0.0037     15.5465     76.5690     19.0471
   990.7000   1059.2963      8.2679      2.3746     -0.0010     16.6915     70.0389     18.9811
