~Version Information
VERS.                      2.0: CWLS Log ASCII Standard - VERSION 2.0
WRAP.                       NO: One line per depth step
~Well Information Block
STRT.FT               752.0000: 
STOP.FT              2474.2000: 
STEP.FT                 0.1000: 
NULL.                -999.2500: 
COMP.          Petrogulf Corporation: COMPANY
WELL.            Montoya 7-14V: WELL
FLD.           Purgatorie River: FIELD
LOC.           535' FSL & 491' FWL: LOCATION
CNTY.               Las Animas: COUNTY
SRVC.                         : SERVICE COMPANY
DATE.          Mon Aug 23 10:41:01 2004: LOG DATE
UWI.           05 071 08019 00: UNIQUE WELL ID
STAT.                 Colorado: STATE
~Curve Information Block
DEPT.FT            0 000 00 00: Depth
DCAL.in                       : CDL Caliper
RHOB.g/cc                     : CDL Bulk Density
RHOC.g/cc                     : CDL Density Correction
DPOR.pu                       : CDL Density Porosity
GR.GAPI                       : Gamma Ray
NPOR.pu                       : Neutron Porosity
~Parameter Information Block
~A  Depth       DCAL        RHOB        RHOC        DPOR         GR         NPOR    
# ...
  2009.6000      7.5571      2.6091      0.1205      2.4763     90.1720     21.1565
  2009.7000      7.5571      2.6102      0.0732      2.4107     88.2356     21.3765
  2009.8000      7.5703      2.5991      0.0553      3.0875     89.7548     22.4087
  2009.9000      7.5703      2.5723      0.0611      4.7097     94.0262     23.4676
  2010.0000      7.5936      2.5337      0.0368      7.0480     95.9450     23.7439
  2010.1000      7.5936      2.5096      0.0044      8.5087     94.4993     23.9291
  2010.2000      7.5936      2.5137      0.0349      8.2635     92.1601     24.7518
  2010.3000      7.5664      2.5308      0.0202      7.2265     90.5640     25.4611
  2010.4000      7.5664      2.5450      0.0281      6.3660     92.6949     25.3804
  2010.5000      7.5360      2.5444      0.0591      6.3980    100.3686     25.0690
  2010.6000      7.5360      2.5230      0.0691      7.6962    108.8544     24.9908
  2010.7000      7.5360      2.4954      0.0445      9.3675    111.9281     25.0806
  2010.8000      7.4955      2.4801      0.1039     10.2990    109.5455     25.1762
  2010.9000      7.4955      2.4759      0.0802     10.5503    107.8478     24.9231
  2011.0000      7.5376      2.4802      0.0506     10.2893    113.2108     24.6208
  2011.1000      7.5376      2.4936      0.0694      9.4782    119.7849     24.9463
  2011.2000      7.5376      2.5016      0.0882      8.9917    116.2586     25.9192
  2011.3000      7.5600      2.4803      0.1167     10.2850    107.0889     27.4193
  2011.4000      7.5600      2.4232      0.1059     13.7470    105.1924     29.0420
  2011.5000      7.5556      2.3569      0.0373     17.7641    109.1749     30.0373
  2011.6000      7.5556      2.3186      0.0315     20.0877    110.4591     30.1604
  2011.7000      7.5556      2.3181      0.0581     20.1147    110.5502     29.7520
  2011.8000      7.5727      2.3402      0.0716     18.7781    110.0100     29.2590
  2011.9000      7.5727      2.3706      0.1184     16.9304    108.2093     28.6318
  2012.0000      7.5982      2.4017      0.2103     15.0457    109.1688     27.7521
  2012.1000      7.5982      2.4218      0.2704     13.8301    109.9098     26.9188
  2012.2000      7.5982      2.4230      0.2693     13.7559    107.3592     26.3527
  2012.3000      7.6455      2.4200      0.2253     13.9377    105.5674     26.0526
  2012.4000      7.6455      2.4377      0.1621     12.8642    105.2096     26.0260
  2012.5000      7.6560      2.4779      0.1025     10.4303    104.1657     26.4368
  2012.6000      7.6560      2.5159      0.1169      8.1271    102.6613     27.2186
  2012.7000      7.6560      2.5327      0.0918      7.1068    101.0574     28.1094
  2012.8000      7.6547      2.5320      0.0977      7.1539     99.8483     28.8036
  2012.9000      7.6547      2.5277      0.0388      7.4118    101.4683     28.8442
  2013.0000      7.6562      2.5320      0.0380      7.1518    107.5725     28.4479
  2013.1000      7.6562      2.5404      0.0476      6.6412    114.9700     28.3437
  2013.2000      7.6562      2.5387      0.0697      6.7460    117.8181     28.4627
  2013.3000      7.6513      2.5283      0.0586      7.3731    115.7717     28.2102
  2013.4000      7.6513      2.5266      0.0538      7.4776    112.5614     27.7279
  2013.5000      7.6100      2.5380      0.0726      6.7896    109.3495     27.1661
  2013.6000      7.6100      2.5461      0.0929      6.2980    105.5082     26.6098
  2013.7000      7.6100      2.5411      0.0832      6.6025    101.4769     26.0120
  2013.8000      7.5812      2.5317      0.0731      7.1690     99.8622     25.0935
  2013.9000      7.5812      2.5288      0.0540      7.3469    101.7108     24.3370
  2014.0000      7.5751      2.5337      0.0722      7.0514    103.6011     24.3263
  2014.1000      7.5751      2.5430      0.0541      6.4864    102.3068     24.3560
  2014.2000      7.5751      2.5543      0.1033      5.7990     99.6951     23.6109
  2014.3000      7.5367      2.5644      0.1196      5.1889     97.7975     22.8206
  2014.4000      7.5367      2.5760      0.0968      4.4875     95.4814     22.8706
  2014.5000      7.5182      2.5979      0.0854      3.1605     92.1263     23.4121
  2014.6000      7.5182      2.6200      0.1178      1.8164     89.1454     23.6774
  2014.7000      7.5182      2.6217      0.0905      1.7127     88.0908     23.6890
  2014.8000      7.5195      2.6047      0.1015      2.7433     89.4725     23.9631
  2014.9000      7.5195      2.5878      0.0702      3.7721     91.1025     24.3720
  2015.0000      7.5377      2.5839      0.0733      4.0067     92.2551     24.2925
  2015.1000      7.5377      2.5928      0.0723      3.4673     95.6371     23.9296
  2015.2000      7.5377      2.6085      0.0671      2.5175    102.2781     24.1762
  2015.3000      7.5659      2.6185      0.0864      1.9120    107.4608     25.3245
  2015.4000      7.5659      2.6059      0.1013      2.6706    106.7116     26.5261
  2015.5000      7.6011      2.5721      0.0630      4.7207    102.9939     26.6861
  2015.6000      7.6011      2.5379      0.0435      6.7966     98.7479     26.0822
  2015.7000      7.6011      2.5163      0.0270      8.1031     95.3330     25.7566
  2015.8000      7.6088      2.5053      0.0215      8.7702     95.6305     26.0074
  2015.9000      7.6088      2.4979      0.0089      9.2181     99.2211     26.5298
  2016.0000      7.6235      2.4908      0.0092      9.6472    103.8394     27.0079
  2016.1000      7.6235      2.4892      0.0212      9.7465    107.3203     27.5089
  2016.2000      7.6235      2.4953      0.0274      9.3742    109.4739     28.0213
  2016.3000      7.6122      2.5007      0.0602      9.0509    112.5313     28.1714
  2016.4000      7.6122      2.5035      0.0308      8.8816    115.6235     27.6118
  2016.5000      7.6207      2.5147      0.0603      8.2020    113.6231     26.5769
  2016.6000      7.6207      2.5307      0.0826      7.2291    106.9189     25.9162
  2016.7000      7.6207      2.5364      0.0749      6.8860    101.9408     25.9608
  2016.8000      7.6181      2.5343      0.0545      7.0148    103.3018     26.0532
  2016.9000      7.6181      2.5391      0.0550      6.7202    110.9419     25.9904
  2017.0000      7.6353      2.5541      0.0649      5.8115    118.8780     26.4076
  2017.1000      7.6353      2.5652      0.0963      5.1367    120.2049     27.0949
  2017.2000      7.6353      2.5557      0.0819      5.7133    117.3838     27.1224
  2017.3000      7.6357      2.5306      0.0594      7.2334    115.9170     26.6391
  2017.4000      7.6357      2.5111      0.0464      8.4164    114.4716     26.6068
  2017.5000      7.6403      2.5044      0.0359      8.8240    111.4526     26.7660
  2017.6000      7.6403      2.5062      0.0005      8.7163    110.2036     26.2715
  2017.7000      7.6403      2.5143      0.0508      8.2244    110.6770     25.7557
  2017.8000      7.6527      2.5238      0.0090      7.6473    107.7421     26.1180
  2017.9000      7.6527      2.5295      0.0592      7.3021    102.3800     26.9489
  2018.0000      7.6554      2.5316     -0.0003      7.1786    101.2129     27.1090
  2018.1000      7.6554      2.5332      0.0368      7.0762    105.9284     26.1508
  2018.2000      7.6554      2.5344      0.0322      7.0038    111.4203     25.2123
  2018.3000      7.6566      2.5376      0.0423      6.8118    113.2584     25.2413
  2018.4000      7.6566      2.5443      0.0738      6.4069    113.0338     25.6649
  2018.5000      7.6618      2.5499      0.0454      6.0677    111.9505     26.1126
  2018.6000      7.6618      2.5529      0.0421      5.8847    107.1214     26.7598
  2018.7000      7.6618      2.5535      0.0629      5.8498     98.7133     27.5363
  2018.8000      7.6658      2.5479      0.0328      6.1889     94.2847     28.2314
  2018.9000      7.6658      2.5352      0.0291      6.9597     98.9505     28.4706
  2019.0000      7.6719      2.5199      0.0400      7.8840    107.7184     28.1183
  2019.1000      7.6719      2.5112      0.0379      8.4097    112.6154     27.6097
