~Version Information
VERS.                      2.0: CWLS Log ASCII Standard - VERSION 2.0
WRAP.                       NO: One line per depth step
~Well Information Block
STRT.FT               650.0000: 
STOP.FT              1080.5000: 
STEP.FT                 0.2500: 
NULL.                -999.2500: 
COMP.          Pioneer Natural Resources: COMPANY
WELL.            Galileo 21-11: WELL
FLD.           Purgatoire River: FIELD
LOC.           407' FNL & 2394' FWL: LOCATION
PROV.                 Colorado: PROVINCE
CNTY.               Las Animas: COUNTRY
SRVC.                Patterson: SERVICE COMPANY
DATE.          Mon Apr 11 11:14:18 2005: LOG DATE
UWI.           05 071 08353 00: UNIQUE WELL ID
~Curve Information Block
DEPT.FT            0 000 00 00: Depth
SN.Ohm-m                      : IEL Short Normal
SP.mV                         : IEL Spontaneous Potential
DIR.Ohm-m                     : IEL Induction Resistivity
GR.GAPI                       : Gamma Ray
~Parameter Information Block
~A  Depth        SN          SP         DIR          GR     
# ...
   851.0000    281.7224    -91.7810     26.1603     84.7914
   851.2500    272.8293    -69.9104     25.1771     88.8925
   851.5000    229.1228    -45.7491     24.2382     96.6201
   851.7500    163.4563    -20.4367     23.4153    101.1796
   852.0000     98.7092      5.0213     22.7344    104.6004
   852.2500     50.9916     29.9224     22.1634    104.2433
   852.5000     23.0760     53.9462     21.6258    101.2296
   852.7500      9.9637     76.9691     21.0439     98.9396
   853.0000      5.0541     98.6405     20.3865     96.9105
   853.2500      3.5744    117.9879     19.6839     96.9334
   853.5000      3.2916    133.3674     19.0014     98.6161
   853.7500      3.7081    142.9251     18.3994    100.0087
   854.0000      5.3762    145.4737     17.9126    100.9213
   854.2500      9.1026    141.3382     17.5522    100.4326
   854.5000     14.6765    132.4926     17.3153     98.9554
   854.7500     20.4963    121.6640     17.1945     98.2289
   855.0000     24.8533    111.0573     17.1826     97.8842
   855.2500     27.2937    101.9406     17.2738     97.7726
   855.5000     28.7817     95.4670     17.4618     97.0000
   855.7500     30.2577     93.5338     17.7359     95.9241
   856.0000     30.6068     98.3094     18.0788     93.8069
   856.2500     27.8065    110.7064     18.4668     92.4428
   856.5000     22.1416    129.3226     18.8751     91.0100
   856.7500     15.7113    150.6650     19.2839     90.5698
   857.0000     10.2160    170.1219     19.6847     90.4287
   857.2500      6.6746    182.9129     20.0818     90.3413
   857.5000      5.4738    184.8603     20.4892     89.7866
   857.7500      6.7339    173.0705     20.9236     89.2833
   858.0000     10.7537    146.4137     21.3971     89.0297
   858.2500     17.1143    105.7252     21.9126     89.2925
   858.5000     24.7332     54.0295     22.4608     89.4568
   858.7500     34.8810     -3.0718     23.0200     88.7789
   859.0000     53.3623    -57.6517     23.5593     86.5982
   859.2500     86.8618   -101.4438     24.0479     85.0887
   859.5000    136.1291   -129.0167     24.4652     83.9258
   859.7500    192.7162   -139.7238     24.8057     83.9586
   860.0000    240.5547   -136.8056     25.0767     84.5482
   860.2500    266.1708   -124.7607     25.2922     84.8771
   860.5000    273.1686   -107.2696     25.4683     84.7727
   860.7500    276.9721    -86.6305     25.6197     84.1531
   861.0000    280.0498    -64.1786     25.7549     82.6421
   861.2500    263.2638    -40.9488     25.8736     81.7327
   861.5000    211.3985    -18.2396     25.9675     81.4053
   861.7500    139.3496      2.0166     26.0261     82.0203
   862.0000     78.7273     17.0858     26.0474     83.6008
   862.2500     44.7020     23.5105     26.0440     84.5530
   862.5000     30.7611     17.7198     26.0375     85.2662
   862.7500     26.7758     -2.4593     26.0422     85.2626
   863.0000     29.1103    -35.7010     26.0540     84.8516
   863.2500     39.0165    -76.0562     26.0540     84.5333
   863.5000     60.3942   -114.5462     26.0236     84.3384
   863.7500     98.3134   -143.1105     25.9546     84.5099
   864.0000    148.8465   -158.0333     25.8511     85.1044
   864.2500    191.9142   -160.3214     25.7269     85.4566
   864.5000    213.1653   -153.4747     25.6051     85.3399
   864.7500    218.5955   -141.0363     25.5161     84.6317
   865.0000    207.5647   -125.4656     25.4937     82.8051
   865.2500    168.2238   -108.1435     25.5687     81.4697
   865.5000    110.0937    -89.6891     25.7586     80.0191
   865.7500     60.4058    -70.1673     26.0552     79.5853
   866.0000     31.6821    -49.2400     26.4128     79.4057
   866.2500     18.7248    -26.4406     26.7501     79.2522
   866.5000     15.5183     -1.6000     26.9694     78.6122
   866.7500     20.2400     24.7531     26.9867     77.9566
   867.0000     30.7589     51.1938     26.7528     77.0226
   867.2500     42.2205     75.4138     26.2591     76.7490
   867.5000     48.8493     94.4199     25.5325     77.5043
   867.7500     47.7105    105.0668     24.6280     79.1779
   868.0000     41.0654    105.1061     23.6173     83.8848
   868.2500     34.9915     94.5074     22.5720     88.4818
   868.5000     34.9005     76.1592     21.5494     96.9790
   868.7500     42.3868     54.9851     20.5853    102.9639
   869.0000     55.5120     35.4766     19.6971    110.5582
   869.2500     68.2261     18.9818     18.8897    113.7234
   869.5000     72.4370      2.5391     18.1611    115.2017
   869.7500     68.9989    -19.8353     17.5050    114.5813
   870.0000     68.8511    -53.8318     16.9132    112.7777
   870.2500     76.2635   -101.0827     16.3798    111.7185
   870.5000     87.2426   -157.1561     15.9047    110.8824
   870.7500    106.7369   -213.1184     15.4917    110.6870
   871.0000    149.1746   -260.1900     15.1436    110.2192
   871.2500    218.0436   -294.1545     14.8573    109.4926
   871.5000    292.5179   -316.0627     14.6226    108.0551
   871.7500    343.9107   -329.3742     14.4275    107.3930
   872.0000    364.0977   -336.9961     14.2655    107.8084
   872.2500    365.4195   -340.6158     14.1388    109.3551
   872.5000    359.9834   -341.3286     14.0555    113.2828
   872.7500    349.3632   -339.9112     14.0209    116.1916
   873.0000    326.5604   -336.8001     14.0312    119.2775
   873.2500    285.2360   -332.2755     14.0728    119.9219
   873.5000    232.8998   -326.6360     14.1279    119.0539
   873.7500    193.4942   -320.3201     14.1816    117.8424
   874.0000    190.1726   -314.1496     14.2279    116.0756
   874.2500    218.2334   -309.1766     14.2712    115.3812
   874.5000    241.9071   -305.8032     14.3245    115.5806
   874.7500    233.2087   -303.2924     14.4025    116.5784
   875.0000    200.9821   -300.4888     14.5136    118.6912
   875.2500    169.5190   -296.7999     14.6539    119.7665
   875.5000    148.0491   -292.3521     14.8075    119.8227
   875.7500    132.5767   -287.5671     14.9519    118.8243
   876.0000    124.1313   -282.8729     15.0670    116.8557
   876.2500    131.0921   -278.6940     15.1437    115.9697
   876.5000    151.3217   -275.4859     15.1882    115.7711
   876.7500    168.9258   -273.7151     15.2205    116.1766
   877.0000    176.3392   -273.7861     15.2690    116.9608
   877.2500    186.8002   -275.8788     15.3644    117.3260
   877.5000    218.4179   -279.6880     15.5364    117.2827
   877.7500    268.6529   -284.2485     15.8098    116.6413
   878.0000    314.0325   -288.1053     16.1987    114.5281
   878.2500    331.2517   -289.7940     16.7003    112.4109
   878.5000    307.9446   -288.3130     17.2897    108.4767
   878.7500    249.6558   -283.3205     17.9228    105.4619
   879.0000    184.1662   -275.0210     18.5484    100.3645
   879.2500    139.0407   -263.8719     19.1255     96.6709
   879.5000    116.1219   -250.2908     19.6368     91.2879
   879.7500    102.4827   -234.5042     20.0916     88.3004
   880.0000     92.8829   -216.5754     20.5177     85.3639
   880.2500     92.4488   -196.5470     20.9480     84.5886
   880.5000    109.6803   -174.5862     21.4062     85.0753
   880.7500    142.3705   -151.0381     21.8944     86.1567
   881.0000    166.2727   -126.3606     22.3891     87.9788
   881.2500    157.4836   -101.0337     22.8486     88.8726
   881.5000    124.6604    -75.5985     23.2290     89.6520
   881.7500     97.5581    -50.8887     23.4992     90.1223
   882.0000     93.4124    -28.3610     23.6482     91.1715
   882.2500    105.5654    -10.3911     23.6859     91.8451
   882.5000    111.5702     -0.3783     23.6388     91.7637
   882.7500     96.3976     -2.3408     23.5371     90.6443
   883.0000     70.6902    -19.5530     23.3967     88.0064
   883.2500     54.3225    -52.2672     23.2116     86.4035
   883.5000     56.4369    -95.8352     22.9645     85.3228
   883.7500     78.2227   -141.3212     22.6450     85.7707
   884.0000    120.4513   -179.1951     22.2625     88.2336
   884.2500    184.8380   -203.6838     21.8445     90.8043
