~Version Information
 VERS.                                  2.0 : CWLS LAS VERSION
 WRAP.                                   NO : WRAPING MODE
 SWARE .                  MController 2.6.3 : SOFTWARE VERSION
~Well Information
 WELL.                        Chevron 13-13 : WELL
 COMP.    Pioneer Natural Resources USA Inc : COMPANY
 FLD.                      Purgatoire River : FIELD
 LOC.                NW/SW Sec 13 T32S R66W : LOCATION
 DATE.                         2/10-11/2007 : DATE(S) LOGGED
 SRVC.        Ismay Geological Services Ltd : SERVICE COMPANY
 STAT.                                   CO : STATE
 CNTY.                           Las Animas : COUNTY
 CTRY.                                  USA : COUNTRY
 API.                          05-071-08319 : API NUMBER
 STRT.FT                             985.00 : START DEPTH
 STOP.FT                            2410.00 : STOP DEPTH
 STEP.FT                               1.00 : DEPTH INCREMENT
 NULL.                                -9999 : NULL VALUE
~Curve information
 DEPTH.FT                                   :
 ROP.MIN/FT                                 :
 GAS.UNITS                                  :
~ASCII Log data
# ...
     2086.00         0.37        181.5 
     2087.00         0.33        179.0 
     2088.00         0.40        161.1 
     2089.00         0.43         82.5 
     2090.00         0.33        179.7 
     2091.00         0.33        303.1 
     2092.00         3.77       1014.6 
     2093.00         0.77        291.2 
     2094.00         0.63        223.6 
     2095.00         0.53        193.0 
     2096.00         0.50        182.9 
     2097.00         0.40        192.6 
     2098.00         0.42        192.6 
     2099.00         0.43        187.3 
     2100.00         0.37        179.9 
     2101.00         0.37        169.3 
     2102.00         0.37        173.5 
     2103.00         0.33        175.3 
     2104.00         0.33        177.2 
     2105.00         0.30        172.0 
     2106.00         0.30        166.3 
     2107.00         0.37        162.2 
     2108.00         0.38        199.4 
     2109.00         0.37        214.0 
     2110.00         0.30        213.4 
     2111.00         0.23        203.3 
     2112.00         0.27        197.9 
     2113.00         0.33        178.6 
     2114.00         0.33        152.0 
     2115.00         0.33        114.5 
     2116.00         0.30        103.6 
     2117.00         0.30        181.5 
     2118.00         0.28        261.1 
     2119.00         0.17        291.3 
     2120.00         0.20        394.2 
     2121.00         0.23        463.4 
     2122.00         3.42       1082.5 
     2123.00         0.47        405.0 
     2124.00         0.43        339.2 
     2125.00         0.30        273.1 
     2126.00         0.40        245.6 
     2127.00         0.30        244.0 
     2128.00         0.30        230.3 
     2129.00         0.30        220.9 
     2130.00         0.32        217.1 
     2131.00         0.33        215.9 
     2132.00         0.27        204.8 
     2133.00         0.30        195.5 
     2134.00         0.27        186.9 
     2135.00         0.30        217.9 
     2136.00         0.23        219.6 
     2137.00         0.27        223.9 
     2138.00         0.20        223.8 
     2139.00         0.20        219.8 
     2140.00         0.17        216.8 
     2141.00         0.23        215.8 
     2142.00         0.27        209.6 
     2143.00         0.28        203.2 
     2144.00         0.33        200.2 
     2145.00         0.37        201.5 
     2146.00         0.30        199.7 
     2147.00         0.30        191.8 
     2148.00         0.33         70.7 
     2149.00         0.30        163.8 
     2150.00         0.30        278.1 
     2151.00         0.37        362.9 
     2152.00         3.57        771.1 
     2153.00         0.87        375.2 
     2154.00         0.57        233.6 
     2155.00         0.47        216.0 
     2156.00         0.43        209.9 
     2157.00         0.37        208.0 
     2158.00         0.47        207.9 
     2159.00         0.42        205.0 
     2160.00         0.43        197.3 
     2161.00         0.47        193.3 
     2162.00         0.43        190.6 
     2163.00         0.37        187.3 
     2164.00         0.30        183.9 
     2165.00         0.33        159.8 
     2166.00         0.33        138.4 
     2167.00         0.30        210.7 
     2168.00         0.35        274.7 
     2169.00         0.23        269.9 
     2170.00         0.17        257.3 
     2171.00         0.13        281.0 
     2172.00         0.13        281.0 
     2173.00         0.17        276.8 
     2174.00         0.13        276.8 
     2175.00         0.20        244.2 
     2176.00         0.27         96.8 
     2177.00         0.17         96.8 
     2178.00         0.13        135.8 
     2179.00         0.20        174.7 
     2180.00         0.23        370.4 
     2181.00         0.30        448.1 
     2182.00         4.70       1065.1 
     2183.00         0.50        270.7 
     2184.00         0.43        236.5 
     2185.00         0.37        233.1 
     2186.00         0.33        233.7 
     2187.00         0.37        227.8 
     2188.00         0.37        212.5 
     2189.00         0.35        197.9 
     2190.00         0.30        195.3 
     2191.00         0.30        181.3 
     2192.00         0.33        178.9 
     2193.00         0.30        178.0 
     2194.00         0.27        178.0 
     2195.00         0.40        179.0 
     2196.00         0.40        181.8 
     2197.00         0.23        183.7 
     2198.00         0.27        187.6 
     2199.00         0.23        187.8 
     2200.00         0.25        179.1 
     2201.00         0.27        175.9 
     2202.00         0.33        159.8 
     2203.00         0.43        165.9 
     2204.00         0.20        136.9 
     2205.00         0.23         56.5 
     2206.00         0.20         56.5 
     2207.00         0.17        110.2 
     2208.00         0.17        136.9 
     2209.00         0.20        235.5 
     2210.00         0.30        344.1 
     2211.00         3.92        876.6 
     2212.00         0.65        279.6 
     2213.00         0.57        216.9 
     2214.00         0.67        195.7 
     2215.00         0.53        188.7 
     2216.00         0.47        188.0 
     2217.00         0.47        178.3 
     2218.00         0.45        165.9 
     2219.00         0.37        161.0 
     2220.00         0.40        163.3 
     2221.00         0.43        168.6 
     2222.00         0.43        170.3 
     2223.00         0.43        168.3 
     2224.00         0.47        168.2 
     2225.00         0.42        172.7 
     2226.00         0.43        186.6 
     2227.00         0.47        186.8 
     2228.00         0.50        180.1 
     2229.00         0.43        178.0 
     2230.00         0.40        179.0 
     2231.00         0.40        173.1 
     2232.00         0.42        169.0 
     2233.00         0.40        172.8 
     2234.00         0.43        173.3 
     2235.00         0.37        162.7 
     2236.00         0.40        163.6 
     2237.00         0.37        153.4 
     2238.00         0.40         76.2 
     2239.00         0.40        199.7 
     2240.00         0.50        385.9 
     2241.00         4.30        830.1 
     2242.00         0.73        440.0 
     2243.00         0.50        273.0 
     2244.00         0.43        244.1 
     2245.00         0.40        246.5 
     2246.00         0.45        255.0 
     2247.00         0.37        251.7 
     2248.00         0.43        234.4 
     2249.00         0.40        215.8 
     2250.00         0.33        204.7 
     2251.00         0.37        197.2 
     2252.00         0.40        195.2 
     2253.00         0.37        195.1 
     2254.00         0.37        200.0 
     2255.00         0.38        201.3 
     2256.00         0.37        202.4 
     2257.00         0.33        204.6 
     2258.00         0.37        206.0 
     2259.00         0.37        208.3 
     2260.00         0.33        209.8 
     2261.00         0.37        210.6 
     2262.00         0.37        210.6 
     2263.00         0.33        206.8 
     2264.00         0.37        203.1 
     2265.00         0.35        197.9 
     2266.00         0.37        181.0 
     2267.00         0.37        173.5 
     2268.00         0.33         86.0 
     2269.00         0.37        158.8 
     2270.00         0.43        381.3 
     2271.00         3.52       1060.1 
     2272.00         0.97        401.2 
     2273.00         0.62        245.6 
     2274.00         0.60        233.6 
     2275.00         0.47        233.5 
     2276.00         0.53        234.1 
     2277.00         0.40        234.4 
     2278.00         0.37        231.6 
     2279.00         0.37        223.2 
     2280.00         0.38        202.8 
     2281.00         0.33        196.9 
     2282.00         0.37        192.6 
     2283.00         0.30        191.2 
     2284.00         0.33        192.1 
     2285.00         0.33        196.7 
