~Version Information
VERS.                      2.0: CWLS Log ASCII Standard - VERSION 2.0
WRAP.                       NO: One line per depth step
~Well Information Block
STRT.FT                -8.0000: 
STOP.FT              1357.5000: 
STEP.FT                 0.2500: 
NULL.                -999.2500: 
COMP.          Pioneer Natural Resources: COMPANY
WELL.          Lorencito 6-3-34-66: WELL
FLD.           Purgatorie River: FIELD
LOC.           2545' FNL & 1914' FWL: LOCATION
STAT.                       CO: State
CNTY.               Las Animas: COUNTY
CTRY. USA : Country
SECT. 3 : Section
TOWN. 34S : Township
RANG. 66W : Range
SRVC.          Patterson Wireline: SERVICE COMPANY
DATE.          Tue Sep 27 11:36:13 2005: LOG DATE
API.           05 071 08369 00: UNIQUE WELL ID
~Curve Information Block
DEPT.FT            0 000 00 00: Depth
CCL.                          : Casing Collar Locator
TT3.usec                      : CBL 3' Travel Time
AMP3.mV                       : CBL 3' Amplitude
GR.GAPI                       : Gamma Ray
~Parameter Information Block
~A  Depth       CCL         TT3         AMP3         GR     
# ...
  1064.0000      0.0000    645.9645      5.5925     71.0899
  1064.2500      0.0000    649.5176      5.5512     71.6791
  1064.5000      0.0000    652.5085      5.5200     72.4310
  1064.7500      0.0000    654.6823      5.4904     72.1464
  1065.0000      0.0000    656.1089      5.4593     71.4223
  1065.2500      0.0000    657.2889      5.4200     72.2828
  1065.5000      0.0000    659.2716      5.3597     76.4898
  1065.7500      0.0000    663.0139      5.2696     83.9282
  1066.0000      0.0000    668.1212      5.1582     92.2670
  1066.2500      0.0000    672.1309      5.0523     98.2282
  1066.5000      0.0000    671.3398      4.9821     99.8081
  1066.7500      0.0000    663.1612      4.9633     97.8383
  1067.0000      0.0000    648.6089      4.9908     95.2011
  1067.2500      0.0000    633.0671      5.0459     94.0761
  1067.5000      0.0000    624.0549      5.1080     94.1951
  1067.7500      0.0000    626.6592      5.1627     94.0558
  1068.0000      0.0000    640.2598      5.2032     93.1348
  1068.2500      0.0000    659.8695      5.2280     92.2120
  1068.5000      0.0000    680.1344      5.2388     92.1097
  1068.7500      0.0000    697.2374      5.2391     93.0515
  1069.0000      0.0000    708.3401      5.2324     95.0251
  1069.2500      0.0000    711.8062      5.2214     97.8458
  1069.5000      0.0000    708.4474      5.2071    100.7186
  1069.7500      0.0000    701.0185      5.1891    102.4072
  1070.0000      0.0000    691.9626      5.1703    102.2235
  1070.2500      0.0000    682.5021      5.1590    100.6642
  1070.5000      0.0000    673.7348      5.1668     98.8318
  1070.7500      0.0000    667.1406      5.1990     97.2774
  1071.0000      0.0000    663.4999      5.2465     95.6279
  1071.2500      0.0000    662.3070      5.2866     93.2381
  1071.5000      0.0000    662.6540      5.2990     89.7453
  1071.7500      0.0000    664.3608      5.2830     84.9538
  1072.0000      0.0000    668.0504      5.2597     78.8898
  1072.2500      0.0000    674.0158      5.2559     72.3082
  1072.5000      0.0000    680.8121      5.2839     66.5684
  1072.7500      0.0000    685.3052      5.3357     62.6503
  1073.0000      0.0000    685.0619      5.3923     60.6583
  1073.2500      0.0000    680.9025      5.4388     60.4484
  1073.5000      0.0000    676.6422      5.4713     62.1033
  1073.7500      0.0000    676.1127      5.4923     65.3249
  1074.0000      0.0000    680.1538      5.5010     68.9320
  1074.2500      0.0000    685.7891      5.4899     71.7466
  1074.5000      0.0000    688.3741      5.4531     73.8298
  1074.7500      0.0000    685.4362      5.4005     76.2734
  1075.0000      0.0000    678.5965      5.3599     79.9133
  1075.2500      0.0000    671.5466      5.3587     84.5809
  1075.5000      0.0000    666.7520      5.4039     89.3392
  1075.7500      0.0000    664.4150      5.4790     93.1411
  1076.0000      0.0000    663.6082      5.5603     95.5548
  1076.2500      0.0000    663.4812      5.6346     97.0296
  1076.5000      0.0000    663.6188      5.7005     98.1760
  1076.7500      0.0000    663.9555      5.7535     98.7992
  1077.0000      0.0000    664.8032      5.7752     98.0647
  1077.2500      0.0000    667.1448      5.7433     95.6016
  1077.5000      0.0000    672.9164      5.6506     91.8483
  1077.7500      0.0000    684.4708      5.5089     87.2368
  1078.0000      0.0000    702.8287      5.3376     81.7594
  1078.2500      0.0000    725.9240      5.1573     75.7598
  1078.5000      0.0000    749.0074      4.9917     70.5501
  1078.7500      0.0000    767.4221      4.8614     67.5264
  1079.0000      0.0000    779.1765      4.7719     66.6360
  1079.2500      0.0000    785.1288      4.7117     66.0479
  1079.5000      0.0000    787.3892      4.6632     63.6703
  1079.7500      0.0000    787.7753      4.6029     59.1895
  1080.0000      0.0000    787.1688      4.4906     54.5447
  1080.2500      0.0000    785.5372      4.2755     52.4091
  1080.5000      0.0000    782.2164      3.9441     54.5250
  1080.7500      0.0000    776.3661      3.5730     61.3310
  1081.0000      0.0000    767.6074      3.3038     72.2631
  1081.2500      0.0000    756.6365      3.2327     85.6050
  1081.5000      0.0000    745.4149      3.3331     98.0967
  1081.7500      0.0000    736.6672      3.5097    105.6301
  1082.0000      0.0000    732.4247      3.7001    105.5844
  1082.2500      0.0000    732.0571      3.8936     99.0284
  1082.5000      0.0000    731.8494      4.0816     90.1838
  1082.7500      2.0000    727.6982      4.2360     83.3285
  1083.0000     -2.0000    718.7522      4.3304     80.2562
  1083.2500      0.0000    708.0021      4.3658     80.3347
  1083.5000      0.0000    699.3311      4.3793     82.1741
  1083.7500      0.0000    694.5170      4.4232     84.8098
  1084.0000      0.0000    692.9486      4.5152     87.5616
  1084.2500      0.0000    693.1631      4.6180     89.4540
  1084.5000      0.0000    693.7480      4.6890     89.4025
  1084.7500      0.0000    693.0733      4.7354     87.1190
  1085.0000      0.0000    689.6310      4.7973     83.5217
  1085.2500      0.0000    683.5751      4.8898     80.0881
  1085.5000      0.0000    677.3124      4.9881     77.8304
  1085.7500      0.0000    673.6121      5.0609     76.8185
  1086.0000      0.0000    672.7499      5.1005     76.5753
  1086.2500      0.0000    671.1398      5.1192     76.7785
  1086.5000      0.0000    662.7078      5.1280     77.3089
  1086.7500      0.0000    642.7372      5.1264     77.6921
  1087.0000      0.0000    611.7628      5.1077     77.0829
  1087.2500      0.0000    576.1264      5.0705     75.0514
  1087.5000      0.0000    544.6161      5.0215     72.1153
  1087.7500      0.0000    524.6335      4.9716     69.4245
  1088.0000      0.0000    520.7183      4.9309     68.1903
  1088.2500      0.0000    533.9555      4.9066     69.3373
  1088.5000      0.0000    560.4597      4.9008     73.1906
  1088.7500      0.0000    591.4135      4.9106     79.2129
  1089.0000      0.0000    617.4223      4.9297     86.1110
  1089.2500      0.0000    634.0922      4.9498     92.4263
  1089.5000      0.0000    643.1660      4.9646     97.0705
  1089.7500      0.0000    648.8394      4.9716     99.3010
  1090.0000      0.0000    653.9966      4.9711     98.5882
  1090.2500      0.0000    659.3367      4.9641     95.1483
  1090.5000      0.0000    664.2407      4.9541     90.6426
  1090.7500      0.0000    667.6449      4.9495     87.6299
  1091.0000      0.0000    668.8386      4.9597     87.6839
  1091.2500      0.0000    668.1320      4.9876     90.1081
  1091.5000      0.0000    666.6414      5.0261     92.7960
  1091.7500      0.0000    665.3704      5.0636     94.0644
  1092.0000      0.0000    664.6539      5.0917     93.4104
  1092.2500      0.0000    664.3423      5.1085     91.0933
  1092.5000      0.0000    664.2109      5.1176     87.6580
  1092.7500      0.0000    664.1472      5.1227     83.8755
  1093.0000      0.0000    664.1213      5.1221     80.7567
  1093.2500      0.0000    664.1240      5.1098     79.2216
  1093.5000      0.0000    664.1622      5.0829     79.4346
  1093.7500      0.0000    664.3748      5.0486     80.5034
  1094.0000      0.0000    665.2239      5.0202     81.0929
  1094.2500      0.0000    667.6935      5.0052     80.3331
  1094.5000      0.0000    673.0464      4.9994     78.0830
  1094.7500      0.0000    681.5721      4.9925     74.6185
  1095.0000      0.0000    691.0608      4.9798     70.4870
  1095.2500      0.0000    697.4146      4.9667     66.7629
  1095.5000      0.0000    698.0751      4.9627     65.1247
  1095.7500      0.0000    694.4875      4.9739     67.0801
  1096.0000      0.0000    690.0714      5.0007     72.6646
  1096.2500      0.0000    686.3395      5.0414     79.9838
  1096.5000      0.0000    682.2768      5.0928     86.4702
  1096.7500      0.0000    676.8089      5.1479     90.7669
  1097.0000      0.0000    670.0501      5.1980     93.1813
  1097.2500      0.0000    661.7090      5.2414     94.3406
