~Version Information
VERS.                      2.0: CWLS Log ASCII Standard - VERSION 2.0
WRAP.                       NO: One line per depth step
~Well Information Block
STRT.FT               275.0000: 
STOP.FT               811.2000: 
STEP.FT                 0.1000: 
NULL.                -999.2500: 
COMP.          Pioneer Natural Resources: COMPANY
WELL.          Barrelman 41-27: WELL
FLD.           Purgatoire River: FIELD
LOC.           371' FNL & 493' FEL--: LOCATION
PROV.                 Colorado: PROVINCE
CNTY.               Las Animas: COUNTRY
SRVC.                Patterson: SERVICE COMPANY
DATE.          Fri May 20 11:50:01 2005: LOG DATE
UWI.           05 071 08334 00: UNIQUE WELL ID
~Curve Information Block
DEPT.FT            0 000 00 00: Depth
DCAL.in                       : CDL Caliper
RHOB.g/cc                     : CDL Bulk Density
RHOC.g/cc                     : CDL Density Correction
DPOR.pu                       : CDL Density Porosity
NPOR.pu                       : Neutron Porosity
GR.GAPI                       : Gamma Ray
~Parameter Information Block
~A  Depth       DCAL        RHOB        RHOC        DPOR        NPOR         GR     
# ...
   543.8000      7.9917      2.5405      0.0814      6.6356     15.2224     89.4303
   543.9000      7.9917      2.5591      0.0916      5.5121     15.0978     97.4879
   544.0000      7.9903      2.5814      0.1589      4.1589     15.0572    105.7909
   544.1000      7.9903      2.5806      0.1215      4.2067     14.9815    110.0300
   544.2000      7.9903      2.5495      0.0722      6.0925     14.9962    107.3398
   544.3000      7.9904      2.5066      0.0696      8.6939     15.2537    103.4373
   544.4000      7.9904      2.4808      0.0136     10.2545     15.6358    103.5985
   544.5000      7.9909      2.4919      0.0133      9.5847     15.7234    105.0861
   544.6000      7.9909      2.5188      0.1063      7.9498     15.4664    107.0274
   544.7000      7.9909      2.5279      0.0403      7.4013     15.2382    111.0133
   544.8000      7.9919      2.5228      0.0148      7.7090     15.0838    113.0810
   544.9000      7.9919      2.5169      0.0653      8.0637     14.9949    107.1328
   545.0000      7.9931      2.5056      0.0424      8.7533     15.1101     95.6646
   545.1000      7.9931      2.4929      0.0275      9.5186     15.4708     90.6119
   545.2000      7.9931      2.4932      0.0455      9.5004     15.9980     93.8474
   545.3000      7.9934      2.5083      0.0479      8.5856     16.5492     92.4531
   545.4000      7.9934      2.5236      0.0899      7.6600     17.0817     82.4208
   545.5000      7.9935      2.5290      0.0571      7.3317     17.4894     72.4889
   545.6000      7.9935      2.5303      0.0974      7.2564     17.5951     68.0068
   545.7000      7.9935      2.5235      0.1041      7.6651     17.4773     68.6037
   545.8000      7.9941      2.5048      0.0790      8.8020     17.4766     70.1859
   545.9000      7.9941      2.4912      0.0350      9.6238     17.8742     68.2988
   546.0000      7.9957      2.5002      0.0474      9.0790     18.4658     65.3041
   546.1000      7.9957      2.5277      0.1027      7.4138     18.6680     65.3855
   546.2000      7.9957      2.5565      0.0916      5.6656     18.3661     66.3328
   546.3000      7.9967      2.5721      0.1618      4.7202     17.8715     65.6996
   546.4000      7.9967      2.5723      0.1032      4.7076     17.3547     64.1428
   546.5000      7.9980      2.5697      0.1095      4.8648     16.6090     62.4403
   546.6000      7.9980      2.5723      0.1129      4.7117     15.3088     63.2318
   546.7000      7.9980      2.5706      0.1309      4.8095     13.7918     67.4136
   546.8000      8.0002      2.5530      0.1056      5.8817     12.7384     73.1317
   546.9000      8.0002      2.5276      0.0680      7.4190     12.1489     80.0582
   547.0000      8.0023      2.5125      0.0844      8.3329     11.7266     84.5790
   547.1000      8.0023      2.5120      0.0807      8.3612     11.4977     83.9610
   547.2000      8.0023      2.5223      0.1077      7.7366     11.7513     84.7784
   547.3000      8.0042      2.5401      0.1487      6.6596     12.5708     90.3447
   547.4000      8.0042      2.5573      0.1532      5.6196     13.5117     95.7945
   547.5000      8.0095      2.5570      0.1908      5.6345     13.9737     96.0512
   547.6000      8.0095      2.5352      0.0820      6.9564     13.8977     93.8127
   547.7000      8.0095      2.5158      0.0537      8.1311     14.0608     94.6900
   547.8000      8.0229      2.5149      0.0338      8.1876     15.3911     97.6457
   547.9000      8.0229      2.5195      0.0535      7.9112     17.7057     98.6106
   548.0000      8.0412      2.5127      0.0409      8.3230     19.5149     95.0697
   548.1000      8.0412      2.4947      0.0208      9.4093     19.9675     92.1146
   548.2000      8.0412      2.4776      0.0022     10.4506     19.3686     95.7836
   548.3000      8.0530      2.4692      0.0173     10.9573     17.9972    101.5834
   548.4000      8.0530      2.4673      0.0732     11.0698     16.7133    106.7828
   548.5000      8.0586      2.4689      0.0450     10.9739     17.2466    113.7154
   548.6000      8.0586      2.4797      0.0697     10.3204     20.8305    116.9604
   548.7000      8.0586      2.4960      0.0929      9.3343     25.8690    113.8925
   548.8000      8.0603      2.5061      0.0497      8.7220     27.9419    111.0570
   548.9000      8.0603      2.5099      0.0594      8.4888     25.9462    110.2670
   549.0000      8.0604      2.5088      0.0585      8.5574     24.3424    108.8482
   549.1000      8.0604      2.5019      0.0599      8.9770     26.3924    107.3450
   549.2000      8.0604      2.4904      0.0866      9.6735     29.2967    108.3087
   549.3000      8.0615      2.4703      0.0670     10.8938     29.7375    108.5376
   549.4000      8.0615      2.4423      0.0321     12.5890     28.8435     99.7599
   549.5000      8.0638      2.4238     -0.0021     13.7064     28.3760     81.1128
   549.6000      8.0638      2.4303     -0.0002     13.3149     28.0089     63.9714
   549.7000      8.0638      2.4529      0.0561     11.9461     27.7030     56.7525
   549.8000      8.0656      2.4696      0.0728     10.9330     28.2357     56.3189
   549.9000      8.0656      2.4705      0.0634     10.8808     28.9403     57.1354
   550.0000      8.0647      2.4628      0.0368     11.3456     27.9913     58.5076
   550.1000      8.0647      2.4553      0.0421     11.7998    -49.0884     63.0932
   550.2000      8.0647      2.4434      0.0626     12.5210    -69.4448     67.0594
   550.3000      8.0634      2.4150      0.0800     14.2453    -45.4829     64.3849
   550.4000      8.0634      2.3631      0.0332     17.3879     -8.8378     57.7391
   550.5000      8.0644      2.2910      0.0227     21.7549      6.1156     54.3251
   550.6000      8.0644      2.2091     -0.0186     26.7182      7.9750     57.8883
   550.7000      8.0644      2.1254     -0.0164     31.7912      1.6294     66.4142
   550.8000      8.0692      2.0344      0.0024     37.3101     -7.2734     77.1996
   550.9000      8.0692      1.9300     -0.0473     43.6382     -0.1128     85.7916
   551.0000      8.0799      1.8281     -0.0831     49.8121     12.0851     87.6382
   551.1000      8.0799      1.7466     -0.0697     54.7544     16.5602     87.6204
   551.2000      8.0799      1.6826     -0.0598     58.6291     17.7533     90.1765
   551.3000      8.0998      1.6344     -0.0414     61.5498     17.4398     92.7125
   551.4000      8.0998      1.6147     -0.0206     62.7479     14.9124     96.1696
   551.5000      8.1339      1.6239      0.0556     62.1864      5.8807    104.6546
   551.6000      8.1339      1.6376      0.1275     61.3580     -6.0453    116.4970
   551.7000      8.1339      1.6373      0.0945     61.3741      3.4742    127.5186
   551.8000      8.1675      1.6292      0.0674     61.8642     14.6728    139.2041
   551.9000      8.1675      1.6198      0.0975     62.4358     17.8295    153.7733
   552.0000      8.1825      1.6034      0.0775     63.4314     18.2364    168.0066
   552.1000      8.1825      1.5783      0.0414     64.9543     17.9857    174.8024
   552.2000      8.1825      1.5539      0.0212     66.4277     18.0465    167.5322
   552.3000      8.1853      1.5380      0.0348     67.3966     18.2822    149.6514
   552.4000      8.1853      1.5315      0.0142     67.7900     18.4805    133.0290
   552.5000      8.1902      1.5462     -0.0087     66.8950     18.3906    121.1147
   552.6000      8.1902      1.6040      0.0390     63.3961     17.3087    106.7964
   552.7000      8.1902      1.7057      0.1435     57.2309     14.7467     89.9345
   552.8000      8.2101      1.8211      0.2025     50.2389     12.4437     85.0571
   552.9000      8.2101      1.9190      0.2364     44.3042     13.2868     97.3061
   553.0000      8.2405      1.9939      0.2218     39.7638     13.8312    111.8555
   553.1000      8.2405      2.0553      0.2328     36.0401     13.9206    116.4377
   553.2000      8.2405      2.1040      0.2442     33.0896     15.9910    113.5548
   553.3000      8.2438      2.1308      0.1959     31.4674     18.1390    112.5352
