~Version Information
VERS.                      2.0: CWLS Log ASCII Standard - VERSION 2.0
WRAP.                       NO: One line per depth step
~Well Information Block
STRT.FT               390.0000: 
STOP.FT              2770.2500: 
STEP.FT                 0.2500: 
NULL.                -999.2500: 
COMP.          Pioneer Natural Resources: COMPANY
WELL.              Lynch 43-30: WELL
FLD.           Purgatoire River: FIELD
LOC.           1438' FSL & 429' FEL: LOCATION
PROV.                 Colorado: PROVINCE
CNTY.               Las Animas: COUNTRY
SRVC.                Patterson: SERVICE COMPANY
DATE.          Wed Oct 27 08:06:51 2004: LOG DATE
UWI.           05 071 08170 00: UNIQUE WELL ID
~Curve Information Block
DEPT.FT            0 000 00 00: Depth
DIR.Ohm-m                     : IEL Induction Resistivity
SN.Ohm-m                      : IEL Short Normal
SP.mV                         : IEL Spontaneous Potential
GR.GAPI                       : Gamma Ray
~Parameter Information Block
~A  Depth       DIR          SN          SP          GR     
# ...
  1964.5000      9.4515     10.3707    154.0938    131.7089
  1964.7500      9.5993     11.3894    153.9155    132.3860
  1965.0000      9.7685     12.2511    153.7670    135.8485
  1965.2500      9.9729     12.9447    153.6260    139.3421
  1965.5000     10.2301     13.5541    153.4660    144.9573
  1965.7500     10.5546     14.1627    153.2649    147.6744
  1966.0000     10.9528     14.7888    153.0119    147.7008
  1966.2500     11.4212     15.3919    152.7094    144.1022
  1966.5000     11.9507     15.9255    152.3712    133.7844
  1966.7500     12.5340     16.3930    152.0171    125.0804
  1967.0000     13.1731     16.8708    151.6690    112.6157
  1967.2500     13.8806     17.4918    151.3476    106.3722
  1967.5000     14.6720     18.3921    151.0704    101.6869
  1967.7500     15.5512     19.6370    150.8488    101.8155
  1968.0000     16.4969     21.1603    150.6859    105.9072
  1968.2500     17.4574     22.7605    150.5742    110.0356
  1968.5000     18.3575     24.1710    150.4975    115.8379
  1968.7500     19.1175     25.1688    150.4348    118.3055
  1969.0000     19.6741     25.6564    150.3664    119.0168
  1969.2500     19.9972     25.6728    150.2791    117.5406
  1969.5000     20.0968     25.3462    150.1698    113.5568
  1969.7500     20.0202     24.8261    150.0457    111.0353
  1970.0000     19.8358     24.2285    149.9222    109.6545
  1970.2500     19.6081     23.6102    149.8183    110.6992
  1970.5000     19.3779     22.9800    149.7514    113.8845
  1970.7500     19.1581     22.3326    149.7309    115.7651
  1971.0000     18.9431     21.6762    149.7556    116.4273
  1971.2500     18.7194     21.0370    149.8148    115.2213
  1971.5000     18.4701     20.4460    149.8920    112.2715
  1971.7500     18.1779     19.9231    149.9723    110.8263
  1972.0000     17.8327     19.4687    150.0473    110.9217
  1972.2500     17.4388     19.0665    150.1171    112.3955
  1972.5000     17.0145     18.6885    150.1884    115.3505
  1972.7500     16.5831     18.2996    150.2703    117.0899
  1973.0000     16.1591     17.8646    150.3702    119.2184
  1973.2500     15.7403     17.3586    150.4912    120.7187
  1973.5000     15.3067     16.7691    150.6315    123.4521
  1973.7500     14.8289     16.0894    150.7860    125.3043
  1974.0000     14.2814     15.3132    150.9483    127.4959
  1974.2500     13.6552     14.4424    151.1121    128.6320
  1974.5000     12.9631     13.5006    151.2728    130.6272
  1974.7500     12.2349     12.5377    151.4276    132.5843
  1975.0000     11.5067     11.6187    151.5749    136.7886
  1975.2500     10.8094     10.8003    151.7134    140.4016
  1975.5000     10.1630     10.1098    151.8408    146.5999
  1975.7500      9.5763      9.5393    151.9538    150.7006
  1976.0000      9.0517      9.0610    152.0482    155.3692
  1976.2500      8.5887      8.6501    152.1196    156.7548
  1976.5000      8.1851      8.2927    152.1638    156.2954
  1976.7500      7.8373      7.9775    152.1763    155.2386
  1977.0000      7.5410      7.6900    152.1527    154.5054
  1977.2500      7.2942      7.4246    152.0903    155.2138
  1977.5000      7.0982      7.2043    151.9907    157.7922
  1977.7500      6.9579      7.0745    151.8618    159.7385
  1978.0000      6.8789      7.0646    151.7176    161.5488
  1978.2500      6.8660      7.1577    151.5755    161.8222
  1978.5000      6.9209      7.3056    151.4509    161.7134
  1978.7500      7.0412      7.4700    151.3522    161.6375
  1979.0000      7.2203      7.6488    151.2780    160.7222
  1979.2500      7.4487      7.8701    151.2183    158.8782
  1979.5000      7.7167      8.1669    151.1588    154.1585
  1979.7500      8.0178      8.5609    151.0877    150.2841
  1980.0000      8.3518      9.0676    151.0000    144.5193
  1980.2500      8.7261      9.7019    150.8994    141.0781
  1980.5000      9.1536     10.4680    150.7956    136.3281
  1980.7500      9.6477     11.3440    150.6988    132.9966
  1981.0000     10.2149     12.2829    150.6153    127.3524
  1981.2500     10.8488     13.2295    150.5453    123.3958
  1981.5000     11.5278     14.1361    150.4844    117.8992
  1981.7500     12.2175     14.9653    150.4281    114.8328
  1982.0000     12.8713     15.6838    150.3750    111.4221
  1982.2500     13.4318     16.2577    150.3295    109.8846
  1982.5000     13.8348     16.6533    150.2999    107.8450
  1982.7500     14.0252     16.8457    150.2955    106.0071
  1983.0000     13.9831     16.8323    150.3228    102.5298
  1983.2500     13.7410     16.6374    150.3838    100.7414
  1983.5000     13.3695     16.2983    150.4762    101.1412
  1983.7500     12.9418     15.8361    150.5954    104.1928
  1984.0000     12.5030     15.2368    150.7350    112.6064
  1984.2500     12.0651     14.4571    150.8878    119.8716
  1984.5000     11.6226     13.4551    151.0454    131.0651
  1984.7500     11.1718     12.2272    151.1974    137.4565
  1985.0000     10.7193     10.8368    151.3317    144.3293
  1985.2500     10.2774      9.4163    151.4365    147.2972
  1985.5000      9.8550      8.1370    151.5019    150.1684
  1985.7500      9.4568      7.1552    151.5232    151.1641
  1986.0000      9.0908      6.5603    151.5032    150.9685
  1986.2500      8.7753      6.3539    151.4524    149.7062
  1986.5000      8.5366      6.4759    151.3880    146.5347
  1986.7500      8.3977      6.8600    151.3276    143.6688
  1987.0000      8.3686      7.4641    151.2834    138.0327
  1987.2500      8.4438      8.2456    151.2558    133.5020
  1987.5000      8.6067      9.1154    151.2323    126.7025
  1987.7500      8.8375      9.9370    151.1938    122.9876
  1988.0000      9.1210     10.5914    151.1239    119.1837
  1988.2500      9.4532     11.0625    151.0190    117.5867
  1988.5000      9.8438     11.4720    150.8912    116.1141
  1988.7500     10.3125     12.0268    150.7626    115.7534
  1989.0000     10.8778     12.8994    150.6545    116.3351
  1989.2500     11.5412     14.1194    150.5777    117.4125
  1989.5000     12.2732     15.5534    150.5285    119.7231
  1989.7500     13.0144     16.9869    150.4915    121.5767
  1990.0000     13.6994     18.2429    150.4463    124.4628
  1990.2500     14.2893     19.2526    150.3743    125.8210
  1990.5000     14.7855     20.0485    150.2615    125.3330
  1990.7500     15.2186     20.7149    150.0989    122.7690
  1991.0000     15.6299     21.3447    149.8832    116.3651
  1991.2500     16.0642     22.0177    149.6169    111.5260
  1991.5000     16.5683     22.7887    149.3100    105.1839
  1991.7500     17.1860     23.6808    148.9783    102.1839
  1992.0000     17.9463     24.6853    148.6394     99.6721
  1992.2500     18.8461     25.7636    148.3073     98.7860
  1992.5000     19.8382     26.8509    147.9901     97.2443
  1992.7500     20.8327     27.8651    147.6931     95.6829
  1993.0000     21.7169     28.7208    147.4262     93.1070
  1993.2500     22.3863     29.3327    147.2095     91.7611
  1993.5000     22.7633     29.6094    147.0728     90.4527
  1993.7500     22.7984     29.4581    147.0489     89.8038
  1994.0000     22.4648     28.8128    147.1626     89.1194
  1994.2500     21.7616     27.6673    147.4214     89.2461
  1994.5000     20.7248     26.0850    147.8120     91.1412
  1994.7500     19.4342     24.1845    148.3021     93.8356
  1995.0000     18.0027     22.1166    148.8479    100.2226
  1995.2500     16.5502     20.0421    149.4043    106.0259
  1995.5000     15.1755     18.1066    149.9338    116.4710
  1995.7500     13.9408     16.4098    150.4139    123.7917
  1996.0000     12.8709     14.9816    150.8382    133.6673
  1996.2500     11.9617     13.7777    151.2125    138.9899
  1996.5000     11.1920     12.7134    151.5480    145.4204
  1996.7500     10.5359     11.7245    151.8533    149.1998
  1997.0000      9.9719     10.8028    152.1310    154.3170
  1997.2500      9.4855      9.9798    152.3760    156.8480
  1997.5000      9.0682      9.2868    152.5792    158.3932
  1997.7500      8.7147      8.7365    152.7313    158.1018
