~Version Information
 VERS.                                  2.0 : CWLS LAS VERSION
 WRAP.                                   NO : WRAPING MODE
 SWARE .                 MController 2.5.0J : SOFTWARE VERSION
~Well Information
 WELL.              Cock-A-Doodle-Doo 44-27 : WELL
 COMP.      Pioneer Natural Resources, Inc. : COMPANY
 FLD.                      Purgatoire River : FIELD
 LOC.                SE/SE Sec.27 T32S R67W : LOCATION
 DATE.                              6/30/05 : DATE(S) LOGGED
 SRVC.       BLANCO Geological Services LLC : SERVICE COMPANY
 STAT.                                   CO : STATE
 CNTY.                           Las Animas : COUNTY
 CTRY.                                  USA : COUNTRY
 API.                             071 08429 : API NUMBER
 STRT.FT                             394.00 : START DEPTH
 STOP.FT                            2540.00 : STOP DEPTH
 STEP.FT                               1.00 : DEPTH INCREMENT
 NULL.                                -9999 : NULL VALUE
~Curve information
 DEPTH.FT                                   :
 ROP.MIN/FT                                 :
 GAS.UNITS                                  :
~ASCII Log data
# ...
      1394.0         0.20         94.8 
      1395.0         0.22         93.1 
      1396.0         0.17         90.4 
      1397.0         0.13         88.3 
      1398.0         0.17         86.9 
      1399.0         0.20         84.6 
      1400.0         0.13         81.5 
      1401.0         0.30         79.0 
      1402.0         0.13         74.0 
      1403.0         0.17         71.7 
      1404.0         0.17         68.5 
      1405.0         0.17         64.9 
      1406.0         2.65         66.5 
      1407.0         0.10         69.4 
      1408.0         0.20         95.6 
      1409.0         0.67        300.6 
      1410.0         0.43        418.1 
      1411.0         0.27        420.1 
      1412.0         0.27        395.7 
      1413.0         0.27        329.2 
      1414.0         0.18        254.8 
      1415.0         0.20        214.8 
      1416.0         0.27        175.6 
      1417.0         0.23        139.4 
      1418.0         0.30        117.4 
      1419.0         0.20        159.7 
      1420.0         0.20        225.3 
      1421.0         0.30        298.1 
      1422.0         0.20        323.8 
      1423.0         0.20        333.3 
      1424.0         0.20        334.1 
      1425.0         0.17        331.3 
      1426.0         0.20        323.7 
      1427.0         0.17        310.6 
      1428.0         0.13        297.8 
      1429.0         0.17        288.4 
      1430.0         0.22        278.2 
      1431.0         0.17        269.1 
      1432.0         0.13        262.9 
      1433.0         0.13        259.5 
      1434.0         0.13        256.3 
      1435.0         0.23        253.2 
      1436.0         2.42        450.0 
      1437.0         0.47       1901.7 
      1438.0         0.33       2480.5 
      1439.0         0.33       2649.3 
      1440.0         0.30       2613.6 
      1441.0         0.57       2313.1 
      1442.0         0.27       1559.4 
      1443.0         0.23       1303.3 
      1444.0         0.23       1138.3 
      1445.0         0.27       1010.2 
      1446.0         0.23        924.0 
      1447.0         0.22        884.2 
      1448.0         0.23        870.7 
      1449.0         0.17        870.1 
      1450.0         0.20        869.7 
      1451.0         0.20        862.7 
      1452.0         0.20        852.2 
      1453.0         0.17        838.1 
      1454.0         0.20        821.9 
      1455.0         0.20        805.4 
      1456.0         0.20        792.6 
      1457.0         0.20        779.8 
      1458.0         0.20        764.6 
      1459.0         0.20        751.8 
      1460.0         0.17        737.3 
      1461.0         0.20        727.2 
      1462.0         0.20        716.8 
      1463.0         0.20        711.4 
      1464.0         0.18        709.4 
      1465.0         0.20        706.7 
      1466.0         1.97        714.4 
      1467.0         0.17        753.8 
      1468.0         0.37       1049.6 
      1469.0         0.33       1468.1 
      1470.0         0.32       1948.5 
      1471.0         0.30       2130.5 
      1472.0         0.20       2127.4 
      1473.0         0.33       2051.3 
      1474.0         0.27       1795.9 
      1475.0         0.47       1524.0 
      1476.0         0.37       1125.8 
      1477.0         0.40        983.6 
      1478.0         0.37        897.4 
      1479.0         0.37        880.5 
      1480.0         0.42        874.5 
      1481.0         0.33        839.1 
      1482.0         0.33        795.6 
      1483.0         0.27        758.6 
      1484.0         0.27        731.3 
      1485.0         0.17        708.7 
      1486.0         0.17        699.6 
      1487.0         0.17        692.9 
      1488.0         0.13        690.5 
      1489.0         0.17        693.9 
      1490.0         0.17        710.0 
      1491.0         0.20        734.3 
      1492.0         0.20        747.1 
      1493.0         0.20        750.5 
      1494.0         0.27        754.2 
      1495.0         0.25        755.5 
      1496.0         1.93        768.0 
      1497.0         0.40        985.6 
      1498.0         0.30       1343.1 
      1499.0         0.27       1670.2 
      1500.0         0.32       1822.5 
      1501.0         0.27       1825.2 
      1502.0         0.27       1711.7 
      1503.0         0.27       1492.7 
      1504.0         0.27       1287.2 
      1505.0         0.33       1124.8 
      1506.0         0.30        998.4 
      1507.0         0.30        922.6 
      1508.0         0.23        880.9 
      1509.0         0.27        865.4 
      1510.0         0.60        856.3 
      1511.0         0.32        833.7 
      1512.0         0.37        807.7 
      1513.0         0.23        711.4 
      1514.0         0.30        660.5 
      1515.0         0.27        636.9 
      1516.0         0.27        596.8 
      1517.0         0.17        607.6 
      1518.0         0.23        693.9 
      1519.0         0.27        781.1 
      1520.0         0.20        814.5 
      1521.0         0.30        825.6 
      1522.0         0.23        823.9 
      1523.0         0.23        812.1 
      1524.0         0.22        799.0 
      1525.0         0.27        787.5 
      1526.0         4.18       2174.6 
      1527.0         0.37       2137.5 
      1528.0         0.23       1882.5 
      1529.0         0.30       1633.9 
      1530.0         0.27       1353.2 
      1531.0         0.27       1166.2 
      1532.0         0.27       1026.7 
      1533.0         0.23        926.7 
      1534.0         0.20        856.3 
      1535.0         0.22        811.1 
      1536.0         0.20        797.3 
      1537.0         0.27        804.4 
      1538.0         0.30        802.4 
      1539.0         0.23        774.1 
      1540.0         0.40        785.5 
      1541.0         0.43        785.8 
      1542.0         0.20        725.5 
      1543.0         0.27        713.7 
      1544.0         0.23        715.4 
      1545.0         0.20        696.6 
      1546.0         0.17        694.5 
      1547.0         0.25        747.8 
      1548.0         0.20        781.8 
      1549.0         0.20        793.9 
      1550.0         0.23        795.3 
      1551.0         0.27        785.5 
      1552.0         0.30        781.1 
      1553.0         0.23        782.1 
      1554.0         0.20        780.5 
      1555.0         0.23        777.1 
      1556.0         2.22        838.1 
      1557.0         0.67       1623.8 
      1558.0         0.40       2115.6 
      1559.0         0.37       2199.5 
      1560.0         0.30       2113.0 
      1561.0         0.27       1773.7 
      1562.0         0.23       1472.1 
      1563.0         0.23       1279.8 
      1564.0         0.22       1138.3 
      1565.0         0.20       1049.6 
      1566.0         0.20        984.0 
      1567.0         0.20        933.1 
      1568.0         0.27        893.3 
      1569.0         0.27        850.9 
      1570.0         0.27        820.5 
      1571.0         0.30        811.1 
      1572.0         0.27        821.2 
      1573.0         0.30        823.9 
      1574.0         0.23        822.6 
      1575.0         0.33        815.8 
      1576.0         0.30        804.4 
      1577.0         0.28        789.2 
      1578.0         0.33        777.4 
      1579.0         0.30        762.9 
      1580.0         0.33        757.9 
      1581.0         0.33        770.3 
      1582.0         0.33        781.1 
      1583.0         0.23        790.6 
      1584.0         0.30        803.7 
      1585.0         0.27        811.1 
      1586.0         1.95        832.0 
      1587.0         0.37        843.5 
      1588.0         0.50       1321.5 
      1589.0         0.47       1878.5 
      1590.0         0.37       2079.3 
      1591.0         0.37       2085.3 
      1592.0         0.42       1951.9 
      1593.0         3.42       1647.0 
