~Version Information
 VERS.                                  2.0 : CWLS LAS VERSION
 WRAP.                                   NO : WRAPING MODE
 SWARE .                 MController 2.5.0N : SOFTWARE VERSION
~Well Information
 WELL.                   Casablanca 11-28TR : WELL
 COMP.    Pioneer Natural Resources USA Inc : COMPANY
 FLD.                      Purgatoire River : FIELD
 LOC.                NW/NW Sec 28 T32S R67W : LOCATION
 DATE.                         3/05-06/2005 : DATE(S) LOGGED
 SRVC.       Blanco Geological Services LLC : SERVICE COMPANY
 STAT.                                   CO : STATE
 CNTY.                           Las Animas : COUNTY
 CTRY.                                  USA : COUNTRY
 API.                       05-071-08314-00 : API NUMBER
 STRT.FT                             818.00 : START DEPTH
 STOP.FT                            2250.00 : STOP DEPTH
 STEP.FT                               1.00 : DEPTH INCREMENT
 NULL.                                -9999 : NULL VALUE
~Curve information
 DEPTH.FT                                   :
 ROP.MIN/FT                                 :
 GAS.UNITS                                  :
~ASCII Log data
# ...
       988.0         0.42         40.4 
       989.0         0.42         39.1 
       990.0         0.43         32.9 
       991.0         0.37         33.1 
       992.0         0.43         32.4 
       993.0         0.50         31.1 
       994.0         0.45         28.7 
       995.0         0.40         27.5 
       996.0         0.40         27.3 
       997.0         0.40         29.1 
       998.0         0.37         29.3 
       999.0         0.42         29.3 
      1000.0         0.38         28.4 
      1001.0         0.42         28.9 
      1002.0         0.40         29.3 
      1003.0         0.40         28.8 
      1004.0         0.40         29.3 
      1005.0         0.40         29.5 
      1006.0         0.38         28.3 
      1007.0         0.42         26.6 
      1008.0         0.38         26.9 
      1009.0         0.38         30.3 
      1010.0         0.42         33.1 
      1011.0         0.38         34.4 
      1012.0         0.42         33.5 
      1013.0         0.43         31.2 
      1014.0         0.40         30.0 
      1015.0         0.43         31.1 
      1016.0         0.42         31.5 
      1017.0         0.42         27.7 
      1018.0         0.47         27.9 
      1019.0         0.45         27.1 
      1020.0         0.40         29.1 
      1021.0         0.45         29.1 
      1022.0         0.42         28.5 
      1023.0         0.43         26.8 
      1024.0         0.42         24.7 
      1025.0         0.43         25.2 
      1026.0         0.40         25.5 
      1027.0         0.40         27.0 
      1028.0         0.40         26.9 
      1029.0         0.43         25.4 
      1030.0         0.37         26.0 
      1031.0         0.43         26.3 
      1032.0         0.38         62.0 
      1033.0         0.40         27.0 
      1034.0         0.40         28.2 
      1035.0         0.42         29.5 
      1036.0         0.42         28.6 
      1037.0         1.88         32.3 
      1038.0         2.60         27.6 
      1039.0         1.25         26.0 
      1040.0         1.05         26.0 
      1041.0         1.07         25.2 
      1042.0         1.03         24.0 
      1043.0         0.80         23.0 
      1044.0         0.57         24.9 
      1045.0         0.45         26.5 
      1046.0         0.47         27.1 
      1047.0         0.47         26.8 
      1048.0         0.47         24.9 
      1049.0         0.50         28.6 
      1050.0         0.47         27.6 
      1051.0         0.47         24.6 
      1052.0         0.48         22.5 
      1053.0         0.47         22.6 
      1054.0         0.47         23.2 
      1055.0         0.43         27.0 
      1056.0         0.43         27.8 
      1057.0         0.52         27.6 
      1058.0         0.47         26.7 
      1059.0         0.47         27.0 
      1060.0         0.47         28.8 
      1061.0         0.47         31.8 
      1062.0         0.50         31.4 
      1063.0         0.50         23.8 
      1064.0         0.28         24.5 
      1065.0         0.33         23.2 
      1066.0         0.25         24.8 
      1067.0         0.30         26.2 
      1068.0         0.30         25.6 
      1069.0         0.33         24.3 
      1070.0         0.28         24.0 
      1071.0         0.30         23.5 
      1072.0         0.33         25.0 
      1073.0         0.33         24.7 
      1074.0         0.30         23.4 
      1075.0         0.27         22.9 
      1076.0         0.33         23.7 
      1077.0         0.27         23.5 
      1078.0         0.33         24.6 
      1079.0         0.32         24.9 
      1080.0         0.30         26.5 
      1081.0         0.30         25.3 
      1082.0         0.30         23.0 
      1083.0         0.30         23.1 
      1084.0         0.27         20.9 
      1085.0         0.30         20.7 
      1086.0         0.30         26.1 
      1087.0         0.30         32.6 
      1088.0         0.28         35.5 
      1089.0         0.30         35.7 
      1090.0         0.30         34.0 
      1091.0         0.25         32.5 
      1092.0         0.33         32.2 
      1093.0         0.58         32.4 
      1094.0         0.53         31.1 
      1095.0         0.53         34.2 
      1096.0         0.53         32.7 
      1097.0         0.55         34.1 
      1098.0         0.55         32.7 
      1099.0         0.58         29.4 
      1100.0         1.48         43.1 
      1101.0         0.72         41.8 
      1102.0         0.48         31.6 
      1103.0         0.53         29.5 
      1104.0         0.43         29.3 
      1105.0         0.43         29.7 
      1106.0         0.43         33.1 
      1107.0         0.45         34.6 
      1108.0         0.42         34.7 
      1109.0         0.42         34.6 
      1110.0         0.43         39.2 
      1111.0         0.43         37.3 
      1112.0         0.43         28.6 
      1113.0         0.43         31.0 
      1114.0         0.42         39.6 
      1115.0         0.43         39.7 
      1116.0         0.42         36.4 
      1117.0         0.38         36.6 
      1118.0         0.42         33.3 
      1119.0         0.45         31.3 
      1120.0         0.47         28.3 
      1121.0         0.50         27.4 
      1122.0         0.40         27.4 
      1123.0         0.42         27.7 
      1124.0         0.42         27.7 
      1125.0         0.42         27.7 
      1126.0         0.38         28.3 
      1127.0         0.42         31.2 
      1128.0         0.42         30.5 
      1129.0         0.38         31.7 
      1130.0         0.42         31.0 
      1131.0         0.38         28.2 
      1132.0         0.42         36.0 
      1133.0         0.53         35.7 
      1134.0         0.47         29.7 
      1135.0         0.43         27.4 
      1136.0         0.50         25.7 
      1137.0         0.55         25.4 
      1138.0         0.47         24.8 
      1139.0         0.47         25.4 
      1140.0         0.40         24.8 
      1141.0         0.40         25.6 
      1142.0         0.37         28.2 
      1143.0         0.37         27.8 
      1144.0         0.35         29.3 
      1145.0         0.35         33.1 
      1146.0         0.35         31.9 
      1147.0         0.35         32.2 
      1148.0         0.33         30.0 
      1149.0         0.30         28.3 
      1150.0         0.38         27.2 
      1151.0         0.33         26.8 
      1152.0         0.33         28.2 
      1153.0         0.33         28.5 
      1154.0         0.33         27.3 
      1155.0         0.30         27.1 
      1156.0         0.33         26.3 
      1157.0         0.30         26.0 
      1158.0         0.33         25.5 
      1159.0         0.33         26.3 
      1160.0         0.35         27.8 
      1161.0         0.30         27.1 
      1162.0         0.33         26.6 
      1163.0         0.33         30.5 
      1164.0         0.33         31.4 
      1165.0         0.30         32.1 
      1166.0         0.32         30.6 
      1167.0         0.33         52.4 
      1168.0         0.33         59.9 
      1169.0         0.32         52.9 
      1170.0         0.33         41.8 
      1171.0         0.32         38.1 
      1172.0         1.28         37.3 
      1173.0         0.80         36.3 
      1174.0         0.77         35.9 
      1175.0         0.75         37.8 
      1176.0         0.80         40.4 
      1177.0         0.77         29.2 
      1178.0         0.73         22.2 
      1179.0         0.40         26.9 
      1180.0         0.40         32.9 
      1181.0         0.40         32.0 
      1182.0         0.42         31.4 
      1183.0         0.42         31.9 
      1184.0         0.47         27.2 
      1185.0         0.92         24.4 
      1186.0         0.40         24.6 
      1187.0         0.37         24.3 
