~Version Information
VERS.                      2.0: CWLS Log ASCII Standard - VERSION 2.0
WRAP.                       NO: One line per depth step
~Well Information Block
STRT.FT               390.0000: 
STOP.FT               902.2000: 
STEP.FT                 0.1000: 
NULL.                -999.2500: 
COMP.          Pioneer Natural Resources: COMPANY
WELL.              Venom 32-22: WELL
FLD.           Purgatoire River: FIELD
LOC.           2307' FNL & 2024' FEL----: LOCATION
PROV.                 Colorado: PROVINCE
CNTY.               Las Animas: COUNTRY
SRVC.                Patterson: SERVICE COMPANY
DATE.          Wed May 11 08:31:39 2005: LOG DATE
UWI.           05 071 08361 00: UNIQUE WELL ID
~Curve Information Block
DEPT.FT            0 000 00 00: Depth
DCAL.in                       : CDL Caliper
RHOB.g/cc                     : CDL Bulk Density
RHOC.g/cc                     : CDL Density Correction
DPOR.pu                       : CDL Density Porosity
NPOR.pu                       : Neutron Porosity
GR.GAPI                       : Gamma Ray
~Parameter Information Block
~A  Depth       DCAL        RHOB        RHOC        DPOR        NPOR         GR     
# ...
   486.0000      8.0978      2.5303      0.0175      7.2522     19.4919     67.5398
   486.1000      8.0978      2.5464      0.0323      6.2802     22.6736     71.5888
   486.2000      8.0978      2.5761      0.0743      4.4769     21.8298     73.7861
   486.3000      8.1027      2.5993      0.0939      3.0739     19.3292     71.6829
   486.4000      8.1027      2.6011      0.1218      2.9609     19.1586     66.7957
   486.5000      8.1049      2.5852      0.0736      3.9295     21.0307     63.0399
   486.6000      8.1049      2.5662      0.0828      5.0780     21.2359     64.9836
   486.7000      8.1049      2.5585      0.0536      5.5475     18.6371     70.6089
   486.8000      8.1076      2.5691      0.0696      4.9025     16.9174     71.2781
   486.9000      8.1076      2.5905      0.0924      3.6055     17.6585     65.6686
   487.0000      8.1095      2.6046      0.1157      2.7528     18.8961     61.7857
   487.1000      8.1095      2.6022      0.0973      2.8941     18.3476     64.2258
   487.2000      8.1095      2.5897      0.1071      3.6551     17.4535     68.9195
   487.3000      8.1136      2.5820      0.0634      4.1212     17.6156     68.6936
   487.4000      8.1136      2.5846      0.0874      3.9610     17.3385     63.1156
   487.5000      8.1200      2.5843      0.0747      3.9817     15.2715     60.8621
   487.6000      8.1200      2.5743      0.0638      4.5901     12.9829     66.3240
   487.7000      8.1200      2.5627      0.0594      5.2929     12.2280     72.3008
   487.8000      8.1256      2.5567      0.0499      5.6530     13.9632     71.5477
   487.9000      8.1256      2.5602      0.0498      5.4423     18.9635     64.7485
   488.0000      8.1223      2.5732      0.0607      4.6516     22.7613     58.8866
   488.1000      8.1223      2.5899      0.0299      3.6447     20.9730     59.1175
   488.2000      8.1223      2.6016      0.0987      2.9306     19.2287     61.8032
   488.3000      8.1106      2.6098      0.0411      2.4366     20.6713     60.8015
   488.4000      8.1106      2.6177      0.0811      1.9560     21.6300     56.8785
   488.5000      8.0998      2.6183      0.0773      1.9240     18.5583     56.3684
   488.6000      8.0998      2.6186      0.0650      1.9041     15.1329     59.3217
   488.7000      8.0998      2.6363      0.1016      0.8317     14.5969     59.3991
   488.8000      8.0907      2.6670      0.1010     -1.0296     16.7061     56.0089
   488.9000      8.0907      2.6899      0.1014     -2.4174     18.2584     56.2086
   489.0000      8.0825      2.6923      0.1162     -2.5665     16.8586     62.0805
   489.1000      8.0825      2.6820      0.0561     -1.9375     16.0815     67.8304
   489.2000      8.0825      2.6690      0.0813     -1.1493     18.0129     71.9375
   489.3000      8.0772      2.6567      0.0161     -0.4064     20.6246     77.2526
   489.4000      8.0772      2.6520      0.0708     -0.1184     20.2717     80.6606
   489.5000      8.0741      2.6482      0.0815      0.1091     18.2049     78.8588
   489.6000      8.0741      2.6325     -0.0014      1.0631     18.4762     78.9743
   489.7000      8.0741      2.6019      0.0270      2.9131     22.1102     88.2135
   489.8000      8.0763      2.5620      0.0031      5.3349     24.6456    101.2884
   489.9000      8.0763      2.5285     -0.0258      7.3665     22.4226    109.6189
   490.0000      8.0934      2.5055     -0.0251      8.7572     20.0441    115.1173
   490.1000      8.0934      2.4794      0.0057     10.3375     21.0998    123.0480
   490.2000      8.0934      2.4529     -0.0235     11.9484     24.7556    129.4657
   490.3000      8.1252      2.4434      0.0038     12.5219     27.7540    129.1878
   490.4000      8.1252      2.4501      0.0379     12.1156     27.7914    125.2716
   490.5000      8.1551      2.4632     -0.0080     11.3208     26.2579    126.3545
   490.6000      8.1551      2.4772      0.0292     10.4743     26.3672    136.5145
   490.7000      8.1551      2.4778      0.0461     10.4343     28.9585    147.6274
   490.8000      8.1887      2.4526      0.0790     11.9614     31.2288    152.6940
   490.9000      8.1887      2.4124      0.0450     14.3989     31.0669    153.4439
   491.0000      8.2329      2.3842      0.0545     16.1105     30.0538    151.0493
   491.1000      8.2329      2.3735      0.1295     16.7565     30.7096    147.3645
   491.2000      8.2329      2.3682      0.1283     17.0794     33.4307    141.9175
   491.3000      8.2722      2.3735      0.1021     16.7580     35.0897    132.1890
   491.4000      8.2722      2.3965      0.1218     15.3667     32.5530    124.1218
   491.5000      8.2923      2.4221      0.1191     13.8135     28.4526    123.4955
   491.6000      8.2923      2.4391      0.0722     12.7846     27.9240    129.0030
   491.7000      8.2923      2.4535      0.0957     11.9088     31.5162    136.5320
   491.8000      8.2818      2.4700      0.1020     10.9071     33.9310    142.7653
   491.9000      8.2818      2.4888      0.1138      9.7698     31.1632    147.0139
   492.0000      8.2474      2.5069      0.1250      8.6717     26.7476    148.2144
   492.1000      8.2474      2.5199      0.0872      7.8863     24.8480    145.0685
   492.2000      8.2474      2.5289      0.0941      7.3378     24.5520    139.6345
   492.3000      8.2131      2.5384      0.1051      6.7652     23.4551    134.8630
   492.4000      8.2131      2.5498      0.1314      6.0730     22.3071    132.4346
   492.5000      8.1920      2.5572      0.1353      5.6269     23.5990    132.2145
   492.6000      8.1920      2.5578      0.0958      5.5882     27.2103    131.8085
   492.7000      8.1920      2.5555      0.1215      5.7301     28.8324    129.4562
   492.8000      8.1873      2.5502      0.0952      6.0468     26.1934    126.2628
   492.9000      8.1873      2.5446      0.1006      6.3897     23.5360    124.1028
   493.0000      8.1888      2.5423      0.1119      6.5262     24.3200    124.9847
   493.1000      8.1888      2.5460      0.1056      6.3031     27.4389    130.0959
   493.2000      8.1888      2.5563      0.1196      5.6783     29.3173    135.9071
   493.3000      8.1793      2.5671      0.1322      5.0267     28.3029    137.9846
   493.4000      8.1793      2.5666      0.1215      5.0564     26.3702    137.3169
   493.5000      8.1645      2.5483      0.1238      6.1617     25.9785    136.8531
   493.6000      8.1645      2.5246      0.0710      7.5978     26.7763    135.3175
   493.7000      8.1645      2.5172      0.0559      8.0502     25.5775    131.7244
   493.8000      8.1624      2.5285      0.0518      7.3651     22.7233    129.7524
   493.9000      8.1624      2.5446      0.0525      6.3908     22.8506    130.4916
   494.0000      8.1745      2.5524      0.0761      5.9171     26.6523    134.0637
   494.1000      8.1745      2.5431      0.0721      6.4792     29.1715    142.2169
   494.2000      8.1745      2.5173      0.0337      8.0422     27.1800    148.7808
   494.3000      8.1961      2.4873      0.0262      9.8589     24.3667    147.8860
   494.4000      8.1961      2.4701      0.0255     10.9006     24.3910    146.6734
   494.5000      8.2233      2.4739      0.0513     10.6700     26.7791    147.9108
   494.6000      8.2233      2.4886      0.0752      9.7848     28.7159    144.8641
   494.7000      8.2233      2.4980      0.0980      9.2102     28.3649    138.5280
   494.8000      8.2435      2.4982      0.0958      9.2005     26.0361    135.1940
   494.9000      8.2435      2.4912      0.1199      9.6253     22.6727    135.4954
   495.0000      8.2579      2.4771      0.0572     10.4769     21.0513    134.1853
   495.1000      8.2579      2.4571      0.0623     11.6888     23.3764    129.0563
   495.2000      8.2579      2.4344      0.0382     13.0693     26.8734    122.5933
   495.3000      8.2702      2.4239      0.0392     13.7020     26.7542    116.9582
   495.4000      8.2702      2.4410      0.0571     12.6671     25.5661    113.9301
   495.5000      8.2796      2.4767      0.0937     10.5007     27.3586    115.0739
