~Version Information
VERS.                      2.0: CWLS Log ASCII Standard - VERSION 2.0
WRAP.                       NO: One line per depth step
~Well Information Block
STRT.FT               710.0000: 
STOP.FT              2922.5000: 
STEP.FT                 0.2500: 
NULL.                -999.2500: 
COMP.          Petrogulf Corporation: COMPANY
WELL.            Montoya 1-41V: WELL
FLD.           Purgatorie River: FIELD
LOC.           610' FNL & 1205' FEL: LOCATION
PROV.                 Colorado: PROVINCE
CNTY.               Las Animas: COUNTRY
SRVC.                Patterson: SERVICE COMPANY
DATE.          Mon Aug 22 08:00:56 2005: LOG DATE
UWI.                          : UNIQUE WELL ID
~Curve Information Block
DEPT.FT            0 000 00 00: Depth
SP.mV                         : DIL Spontaneous Potential
RILD.Ohm-m                    : DIL Deep Resistivity
RILM.Ohm-m                    : DIL Medium Resistivity
RLL3.Ohm-m                    : DIL Shallow Resistivity
GR.GAPI                       : Gamma Ray
~Parameter Information Block
~A  Depth        SP         RILD        RILM        RLL3         GR     
   710.0000   2000.0000      6.0574 100000.0000   2000.0000     46.0560
   710.2500   2000.0000      6.2120 100000.0000   2000.0000     55.0547
   710.5000   2000.0000      6.3361 100000.0000   2000.0000     56.2117
   710.7500   2000.0000      6.4095 100000.0000   2000.0000     66.5731
   711.0000   2000.0000      6.2859 100000.0000   2000.0000     66.3131
   711.2500   2000.0000      6.1833 100000.0000   2000.0000     74.9425
   711.5000   2000.0000      6.2062 100000.0000   2000.0000     76.4765
   711.7500   2000.0000      6.2005 100000.0000   2000.0000     64.3817
   712.0000   2000.0000      6.3469 100000.0000   2000.0000     62.7861
   712.2500   2000.0000      6.4548 100000.0000   2000.0000     60.6462
   712.5000   2000.0000      6.5602 100000.0000   2000.0000     64.1691
   712.7500   2000.0000      6.6951 100000.0000   2000.0000     67.2306
   713.0000   2000.0000      6.6091 100000.0000   2000.0000     63.9780
   713.2500   2000.0000      6.9364 100000.0000   2000.0000     64.6481
   713.5000   2000.0000      7.4095 100000.0000   2000.0000     62.0591
   713.7500   2000.0000      7.6894 100000.0000   2000.0000     69.6863
   714.0000   2000.0000      7.8031 100000.0000   2000.0000     68.0903
   714.2500   2000.0000      7.9588 100000.0000   2000.0000     74.9224
   714.5000   2000.0000      8.0713 100000.0000   2000.0000     81.4702
   714.7500   2000.0000      8.1911 100000.0000   2000.0000     76.3407
   715.0000   2000.0000      8.0487 100000.0000   2000.0000     78.1000
   715.2500   2000.0000      8.0533 100000.0000   2000.0000     89.6514
   715.5000   2000.0000      7.8191 100000.0000   2000.0000     96.7260
   715.7500   2000.0000      8.0210 100000.0000   2000.0000     92.1247
   716.0000   2000.0000      7.9549 100000.0000   2000.0000     89.0599
   716.2500   2000.0000      8.0558 100000.0000   2000.0000     95.8904
   716.5000   2000.0000      7.8985 100000.0000   2000.0000     91.6742
   716.7500   2000.0000      7.5424 100000.0000   2000.0000     83.9151
   717.0000   2000.0000      6.6461 100000.0000   2000.0000     81.6889
   717.2500   2000.0000      6.2841 100000.0000   2000.0000     88.1137
   717.5000   2000.0000      7.0329 100000.0000   2000.0000     72.8984
   717.7500   2000.0000      8.7304 100000.0000   2000.0000     80.3398
   718.0000   2000.0000      9.7802 100000.0000   2000.0000     84.8967
   718.2500   2000.0000      9.7687 100000.0000   2000.0000     84.4902
   718.5000   2000.0000      8.9739 100000.0000   2000.0000     90.4091
   718.7500   2000.0000      8.4872 100000.0000   2000.0000    105.4626
   719.0000   2000.0000      8.1824 100000.0000   2000.0000     97.4718
   719.2500   2000.0000      7.9198 100000.0000   2000.0000     90.4688
   719.5000   2000.0000      7.3909 100000.0000   2000.0000     97.6593
   719.7500   2000.0000      6.9079 100000.0000   2000.0000     87.9911
   720.0000   2000.0000      7.7606 100000.0000   2000.0000     85.2837
   720.2500   2000.0000     10.6427 100000.0000   2000.0000     82.1218
   720.5000   2000.0000     16.9538 100000.0000   2000.0000     97.3818
   720.7500   2000.0000     21.2972 100000.0000   2000.0000     91.3428
   721.0000   2000.0000     12.4231 100000.0000   2000.0000     88.3133
   721.2500   2000.0000      7.7851 100000.0000   2000.0000     94.9839
   721.5000   2000.0000      6.4876 100000.0000   2000.0000     92.6751
   721.7500   2000.0000      6.0761 100000.0000   2000.0000     83.5924
   722.0000   2000.0000      6.1493 100000.0000   2000.0000     87.4688
   722.2500   2000.0000      6.1951 100000.0000   2000.0000     94.8162
   722.5000   2000.0000      6.2857 100000.0000   2000.0000    110.7987
   722.7500   2000.0000      5.9410 100000.0000   2000.0000    114.1871
   723.0000   2000.0000      5.7255 100000.0000   2000.0000     94.0809
   723.2500   2000.0000      7.2405 100000.0000   2000.0000     91.9735
   723.5000   2000.0000     30.4944 100000.0000   2000.0000     91.1941
   723.7500   2000.0000 100000.0000 100000.0000   2000.0000     93.9564
   724.0000   2000.0000 100000.0000 100000.0000   2000.0000    106.1744
   724.2500   2000.0000      6.2835 100000.0000   2000.0000    105.8134
   724.5000   2000.0000      2.8078 100000.0000   2000.0000    117.6022
   724.7500   2000.0000      2.6736 100000.0000   2000.0000    122.8288
   725.0000   2000.0000      3.5388 100000.0000   2000.0000    121.4250
   725.2500   2000.0000      4.6750 100000.0000   2000.0000    111.8848
   725.5000   2000.0000      5.7180 100000.0000   2000.0000     97.5894
   725.7500   2000.0000      6.9257 100000.0000   2000.0000     88.1563
   726.0000   2000.0000     11.2661 100000.0000   2000.0000     83.2693
   726.2500   2000.0000 100000.0000 100000.0000   2000.0000     82.3314
   726.5000   2000.0000 100000.0000 100000.0000   2000.0000    103.2284
   726.7500   2000.0000      4.0370 100000.0000   2000.0000    104.0386
   727.0000   2000.0000      1.4406 100000.0000   2000.0000    120.0623
   727.2500   2000.0000      0.8587 100000.0000   2000.0000    118.1824
   727.5000   2000.0000      1.2554     13.7550   2000.0000    111.2188
   727.7500   2000.0000      3.5833      2.4623   2000.0000    107.4477
   728.0000   2000.0000     13.7413      2.8573   2000.0000    106.1016
   728.2500   2000.0000 100000.0000      7.8775   2000.0000    105.6000
   728.5000   2000.0000 100000.0000 100000.0000   2000.0000    108.3031
   728.7500   2000.0000 100000.0000 100000.0000   2000.0000    100.9274
   729.0000   2000.0000 100000.0000 100000.0000   2000.0000     89.5266
   729.2500   2000.0000 100000.0000    108.8191   2000.0000     90.3737
   729.5000   2000.0000 100000.0000     89.3322   2000.0000     95.6416
   729.7500   2000.0000 100000.0000    117.6048   2000.0000     91.1243
   730.0000   2000.0000 100000.0000 100000.0000   2000.0000     96.9234
   730.2500   2000.0000    130.8737 100000.0000   2000.0000    103.9196
   730.5000   2000.0000     27.4604 100000.0000   2000.0000    120.5861
   730.7500   2000.0000     38.7309 100000.0000   2000.0000    118.8197
   731.0000   2000.0000     50.9507 100000.0000   2000.0000    126.4685
   731.2500   2000.0000     56.7175 100000.0000   2000.0000    140.1033
   731.5000   2000.0000     52.5850    151.4071   2000.0000    142.0877
   731.7500   2000.0000     56.4379     98.8338   2000.0000    152.6804
   732.0000   2000.0000     57.6590     63.9858   2000.0000    152.5054
   732.2500   2000.0000     70.0871     58.1594   2000.0000    159.8568
   732.5000   2000.0000    116.6013     41.6698   2000.0000    151.3826
   732.7500   2000.0000   1201.3441     31.0697   2000.0000    165.2919
   733.0000   2000.0000     64.4634     29.9778   2000.0000    160.9155
   733.2500   2000.0000     39.3200     24.5690   2000.0000    167.9581
   733.5000   2000.0000     32.9145     21.1403   2000.0000    153.2936
   733.7500   2000.0000     32.7814     27.6450   2000.0000    155.1292
   734.0000   2000.0000     32.5590     30.3994   2000.0000    167.3576
   734.2500   2000.0000     31.7267     32.0411   2000.0000    162.9035
   734.5000   2000.0000     29.5274     29.2093   2000.0000    165.1277
   734.7500   2000.0000     28.2242     27.7318   2000.0000    165.6978
   735.0000   2000.0000     28.7949     26.6250   2000.0000    174.2892
   735.2500   2000.0000     28.4967     27.2845   2000.0000    173.0992
   735.5000   2000.0000     26.9896     26.2681   2000.0000    181.9494
   735.7500   2000.0000     27.8317     26.4341   2000.0000    187.8125
   736.0000   2000.0000     27.1057     24.2043   2000.0000    191.9884
   736.2500   2000.0000     25.3972     23.3680   2000.0000    182.6146
   736.5000   2000.0000     24.6795     22.9239   2000.0000    180.0464
   736.7500   2000.0000     23.7223     22.8388   2000.0000    184.6853
   737.0000   2000.0000     23.8850     22.6768   2000.0000    192.0447
   737.2500   2000.0000     23.0132     22.6557   2000.0000    187.7887
   737.5000   2000.0000     22.1321     22.5142   2000.0000    163.3657
   737.7500   2000.0000     22.3034     21.6244   2000.0000    169.5004
