~Version Information
 VERS.                                  2.0 : CWLS LAS VERSION
 WRAP.                                   NO : WRAPING MODE
 SWARE .                 MController 2.5.0J : SOFTWARE VERSION
~Well Information
 WELL.                        Montoya 1-24V : WELL
 COMP.                       Petrogulf Corp : COMPANY
 FLD.                      Purgatoire River : FIELD
 LOC.                 SE/SW Sec 1 T33S R68W : LOCATION
 DATE.                          10/19-20/04 : DATE(S) LOGGED
 SRVC.       Blanco Geological Services LLC : SERVICE COMPANY
 STAT.                                   CO : STATE
 CNTY.                           Las Animas : COUNTY
 CTRY.                                  USA : COUNTRY
 API.                       05-071-08194-00 : API NUMBER
 STRT.FT                             116.00 : START DEPTH
 STOP.FT                            2700.00 : STOP DEPTH
 STEP.FT                               1.00 : DEPTH INCREMENT
 NULL.                                -9999 : NULL VALUE
~Curve information
 DEPTH.FT                                   :
 ROP.MIN/FT                                 :
 GAS.UNITS                                  :
~ASCII Log data
# ...
       516.0         0.15          4.3 
       517.0         0.13          4.6 
       518.0         0.20          4.6 
       519.0         0.17          4.6 
       520.0         0.17          4.4 
       521.0         0.17          4.4 
       522.0         0.20          6.0 
       523.0         0.20          6.0 
       524.0         0.17          6.1 
       525.0         0.17          6.1 
       526.0         0.20         10.9 
       527.0         0.17         12.6 
       528.0         0.17         15.4 
       529.0         0.20         14.1 
       530.0         0.30         12.6 
       531.0         0.20         11.3 
       532.0         0.17         10.9 
       533.0         0.33      10441.8 
       534.0     -9999.00         10.9 
       535.0         0.27          9.4 
       536.0         0.10          9.4 
       537.0         0.17          8.5 
       538.0         0.13          8.4 
       539.0         0.23          7.9 
       540.0         0.20          7.5 
       541.0         0.10          7.5 
       542.0         0.22          7.6 
       543.0         0.17          7.3 
       544.0         0.20          7.4 
       545.0         0.17          7.2 
       546.0         0.20          7.4 
       547.0         0.17          6.9 
       548.0         0.20          6.8 
       549.0         0.17          8.9 
       550.0         0.17          5.3 
       551.0         0.13          6.0 
       552.0         0.17          7.8 
       553.0         0.17         16.1 
       554.0         0.17         16.1 
       555.0         0.13         22.1 
       556.0         0.10         24.6 
       557.0         0.10         35.6 
       558.0         0.10         35.6 
       559.0         0.13         39.7 
       560.0         0.20         48.1 
       561.0         0.17         73.5 
       562.0         0.22        108.3 
       563.0         0.17        121.7 
       564.0         0.27        126.0 
       565.0         0.27        106.7 
       566.0         0.17         78.0 
       567.0         0.20         65.2 
       568.0         0.13         46.1 
       569.0         0.08         46.1 
       570.0         0.23         38.4 
       571.0         0.23         27.8 
       572.0         0.20         23.1 
       573.0         0.20         18.9 
       574.0         0.17         17.2 
       575.0         0.17         16.4 
       576.0         0.17         17.5 
       577.0         0.23         16.7 
       578.0         0.33         16.3 
       579.0         0.27         16.7 
       580.0         0.23         16.1 
       581.0         0.27         16.4 
       582.0         0.13         15.9 
       583.0         0.40         15.4 
       584.0         0.18         15.3 
       585.0         0.27         15.6 
       586.0         0.20        302.0 
       587.0         0.27         56.6 
       588.0         0.27         42.9 
       589.0         0.27         39.2 
       590.0         0.27         28.3 
       591.0         0.27         22.0 
       592.0         0.27         17.3 
       593.0         0.27         17.6 
       594.0         0.53         17.6 
       595.0     -9999.00         17.6 
       596.0         0.13         18.1 
       597.0         0.10         18.1 
       598.0         0.10         17.9 
       599.0         0.07         17.9 
       600.0         0.20         19.2 
       601.0         0.07         19.5 
       602.0         0.20         20.6 
       603.0         0.10         20.2 
       604.0         0.17         19.7 
       605.0         0.17         19.6 
       606.0         0.23         18.8 
       607.0         0.23         16.7 
       608.0         0.23         16.4 
       609.0         0.28         14.2 
       610.0         0.20        113.4 
       611.0         0.17        113.4 
       612.0         0.17        130.6 
       613.0         0.17        205.2 
       614.0         0.13        275.8 
       615.0         0.13        333.8 
       616.0         0.17        333.0 
       617.0         0.13        246.9 
       618.0         0.13        187.3 
       619.0         0.17        187.3 
       620.0         0.13        170.6 
       621.0         0.07        118.5 
       622.0         0.27        112.7 
       623.0         0.13         78.8 
       624.0         0.53         78.8 
       625.0     -9999.00         67.9 
       626.0         0.13         43.5 
       627.0         0.13         39.3 
       628.0         0.23         36.9 
       629.0         0.23         30.6 
       630.0         0.20         24.8 
       631.0         0.20         21.4 
       632.0         0.20         19.5 
       633.0         0.17         18.4 
       634.0         0.20         17.1 
       635.0         0.17         17.0 
       636.0         0.17         17.5 
       637.0         0.17         16.7 
       638.0         0.17         17.1 
       639.0         0.18         16.6 
       640.0         0.17         17.4 
       641.0         0.17         39.8 
       642.0         0.17         39.8 
       643.0         0.17         62.8 
       644.0         0.17        104.5 
       645.0         0.13        104.5 
       646.0         0.17        225.4 
       647.0         0.17        225.4 
       648.0         0.20        364.0 
       649.0         0.17        363.3 
       650.0         0.13        310.3 
       651.0         0.13        239.8 
       652.0         0.17        218.1 
       653.0         0.17        178.8 
       654.0         0.23        145.8 
       655.0         0.23         74.0 
       656.0         0.30         67.7 
       657.0         0.27         48.4 
       658.0         0.33         38.0 
       659.0         0.23         29.2 
       660.0         0.20         24.4 
       661.0         0.20         21.1 
       662.0         0.22         20.0 
       663.0         0.20         16.9 
       664.0         0.20         16.1 
       665.0         0.20         15.8 
       666.0         0.13         14.6 
       667.0         0.23         13.9 
       668.0         0.20         12.4 
       669.0         0.23         12.4 
       670.0         0.20         12.4 
       671.0         0.23         41.4 
       672.0         0.17         48.6 
       673.0         0.17         63.4 
       674.0         0.20        109.4 
       675.0         0.20        173.8 
       676.0         0.20        243.4 
       677.0         0.17        208.2 
       678.0         0.17        208.2 
       679.0         0.18        201.3 
       680.0         0.17        106.3 
       681.0         0.17         87.8 
       682.0         0.13         51.8 
       683.0         0.17         51.8 
       684.0         0.10         37.5 
       685.0         0.20         37.5 
       686.0         0.27         31.8 
       687.0         0.30         27.0 
       688.0         0.27         27.3 
       689.0         0.33         26.3 
       690.0         0.40         24.1 
       691.0         0.37         19.7 
       692.0         0.27         16.8 
       693.0         0.20         12.2 
       694.0         0.20         10.0 
       695.0         0.22         13.8 
       696.0         0.20         15.4 
       697.0         0.20         21.5 
       698.0         0.17         23.8 
       699.0         0.17         23.8 
       700.0         0.13         22.2 
       701.0         0.13         21.3 
       702.0         0.07         48.9 
       703.0         0.10         48.9 
       704.0         0.07         48.9 
       705.0         0.17        231.1 
       706.0         0.17        269.2 
       707.0         0.17        438.0 
       708.0         0.23       1151.1 
       709.0         0.17       1059.8 
       710.0         0.20        996.4 
       711.0         0.17        856.6 
       712.0         0.20        809.8 
       713.0         0.23        632.2 
       714.0         0.20        492.7 
       715.0         0.07        440.0 
