~Version Information
VERS.                      2.0: CWLS Log ASCII Standard - VERSION 2.0
WRAP.                       NO: One line per depth step
~Well Information Block
STRT.FT               640.0000: 
STOP.FT               927.0000: 
STEP.FT                 0.1000: 
NULL.                -999.2500: 
COMP.          Pioneer Natural Resources: COMPANY
WELL.          Claim Jumper 41-22: WELL
FLD.           Purgatoire River: FIELD
LOC.           1120' FNL & 977' FEL: LOCATION
PROV.                 Colorado: PROVINCE
CNTY.               Las Animas: COUNTRY
SRVC.                Patterson: SERVICE COMPANY
DATE.          Thu Jun 23 08:35:14 2005: LOG DATE
UWI.           05-071-08405-00: UNIQUE WELL ID
~Curve Information Block
DEPT.FT            0 000 00 00: Depth
DCAL.in                       : CDL Caliper
RHOB.g/cc                     : CDL Bulk Density
RHOC.g/cc                     : CDL Density Correction
DPOR.pu                       : CDL Density Porosity
GR.GAPI                       : Gamma Ray
NPOR.pu                       : Neutron Porosity
~Parameter Information Block
~A  Depth       DCAL        RHOB        RHOC        DPOR         GR         NPOR    
# ...
   803.2000      7.9120      2.4293      0.0295     13.3750     72.4257     17.2502
   803.3000      7.9107      2.4351      0.0357     13.0260     65.0690     17.6005
   803.4000      7.9107      2.4510      0.0591     12.0631     64.7681     17.9538
   803.5000      7.9088      2.4642      0.0971     11.2579     68.1181     18.1102
   803.6000      7.9088      2.4739      0.0522     10.6713     69.7839     18.2726
   803.7000      7.9088      2.4848      0.1137     10.0145     70.5952     18.6603
   803.8000      7.9042      2.4879      0.0891      9.8219     74.1412     19.0736
   803.9000      7.9042      2.4840      0.0706     10.0597     80.6033     19.2901
   804.0000      7.8971      2.4847      0.1183     10.0175     85.0156     19.3741
   804.1000      7.8971      2.4929      0.0617      9.5189     84.1072     19.4538
   804.2000      7.8971      2.5010      0.0837      9.0301     77.9578     19.6508
   804.3000      7.8947      2.5018      0.0920      8.9823     70.3845     20.1697
   804.4000      7.8947      2.5009      0.0837      9.0342     67.5699     20.9794
   804.5000      7.8973      2.5054      0.0964      8.7616     72.4188     21.6680
   804.6000      7.8973      2.5132      0.0928      8.2908     86.0248     22.0166
   804.7000      7.8973      2.5227      0.0406      7.7168     99.9399     22.2717
   804.8000      7.9012      2.5325      0.0746      7.1225    104.9830     22.9008
   804.9000      7.9012      2.5355      0.0562      6.9393    108.9180     23.6741
   805.0000      7.9045      2.5269      0.0598      7.4600    117.9072     23.9244
   805.1000      7.9045      2.5133      0.0586      8.2870    124.7076     23.7774
   805.2000      7.9045      2.5172      0.0057      8.0468    127.1474     23.7590
   805.3000      7.9029      2.5455      0.0818      6.3357    129.5813     24.1145
   805.4000      7.9029      2.5663      0.0935      5.0738    134.9955     24.6691
   805.5000      7.8926      2.5640      0.0700      5.2113    143.1231     24.9599
   805.6000      7.8926      2.5537      0.1536      5.8387    146.5756     24.8379
   805.7000      7.8926      2.5422      0.1090      6.5309    140.2250     24.7300
   805.8000      7.8776      2.5345      0.0971      6.9988    127.5749     24.7479
   805.9000      7.8776      2.5378      0.0946      6.8027    115.5194     24.4819
   806.0000      7.8668      2.5537      0.1002      5.8373    107.9930     23.8818
   806.1000      7.8668      2.5787      0.1283      4.3226    104.1338     23.3315
   806.2000      7.8668      2.6036      0.1476      2.8116    102.1557     23.0619
   806.3000      7.8590      2.6227      0.1954      1.6530     96.9375     23.1761
   806.4000      7.8590      2.6415      0.1598      0.5173     84.8699     23.5508
   806.5000      7.8548      2.6652      0.1584     -0.9208     73.6786     23.5385
   806.6000      7.8548      2.6763      0.2346     -1.5929     72.0176     23.0339
   806.7000      7.8548      2.6598      0.1743     -0.5916     74.5247     22.6504
   806.8000      7.8583      2.6347      0.0962      0.9298     74.8094     22.5633
   806.9000      7.8583      2.6103      0.1133      2.4063     79.0955     22.5618
   807.0000      7.8663      2.5772      0.0594      4.4142     91.4689     22.5928
   807.1000      7.8663      2.5528      0.0367      5.8916    101.6337     22.5136
   807.2000      7.8663      2.5574      0.0674      5.6118     98.6694     22.1446
   807.3000      7.8771      2.5672      0.1450      5.0179     86.9390     21.6009
   807.4000      7.8771      2.5538      0.0671      5.8277     76.3213     21.1623
   807.5000      7.8842      2.5328      0.0326      7.1016     69.8870     21.0910
   807.6000      7.8842      2.5263      0.0462      7.4990     68.5857     21.3134
   807.7000      7.8842      2.5277      0.1029      7.4117     73.4800     21.4379
   807.8000      7.8871      2.5287      0.0126      7.3528     81.2468     21.4463
   807.9000      7.8871      2.5357      0.0059      6.9259     88.0440     21.5421
   808.0000      7.8901      2.5472      0.0740      6.2300     92.1807     21.7204
   808.1000      7.8901      2.5557      0.0537      5.7132     92.1124     21.9998
   808.2000      7.8901      2.5651      0.0649      5.1468     89.5374     22.2894
   808.3000      7.8897      2.5774      0.0573      4.3971     90.4589     22.5463
   808.4000      7.8897      2.5792      0.1437      4.2894     91.8701     22.8453
   808.5000      7.8849      2.5629      0.0725      5.2771     86.3018     22.9063
   808.6000      7.8849      2.5454      0.0553      6.3369     80.1559     22.3337
   808.7000      7.8849      2.5362      0.0707      6.8975     80.4945     21.5188
   808.8000      7.8809      2.5377      0.0139      6.8058     83.0230     21.1385
   808.9000      7.8809      2.5603      0.1091      5.4389     85.3892     21.2003
   809.0000      7.8792      2.5969      0.1289      3.2193     86.7640     21.5507
   809.1000      7.8792      2.6327      0.0989      1.0489     82.1095     22.0514
   809.2000      7.8792      2.6596      0.1313     -0.5820     75.4737     22.3817
   809.3000      7.8809      2.6687      0.1054     -1.1338     77.1673     22.5441
   809.4000      7.8809      2.6582      0.1091     -0.4955     82.0345     22.6880
   809.5000      7.8867      2.6350      0.0522      0.9105     78.8602     22.6714
   809.6000      7.8867      2.6070      0.0566      2.6037     73.4106     22.4255
   809.7000      7.8867      2.5794      0.0271      4.2808     77.5132     22.2591
   809.8000      7.8944      2.5571      0.0262      5.6326     89.1847     22.3325
   809.9000      7.8944      2.5461      0.0148      6.2947     98.6584     22.2692
   810.0000      7.9029      2.5544     -0.0160      5.7954    101.6312     21.7467
   810.1000      7.9029      2.5751      0.0868      4.5393     99.6213     21.2292
   810.2000      7.9029      2.5893      0.0480      3.6758     95.4056     21.3403
   810.3000      7.9056      2.5932      0.0382      3.4418     90.6585     21.6763
   810.4000      7.9056      2.5896      0.0389      3.6617     88.9903     21.6243
   810.5000      7.8999      2.5769      0.0484      4.4321     94.6385     21.3223
   810.6000      7.8999      2.5674     -0.0110      5.0047    101.8853     21.1033
   810.7000      7.8999      2.5853      0.0345      3.9203    102.0971     21.0747
   810.8000      7.8903      2.6257      0.0911      1.4726     98.2233     21.0547
   810.9000      7.8903      2.6549      0.1760     -0.2975     94.1720     20.9353
   811.0000      7.8841      2.6453      0.1523      0.2862     90.8665     20.9440
   811.1000      7.8841      2.5988      0.0932      3.1002     89.6212     20.9329
   811.2000      7.8841      2.5398      0.0772      6.6765     89.7795     20.8027
   811.3000      7.8871      2.4928      0.0434      9.5300     89.6801     21.1799
   811.4000      7.8871      2.4740     -0.0153     10.6671     89.0216     22.0126
   811.5000      7.8957      2.4771      0.0591     10.4791     89.8985     22.2753
   811.6000      7.8957      2.4850     -0.0154     10.0007     91.2628     21.6937
   811.7000      7.8957      2.4966      0.0284      9.2984     89.8945     21.0692
   811.8000      7.8972      2.5111      0.0433      8.4208     86.5121     20.8149
   811.9000      7.8972      2.5267      0.0595      7.4723     85.2022     20.6675
   812.0000      7.8938      2.5471      0.0555      6.2357     90.0521     20.5815
   812.1000      7.8938      2.5640      0.1318      5.2128     96.0967     20.6683
   812.2000      7.8938      2.5622      0.1259      5.3221     94.9220     20.8273
   812.3000      7.8909      2.5430      0.1110      6.4852     89.1595     20.9936
   812.4000      7.8909      2.5209      0.0860      7.8229     84.2810     21.1740
   812.5000      7.8906      2.5092      0.0908      8.5327     81.9548     21.2835
   812.6000      7.8906      2.5125      0.0336      8.3308     83.3460     21.2346
   812.7000      7.8906      2.5208      0.0801      7.8296     86.0324     21.0867
