~Version Information
VERS.                      2.0: CWLS Log ASCII Standard - VERSION 2.0
WRAP.                       NO: One line per depth step
~Well Information Block
STRT.FT               845.0000: 
STOP.FT              2308.2500: 
STEP.FT                 0.2500: 
NULL.                -999.2500: 
COMP.          Pioneer Natural Resources: COMPANY
WELL.             Vector 33-23: WELL
FLD.           Purgatoire River: FIELD
LOC.           1560' FEL & 1988' FSL----: LOCATION
PROV.                 Colorado: PROVINCE
CNTY.               Las Animas: COUNTRY
SRVC.                Patterson: SERVICE COMPANY
DATE.          Sat Mar 26 12:39:07 2005: LOG DATE
UWI.           05 071 08336 00: UNIQUE WELL ID
~Curve Information Block
DEPT.FT            0 000 00 00: Depth
SN.Ohm-m                      : IEL Short Normal
SP.mV                         : IEL Spontaneous Potential
DIR.Ohm-m                     : IEL Induction Resistivity
GR.GAPI                       : Gamma Ray
~Parameter Information Block
~A  Depth        SN          SP         DIR          GR     
# ...
  1046.0000   2000.0000   2000.0000      8.2824    121.1956
  1046.2500   2000.0000   2000.0000      8.3462    120.6705
  1046.5000   2000.0000   2000.0000      8.4310    121.3345
  1046.7500   2000.0000   2000.0000      8.5324    122.2341
  1047.0000   2000.0000   2000.0000      8.6457    123.2634
  1047.2500   2000.0000   2000.0000      8.7656    123.4142
  1047.5000   2000.0000   2000.0000      8.8863    122.7272
  1047.7500   2000.0000   2000.0000      9.0043    121.7254
  1048.0000   2000.0000   2000.0000      9.1224    119.6951
  1048.2500   2000.0000   2000.0000      9.2514    118.2439
  1048.5000   2000.0000   2000.0000      9.4077    116.2947
  1048.7500   2000.0000   2000.0000      9.6082    115.2691
  1049.0000   2000.0000   2000.0000      9.8638    114.2606
  1049.2500   2000.0000   2000.0000     10.1749    113.9129
  1049.5000   2000.0000   2000.0000     10.5279    113.4431
  1049.7500   2000.0000   2000.0000     10.8958    112.7296
  1050.0000   2000.0000   2000.0000     11.2425    110.5593
  1050.2500   2000.0000   2000.0000     11.5298    108.5738
  1050.5000   2000.0000   2000.0000     11.7240    105.9669
  1050.7500   2000.0000   2000.0000     11.8010    105.2049
  1051.0000   2000.0000   2000.0000     11.7503    105.8699
  1051.2500   2000.0000   2000.0000     11.5780    107.1239
  1051.5000   2000.0000   2000.0000     11.3077    109.4682
  1051.7500   2000.0000   2000.0000     10.9765    111.3709
  1052.0000   2000.0000   2000.0000     10.6260    115.3249
  1052.2500   2000.0000   2000.0000     10.2940    118.6269
  1052.5000   2000.0000   2000.0000     10.0093    123.0711
  1052.7500   2000.0000   2000.0000      9.7875    124.4611
  1053.0000   2000.0000   2000.0000      9.6307    122.8418
  1053.2500   2000.0000   2000.0000      9.5304    119.3403
  1053.5000   2000.0000   2000.0000      9.4741    112.0275
  1053.7500   2000.0000   2000.0000      9.4522    107.3646
  1054.0000   2000.0000   2000.0000      9.4618    103.3473
  1054.2500   2000.0000   2000.0000      9.5053    103.2553
  1054.5000   2000.0000   2000.0000      9.5841    105.7269
  1054.7500   2000.0000   2000.0000      9.6927    107.7041
  1055.0000   2000.0000   2000.0000      9.8144    109.6251
  1055.2500   2000.0000   2000.0000      9.9226    110.3173
  1055.5000   2000.0000   2000.0000      9.9875    111.4086
  1055.7500   2000.0000   2000.0000      9.9878    112.2970
  1056.0000   2000.0000   2000.0000      9.9196    113.0791
  1056.2500   2000.0000   2000.0000      9.7977    112.8629
  1056.5000   2000.0000   2000.0000      9.6498    112.0136
  1056.7500   2000.0000   2000.0000      9.5065    111.9383
  1057.0000   2000.0000   2000.0000      9.3947    113.5538
  1057.2500   2000.0000   2000.0000      9.3312    115.6514
  1057.5000   2000.0000   2000.0000      9.3211    119.2302
  1057.7500   2000.0000   2000.0000      9.3579    121.2612
  1058.0000   2000.0000   2000.0000      9.4271    123.1342
  1058.2500   2000.0000   2000.0000      9.5121    123.4192
  1058.5000   2000.0000   2000.0000      9.6005    122.3759
  1058.7500   2000.0000   2000.0000      9.6877    120.9455
  1059.0000   2000.0000   2000.0000      9.7754    118.5072
  1059.2500   2000.0000   2000.0000      9.8676    117.1324
  1059.5000   2000.0000   2000.0000      9.9673    115.7574
  1059.7500   2000.0000   2000.0000     10.0754    115.2689
  1060.0000   2000.0000   2000.0000     10.1913    115.1582
  1060.2500   2000.0000   2000.0000     10.3135    115.5158
  1060.5000   2000.0000   2000.0000     10.4384    116.4355
  1060.7500   2000.0000   2000.0000     10.5607    116.9675
  1061.0000   2000.0000   2000.0000     10.6739    117.2102
  1061.2500   2000.0000   2000.0000     10.7713    116.9596
  1061.5000   2000.0000   2000.0000     10.8467    116.0644
  1061.7500   2000.0000   2000.0000     10.8954    115.2406
  1062.0000   2000.0000   2000.0000     10.9161    114.2246
  1062.2500   2000.0000   2000.0000     10.9112    114.1829
  1062.5000   2000.0000   2000.0000     10.8853    115.4430
  1062.7500   2000.0000   2000.0000     10.8412    116.8462
  1063.0000   2000.0000   2000.0000     10.7788    118.8560
  1063.2500   2000.0000   2000.0000     10.6973    119.7653
  1063.5000   2000.0000   2000.0000     10.5998    120.2630
  1063.7500   2000.0000   2000.0000     10.4967    120.0514
  1064.0000   2000.0000   2000.0000     10.4043    119.4446
  1064.2500   2000.0000   2000.0000     10.3411    119.3865
  1064.5000   2000.0000   2000.0000     10.3217    120.3089
  1064.7500   2000.0000   2000.0000     10.3526    121.2869
  1065.0000   2000.0000   2000.0000     10.4306    122.1518
  1065.2500   2000.0000   2000.0000     10.5438    121.7769
  1065.5000   2000.0000   2000.0000     10.6751    119.4955
  1065.7500   2000.0000   2000.0000     10.8065    117.0572
  1066.0000   2000.0000   2000.0000     10.9228    113.0565
  1066.2500   2000.0000   2000.0000     11.0141    111.0424
  1066.5000   2000.0000   2000.0000     11.0751    110.4132
  1066.7500   2000.0000   2000.0000     11.1044    111.9227
  1067.0000   2000.0000   2000.0000     11.1018    116.4848
  1067.2500   2000.0000   2000.0000     11.0679    120.2609
  1067.5000   2000.0000   2000.0000     11.0037    125.5255
  1067.7500   2000.0000   2000.0000     10.9115    128.0644
  1068.0000   2000.0000   2000.0000     10.7966    129.8450
  1068.2500   2000.0000   2000.0000     10.6682    129.7630
  1068.5000   2000.0000   2000.0000     10.5378    128.2551
  1068.7500   2000.0000   2000.0000     10.4132    126.6398
  1069.0000   2000.0000   2000.0000     10.2931    123.6860
  1069.2500   2000.0000   2000.0000     10.1653    121.4234
  1069.5000   2000.0000   2000.0000     10.0129    117.4965
  1069.7500   2000.0000   2000.0000      9.8247    114.6601
  1070.0000   2000.0000   2000.0000      9.6038    111.1763
  1070.2500   2000.0000   2000.0000      9.3661    110.2969
  1070.5000   2000.0000   2000.0000      9.1332    111.9837
  1070.7500   2000.0000   2000.0000      8.9230    114.6948
  1071.0000   2000.0000   2000.0000      8.7449    119.3579
  1071.2500   2000.0000   2000.0000      8.5999    121.9109
  1071.5000   2000.0000   2000.0000      8.4859    124.3101
  1071.7500   2000.0000   2000.0000      8.4033    125.1694
  1072.0000   2000.0000   2000.0000      8.3826    126.0718
  1072.2500   2000.0000   2000.0000      8.3848    126.6944
  1072.5000   2000.0000   2000.0000      8.4436    127.5945
  1072.7500   2000.0000   2000.0000      8.5607    127.9761
  1073.0000   2000.0000   2000.0000      8.7273    128.2406
  1073.2500   2000.0000   2000.0000      8.9236    128.5711
  1073.5000   2000.0000   2000.0000      9.1212    129.9054
  1073.7500   2000.0000   2000.0000      9.2858    131.2224
  1074.0000   2000.0000   2000.0000      9.3795    132.7427
  1074.2500   2000.0000   2000.0000      9.3672    132.8592
  1074.5000   2000.0000   2000.0000      9.2287    131.6335
  1074.7500   2000.0000   2000.0000      8.9759    130.3419
  1075.0000   2000.0000   2000.0000      8.6626    128.6647
  1075.2500   2000.0000   2000.0000      8.3811    128.1056
  1075.5000   2000.0000   2000.0000      8.2257    128.0417
  1075.7500   2000.0000   2000.0000      8.4233    128.0256
  1076.0000   2000.0000   2000.0000      9.2480    127.1100
  1076.2500   2000.0000   2000.0000     11.4533    125.7947
  1076.5000   2000.0000   2000.0000     17.8594    123.3144
  1076.7500   2000.0000   2000.0000     55.8161    121.6416
  1077.0000   2000.0000   2000.0000 100000.0000    119.1899
  1077.2500   2000.0000   2000.0000 100000.0000    117.5270
  1077.5000   2000.0000   2000.0000 100000.0000    115.0108
  1077.7500   2000.0000   2000.0000 100000.0000    113.3445
  1078.0000   2000.0000   2000.0000 100000.0000    110.7797
  1078.2500   2000.0000   2000.0000 100000.0000    109.0426
  1078.5000   2000.0000   2000.0000     36.7532    106.9578
  1078.7500   2000.0000   2000.0000     21.6731    106.5553
  1079.0000   2000.0000   2000.0000     17.5629    108.3612
  1079.2500   2000.0000   2000.0000     15.4942    111.0825
