~Version Information
 VERS.                                  2.0 : CWLS LAS VERSION
 WRAP.                                   NO : WRAPING MODE
 SWARE .                 MController 2.5.0E : SOFTWARE VERSION
~Well Information
 WELL.                          Lynch 43-30 : WELL
 COMP.        Pioneer Natural Resources Inc : COMPANY
 FLD.                      Purgatoire River : FIELD
 LOC.                NE/SE Sec 30 T32S R67W : LOCATION
 DATE.                             10/25/04 : DATE(S) LOGGED
 SRVC.       Blanco Geological services LLc : SERVICE COMPANY
 STAT.                                   CO : STATE
 CNTY.                           Las Animas : COUNTY
 CTRY.                                  USA : COUNTRY
 API.                       05-071-08170-00 : API NUMBER
 STRT.FT                             410.00 : START DEPTH
 STOP.FT                            2845.00 : STOP DEPTH
 STEP.FT                               1.00 : DEPTH INCREMENT
 NULL.                                -9999 : NULL VALUE
~Curve information
 DEPTH.FT                                   :
 ROP.MIN/FT                                 :
 GAS.UNITS                                  :
~ASCII Log data
# ...
     2210.00        0.217         22.4 
     2211.00        0.200         19.4 
     2212.00        0.200         17.0 
     2213.00        0.167         14.7 
     2214.00        0.167         14.1 
     2215.00        0.200         13.1 
     2216.00        3.750         53.1 
     2217.00        0.333         44.5 
     2218.00        0.433         40.3 
     2219.00        0.533         34.5 
     2220.00        0.367         28.3 
     2221.00        0.283         24.4 
     2222.00        0.233         22.6 
     2223.00        0.300         22.4 
     2224.00        0.333         21.1 
     2225.00        0.367         20.6 
     2226.00        0.300         20.3 
     2227.00        0.267         20.0 
     2228.00        0.267         19.6 
     2229.00        0.300         19.1 
     2230.00        0.267         19.0 
     2231.00        0.267         19.4 
     2232.00        0.267         19.6 
     2233.00        0.283         19.9 
     2234.00        0.267         20.0 
     2235.00        0.267         20.0 
     2236.00        0.300         19.8 
     2237.00        0.267         19.3 
     2238.00        0.267         19.9 
     2239.00        0.267         21.7 
     2240.00        0.267         21.9 
     2241.00        0.300         21.6 
     2242.00        0.300         20.9 
     2243.00        0.300         18.7 
     2244.00        0.300         16.3 
     2245.00        0.250         14.5 
     2246.00        3.817         75.6 
     2247.00        0.200         75.2 
     2248.00        0.267         72.3 
     2249.00        0.267         66.0 
     2250.00        0.233         57.5 
     2251.00        0.267         49.3 
     2252.00        0.267         41.3 
     2253.00        0.267         36.7 
     2254.00        0.267         32.9 
     2255.00        0.400         30.3 
     2256.00        0.267         29.6 
     2257.00        0.250         29.5 
     2258.00        0.300         30.3 
     2259.00        0.233         31.1 
     2260.00        0.267         32.3 
     2261.00        0.333         32.9 
     2262.00        0.300         33.5 
     2263.00        0.300         33.9 
     2264.00        0.200         33.8 
     2265.00        0.300         36.5 
     2266.00        0.267         39.8 
     2267.00        0.233         41.7 
     2268.00        0.200         40.6 
     2269.00        0.250         39.6 
     2270.00        0.267         35.3 
     2271.00        0.167         31.2 
     2272.00        0.233         28.6 
     2273.00        0.200         24.4 
     2274.00        0.200         22.3 
     2275.00        0.200         20.9 
     2276.00        4.650         93.5 
     2277.00        0.333         64.6 
     2278.00        0.300         56.6 
     2279.00        0.350         49.6 
     2280.00        0.333         43.5 
     2281.00        0.300         39.3 
     2282.00        0.267         37.4 
     2283.00        0.400         35.9 
     2284.00        0.433         34.4 
     2285.00        0.400         33.4 
     2286.00        0.300         32.5 
     2287.00        0.333         32.1 
     2288.00        0.317         32.1 
     2289.00        0.300         31.6 
     2290.00        0.333         31.4 
     2291.00        0.333         31.1 
     2292.00        0.433         29.6 
     2293.00        0.400         28.2 
     2294.00        0.233         27.5 
     2295.00        0.267         27.2 
     2296.00        0.300         27.0 
     2297.00        0.233         27.2 
     2298.00        0.267         27.7 
     2299.00        0.283         30.9 
     2300.00        0.267         33.4 
     2301.00        0.267         34.6 
     2302.00        0.333         35.0 
     2303.00        0.433         34.0 
     2304.00        0.500         27.7 
     2305.00        0.300         22.3 
     2306.00        3.417         66.7 
     2307.00        0.333         66.6 
     2308.00        0.367         61.7 
     2309.00        0.517         54.2 
     2310.00        0.367         45.2 
     2311.00        0.300         42.1 
     2312.00        0.233         42.4 
     2313.00        0.233         44.3 
     2314.00        0.200         45.1 
     2315.00        0.200         46.4 
     2316.00        0.267         47.3 
     2317.00        0.333         48.1 
     2318.00        0.267         48.1 
     2319.00        0.367         47.5 
     2320.00        0.333         46.5 
     2321.00        0.350         45.5 
     2322.00        0.367         45.6 
     2323.00        0.300         44.9 
     2324.00        0.267         43.3 
     2325.00        0.267         42.4 
     2326.00        0.267         41.1 
     2327.00        0.267         48.4 
     2328.00        0.300         65.0 
     2329.00        0.233         74.2 
     2330.00        0.200         75.9 
     2331.00        0.233         75.5 
     2332.00        0.233         70.4 
     2333.00        0.250         62.2 
     2334.00        0.267         50.6 
     2335.00        0.367         42.4 
     2336.00        3.583         85.3 
     2337.00        0.333         76.5 
     2338.00        0.300         70.4 
     2339.00        0.533         61.4 
     2340.00        0.300         52.0 
     2341.00        0.233         49.6 
     2342.00        0.267         48.1 
     2343.00        0.233         46.6 
     2344.00        0.250         45.7 
     2345.00        0.233         44.8 
     2346.00        0.233         45.0 
     2347.00        0.300         44.7 
     2348.00        0.300         45.3 
     2349.00        0.233         45.3 
     2350.00        0.167         45.6 
     2351.00        0.167         45.8 
     2352.00        0.200         45.9 
     2353.00        0.200         45.9 
     2354.00        0.367         45.6 
     2355.00        0.233         45.2 
     2356.00        0.200         45.3 
     2357.00        0.267         49.0 
     2358.00        0.250         53.9 
     2359.00        0.300         54.4 
     2360.00        0.267         53.6 
     2361.00        0.233         51.1 
     2362.00        0.167         47.8 
     2363.00        0.233         44.2 
     2364.00        0.267         39.0 
     2365.00        0.233         33.3 
     2366.00        4.583         79.5 
     2367.00        0.350         71.0 
     2368.00        0.433         62.9 
     2369.00        0.533         54.5 
     2370.00        0.533         46.6 
     2371.00        0.333         40.8 
     2372.00        0.467         39.5 
     2373.00        0.433         38.1 
     2374.00        0.467         37.5 
     2375.00        0.450         35.8 
     2376.00        0.433         35.3 
     2377.00        0.433         36.0 
     2378.00        0.533         36.2 
     2379.00        0.500         35.1 
     2380.00        0.467         33.7 
     2381.00        0.500         33.5 
     2382.00        0.517         34.4 
     2383.00        0.367         35.4 
     2384.00        0.267         35.6 
     2385.00        0.333         35.7 
     2386.00        0.267         36.9 
     2387.00        0.200         39.5 
     2388.00        0.367         43.9 
     2389.00        0.333         45.0 
     2390.00        0.267         45.1 
     2391.00        0.200         41.7 
     2392.00        0.267         37.6 
     2393.00        0.283         30.2 
     2394.00        0.200         25.0 
     2395.00        0.233         23.9 
     2396.00        3.617         81.5 
     2397.00        0.400         81.1 
     2398.00        0.400         75.7 
     2399.00        0.400         67.0 
     2400.00        0.300         58.5 
     2401.00        0.367         52.9 
     2402.00        0.300         46.6 
     2403.00        0.283         42.8 
     2404.00        0.267         40.5 
     2405.00        0.267         39.0 
     2406.00        0.233         38.0 
     2407.00        0.300         37.7 
     2408.00        0.267         37.1 
     2409.00        0.233         37.3 
