~Version Information
VERS.                      2.0: CWLS Log ASCII Standard - VERSION 2.0
WRAP.                       NO: One line per depth step
~Well Information Block
STRT.FT                15.0000: 
STOP.FT              2409.7500: 
STEP.FT                 0.2500: 
NULL.                -999.2500: 
COMP.          Pioneer Natural Resources: COMPANY
WELL.          Oink Oink 14-36: WELL
FLD.           Purgatoire River: FIELD
LOC.           216' FSL & 263' FWL: LOCATION
PROV.                 Colorado: PROVINCE
CNTY.               Las Animas: COUNTRY
SRVC.                Patterson: SERVICE COMPANY
DATE.          Wed Jun 22 11:05:26 2005: LOG DATE
UWI.           05 071 08394 00: UNIQUE WELL ID
~Curve Information Block
DEPT.FT            0 000 00 00: Depth
GR.GAPI                       : Gamma Ray
CCL.                          : Casing Collar Locator
TT3.usec                      : CBL 3' Travel Time
AMP3.mV                       : CBL 3' Amplitude
~Parameter Information Block
~A  Depth        GR         CCL         TT3         AMP3    
    15.0000   -999.2500      0.0000   1420.0691      2.3124
    15.2500   -999.2500      0.0000   1358.7308      3.3868
    15.5000   -999.2500      0.0000   1239.3759      5.5875
    15.7500   -999.2500      0.0000   1056.8293      9.1203
    16.0000   -999.2500      0.0000    837.0558     13.5333
    16.2500   -999.2500      0.0000    628.4679     17.7969
    16.5000   -999.2500      0.0000    472.1784     20.9766
    16.7500   -999.2500      0.0000    379.6107     22.8387
    17.0000     71.5434      0.0000    336.2225     23.7796
    17.2500     67.3512      0.0000    320.1494     24.3187
    17.5000     63.2539      0.0000    315.5980     24.7667
    17.7500     60.3214     -3.0000    315.0065     25.2379
    18.0000     59.1674     -3.0000    315.5739     25.8227
    18.2500     59.7161      0.0000    315.7023     26.7397
    18.5000     61.3645      0.0000    313.3931     28.3122
    18.7500     63.3288      0.0000    306.9922     30.7157
    19.0000     64.8995      0.0000    296.9155     33.7530
    19.2500     65.5789      0.0000    285.8695     36.9835
    19.5000     65.2800      0.0000    276.8478     40.0431
    19.7500     64.5917      0.0000    271.1349     42.7261
    20.0000     64.6482      0.0000    268.2375     44.8455
    20.2500     66.3093      0.0000    267.0459     46.2045
    20.5000     69.3512      0.0000    266.7075     46.7041
    20.7500     72.6462      0.0000    266.8290     46.3775
    21.0000     75.0719      0.0000    267.4117     45.3175
    21.2500     76.0586      0.0000    268.8251     43.6200
    21.5000     75.4804      0.0000    271.7591     41.3831
    21.7500     73.4920      0.0000    276.9293     38.6980
    22.0000     70.5318      0.0000    284.6477     35.6255
    22.2500     67.2253      0.0000    295.1380     32.2212
    22.5000     64.3261      0.0000    310.3373     28.6217
    22.7500     62.7984      0.0000    335.8375     25.0709
    23.0000     63.5031      0.0000    379.4048     21.8050
    23.2500     66.4406      0.0000    444.4285     18.9274
    23.5000     70.4656      0.0000    523.3407     16.4279
    23.7500     73.9810      0.0000    599.4932     14.2817
    24.0000     75.9924      0.0000    658.1666     12.4819
    24.2500     76.5816      0.0000    696.5807     11.0063
    24.5000     76.3540      0.0000    724.1245      9.8080
    24.7500     75.4654      0.0000    755.3638      8.8420
    25.0000     73.4631      0.0000    802.1368      8.0810
    25.2500     70.1549      0.0000    865.9780      7.5049
    25.5000     66.3104      0.0000    934.2903      7.0851
    25.7500     63.3155      0.0000    988.0276      6.7839
    26.0000     62.1995      0.0000   1016.7728      6.5651
    26.2500     62.9739      0.0000   1022.8974      6.4001
    26.5000     64.7659      0.0000   1011.7474      6.2717
    26.7500     66.4636      0.0000    986.5903      6.1784
    27.0000     67.2553      0.0000    953.9560      6.1339
    27.2500     66.7389      0.0000    924.5550      6.1523
    27.5000     64.8555      0.0000    906.3127      6.2286
    27.7500     61.9393      0.0000    901.2751      6.3312
    28.0000     58.7302      0.0000    910.0670      6.4181
    28.2500     56.0669      0.0000    935.2033      6.4608
    28.5000     54.3955      0.0000    976.1525      6.4567
    28.7500     53.5064      0.0000   1020.6921      6.4221
    29.0000     52.7882      0.0000   1045.9700      6.3754
    29.2500     51.8729      0.0000   1035.0072      6.3280
    29.5000     51.1258      0.0000    993.1472      6.2871
    29.7500     51.4419      0.0000    944.6635      6.2573
    30.0000     53.4349      0.0000    913.4144      6.2374
    30.2500     56.7791      0.0000    907.7728      6.2195
    30.5000     60.3520      0.0000    920.0872      6.1966
    30.7500     62.9303      0.0000    935.6591      6.1695
    31.0000     63.7174      0.0000    942.9490      6.1455
    31.2500     62.4966      0.0000    939.3863      6.1327
    31.5000     59.7271      0.0000    930.5206      6.1363
    31.7500     56.5534      0.0000    924.4191      6.1597
    32.0000     54.3725      0.0000    925.5834      6.2000
    32.2500     53.9872      0.0000    930.9627      6.2442
    32.5000     54.9809      0.0000    930.4998      6.2728
    32.7500     55.9674      0.0000    914.3932      6.2714
    33.0000     55.6795      0.0000    882.1221      6.2395
    33.2500     54.0225      0.0000    842.7178      6.1922
    33.5000     52.1870      0.0000    805.4072      6.1521
    33.7500     51.7663      0.0000    773.0035      6.1367
    34.0000     53.5639      0.0000    745.1301      6.1428
    34.2500     56.9067      0.0000    723.5697      6.1422
    34.5000     60.0905      0.0000    712.0268      6.0985
    34.7500     61.7931      0.0000    712.5391      5.9957
    35.0000     62.0982      0.0000    722.9589      5.8489
    35.2500     61.9974      0.0000    736.4714      5.6912
    35.5000     62.1149      0.0000    744.5446      5.5575
    35.7500     62.3431      0.0000    742.9400      5.4790
    36.0000     62.5923      0.0000    734.4417      5.4765
    36.2500     63.2733      0.0000    724.0935      5.5456
    36.5000     64.7702      0.0000    713.6557      5.6504
    36.7500     66.7843      0.0000    702.7195      5.7397
    37.0000     68.4197      0.0000    692.6739      5.7740
    37.2500     68.7583      0.0000    686.5080      5.7429
    37.5000     67.3560      0.0000    685.7506      5.6658
    37.7500     64.5635      0.0000    689.6530      5.5792
    38.0000     61.4632      0.0000    696.6913      5.5168
    38.2500     59.1531      0.0000    705.3787      5.4918
    38.5000     58.0034      0.0000    714.0303      5.4952
    38.7500     57.7754      0.0000    720.9281      5.5094
    39.0000     58.2197      0.0000    724.9093      5.5197
    39.2500     59.1485      0.0000    725.6979      5.5156
    39.5000     60.1210      0.0000    724.6269      5.4903
    39.7500     60.5937      0.0000    725.0016      5.4463
    40.0000     60.3889      0.0000    729.4058      5.3990
    40.2500     59.8504      0.0000    735.4065      5.3719
    40.5000     59.6557      0.0000    736.0371      5.3816
    40.7500     60.4844      0.0000    726.3639      5.4272
    41.0000     62.4021      0.0000    708.6195      5.4934
    41.2500     64.4021      0.0000    689.9270      5.5636
    41.5000     64.9525      0.0000    676.1804      5.6260
    41.7500     63.3212      0.0000    669.0362      5.6722
    42.0000     60.2952      0.0000    667.4323      5.6980
    42.2500     57.5782      0.0000    669.9575      5.7073
    42.5000     56.5622      0.0000    675.1481      5.7133
    42.7500     57.5280      0.0000    680.4790      5.7331
    43.0000     59.6748      0.0000    682.7375      5.7776
    43.2500     61.8115      0.0000    680.4760      5.8421
    43.5000     63.1570      0.0000    675.6879      5.9074
    43.7500     63.6092      0.0000    672.4269      5.9501
    44.0000     63.3604      0.0000    673.8712      5.9572
    44.2500     62.4591      0.0000    680.3477      5.9352
    44.5000     60.8398      0.0000    689.2502      5.9051
    44.7500     58.7163      0.0000    697.0613      5.8858
    45.0000     56.7462      0.0000    702.3986      5.8802
    45.2500     55.6707      0.0000    706.9336      5.8784
    45.5000     55.6729      0.0000    712.9496      5.8725
    45.7500     56.0580      0.0000    720.5071      5.8649
    46.0000     55.7689      0.0000    727.0818      5.8647
    46.2500     54.4335      0.0000    729.4208      5.8802
    46.5000     52.8948      0.0000    725.9682      5.9131
    46.7500     52.4886      0.0000    718.0430      5.9558
    47.0000     53.6949      0.0000    708.8171      5.9958
    47.2500     55.6464      0.0000    701.1548      6.0241
    47.5000     57.0543      0.0000    696.2576      6.0389
    47.7500     57.3972      0.0000    693.9115      6.0431
    48.0000     57.0255      0.0000    693.5185      6.0390
    48.2500     56.4476      0.0000    694.6904      6.0257
