~Version Information
VERS.                      2.0: CWLS Log ASCII Standard - VERSION 2.0
WRAP.                       NO: One line per depth step
~Well Information Block
STRT.FT               -14.2500: 
STOP.FT              2177.5000: 
STEP.FT                 0.2500: 
NULL.                -999.2500: 
COMP.          Evergreen Operating Corp.: COMPANY
WELL.            Triumph 13-10: WELL
FLD.           Purgatorie River: FIELD
LOC.           1551' FSL & 522' FWL--: LOCATION
PROV.                       CO: PROVINCE
CNTY.               Las Animas: COUNTRY
SRVC.                         : SERVICE COMPANY
DATE.          Sat Aug 21 09:27:32 2004: LOG DATE
UWI.           005 071 08108 : UNIQUE WELL ID
~Curve Information Block
DEPT.FT            0 000 00 00: Depth
CCL.                          : Casing Collar Locator
TT3.usec                      : CBL 3' Travel Time
AMP3.mV                       : CBL 3' Amplitude
GR.GAPI                       : Gamma Ray
~Parameter Information Block
~A  Depth       CCL         TT3         AMP3         GR     
   -14.2500   -999.2500   -999.2500   -999.2500   -999.2500
   -14.0000   -999.2500   -999.2500   -999.2500     68.2320
   -13.7500   -999.2500   -999.2500   -999.2500     64.8762
   -13.5000   -999.2500   -999.2500   -999.2500     62.8938
   -13.2500   -999.2500   -999.2500   -999.2500     62.3808
   -13.0000   -999.2500   -999.2500   -999.2500     62.3081
   -12.7500   -999.2500   -999.2500   -999.2500     62.4873
   -12.5000   -999.2500   -999.2500   -999.2500     64.4238
   -12.2500   -999.2500   -999.2500   -999.2500     69.5074
   -12.0000   -999.2500   -999.2500   -999.2500     76.8173
   -11.7500   -999.2500   -999.2500   -999.2500     83.5061
   -11.5000   -999.2500   -999.2500   -999.2500     87.2808
   -11.2500   -999.2500   -999.2500   -999.2500     87.9449
   -11.0000   -999.2500   -999.2500   -999.2500     86.6937
   -10.7500   -999.2500   -999.2500   -999.2500     84.6378
   -10.5000   -999.2500   -999.2500   -999.2500     82.2256
   -10.2500   -999.2500   -999.2500   -999.2500     79.5981
   -10.0000   -999.2500   -999.2500   -999.2500     76.8410
    -9.7500   -999.2500   -999.2500   -999.2500     73.6096
    -9.5000   -999.2500   -999.2500   -999.2500     69.1716
    -9.2500   -999.2500   -999.2500   -999.2500     63.7518
    -9.0000   -999.2500   -999.2500   -999.2500     59.4643
    -8.7500   -999.2500    798.0000      1.5237     58.8068
    -8.5000   -999.2500    798.0000      1.5300     62.1666
    -8.2500   -999.2500    798.0000      1.6320     67.4929
    -8.0000   -999.2500    798.0000      1.7986     72.3052
    -7.7500   -999.2500    798.0000      1.9767     75.3646
    -7.5000   -999.2500    798.0000      2.1324     76.4745
    -7.2500   -999.2500    798.0000      2.2517     75.5692
    -7.0000   -999.2500    798.0000      2.3183     72.8592
    -6.7500   -999.2500    798.0000      2.3148     69.6651
    -6.5000   -999.2500    798.0000      2.2402     68.1048
    -6.2500   -999.2500    798.0000      2.1106     69.4056
    -6.0000   -999.2500    798.0000      1.9496     72.8758
    -5.7500   -999.2500    798.0000      1.7940     76.8509
    -5.5000   -999.2500    798.0000      1.7002     80.3740
    -5.2500   -999.2500    798.0000      1.7213     83.6464
    -5.0000   -999.2500    798.0000      1.8634     87.0615
    -4.7500   -999.2500    798.0000      2.0727     90.1186
    -4.5000   -999.2500    798.0000      2.2722     91.3170
    -4.2500   -999.2500    798.0000      2.4099     89.2169
    -4.0000   -999.2500    798.0000      2.4747     83.9362
    -3.7500   -999.2500    798.0000      2.4809     77.6976
    -3.5000   -999.2500    798.0000      2.4518     73.3398
    -3.2500      0.0000    798.0000      2.4134     71.7048
    -3.0000      0.0000    798.0000      2.3887     70.8432
    -2.7500     -2.0000    798.0000      2.3869     68.1757
    -2.5000      0.0000    798.0000      2.3980     62.9263
    -2.2500      2.0000    798.0000      2.3997     56.1018
    -2.0000     -2.0000    798.0000      2.3727     49.0092
    -1.7500     -2.0000    798.0000      2.3083     42.6421
    -1.5000      2.0000    798.0000      2.2089     37.8037
    -1.2500     -1.7957    798.0000      2.0905     34.7119
    -1.0000      1.7053    798.0000      1.9832     32.6645
    -0.7500     -1.6016    798.0000      1.9108     30.7868
    -0.5000      0.0000    798.0000      1.8650     29.0299
    -0.2500      0.0000    798.0000      1.8125     28.0367
     0.0000      0.0000    798.0000      1.7304     28.3728
     0.2500      0.0000    798.0000      1.6238     30.4553
     0.5000      0.0000    798.0000      1.5114     34.8546
     0.7500      0.0000    798.0000      1.4147     41.6703
     1.0000      0.0000    798.0000      1.3567     49.4278
     1.2500      0.0000    798.0000      1.3951     55.3440
     1.5000      0.0000    798.0000      1.4564     57.3096
     1.7500      0.0000    798.0000      1.5084     55.7885
     2.0000      0.0000    798.0000      1.5419     53.7444
     2.2500      0.0000    798.0000      1.5684     54.4054
     2.5000      0.0000    798.0000      1.6076     58.6581
     2.7500      0.0000    798.0000      1.6690     64.4250
     3.0000      0.0000    798.0000      1.7438     68.4459
     3.2500      0.0000    798.0000      1.8129     68.6110
     3.5000      0.0000    798.0000      1.8637     65.0590
     3.7500      0.0000    798.0000      1.8957     59.7205
     4.0000      0.0000    798.0000      1.9135     54.8654
     4.2500      0.0000    798.0000      1.9190     51.6971
     4.5000      0.0000    798.0000      1.9111     50.0774
     4.7500      0.0000    798.0000      1.8896     49.4060
     5.0000      0.0000    798.0000      1.8582     49.4989
     5.2500      0.0000    798.0000      1.8213     50.6244
     5.5000      1.6168    798.0000      1.7779     53.0138
     5.7500     -2.0000    798.0000      1.7236     56.5158
     6.0000      0.0000    798.0000      1.6649     60.5198
     6.2500     -2.0000    798.0000      1.6270     64.0838
     6.5000     -2.0000    798.0000      1.6346     66.2080
     6.7500      1.7065    798.0000      1.6857     66.0672
     7.0000      0.0000    798.0000      1.7514     63.2877
     7.2500      0.0000    798.0000      1.8035     58.3447
     7.5000      0.0000    798.0000      1.8308     52.5117
     7.7500      0.0000    798.0000      1.8336     46.9752
     8.0000      0.0000    798.0000      1.8164     42.0776
     8.2500      0.0000    798.0000      1.7871     37.7697
     8.5000      0.0000    798.0000      1.7533     34.5160
     8.7500      0.0000    798.0000      1.7186     33.1344
     9.0000      1.6626    798.0000      1.6860     33.7917
     9.2500      0.0000    798.0000      1.6638     35.6761
     9.5000     -2.0000    798.0000      1.6576     37.6744
     9.7500      0.0000    798.0000      1.6607     39.0288
    10.0000      0.0000    798.0000      1.6589     39.5169
    10.2500      0.0000    798.0000      1.6445     39.5613
    10.5000      0.0000    798.0000      1.6221     40.1449
    10.7500      0.0000    798.0000      1.6012     42.0863
    11.0000      0.0000    798.0000      1.5883     45.2989
    11.2500      0.0000    798.0000      1.5872     48.9413
    11.5000      0.0000    798.0000      1.6020     52.2068
    11.7500      0.0000    798.0000      1.6338     54.8600
    12.0000      0.0000    798.0000      1.6775     57.1722
    12.2500      0.0000    798.0000      1.7213     59.4534
    12.5000      0.0000    798.0000      1.7499     61.6808
    12.7500      0.0000    798.0000      1.7531     63.7334
    13.0000      0.0000    798.0000      1.7367     65.8736
    13.2500      0.0000    798.0000      1.7230     68.4163
    13.5000      0.0000    798.0000      1.7336     70.8504
    13.7500      0.0000    798.0000      1.7794     72.0538
    14.0000      0.0000    798.0000      1.8668     71.7886
    14.2500      0.0000    798.0000      1.9948     71.5803
    14.5000      0.0000    798.0000      2.1387     73.8384
    14.7500      0.0000    798.0000      2.2559     80.1004
    15.0000      0.0000    798.0000      2.3240     89.7847
    15.2500      0.0000    798.0000      2.3576    100.2676
    15.5000      0.0000    798.0000      2.3772    108.4081
    15.7500      0.0000    798.0000      2.3783    112.6157
    16.0000      0.0000    798.0000      2.3488    113.8089
    16.2500      0.0000    798.0000      2.3009    114.3802
    16.5000      0.0000    798.0000      2.2652    115.9553
    16.7500      0.0000    798.0000      2.2541    118.0099
    17.0000      0.0000    798.0000      2.2523    118.9244
    17.2500      0.0000    798.0000      2.2480    118.3694
    17.5000      0.0000    798.0000      2.2515    117.8491
    17.7500      0.0000    798.0000      2.2733    118.5333
    18.0000      0.0000    798.0000      2.3045    119.3531
    18.2500      0.0000    798.0000      2.3338    117.9827
    18.5000      0.0000    798.0000      2.3677    113.5621
    18.7500      0.0000    798.0000      2.4179    108.1868
    19.0000      0.0000    798.0000      2.4793    105.5820
