~Version Information
VERS.                      2.0: CWLS Log ASCII Standard - VERSION 2.0
WRAP.                       NO: One line per depth step
~Well Information Block
STRT.FT               640.0000: 
STOP.FT               927.0000: 
STEP.FT                 0.1000: 
NULL.                -999.2500: 
COMP.          Pioneer Natural Resources: COMPANY
WELL.          Claim Jumper 41-22: WELL
FLD.           Purgatoire River: FIELD
LOC.           1120' FNL & 977' FEL: LOCATION
PROV.                 Colorado: PROVINCE
CNTY.               Las Animas: COUNTRY
SRVC.                Patterson: SERVICE COMPANY
DATE.          Thu Jun 23 08:35:14 2005: LOG DATE
UWI.           05-071-08405-00: UNIQUE WELL ID
~Curve Information Block
DEPT.FT            0 000 00 00: Depth
DCAL.in                       : CDL Caliper
RHOB.g/cc                     : CDL Bulk Density
RHOC.g/cc                     : CDL Density Correction
DPOR.pu                       : CDL Density Porosity
GR.GAPI                       : Gamma Ray
NPOR.pu                       : Neutron Porosity
~Parameter Information Block
~A  Depth       DCAL        RHOB        RHOC        DPOR         GR         NPOR    
# ...
   822.4000      7.8953      2.4661      0.1243     11.1460     77.3738     19.3295
   822.5000      7.8992      2.4601      0.1234     11.5119     71.8337     19.1453
   822.6000      7.8992      2.4412      0.1284     12.6573     67.9157     19.0662
   822.7000      7.8992      2.4215      0.0545     13.8466     72.1144     19.1904
   822.8000      7.9006      2.4073      0.0826     14.7068     80.5507     19.2447
   822.9000      7.9006      2.3864      0.1072     15.9743     84.9931     19.0771
   823.0000      7.8984      2.3605      0.0421     17.5462     86.2064     19.0160
   823.1000      7.8984      2.3551      0.0485     17.8738     86.8969     19.3080
   823.2000      7.8984      2.3757      0.0405     16.6266     87.0583     19.6889
   823.3000      7.8944      2.4027      0.1022     14.9884     87.5695     19.8498
   823.4000      7.8944      2.4187      0.0944     14.0153     88.5714     19.7861
   823.5000      7.8866      2.4246      0.0919     13.6589     88.2868     19.6514
   823.6000      7.8866      2.4322      0.1071     13.2003     84.6493     19.4787
   823.7000      7.8866      2.4464      0.1124     12.3384     79.5305     19.4380
   823.8000      7.8800      2.4608      0.1562     11.4695     78.5280     19.7792
   823.9000      7.8800      2.4657      0.1515     11.1676     84.0895     20.2323
   824.0000      7.8837      2.4592      0.1046     11.5640     90.6465     20.2348
   824.1000      7.8837      2.4508      0.0704     12.0754     88.9698     19.7167
   824.2000      7.8837      2.4511      0.0770     12.0518     81.6914     19.1191
   824.3000      7.9000      2.4544      0.0611     11.8561     77.9272     18.7913
   824.4000      7.9000      2.4481      0.0385     12.2346     79.5420     18.6697
   824.5000      7.9168      2.4343      0.0701     13.0739     81.0159     18.6211
   824.6000      7.9168      2.4224      0.0141     13.7966     79.6317     18.6801
   824.7000      7.9168      2.4151      0.0444     14.2337     78.8138     18.7491
   824.8000      7.9201      2.4062      0.0609     14.7735     78.1327     18.5946
   824.9000      7.9201      2.3982      0.0429     15.2594     77.6077     18.3856
   825.0000      7.9143      2.3966      0.0564     15.3588     78.9570     18.4527
   825.1000      7.9143      2.3944      0.0794     15.4933     78.7213     18.6985
   825.2000      7.9143      2.3884      0.0527     15.8565     78.1690     18.6954
   825.3000      7.9081      2.3865      0.0193     15.9708     80.5945     18.3738
   825.4000      7.9081      2.3940      0.0481     15.5178     80.5083     18.0879
   825.5000      7.9068      2.4091      0.0679     14.5970     77.4172     18.0084
   825.6000      7.9068      2.4263      0.0883     13.5550     76.7278     18.0973
   825.7000      7.9068      2.4351      0.0953     13.0255     80.6937     18.4625
   825.8000      7.9104      2.4301      0.0753     13.3300     90.2501     19.1189
   825.9000      7.9104      2.4208      0.0441     13.8895     99.5698     19.7552
   826.0000      7.9207      2.4193      0.0753     13.9845    100.3189     20.0693
   826.1000      7.9207      2.4260      0.0539     13.5776     94.6081     20.1666
   826.2000      7.9207      2.4409      0.0583     12.6726     88.0408     20.1662
   826.3000      7.9302      2.4651      0.0702     11.2065     82.3569     20.0461
   826.4000      7.9302      2.4911      0.0705      9.6312     83.3487     20.0066
   826.5000      7.9255      2.5072      0.0983      8.6543     94.2957     20.2081
   826.6000      7.9255      2.5127      0.0670      8.3203    103.2853     20.5082
   826.7000      7.9255      2.5169      0.0848      8.0661    100.1350     20.6190
   826.8000      7.9118      2.5175      0.0906      8.0310     90.3920     20.4383
   826.9000      7.9118      2.5109      0.1174      8.4293     84.0860     20.1739
   827.0000      7.8966      2.4975      0.1315      9.2406     81.9131     20.0372
   827.1000      7.8966      2.4756      0.0941     10.5702     82.1749     19.9470
   827.2000      7.8966      2.4604      0.0764     11.4918     86.8019     19.8847
   827.3000      7.8815      2.4701      0.0825     10.9001     93.5862     19.9340
   827.4000      7.8815      2.4990      0.1103      9.1530     97.7095     20.1309
   827.5000      7.8704      2.5375      0.0827      6.8155     99.8966     20.6066
   827.6000      7.8704      2.5815      0.1618      4.1510    103.0360     21.3845
   827.7000      7.8704      2.6146      0.1880      2.1450    106.2880     22.0967
   827.8000      7.8643      2.6248      0.1719      1.5248    106.7752     22.2126
   827.9000      7.8643      2.6136      0.1653      2.2031    106.8619     21.6158
   828.0000      7.8647      2.5834      0.1713      4.0337    112.0144     20.9744
   828.1000      7.8647      2.5376      0.1328      6.8124    116.2736     21.0650
   828.2000      7.8647      2.4901      0.0477      9.6921    113.0447     21.6449
   828.3000      7.8730      2.4666      0.0307     11.1181    108.1501     21.9242
   828.4000      7.8730      2.4778      0.0380     10.4337    108.4933     21.6381
   828.5000      7.8875      2.4970      0.0765      9.2728    112.2882     21.0034
   828.6000      7.8875      2.4931      0.0237      9.5082    112.9153     20.3414
   828.7000      7.8875      2.4711      0.0212     10.8396    110.2837     20.0266
   828.8000      7.9010      2.4520      0.0390     11.9989    108.9004     20.4888
   828.9000      7.9010      2.4450      0.0342     12.4214    110.3793     21.5113
   829.0000      7.9083      2.4452      0.0568     12.4093    114.5859     22.1085
   829.1000      7.9083      2.4467      0.0318     12.3240    116.7795     21.9742
   829.2000      7.9083      2.4560      0.0130     11.7578    112.7349     21.7143
   829.3000      7.9102      2.4767      0.0767     10.5032    106.0699     21.4873
   829.4000      7.9102      2.4974      0.0837      9.2490    101.6904     21.0526
   829.5000      7.9101      2.5040      0.0481      8.8481    100.0630     20.6587
   829.6000      7.9101      2.4844      0.0770     10.0382    100.9232     20.8295
   829.7000      7.9101      2.4391      0.0650     12.7840    102.2340     21.4567
   829.8000      7.9103      2.3993     -0.0208     15.1970    100.7134     21.7725
   829.9000      7.9103      2.3927      0.0623     15.5915     97.9823     21.4802
   830.0000      7.9080      2.4081      0.0785     14.6602     97.4393     21.0958
   830.1000      7.9080      2.4240      0.0689     13.6990     97.1826     20.9934
   830.2000      7.9080      2.4297      0.0791     13.3541     95.3828     21.0232
   830.3000      7.8970      2.4236      0.0845     13.7185     95.1064     20.8788
   830.4000      7.8970      2.4213      0.0814     13.8582     96.6758     20.6720
   830.5000      7.8752      2.4424      0.1038     12.5808     95.2955     20.7157
   830.6000      7.8752      2.4820      0.1630     10.1823     92.3326     20.8081
   830.7000      7.8752      2.5114      0.1767      8.4027     91.8994     20.8157
   830.8000      7.8543      2.5178      0.1666      8.0109     92.5064     20.9120
   830.9000      7.8543      2.5101      0.1893      8.4803     92.7373     21.0929
   831.0000      7.8468      2.4921      0.1473      9.5686     93.3354     21.2372
   831.1000      7.8468      2.4659      0.1086     11.1575     96.4103     21.2976
   831.2000      7.8468      2.4352      0.0851     13.0188    104.1492     21.4052
   831.3000      7.8529      2.4051      0.0785     14.8419    108.1523     21.5624
   831.4000      7.8529      2.3885      0.0437     15.8515    101.4743     21.5803
   831.5000      7.8633      2.3997      0.0376     15.1695     93.8055     21.4349
   831.6000      7.8633      2.4370      0.0868     12.9084     93.8223     21.2244
   831.7000      7.8633      2.4898      0.0797      9.7087     95.7387     21.1580
   831.8000      7.8614      2.5469      0.1738      6.2510     96.8915     21.1200
   831.9000      7.8614      2.5873      0.2389      3.7993     98.9758     20.7888
