~Version Information
VERS.                      2.0: CWLS Log ASCII Standard - VERSION 2.0
WRAP.                       NO: One line per depth step
~Well Information Block
STRT.FT                -3.0000: 
STOP.FT              2043.2500: 
STEP.FT                 0.2500: 
NULL.                -999.2500: 
COMP.          Pioneer Natural Resources: COMPANY
WELL.           Galloway 32-13: WELL
FLD.           Purgatorie River: FIELD
LOC.           1809' FNL & 2004' FEL--: LOCATION
PROV.                       CO: PROVINCE
CNTY.               Las Animas: COUNTRY
SRVC.          Patterson Wireline: SERVICE COMPANY
DATE.          Thu Jul 14 13:02:15 2005: LOG DATE
UWI.           05 071 08423 00: UNIQUE WELL ID
~Curve Information Block
DEPT.FT            0 000 00 00: Depth
CCL.                          : Casing Collar Locator
TT3.usec                      : CBL 3' Travel Time
AMP3.mV                       : CBL 3' Amplitude
GR.GAPI                       : Gamma Ray
~Parameter Information Block
~A  Depth       CCL         TT3         AMP3         GR     
# ...
  1873.0000      0.0000    641.4429      6.9374     99.2802
  1873.2500      0.0000    578.2953      6.6805     97.6247
  1873.5000      0.0000    524.9293      6.4842     94.1389
  1873.7500      0.0000    493.0968      6.3515     90.9378
  1874.0000      0.0000    485.9845      6.2244     90.0399
  1874.2500      0.0000    499.2868      6.0077     92.2021
  1874.5000      0.0000    524.3042      5.6251     96.2490
  1874.7500      0.0000    549.0048      5.1023     99.5390
  1875.0000      0.0000    559.3976      4.5819     99.6840
  1875.2500      0.0000    545.8431      4.2373     96.2970
  1875.5000      0.0000    510.9165      4.1794     91.2537
  1875.7500      0.0000    468.9243      4.4137     87.1957
  1876.0000      0.0000    436.0395      4.8269     85.5830
  1876.2500      0.0000    422.1443      5.2259     85.8182
  1876.5000      1.3565    430.6191      5.4453     85.9251
  1876.7500      2.0000    460.7974      5.4389     84.0207
  1877.0000      0.0000    508.2834      5.2808     79.5307
  1877.2500      0.0000    565.1377      5.1099     73.4209
  1877.5000      0.0000    621.6196      5.0582     67.4777
  1877.7500      0.0000    667.7486      5.1801     63.3868
  1878.0000      0.0000    695.7695      5.4333     62.1156
  1878.2500      0.0000    704.9279      5.7450     63.5456
  1878.5000      0.0000    703.2932      6.0718     66.5562
  1878.7500      0.0000    702.2348      6.3616     69.8988
  1879.0000      0.0000    708.5653      6.5022     73.1342
  1879.2500      0.0000    721.3176      6.3808     76.4587
  1879.5000      0.0000    733.8121      6.0085     79.7483
  1879.7500      0.0000    737.9767      5.5468     82.2873
  1880.0000      0.0000    728.7849      5.2041     83.5297
  1880.2500      0.0000    707.5417      5.1155     83.7097
  1880.5000      0.0000    681.5250      5.2994     83.5095
  1880.7500      0.0000    658.3231      5.6760     83.3311
  1881.0000      0.0000    638.9871      6.1051     83.1156
  1881.2500      0.0000    618.5049      6.4397     82.7675
  1881.5000      0.0000    593.9131      6.5903     82.4068
  1881.7500      0.0000    569.2026      6.5511     82.1188
  1882.0000      0.0000    551.3956      6.3605     81.8638
  1882.2500      0.0000    544.5244      6.0509     81.9197
  1882.5000      0.0000    548.0671      5.6690     83.0508
  1882.7500      0.0000    558.5614      5.3279     85.7409
  1883.0000      0.0000    571.5546      5.1772     89.2724
  1883.2500      0.0000    583.8282      5.2977     91.9766
  1883.5000      0.0000    595.3574      5.6469     92.5609
  1883.7500      0.0000    608.0990      6.1001     91.0515
  1884.0000      0.0000    621.0162      6.5112     88.5035
  1884.2500      0.0000    627.1418      6.7576     86.0559
  1884.5000      0.0000    618.9491      6.7939     84.1883
  1884.7500      0.0000    597.3260      6.6856     82.4979
  1885.0000      0.0000    572.6736      6.5485     80.1082
  1885.2500      0.0000    556.6850      6.4261     76.5407
  1885.5000      0.0000    554.2407      6.2462     72.2395
  1885.7500      0.0000    561.6694      5.9241     68.1762
  1886.0000      0.0000    570.5282      5.4986     65.0853
  1886.2500      0.0000    574.2104      5.1315     63.1940
  1886.5000      0.0000    573.1927      4.9542     62.4204
  1886.7500      0.0000    573.6802      4.9305     62.4499
  1887.0000      0.0000    580.6058      4.8952     62.6647
  1887.2500      0.0000    592.9042      4.7319     62.4892
  1887.5000      0.0000    605.5084      4.4836     62.1582
  1887.7500      0.0000    613.9305      4.2773     62.9159
  1888.0000      0.0000    615.9484      4.1730     65.9312
  1888.2500      0.0000    610.4576      4.1210     70.9048
  1888.5000      0.0000    597.2967      4.0542     76.1262
  1888.7500      0.0000    579.1029      3.9819     80.0614
  1889.0000      0.0000    561.8602      3.9746     82.4955
  1889.2500      0.0000    551.4308      4.0697     83.9134
  1889.5000      0.0000    549.4238      4.2208     84.3285
  1889.7500      0.0000    553.6590      4.3474     83.3668
  1890.0000      0.0000    561.9553      4.4086     81.2779
  1890.2500      0.0000    573.5409      4.4087     79.1582
  1890.5000      0.0000    586.8606      4.3516     78.0115
  1890.7500      0.0000    598.2603      4.2333     77.9024
  1891.0000      0.0000    604.4974      4.0888     78.1892
  1891.2500      0.0000    605.9664      4.0102     78.3962
  1891.5000      0.0000    606.1711      4.0802     78.5511
  1891.7500      0.0000    608.1901      4.2884     78.6387
  1892.0000      0.0000    612.5861      4.5329     78.0530
  1892.2500      0.0000    617.7211      4.7121     76.0603
  1892.5000      0.0000    620.0559      4.8189     72.8990
  1892.7500      0.0000    615.0972      4.9414     70.0934
  1893.0000      0.0000    601.4747      5.1665     69.3295
  1893.2500      0.0000    584.6690      5.4881     70.9620
  1893.5000      0.0000    574.1376      5.8163     73.6945
  1893.7500      0.0000    575.1987      6.0605     75.7350
  1894.0000      0.0000    584.3452      6.1798     76.2226
  1894.2500      0.0000    592.8278      6.1736     75.6146
  1894.5000      0.0000    594.1761      6.0716     74.9244
  1894.7500      0.0000    588.5110      5.9455     74.7241
  1895.0000      0.0000    581.3603      5.8878     74.8713
  1895.2500      0.0000    579.2074      5.9371     74.9864
  1895.5000      0.0000    585.0770      6.0291     74.8498
  1895.7500      0.0000    596.4016      6.0415     74.3632
  1896.0000      0.0000    605.9482      5.8876     73.6022
  1896.2500      0.0000    605.7153      5.5824     73.0468
  1896.5000      0.0000    592.4949      5.2455     73.2594
  1896.7500      0.0000    571.0070      5.0354     74.0786
  1897.0000      0.0000    551.0775      5.0457     74.4271
  1897.2500      0.0000    541.3712      5.2398     73.1218
  1897.5000      0.0000    545.4509      5.4917     69.6966
  1897.7500      0.0000    561.9543      5.6922     64.5115
  1898.0000      0.0000    586.2231      5.8098     58.4514
  1898.2500      0.0000    611.7710      5.8627     52.6325
  1898.5000      0.0000    632.3513      5.8770     48.0904
  1898.7500      0.0000    644.3972      5.8785     45.3838
  1899.0000      0.0000    648.1602      5.8844     44.3935
  1899.2500      0.0000    646.8704      5.8822     44.6454
  1899.5000      0.0000    644.8050      5.8360     45.8380
  1899.7500      0.0000    645.1080      5.7208     47.8693
  1900.0000      0.0000    648.3418      5.5520     50.3779
  1900.2500      0.0000    652.8859      5.3955     52.5887
  1900.5000      0.0000    656.7851      5.3422     53.8922
  1900.7500      0.0000    659.1606      5.4447     54.4458
  1901.0000      0.0000    660.1342      5.6653     54.9310
  1901.2500      0.0000    659.9467      5.8890     55.7405
  1901.5000      0.0000    658.1756      5.9972     56.7104
  1901.7500      0.0000    653.5338      5.9385     57.6751
  1902.0000      0.0000    644.8417      5.7432     58.8896
  1902.2500      0.0000    633.7607      5.4853     60.6566
  1902.5000      0.0000    627.4767      5.2470     62.7282
  1902.7500      0.0000    636.6398      5.0952     64.4107
  1903.0000      0.0000    667.0104      5.0413     65.3952
  1903.2500      0.0000    712.3972      5.0113     66.1687
  1903.5000      0.0000    758.2288      4.8975     67.1418
  1903.7500      0.0000    792.8325      4.6636     67.5132
  1904.0000      0.0000    813.9598      4.3876     65.6991
  1904.2500      0.0000    825.6017      4.2028     61.1337
  1904.5000      0.0000    831.9167      4.1972     55.1803
  1904.7500      0.0000    834.8557      4.3354     50.0081
  1905.0000      0.0000    835.1081      4.4702     46.9138
  1905.2500      0.0000    833.4868      4.4605     45.8497
  1905.5000      0.0000    831.4943      4.2962     46.0200
  1905.7500      0.0000    830.8686      4.0905     46.4135
  1906.0000      0.0000    832.3933      3.9484     46.0476
  1906.2500      0.0000    835.1691      3.8676     44.3875
