~Version Information
VERS.                      2.0: CWLS Log ASCII Standard - VERSION 2.0
WRAP.                       NO: One line per depth step
~Well Information Block
STRT.FT               482.2000: 
STOP.FT              2349.0000: 
STEP.FT                 0.1000: 
NULL.                -999.2500: 
COMP.          Pioneer Natural Resources: COMPANY
WELL.          Hill Climb 22-2: WELL
FLD.           Purgatoire River: FIELD
LOC.           1820' FNL & 2193' FWL: LOCATION
PROV.                 Colorado: PROVINCE
CNTY.               Las Animas: COUNTRY
SRVC.                Patterson: SERVICE COMPANY
DATE.          Wed Oct 20 09:25:25 2004: LOG DATE
UWI.           05 071 08175 00: UNIQUE WELL ID
~Curve Information Block
DEPT.FT            0 000 00 00: Depth
DCAL.in                       : CDL Caliper
DPOR.pu                       : CDL Density Porosity
NPOR.pu                       : Neutron Porosity
RHOB.g/cc                     : CDL Bulk Density
RHOC.g/cc                     : CDL Density Correction
GR.GAPI                       : Gamma Ray
~Parameter Information Block
~A  Depth       DCAL        DPOR        NPOR        RHOB        RHOC         GR     
# ...
  2239.0000      8.6281     59.7703     31.9847      1.6638      0.1116     43.6409
  2239.1000      8.6281     56.1482     30.9667      1.7236      0.1263     48.1308
  2239.2000      8.6281     52.2524     29.6680      1.7878      0.0964     52.1925
  2239.3000      8.5616     48.9252     28.9998      1.8427      0.0819     54.1660
  2239.4000      8.5616     46.5160     29.1192      1.8825      0.0872     59.7744
  2239.5000      8.3763     44.7065     29.4539      1.9123      0.0640     72.2192
  2239.6000      8.3763     42.2710     29.2049      1.9525      0.0587     83.6196
  2239.7000      8.3763     37.8973     28.5515      2.0247      0.0816     88.2146
  2239.8000      8.2470     31.5971     28.4243      2.1286      0.1293     90.1950
  2239.9000      8.2470     24.5029     28.8405      2.2457      0.1374     95.0934
  2240.0000      8.2078     17.9619     28.8469      2.3536      0.1762    100.0148
  2240.1000      8.2078     13.3695     28.1812      2.4294      0.1626     98.4390
  2240.2000      8.2078     11.5707     27.8243      2.4591      0.1606     90.8902
  2240.3000      8.1923     12.1898     28.3862      2.4489      0.1374     83.0876
  2240.4000      8.1923     13.8694     29.0369      2.4212      0.1234     82.7559
  2240.5000      8.1999     15.1282     28.7840      2.4004      0.1294     89.0572
  2240.6000      8.1999     15.0674     27.5387      2.4014      0.1077     88.5852
  2240.7000      8.1999     13.9906     25.9951      2.4192      0.1061     79.7613
  2240.8000      8.2139     13.1322     24.9366      2.4333      0.0529     79.2517
  2240.9000      8.2139     12.9548     24.5406      2.4362      0.0259     90.1569
  2241.0000      8.1827     12.7796     24.4740      2.4391      0.0294    100.4259
  2241.1000      8.1827     12.1261     24.4158      2.4499      0.0543    108.0629
  2241.2000      8.1827     11.4683     24.0735      2.4608      0.0434    115.5626
  2241.3000      8.1211     11.4559     23.6423      2.4610      0.0414    120.8615
  2241.4000      8.1211     12.0768     23.9315      2.4507      0.0264    122.1677
  2241.5000      8.0813     12.4439     24.9448      2.4447     -0.0162    115.0531
  2241.6000      8.0813     11.9810     25.8759      2.4523      0.0491     96.1289
  2241.7000      8.0813     11.1335     26.4484      2.4663      0.0174     73.7266
  2241.8000      8.0597     10.2886     26.8543      2.4802      0.0321     68.3976
  2241.9000      8.0597      9.9251     26.7757      2.4862      0.0496     88.8929
  2242.0000      8.0510     10.3969     26.2016      2.4785      0.0331    118.9437
  2242.1000      8.0510     11.1288     25.7037      2.4664      0.0236    135.9953
  2242.2000      8.0510     11.6545     25.5806      2.4577      0.0408    138.5718
  2242.3000      8.0537     12.0381     25.8412      2.4514      0.0300    138.7946
  2242.4000      8.0537     12.0956     25.9846      2.4504      0.0546    137.4855
  2242.5000      8.0575     11.5772     25.6632      2.4590      0.0232    132.6838
  2242.6000      8.0575     10.6310     25.1778      2.4746      0.0479    127.4323
  2242.7000      8.0575      9.8252     25.0064      2.4879      0.0621    121.3275
  2242.8000      8.0539      9.6272     25.3601      2.4912      0.0657    116.5273
  2242.9000      8.0539     10.1215     25.9305      2.4830      0.0514    114.2744
  2243.0000      8.0464     10.7782     26.3390      2.4722      0.0141    116.0221
  2243.1000      8.0464     10.4993     26.2732      2.4768      0.0218    126.6065
  2243.2000      8.0464      9.2005     25.5591      2.4982      0.0839    136.1745
  2243.3000      8.0359      8.1892     24.5724      2.5149      0.0894    131.9157
  2243.4000      8.0359      8.1859     23.5830      2.5149      0.0481    129.2185
  2243.5000      8.0240      8.5320     22.6787      2.5092      0.0357    144.1687
  2243.6000      8.0240      8.4439     22.3689      2.5107      0.0507    159.0190
  2243.7000      8.0240      7.8534     22.9480      2.5204      0.0606    152.8614
  2243.8000      8.0171      7.0605     23.7937      2.5335      0.0373    133.7031
  2243.9000      8.0171      6.1356     23.9697      2.5488      0.0304    117.2624
  2244.0000      8.0146      5.0453     22.9772      2.5668      0.0543    107.3570
  2244.1000      8.0146      4.1403     21.3261      2.5817      0.0435    102.5263
  2244.2000      8.0146      3.8573     19.9972      2.5864      0.0439     99.7182
  2244.3000      8.0145      4.4122     19.4905      2.5772      0.0156     97.7031
  2244.4000      8.0145      5.4817     19.7572      2.5596      0.0009     96.1646
  2244.5000      8.0142      6.4251     20.0065      2.5440     -0.0158     92.2914
  2244.6000      8.0142      7.2027     19.6834      2.5312      0.0059     86.4654
  2244.7000      8.0142      7.7067     19.3912      2.5228     -0.0104     85.0567
  2244.8000      8.0150      7.3485     19.6200      2.5288     -0.0071     88.4684
  2244.9000      8.0150      6.5761     19.8705      2.5415      0.0606     89.8750
  2245.0000      8.0159      6.0605     19.6128      2.5500     -0.0015     86.5602
  2245.1000      8.0159      5.7341     19.0920      2.5554      0.0249     78.9020
  2245.2000      8.0159      5.6598     18.7987      2.5566      0.0397     72.0855
  2245.3000      8.0179      5.2130     18.6691      2.5640      0.0105     71.6743
  2245.4000      8.0179      3.6917     18.3193      2.5891      0.0316     72.3393
  2245.5000      8.0276      2.3536     17.7496      2.6112      0.0837     71.5020
  2245.6000      8.0276      2.4587     17.2432      2.6094      0.0238     76.7926
  2245.7000      8.0276      3.1188     16.9534      2.5985      0.0635     85.5617
  2245.8000      8.0360      3.1810     16.6920      2.5975      0.0264     87.1586
  2245.9000      8.0360      2.8135     16.5318      2.6036      0.0550     83.4639
  2246.0000      8.0257      2.9039     17.0027      2.6021      0.0564     83.4207
  2246.1000      8.0257      3.7012     17.9238      2.5889      0.0668     86.0841
  2246.2000      8.0257      4.6575     18.3221      2.5732      0.0233     84.9286
  2246.3000      8.0142      4.9080     17.7786      2.5690      0.0123     83.3881
  2246.4000      8.0142      4.2043     16.9179      2.5806      0.0603     85.4747
  2246.5000      8.0133      3.7726     16.4721      2.5878      0.0931     83.4691
  2246.6000      8.0133      4.5595     16.7037      2.5748      0.0190     77.2280
  2246.7000      8.0133      5.7790     17.3392      2.5546      0.0419     80.9004
  2246.8000      8.0169      6.4956     17.8988      2.5428     -0.0090     93.1220
  2246.9000      8.0169      6.4028     18.4619      2.5444     -0.0209     99.9870
  2247.0000      8.0200      5.7369     18.8608      2.5553      0.0287    100.7194
  2247.1000      8.0200      5.1298     18.4448      2.5654      0.0304     99.9270
  2247.2000      8.0200      4.9684     17.3174      2.5680      0.0459     95.5631
  2247.3000      8.0193      5.1139     16.1511      2.5656      0.0089     89.9276
  2247.4000      8.0193      5.2483     15.5426      2.5634      0.0320     88.0040
  2247.5000      8.0170      5.2445     15.6282      2.5635      0.0108     84.6525
  2247.6000      8.0170      4.8203     15.8247      2.5705     -0.0053     74.9320
  2247.7000      8.0170      3.8237     15.6247      2.5869      0.0250     69.8559
  2247.8000      8.0160      2.9454     15.3307      2.6014      0.0272     78.1343
  2247.9000      8.0160      2.6671     14.9860      2.6060      0.0197     89.8030
  2248.0000      8.0172      2.5230     14.3317      2.6084      0.0148     94.7658
  2248.1000      8.0172      1.9136     13.8488      2.6184      0.0325     91.1180
  2248.2000      8.0172      0.9481     14.0182      2.6344      0.0251     79.6743
  2248.3000      8.0179      0.3421     14.5091      2.6444      0.0341     68.6225
  2248.4000      8.0179      0.9431     14.8721      2.6344      0.0483     66.0108
  2248.5000      8.0152      2.7928     15.2825      2.6039      0.0060     69.6086
