~Version Information
VERS.                      2.0: CWLS Log ASCII Standard - VERSION 2.0
WRAP.                       NO: One line per depth step
~Well Information Block
STRT.FT               250.0000: 
STOP.FT              1017.5000: 
STEP.FT                 0.1000: 
NULL.                -999.2500: 
COMP.          Pioneer Natural Resources: COMPANY
WELL.              Oscar 41-31: WELL
FLD.           Purgatoire River: FIELD
LOC.           412' FNL & 1216' FEL: LOCATION
PROV.                 Colorado: PROVINCE
CNTY.               Las Animas: COUNTRY
SRVC.                Patterson: SERVICE COMPANY
DATE.          Thu Feb 24 15:11:09 2005: LOG DATE
UWI.           05 071 08290 00: UNIQUE WELL ID
~Curve Information Block
DEPT.FT            0 000 00 00: Depth
DCAL.in                       : CDL Caliper
RHOB.g/cc                     : CDL Bulk Density
RHOC.g/cc                     : CDL Density Correction
DPOR.pu                       : CDL Density Porosity
GR.GAPI                       : Gamma Ray
NPOR.pu                       : Neutron Porosity
~Parameter Information Block
~A  Depth       DCAL        RHOB        RHOC        DPOR         GR         NPOR    
# ...
   758.8000      7.8810      2.4711      0.0683     10.8437    111.2800     21.6743
   758.9000      7.8810      2.4582      0.0651     11.6262    109.7158     21.6178
   759.0000      7.8799      2.4596      0.0129     11.5412    116.5018     21.9092
   759.1000      7.8799      2.4766      0.0634     10.5106    126.3490     21.8078
   759.2000      7.8799      2.4959      0.0892      9.3372    131.1901     21.2428
   759.3000      7.8809      2.5060      0.0966      8.7246    129.2256     20.9421
   759.4000      7.8809      2.5042      0.0884      8.8387    124.0472     21.1377
   759.5000      7.8823      2.4963      0.1029      9.3138    118.4361     21.8885
   759.6000      7.8823      2.4928      0.0550      9.5254    115.6950     22.7278
   759.7000      7.8823      2.4947      0.0762      9.4096    116.9619     22.6280
   759.8000      7.8824      2.4965      0.0615      9.3058    119.0104     21.6986
   759.9000      7.8824      2.4978      0.1061      9.2246    117.2165     21.0992
   760.0000      7.8819      2.4935      0.0839      9.4838    110.3243     21.1326
   760.1000      7.8819      2.4828      0.0701     10.1348    103.0411     20.8368
   760.2000      7.8819      2.4856      0.0390      9.9666    101.9270     20.0366
   760.3000      7.8823      2.5131      0.0649      8.2970    106.9732     19.5604
   760.4000      7.8823      2.5389      0.1383      6.7362    112.0425     19.5806
   760.5000      7.8849      2.5356      0.1015      6.9321    115.2280     19.8195
   760.6000      7.8849      2.5137      0.0813      8.2625    118.6136     20.1937
   760.7000      7.8849      2.4951      0.0692      9.3899    121.4467     20.3586
   760.8000      7.8868      2.4918      0.0416      9.5902    121.5484     19.9499
   760.9000      7.8868      2.4984      0.0943      9.1881    119.1054     19.4439
   761.0000      7.8845      2.4959      0.0779      9.3396    115.7271     19.5056
   761.1000      7.8845      2.4793      0.0414     10.3484    115.2222     20.0308
   761.2000      7.8845      2.4554      0.0615     11.7910    119.2139     20.3008
   761.3000      7.8819      2.4281      0.0397     13.4482    123.4888     20.3220
   761.4000      7.8819      2.4060      0.0058     14.7872    124.3902     20.6660
   761.5000      7.8815      2.3984     -0.0021     15.2501    121.4646     21.2509
   761.6000      7.8815      2.3996      0.0232     15.1778    116.4612     21.1624
   761.7000      7.8815      2.3997      0.0001     15.1688    113.1591     20.2005
   761.8000      7.8819      2.4069      0.0141     14.7331    113.5120     19.6461
   761.9000      7.8819      2.4328      0.0579     13.1637    116.9956     20.1485
   762.0000      7.8821      2.4656      0.1098     11.1783    119.4275     20.7705
   762.1000      7.8821      2.4873      0.0392      9.8577    116.8344     20.5656
   762.2000      7.8821      2.5007      0.0759      9.0487    111.9865     19.7772
   762.3000      7.8818      2.5110      0.0985      8.4236    107.9879     19.0384
   762.4000      7.8818      2.5178      0.0849      8.0135    107.0176     18.5670
   762.5000      7.8814      2.5261      0.0698      7.5110    111.1358     18.3510
   762.6000      7.8814      2.5325      0.1148      7.1209    119.0610     18.1928
   762.7000      7.8814      2.5231      0.1134      7.6926    125.6691     18.0081
   762.8000      7.8817      2.5033      0.0593      8.8880    124.4173     18.2254
   762.9000      7.8817      2.4948      0.0549      9.4049    117.9232     19.0135
   763.0000      7.8817      2.5017      0.0644      8.9867    113.7799     20.0134
   763.1000      7.8817      2.5094      0.0774      8.5205    114.1445     20.7080
   763.2000      7.8817      2.5050      0.0967      8.7862    117.7420     21.0032
   763.3000      7.8810      2.4875      0.0755      9.8501    120.1137     20.9610
   763.4000      7.8810      2.4670      0.0660     11.0900    117.8191     20.4692
   763.5000      7.8804      2.4538      0.0377     11.8922    113.1576     19.8279
   763.6000      7.8804      2.4470      0.0557     12.3027    108.6780     19.5462
   763.7000      7.8804      2.4407      0.0591     12.6857    104.0582     19.7089
   763.8000      7.8807      2.4372      0.0013     12.8984     98.4383     20.0012
   763.9000      7.8807      2.4367      0.0589     12.9282     94.4505     20.3166
   764.0000      7.8815      2.4283      0.0708     13.4369     94.2296     20.9937
   764.1000      7.8815      2.4219     -0.0018     13.8219     95.7093     21.7929
   764.2000      7.8815      2.4428      0.0624     12.5551     98.1804     21.7279
   764.3000      7.8821      2.4877      0.0607      9.8374    101.3191     20.7808
   764.4000      7.8821      2.5310      0.1236      7.2118    104.4689     19.8987
   764.5000      7.8818      2.5523      0.1522      5.9218    106.3117     19.3998
   764.6000      7.8818      2.5482      0.1277      6.1668    104.2802     18.8378
   764.7000      7.8818      2.5321      0.1076      7.1462     98.8245     18.2001
   764.8000      7.8810      2.5177      0.1560      8.0171     94.9338     17.8736
   764.9000      7.8810      2.5103      0.1131      8.4644     96.8167     17.8887
   765.0000      7.8799      2.5027      0.1288      8.9267    101.5237     17.8748
   765.1000      7.8799      2.4840      0.0836     10.0589    102.2259     17.7394
   765.2000      7.8799      2.4683      0.0438     11.0134    108.0660     17.9670
   765.3000      7.8794      2.4824      0.0158     10.1586    104.3026     18.4800
   765.4000      7.8794      2.5245      0.0859      7.6089    102.4148     18.3924
   765.5000      7.8802      2.5622      0.1276      5.3233     99.8310     17.7858
   765.6000      7.8802      2.5728      0.1288      4.6796     97.3116     17.5725
   765.7000      7.8802      2.5633      0.1315      5.2536     96.2659     17.6786
   765.8000      7.8816      2.5469      0.1354      6.2482     96.2889     17.5131
   765.9000      7.8816      2.5192      0.1607      7.9244     95.7976     17.2347
   766.0000      7.8823      2.4769      0.1338     10.4893     93.7593     17.2916
   766.1000      7.8823      2.4433      0.0691     12.5257     91.4277     17.6372
   766.2000      7.8823      2.4497      0.0288     12.1398     96.3151     17.8580
   766.3000      7.8820      2.5025      0.0876      8.9368     89.7304     17.9264
   766.4000      7.8820      2.5829      0.1395      4.0690     80.5012     17.9881
   766.5000      7.8818      2.6580      0.2529     -0.4842     73.0201     17.9229
   766.6000      7.8818      2.6916      0.2968     -2.5232     71.1516     17.5118
   766.7000      7.8818      2.6827      0.2055     -1.9804     71.4550     16.7033
   766.8000      7.8815      2.6618      0.2426     -0.7150     68.5188     15.7633
   766.9000      7.8815      2.6392      0.2138      0.6543     61.7991     14.9347
   767.0000      7.8811      2.6136      0.0983      2.2070     53.4230     14.1516
   767.1000      7.8811      2.5879      0.0735      3.7666     47.5303     13.1671
   767.2000      7.8811      2.5594      0.0618      5.4910     50.8122     12.1177
   767.3000      7.8804      2.5330      0.0149      7.0933     53.7100     11.4062
   767.4000      7.8804      2.5139      0.0026      8.2480     56.3525     11.0394
   767.5000      7.8789      2.4976      0.0506      9.2381     55.8027     10.8434
   767.6000      7.8789      2.4845      0.0279     10.0320     52.3539     10.8445
   767.7000      7.8789      2.4760      0.0522     10.5425     50.3980     11.0418
   767.8000      7.8781      2.4638      0.0500     11.2843     52.2536     11.4748
   767.9000      7.8781      2.4456      0.0137     12.3862     53.9373     12.1682
   768.0000      7.8801      2.4327     -0.0077     13.1679     51.8932     12.6389
   768.1000      7.8801      2.4325      0.0248     13.1796     49.3177     12.3836
   768.2000      7.8801      2.4385      0.0348     12.8196     54.5780     11.8342
   768.3000      7.8819      2.4414      0.0662     12.6453     59.3100     11.7111
