~Version Information
VERS.                      2.0: CWLS Log ASCII Standard - VERSION 2.0
WRAP.                       NO: One line per depth step
~Well Information Block
STRT.FT                 0.5000: 
STOP.FT              2744.2500: 
STEP.FT                 0.2500: 
NULL.                -999.2500: 
COMP.          Petrogulf Corporation: COMPANY
WELL.              Silva 1-43V: WELL
FLD.           Purgatoire River: FIELD
LOC.           2010' FSL & 614' FEL--: LOCATION
PROV.                 Colorado: PROVINCE
CNTY.               Las Animas: COUNTRY
SRVC.                Patterson: SERVICE COMPANY
DATE.          Mon Sep 12 10:37:12 2005: LOG DATE
UWI.           05 071 08371 00: UNIQUE WELL ID
~Curve Information Block
DEPT.FT            0 000 00 00: Depth
CCL.                          : Casing Collar Locator
TT3.usec                      : CBL 3' Travel Time
AMP3.mV                       : CBL 3' Amplitude
GR.GAPI                       : Gamma Ray
~Parameter Information Block
~A  Depth       CCL         TT3         AMP3         GR     
# ...
  1072.5000      0.0000    820.5192      9.5145    136.6310
  1072.7500      0.0000    773.7147      9.2741    136.6019
  1073.0000      0.0000    745.4125      9.0936    133.6646
  1073.2500      0.0000    732.9667      9.0435    129.3336
  1073.5000      0.0000    727.6482      9.0634    125.8714
  1073.7500      0.0000    723.1446      9.0564    125.1132
  1074.0000      0.0000    718.6756      8.9804    127.7717
  1074.2500      0.0000    715.9652      8.8502    133.0471
  1074.5000      0.0000    715.1686      8.6885    138.8654
  1074.7500      0.0000    715.0090      8.5041    143.2032
  1075.0000      0.0000    715.6046      8.3139    145.5597
  1075.2500      0.0000    718.6211      8.1563    146.9027
  1075.5000      0.0000    724.5234      8.0607    148.0346
  1075.7500      0.0000    731.5321      8.0086    148.4492
  1076.0000      0.0000    737.5824      7.9382    147.1843
  1076.2500      0.0000    741.9178      7.7941    144.4145
  1076.5000      0.0000    744.4797      7.5756    141.5303
  1076.7500      0.0000    744.7102      7.3398    139.5693
  1077.0000      0.0000    741.3358      7.1539    138.1068
  1077.2500      0.0000    733.2015      7.0442    135.9188
  1077.5000      0.0000    720.6160      6.9875    132.3947
  1077.7500      0.0000    706.0495      6.9428    128.1490
  1078.0000      0.0000    693.0173      6.8812    124.5788
  1078.2500      0.0000    683.8845      6.7926    123.0617
  1078.5000      0.0000    678.7933      6.6807    124.1698
  1078.7500      0.0000    676.4814      6.5579    126.9983
  1079.0000      0.0000    675.6284      6.4376    129.3381
  1079.2500      0.0000    675.4523      6.3299    129.3254
  1079.5000      0.0000    675.6297      6.2474    127.2746
  1079.7500      0.0000    676.1210      6.2138    125.4250
  1080.0000      0.0000    677.1224      6.2623    125.5238
  1080.2500      0.0000    678.9244      6.4222    126.9106
  1080.5000      0.0000    681.4733      6.7049    127.2348
  1080.7500      0.0000    683.9316      7.1007    124.7556
  1081.0000      0.0000    685.0767      7.5841    119.8185
  1081.2500      0.0000    684.6317      8.1249    114.5296
  1081.5000      0.0000    684.2025      8.6935    111.1820
  1081.7500      0.0000    686.6064      9.2587    110.5951
  1082.0000      0.0000    693.9573      9.7770    111.7756
  1082.2500      0.0000    705.7900     10.1915    113.2202
  1082.5000      0.0000    718.4637     10.4524    114.2254
  1082.7500      0.0000    726.6903     10.5449    114.8306
  1083.0000      0.0000    726.6006     10.4921    115.0513
  1083.2500      0.0000    718.1817     10.3261    114.6590
  1083.5000      0.0000    705.1666     10.0636    113.5318
  1083.7500      0.0000    692.4779      9.7165    111.9625
  1084.0000      0.0000    683.3451      9.3179    110.6560
  1084.2500      0.0000    678.3555      8.9228    110.5196
  1084.5000      0.0000    676.6013      8.5807    112.2628
  1084.7500      0.0000    677.2371      8.3116    115.8235
  1085.0000      0.0000    679.9576      8.1150    119.9940
  1085.2500      0.0000    684.2966      7.9984    122.8237
  1085.5000      0.0000    688.8351      7.9992    122.9027
  1085.7500      0.0000    691.7316      8.1783    120.4399
  1086.0000      0.0000    692.3162      8.5852    116.8906
  1086.2500      0.0000    691.5403      9.2096    113.5234
  1086.5000      0.0000    690.4864      9.9503    110.5502
  1086.7500      0.0000    689.4241     10.6345    107.4701
  1087.0000      0.0000    688.7419     11.0905    103.8438
  1087.2500      0.0000    689.3029     11.2293     99.8668
  1087.5000      0.0000    690.9038     11.0765     96.5875
  1087.7500      0.0000    691.6401     10.7367     95.6097
  1088.0000      0.0000    689.9649     10.3205     98.2076
  1088.2500      0.0000    686.6851      9.8882    104.3017
  1088.5000      0.0000    684.2184      9.4428    112.0460
  1088.7500      0.0000    684.4722      8.9574    118.8059
  1089.0000      0.0000    687.6321      8.4103    123.1065
  1089.2500      0.0000    692.0792      7.8084    125.6592
  1089.5000      0.0000    695.0651      7.1933    128.2072
  1089.7500      0.0000    694.3730      6.6294    131.4568
  1090.0000      0.0000    690.0236      6.1815    134.4733
  1090.2500      0.0000    684.1996      5.8910    135.9942
  1090.5000      0.0000    679.4208      5.7577    135.8430
  1090.7500      0.0000    677.1293      5.7405    134.9816
  1091.0000      0.0000    677.8891      5.7786    134.6977
  1091.2500      0.0000    682.1802      5.8195    135.8856
  1091.5000      0.0000    690.2199      5.8365    138.5745
  1091.7500      0.0000    700.9081      5.8301    141.7941
  1092.0000      0.0000    711.7440      5.8177    144.0083
  1092.2500      0.0000    720.6628      5.8191    143.9670
  1092.5000      0.0000    727.6649      5.8518    141.4218
  1092.7500      0.0000    733.8275      5.9347    137.1168
  1093.0000      0.0000    739.0859      6.0864    131.9993
  1093.2500      0.0000    741.7289      6.3152    126.6056
  1093.5000      0.0000    739.6630      6.6129    121.4380
  1093.7500      0.0000    731.7822      6.9591    117.5163
  1094.0000      0.0000    718.9083      7.3306    115.7616
  1094.2500      0.0000    704.0062      7.7079    115.9259
  1094.5000      0.0000    690.8834      8.0746    116.9223
  1094.7500      0.0000    681.9841      8.4133    118.1700
  1095.0000      0.0000    677.4206      8.7095    119.8307
  1095.2500      0.0000    676.0096      8.9639    121.8938
  1095.5000      0.0000    676.8342      9.1968    124.0047
  1095.7500      0.0000    679.7132      9.4315    126.1879
  1096.0000      0.0000    684.3578      9.6716    128.8195
  1096.2500      0.0000    689.4188      9.8884    131.9004
  1096.5000      0.0000    692.8774     10.0301    135.0427
  1096.7500      0.0000    693.5641     10.0494    137.9756
  1097.0000      0.0000    691.8708      9.9312    140.4617
  1097.2500      0.0000    688.9894      9.6991    141.9511
  1097.5000      0.0000    686.3250      9.3961    141.7956
  1097.7500      0.0000    685.7562      9.0567    139.7938
  1098.0000      0.0000    689.2945      8.6949    136.4989
  1098.2500      0.0000    697.5765      8.3194    133.1323
  1098.5000      0.0000    708.8428      7.9562    131.0270
  1098.7500      0.0000    719.8379      7.6471    130.7572
  1099.0000      0.0000    727.9564      7.4240    131.7442
  1099.2500      0.0000    732.7505      7.2884    132.8697
  1099.5000      0.0000    735.6680      7.2147    133.4819
  1099.7500      0.0000    738.2795      7.1664    133.8733
  1100.0000      0.0000    740.3734      7.1127    135.0047
  1100.2500      0.0000    739.7095      7.0385    137.7270
  1100.5000      0.0000    733.7513      6.9426    141.8784
  1100.7500      0.0000    721.8396      6.8278    146.0382
  1101.0000      0.0000    706.1503      6.6930    148.5239
  1101.2500      0.0000    690.6196      6.5329    148.9272
  1101.5000      0.0000    678.4255      6.3400    148.5576
  1101.7500      0.0000    670.4576      6.1038    149.1300
  1102.0000      0.0000    666.4059      5.8139    150.8569
  1102.2500      0.0000    666.7917      5.4683    151.9572
  1102.5000      0.0000    673.1762      5.0794    150.0791
  1102.7500      0.0000    686.3321      4.6676    143.8998
  1103.0000      0.0000    705.0821      4.2515    133.4087
  1103.2500      0.0000    727.7436      3.8460    119.6130
  1103.5000      0.0000    754.4219      3.4726    104.6824
  1103.7500      0.0000    786.0030      3.1641     91.7490
  1104.0000      0.0000    819.2224      2.9539     83.4885
  1104.2500      0.0000    843.9769      2.8636     80.6239
  1104.5000      0.0000    848.6298      2.9029     82.0514
  1104.7500      0.0000    829.1048      3.0747     86.4221
  1105.0000      0.0000    792.0397      3.3739     93.1746
  1105.2500      0.0000    749.5268      3.7860    101.6787
  1105.5000      0.0000    711.6981      4.3068    109.9229
  1105.7500      0.0000    683.2006      4.9823    115.1439
