~Version Information
VERS.                      2.0: CWLS Log ASCII Standard - VERSION 2.0
WRAP.                       NO: One line per depth step
~Well Information Block
STRT.FT               453.5000: 
STOP.FT              1386.0000: 
STEP.FT                 0.1000: 
NULL.                -999.2500: 
COMP.          Petrogulf Corporation: COMPANY
WELL.          Great Plains 22-22R: WELL
FLD.           Purgatoire River: FIELD
LOC.           2042' FNL & 1657' FWL--: LOCATION
PROV.                 Colorado: PROVINCE
CNTY.               Las Animas: COUNTRY
SRVC.                Patterson: SERVICE COMPANY
DATE.          Fri Sep 09 14:42:42 2005: LOG DATE
UWI.           05 071 08028 00: UNIQUE WELL ID
~Curve Information Block
DEPT.FT            0 000 00 00: Depth
DCAL.in                       : CDL Caliper
RHOB.g/cc                     : CDL Bulk Density
RHOC.g/cc                     : CDL Density Correction
DPOR.pu                       : CDL Density Porosity
NPOR.pu                       : Neutron Porosity
GR.GAPI                       : Gamma Ray
~Parameter Information Block
~A  Depth       DCAL        RHOB        RHOC        DPOR        NPOR         GR     
# ...
  1307.9000      7.8535      2.6113      0.0723      2.3457     17.2339    103.2957
  1308.0000      7.8400      2.6154      0.0353      2.1000     17.0130    103.8379
  1308.1000      7.8400      2.6188      0.0608      1.8924     17.2955    107.3926
  1308.2000      7.8400      2.6246      0.0387      1.5410     17.6521    110.4737
  1308.3000      7.8382      2.6336      0.0671      0.9946     17.5037    111.9125
  1308.4000      7.8382      2.6349      0.0603      0.9132     17.1547    111.2325
  1308.5000      7.8436      2.6185      0.0248      1.9102     17.1008    104.9083
  1308.6000      7.8436      2.5970     -0.0134      3.2103     17.2913     93.4966
  1308.7000      7.8436      2.5865     -0.0043      3.8496     17.5721     87.6341
  1308.8000      7.8530      2.5819      0.0010      4.1298     17.9129     91.5668
  1308.9000      7.8530      2.5806     -0.0079      4.2044     18.0833     96.2974
  1309.0000      7.8642      2.5997     -0.0199      3.0472     18.0119     98.8083
  1309.1000      7.8642      2.6393      0.0399      0.6475     18.1917    102.9065
  1309.2000      7.8642      2.6714      0.0424     -1.2984     19.1235    105.7976
  1309.3000      7.8753      2.6780      0.0571     -1.6984     20.1905    102.8303
  1309.4000      7.8753      2.6586      0.0723     -0.5236     20.4220     96.6884
  1309.5000      7.8761      2.6249      0.0193      1.5210     20.6038     94.9984
  1309.6000      7.8761      2.6026     -0.0013      2.8702     21.4919    100.4203
  1309.7000      7.8761      2.6034      0.0216      2.8245     22.2706    110.1615
  1309.8000      7.8670      2.6071      0.0599      2.6023     22.5341    121.3513
  1309.9000      7.8670      2.5995     -0.0048      3.0587     22.8549    130.0351
  1310.0000      7.8611      2.5951      0.0284      3.3269     23.4617    133.9440
  1310.1000      7.8611      2.6024      0.0310      2.8855     23.7782    134.6326
  1310.2000      7.8611      2.6108      0.0228      2.3730     23.2497    134.1691
  1310.3000      7.8595      2.6065      0.0497      2.6376     22.3327    132.9520
  1310.4000      7.8595      2.5847      0.0052      3.9551     21.9450    131.7168
  1310.5000      7.8609      2.5558      0.0279      5.7089     22.2522    133.9351
  1310.6000      7.8609      2.5336     -0.0060      7.0574     22.6271    139.9605
  1310.7000      7.8609      2.5244     -0.0040      7.6097     22.6284    144.5098
  1310.8000      7.8675      2.5242     -0.0073      7.6245     22.5208    144.7430
  1310.9000      7.8675      2.5300     -0.0266      7.2733     22.4650    141.1649
  1311.0000      7.8758      2.5452      0.0025      6.3533     22.2819    133.5728
  1311.1000      7.8758      2.5688      0.0051      4.9184     22.0257    123.5453
  1311.2000      7.8758      2.5960      0.0196      3.2745     21.8128    117.2972
  1311.3000      7.8820      2.6161      0.0547      2.0561     21.4818    114.1052
  1311.4000      7.8820      2.6196      0.0443      1.8429     21.1809    109.9803
  1311.5000      7.8841      2.6152      0.0425      2.1065     21.2211    107.8804
  1311.6000      7.8841      2.6214      0.0107      1.7352     21.6536    110.1742
  1311.7000      7.8841      2.6372      0.0494      0.7787     22.3888    114.6909
  1311.8000      7.8795      2.6413      0.0491      0.5264     23.1504    119.8305
  1311.9000      7.8795      2.6271      0.0259      1.3880     23.5806    125.3471
  1312.0000      7.8709      2.6082      0.0608      2.5361     23.6466    129.0057
  1312.1000      7.8709      2.5963      0.0343      3.2560     23.5714    130.9735
  1312.2000      7.8709      2.5973      0.0196      3.1962     23.3485    134.3470
  1312.3000      7.8651      2.6050      0.0728      2.7285     22.6422    137.6548
  1312.4000      7.8651      2.6080      0.0682      2.5473     21.6725    139.3521
  1312.5000      7.8632      2.6072      0.0632      2.5910     21.0813    136.5912
  1312.6000      7.8632      2.6097      0.0616      2.4454     20.8504    128.2601
  1312.7000      7.8632      2.6155      0.0706      2.0897     20.6740    121.2787
  1312.8000      7.8622      2.6187      0.0652      1.8984     20.3504    116.2776
  1312.9000      7.8622      2.6143      0.0211      2.1617     19.8180    107.1144
  1313.0000      7.8605      2.6083      0.0065      2.5282     19.3323     95.8941
  1313.1000      7.8605      2.6116      0.0112      2.3274     19.0222     88.0534
  1313.2000      7.8605      2.6272      0.0254      1.3839     18.8484     84.2888
  1313.3000      7.8592      2.6461      0.0526      0.2343     18.7339     80.9377
  1313.4000      7.8592      2.6567      0.0586     -0.4037     18.3651     77.7278
  1313.5000      7.8590      2.6508      0.0552     -0.0503     17.5306     77.6622
  1313.6000      7.8590      2.6255      0.0236      1.4871     16.4794     79.4296
  1313.7000      7.8590      2.5927     -0.0048      3.4699     15.7441     78.6194
  1313.8000      7.8583      2.5719      0.0072      4.7314     15.3533     74.8379
  1313.9000      7.8583      2.5642      0.0171      5.1994     14.9214     73.8977
  1314.0000      7.8578      2.5622      0.0072      5.3208     14.7103     77.4547
  1314.1000      7.8578      2.5681     -0.0161      4.9650     15.1228     79.6111
  1314.2000      7.8578      2.5822      0.0187      4.1089     15.6092     76.9694
  1314.3000      7.8581      2.5970      0.0175      3.2109     15.4376     71.9916
  1314.4000      7.8581      2.5998      0.0522      3.0444     14.9141     69.3895
  1314.5000      7.8523      2.5853      0.0073      3.9183     14.6525     69.7664
  1314.6000      7.8523      2.5690      0.0036      4.9078     14.8388     70.6887
  1314.7000      7.8523      2.5688     -0.0120      4.9217     15.4077     72.5947
  1314.8000      7.8405      2.5812      0.0316      4.1705     15.9644     76.0649
  1314.9000      7.8405      2.5852      0.0595      3.9245     16.3579     79.8743
  1315.0000      7.8307      2.5750      0.0042      4.5483     16.8702     83.4075
  1315.1000      7.8307      2.5664     -0.0401      5.0647     17.7074     87.1064
  1315.2000      7.8307      2.5698      0.0077      4.8605     18.8160     90.1254
  1315.3000      7.8242      2.5826      0.0075      4.0853     19.8440     90.0364
  1315.4000      7.8242      2.5945      0.0348      3.3655     20.3943     89.3720
  1315.5000      7.8206      2.5936      0.0249      3.4186     20.5625     93.0943
  1315.6000      7.8206      2.5852     -0.0013      3.9288     20.8929     98.7430
  1315.7000      7.8206      2.5800      0.0061      4.2447     21.7276    103.0268
  1315.8000      7.8214      2.5783      0.0207      4.3464     22.9787    109.8695
  1315.9000      7.8214      2.5814      0.0338      4.1588     24.2454    120.3072
  1316.0000      7.8236      2.5874      0.0770      3.7943     25.0573    129.7581
  1316.1000      7.8236      2.5853      0.0530      3.9188     25.1620    135.0620
  1316.2000      7.8236      2.5732      0.0554      4.6538     24.8760    136.5475
  1316.3000      7.8334      2.5578      0.0340      5.5876     24.8436    137.2273
  1316.4000      7.8334      2.5409      0.0329      6.6150     25.1852    141.1375
  1316.5000      7.8500      2.5252      0.0151      7.5633     25.5335    147.5239
  1316.6000      7.8500      2.5144      0.0352      8.2177     25.9806    151.4965
  1316.7000      7.8500      2.4996      0.0646      9.1157     26.8160    155.5828
  1316.8000      7.8607      2.4776      0.0075     10.4496     27.8169    164.1206
  1316.9000      7.8607      2.4690     -0.0047     10.9698     28.6649    171.7728
  1317.0000      7.8677      2.4834      0.0356     10.0950     29.1428    172.8278
  1317.1000      7.8677      2.5053      0.0353      8.7713     29.0706    169.3624
  1317.2000      7.8677      2.5238      0.0640      7.6483     28.6711    165.7717
  1317.3000      7.8783      2.5394      0.0712      6.7003     28.0569    163.6375
  1317.4000      7.8783      2.5507      0.0903      6.0195     27.1527    168.6398
