~Version Information
VERS.                      2.0: CWLS Log ASCII Standard - VERSION 2.0
WRAP.                       NO: One line per depth step
~Well Information Block
STRT.FT                60.5000: 
STOP.FT              1875.7500: 
STEP.FT                 0.2500: 
NULL.                -999.2500: 
COMP.          Petrogulf Corporation: COMPANY
WELL.             State 16-14R: WELL
FLD.           Purgatorie River: FIELD
LOC.           598' FSL & 682' FWL--: LOCATION
PROV.                       CO: PROVINCE
CNTY.               Las Animas: COUNTRY
SRVC.                         : SERVICE COMPANY
DATE.          Fri Nov 12 08:50:45 2004: LOG DATE
UWI.            005 071 08034 : UNIQUE WELL ID
~Curve Information Block
DEPT.FT            0 000 00 00: Depth
GR.GAPI                       : Gamma Ray
CCL.                          : Casing Collar Locator
TT3.usec                      : CBL 3' Travel Time
AMP3.mV                       : CBL 3' Amplitude
~Parameter Information Block
~A  Depth        GR         CCL         TT3         AMP3    
# ...
  1233.0000    143.3781      0.0000    705.8409      7.7589
  1233.2500    136.6183      0.0000    704.8600      7.7055
  1233.5000    129.7203      0.0000    701.6082      7.6476
  1233.7500    123.2022      0.0000    697.8629      7.5868
  1234.0000    116.5335      0.0000    696.7147      7.5190
  1234.2500    109.1175      0.0000    700.8649      7.4358
  1234.5000    101.4425      0.0000    710.1137      7.3367
  1234.7500     94.8814      0.0000    720.8350      7.2357
  1235.0000     90.5317      0.0000    728.4330      7.1569
  1235.2500     88.3931      0.0000    730.4716      7.1259
  1235.5000     87.4851      0.0000    727.6767      7.1613
  1235.7500     86.5530      0.0000    722.6208      7.2596
  1236.0000     84.7426      0.0000    717.9931      7.3905
  1236.2500     82.0739      0.0000    715.6187      7.5181
  1236.5000     79.6645      0.0000    715.8741      7.6296
  1236.7500     79.0920      0.0000    717.5941      7.7385
  1237.0000     80.8247      0.0000    719.0328      7.8630
  1237.2500     83.4615      0.0000    719.1458      8.0129
  1237.5000     85.0977      0.0000    718.1268      8.2079
  1237.7500     85.2029      0.0000    717.1856      8.5020
  1238.0000     84.7089      0.0000    717.6496      8.9657
  1238.2500     84.7432      0.0000    719.8284      9.6119
  1238.5000     85.8610      0.0000    723.1426     10.3318
  1238.7500     88.0062      0.0000    727.5099     10.9309
  1239.0000     90.3697      0.0000    734.0136     11.2502
  1239.2500     91.4572      0.0000    744.2276     11.2661
  1239.5000     90.1164      0.0000    758.9401     11.0931
  1239.7500     86.7773      0.0000    776.8375     10.9073
  1240.0000     83.4895      0.0000    794.7568     10.8441
  1240.2500     82.8946      1.6046    810.5602     10.9379
  1240.5000     87.3985      0.0000    825.2638     11.1418
  1240.7500     98.5486      0.0000    840.9609     11.3732
  1241.0000    115.9121      0.0000    856.8224     11.5104
  1241.2500    136.3073      0.0000    867.7650     11.3888
  1241.5000    155.0104      0.0000    867.2375     10.9043
  1241.7500    168.6204      0.0000    852.2645     10.1662
  1242.0000    177.0686      0.0000    826.5394      9.4903
  1242.2500    182.7183      0.0000    798.1631      9.1541
  1242.5000    187.4677      0.0000    774.1844      9.1615
  1242.7500    190.8837      0.0000    757.6255      9.3010
  1243.0000    190.9167      0.0000    748.5618      9.4178
  1243.2500    186.0002      0.0000    745.7728      9.5664
  1243.5000    176.6205      0.0000    747.0598      9.9018
  1243.7500    165.2723      0.0000    749.7767     10.4846
  1244.0000    154.8408      0.0000    752.0480     11.2050
  1244.2500    146.6971      0.0000    753.3245     11.8559
  1244.5000    140.1336      0.0000    753.8558     12.2568
  1244.7500    133.4558      0.0000    754.0248     12.3333
  1245.0000    125.5964      0.0000    754.0563     12.1210
  1245.2500    116.9049      0.0000    753.9470     11.7177
  1245.5000    108.7303      0.0000    753.5829     11.2108
  1245.7500    102.3173      0.0000    753.1863     10.6044
  1246.0000     97.9944      0.0000    753.9698      9.7700
  1246.2500     95.3341      0.0000    758.0384      8.5096
  1246.5000     93.8348      0.0000    766.3909      6.8113
  1246.7500     93.2711      0.0000    776.3088      5.1102
  1247.0000     93.6241      0.0000    782.0925      4.1256
  1247.2500     95.0206      0.0000    779.9352      4.2469
  1247.5000     97.6460      0.0000    771.3067      5.1539
  1247.7500    101.3849      0.0000    760.3958      6.1640
  1248.0000    105.4071      0.0000    749.3769      6.8338
  1248.2500    108.3234      0.0000    737.5866      7.1361
  1248.5000    109.0362      0.0000    724.7039      7.2325
  1248.7500    107.6056      0.0000    713.2679      7.2519
  1249.0000    105.2033      0.0000    707.2086      7.2497
  1249.2500    103.0338      0.0000    708.0090      7.2521
  1249.5000    101.2595      0.0000    713.1028      7.2809
  1249.7500     99.1430      0.0000    718.4664      7.3458
  1250.0000     96.3887      0.0000    722.0329      7.4317
  1250.2500     94.0967      0.0000    723.9580      7.5108
  1250.5000     93.8145      0.0000    724.6978      7.5643
  1250.7500     95.8093      0.0000    724.3236      7.5812
  1251.0000     98.8866      0.0000    723.4332      7.5406
  1251.2500    101.7344      0.0000    723.3804      7.4186
  1251.5000    103.8305      0.0000    725.0514      7.2200
  1251.7500    105.3853      0.0000    727.9130      6.9916
  1252.0000    107.0878      0.0000    730.6509      6.7924
  1252.2500    109.7289      0.0000    732.4879      6.6532
  1252.5000    113.5611      0.0000    733.6813      6.5628
  1252.7500    118.1795      0.0000    734.9815      6.4836
  1253.0000    123.1452      0.0000    736.7006      6.3825
  1253.2500    128.3251      0.0000    738.1364      6.2583
  1253.5000    133.5484      0.0000    738.0306      6.1442
  1253.7500    138.5058      0.0000    735.9171      6.0829
  1254.0000    143.2559      0.0000    732.8066      6.0966
  1254.2500    148.1903      0.0000    730.0775      6.1766
  1254.5000    153.0314      0.0000    727.9487      6.2967
  1254.7500    156.4618      0.0000    725.7887      6.4280
  1255.0000    157.3304      0.0000    723.8693      6.5509
  1255.2500    155.9542      0.0000    723.8928      6.6646
  1255.5000    153.9856      0.0000    727.1235      6.7894
  1255.7500    153.3079      0.0000    732.5132      6.9444
  1256.0000    155.1143      0.0000    737.5312      7.1127
  1256.2500    159.4245      0.0000    740.7463      7.2394
  1256.5000    164.9630      0.0000    742.8224      7.2828
  1256.7500    169.7470      0.0000    745.0230      7.2710
  1257.0000    172.2202      0.0000    747.5865      7.2955
  1257.2500    172.0426      0.0000    749.8324      7.4388
  1257.5000    170.0244      0.0000    751.1791      7.7117
  1257.7500    167.3916      0.0000    751.5472      8.0529
  1258.0000    164.8331      0.0000    751.0248      8.3761
  1258.2500    161.9211      0.0000    749.5887      8.6103
  1258.5000    157.6116      0.0000    747.3502      8.7097
  1258.7500    151.6311      0.0000    744.9539      8.6505
  1259.0000    145.3646      0.0000    743.3308      8.4398
  1259.2500    141.1385      0.0000    742.8292      8.1362
  1259.5000    140.4829      0.0000    742.9401      7.8446
  1259.7500    142.8905      0.0000    743.2042      7.6638
  1260.0000    146.3258      0.0000    743.9319      7.6240
  1260.2500    149.1948      0.0000    745.5732      7.6760
  1260.5000    151.5807      0.0000    747.7254      7.7353
  1260.7500    154.0962      0.0000    749.1478      7.7402
  1261.0000    156.0909      0.0000    748.3898      7.6810
  1261.2500    156.0350      0.0000    744.1925      7.5913
  1261.5000    153.4140      0.0000    736.0864      7.5189
  1261.7500    149.2827      0.0000    725.6292      7.5012
  1262.0000    144.9882      0.0000    716.8277      7.5528
  1262.2500    141.1562      0.0000    713.9960      7.6603
  1262.5000    138.0846      0.0000    718.3610      7.7856
  1262.7500    136.4541      0.0000    727.0921      7.8803
  1263.0000    136.8509      0.0000    735.8629      7.9047
  1263.2500    138.4940      0.0000    741.9651      7.8451
  1263.5000    139.4363      0.0000    745.0621      7.7265
  1263.7500    138.9110      0.0000    745.9351      7.6033
  1264.0000    138.8663      0.0000    745.2687      7.5258
  1264.2500    142.1522      0.0000    743.4749      7.5121
  1264.5000    149.4442      0.0000    740.9775      7.5472
  1264.7500    158.5557      0.0000    738.0450      7.5968
  1265.0000    166.4700      0.0000    734.2495      7.6201
  1265.2500    171.4361      0.0000    728.5792      7.5860
  1265.5000    173.3744      0.0000    720.4335      7.4899
  1265.7500    173.1942      0.0000    710.3781      7.3505
  1266.0000    172.0322      0.0000    700.0258      7.1876
  1266.2500    170.5714      0.0000    691.4445      7.0079
