~Version Information
VERS.                      2.0: CWLS Log ASCII Standard - VERSION 2.0
WRAP.                       NO: One line per depth step
~Well Information Block
STRT.FT                 5.0000: 
STOP.FT              1874.2500: 
STEP.FT                 0.2500: 
NULL.                -999.2500: 
COMP.          Pioneer Natural Resources: COMPANY
WELL.           Stampede 42-18: WELL
FLD.           Purgatoire River: FIELD
LOC.           2479' FNL & 160' FEL--: LOCATION
CNTY.               Las Animas: COUNTY
SRVC.          Superior Well Services: SERVICE COMPANY
DATE.          Mon Jun 25 12:19:16 2007: LOG DATE
UWI.                          : UNIQUE WELL ID
STAT.                 Colorado: STATE
~Curve Information Block
DEPT.FT            0 000 00 00: Depth
GR.GAPI                       : Gamma Ray
CCL.                          : Casing Collar Locator
TT3.usec                      : CBL 3' Travel Time
AMP3.mV                       : CBL 3' Amplitude
AMP5.mV                       : CBL 5' Amplitude
~Parameter Information Block
~A  Depth        GR         CCL         TT3         AMP3        AMP5    
# ...
   621.0000    161.8761      0.0000    258.9804     85.2531     87.4810
   621.2500    158.7452      0.0000    259.0055     85.2040     87.4535
   621.5000    157.1816      0.0000    259.0354     85.1257     87.4304
   621.7500    157.0755      0.0000    259.0591     85.0429     87.4221
   622.0000    158.0956      0.0000    259.0659     84.9770     87.4426
   622.2500    160.0320      0.0000    259.0550     84.9403     87.5024
   622.5000    162.3132      0.0000    259.0362     84.9370     87.5976
   622.7500    163.6916      0.0000    259.0206     84.9626     87.7082
   623.0000    163.1263      0.0000    259.0128     85.0057     87.8100
   623.2500    160.9721      0.0000    259.0118     85.0566     87.8889
   623.5000    158.8172      0.0000    259.0165     85.1158     87.9407
   623.7500    158.1535      0.0000    259.0269     85.1890     87.9581
   624.0000    159.4229      0.0000    259.0406     85.2725     87.9170
   624.2500    162.0229      0.0000    259.0530     85.3461     87.7669
   624.5000    164.6853      0.0000    259.0618     85.3812     87.3763
   624.7500    165.8346      0.0000    259.0699     85.3547     86.4244
   625.0000    164.2839      0.0000    259.0809     85.2557     84.3572
   625.2500    160.1733      0.0000    259.0943     85.0668     80.7000
   625.5000    154.9673      0.0000    259.1095     84.6930     75.7049
   625.7500    150.2847      0.0000    259.1411     83.8553     70.6090
   626.0000    147.0547      0.0000    259.2399     82.0595     66.8321
   626.2500    145.8329      0.0000    259.5011     78.8704     64.8300
   626.5000    147.1452      0.0000    260.0414     74.4450     64.0036
   626.7500    151.0296      0.0000    260.9318     69.7253     63.6064
   627.0000    156.5734      0.0000    262.1159     65.8000     63.3432
   627.2500    162.2016      0.0000    263.3874     63.0673     63.2108
   627.5000    166.2850      0.0000    264.4797     61.2367     63.1894
   627.7500    167.7388      0.0000    265.2166     59.9641     63.1732
   628.0000    166.5947      0.0000    265.5968     59.1370     63.0444
   628.2500    163.9971      0.0000    265.7434     58.6763     62.7627
   628.5000    161.2169     -1.7426    265.7941     58.4143     62.4058
   628.7500    158.7491     -2.1317    265.8326     58.1969     62.1139
   629.0000    156.6626      0.0000    265.8688     58.0437     61.9756
   629.2500    155.3192      0.0000    265.8181     58.2427     61.9724
   629.5000    155.0652      0.0000    265.4976     59.2141     62.0236
   629.7500    155.5573      0.0000    264.7253     61.1302     62.0788
   630.0000    155.8311      0.0000    263.5043     63.7673     62.2197
   630.2500    154.6978      0.0000    262.0981     66.9028     62.7407
   630.5000    151.0663      0.0000    260.8657     70.5708     64.0582
   630.7500    144.5020      0.0000    260.0203     74.6422     66.3748
   631.0000    135.6302      0.0000    259.5555     78.4721     69.4694
   631.2500    125.9053      0.0000    259.3474     81.3221     72.9680
   631.5000    117.0959      0.0000    259.2701     82.9494     76.6599
   631.7500    110.7191      0.0000    259.2448     83.6146     80.3253
   632.0000    107.3337      0.0000    259.2356     83.7278     83.5095
   632.2500    106.2830      0.0000    259.2299     83.6386     85.7763
   632.5000    106.3762      0.0000    259.2203     83.6187     87.0582
   632.7500    106.6815      0.0000    259.2007     83.8319     87.6105
   633.0000    106.4616      0.0000    259.1720     84.2803     87.7545
   633.2500    104.8196      0.0000    259.1431     84.8286     87.7524
   633.5000    101.1356      0.0000    259.1234     85.3190     87.8017
   633.7500     95.9867      0.0000    259.1137     85.6738     87.9939
   634.0000     91.1059      0.0000    259.1076     85.9052     88.2829
   634.2500     88.0115      0.0000    259.0987     86.0601     88.5452
   634.5000     86.8610      0.0000    259.0870     86.1658     88.6889
   634.7500     86.8543      0.0000    259.0768     86.2143     88.6867
   635.0000     87.4480      0.0000    259.0705     86.1847     88.5101
   635.2500     88.6555      0.0000    259.0648     86.0714     88.0534
   635.5000     90.2959      0.0000    259.0554     85.8865     87.1358
   635.7500     91.6658      0.0000    259.0428     85.6263     85.5960
   636.0000     92.1785      0.0000    259.0335     85.2261     83.3993
   636.2500     91.8037      0.0000    259.0367     84.5370     80.6422
   636.5000     90.6527      0.0000    259.0579     83.3614     77.4357
   636.7500     88.6142      0.0000    259.0959     81.5488     73.7875
   637.0000     85.8227      0.0000    259.1437     79.0852     69.5919
   637.2500     83.1851      0.0000    259.1952     76.0728     64.7153
   637.5000     81.9796      0.0000    259.2576     72.6045     59.1088
   637.7500     82.8735      0.0000    259.3614     68.6533     52.8897
   638.0000     85.3837      0.0000    259.5927     64.0813     46.3470
   638.2500     88.1679      0.0000    260.2058     58.7603     39.8638
   638.5000     89.7175      0.0000    261.8263     52.7209     33.8056
   638.7500     89.0523      0.0000    265.8735     46.2253     28.4314
   639.0000     86.2628      0.0000    275.2697     39.6944     23.8532
   639.2500     82.4366      0.0000    295.3691     33.5304     20.0474
   639.5000     78.6813      0.0000    333.8835     27.9835     16.9073
   639.7500     75.2148      0.0000    397.0494     23.1527     14.3057
   640.0000     71.7886      0.0000    482.0621     19.0676     12.1373
   640.2500     69.0157      0.0000    573.2265     15.7392     10.3262
   640.5000     68.7253      0.0000    649.6727     13.1464      8.8139
   640.7500     72.3765      0.0000    699.1308     11.2091      7.5513
   641.0000     79.0831      0.0000    723.3896      9.7996      6.5013
   641.2500     85.7686      0.0000    731.7670      8.7848      5.6396
   641.5000     89.7082      0.0000    732.3940      8.0573      4.9498
   641.7500     90.6174      0.0000    729.1824      7.5407      4.4149
   642.0000     90.0813      0.0000    723.3342      7.1780      4.0147
   642.2500     89.7243      0.0000    715.4825      6.9224      3.7259
   642.5000     90.3404      0.0000    706.8539      6.7371      3.5258
   642.7500     91.8610      0.0000    699.3520      6.5994      3.3951
   643.0000     93.3618      0.0000    694.7893      6.5009      3.3176
   643.2500     93.5406      0.0000    694.2171      6.4395      3.2768
   643.5000     91.8032      0.0000    697.8256      6.4089      3.2559
   643.7500     88.8276      0.0000    704.9438      6.3942      3.2406
   644.0000     85.8984      0.0000    713.9573      6.3768      3.2221
   644.2500     83.9201      0.0000    722.6545      6.3449      3.1978
   644.5000     83.1236      0.0000    729.0073      6.3006      3.1702
   644.7500     83.3292      0.0000    731.6157      6.2581      3.1460
   645.0000     84.2133      0.0000    729.9156      6.2310      3.1314
   645.2500     85.3803      0.0000    724.7882      6.2202      3.1281
   645.5000     86.3674      0.0000    718.7989      6.2130      3.1313
   645.7500     86.8408      0.0000    714.7056      6.1964      3.1337
   646.0000     87.0623      0.0000    713.1355      6.1703      3.1302
   646.2500     88.0051      0.0000    712.1027      6.1441      3.1192
   646.5000     90.3923      0.0000    709.1316      6.1236      3.1014
   646.7500     93.4366      0.0000    703.6526      6.1072      3.0792
   647.0000     95.1148      0.0000    697.2079      6.0928      3.0574
   647.2500     93.9592      0.0000    691.7305      6.0808      3.0410
   647.5000     90.1547      0.0000    688.0574      6.0709      3.0299
   647.7500     84.9224      0.0000    685.9097      6.0585      3.0191
   648.0000     79.6291      0.0000    684.6633      6.0381      3.0052
   648.2500     75.6478      0.0000    683.8687      6.0078      2.9902
   648.5000     74.1314      0.0000    683.2868      5.9733      2.9766
   648.7500     75.2172      0.0000    682.7698      5.9458      2.9625
