~Version Information
VERS.                      2.0: CWLS Log ASCII Standard - VERSION 2.0
WRAP.                       NO: One line per depth step
~Well Information Block
STRT.FT                -9.2500: 
STOP.FT              2353.7500: 
STEP.FT                 0.2500: 
NULL.                -999.2500: 
COMP.          Petrogulf Corporation: COMPANY
WELL.             Kraft 17-23V: WELL
FLD.           Purgatorie River: FIELD
LOC.           1500' FSL & 1773' FWL--: LOCATION
PROV.                       CO: PROVINCE
CNTY.               Las Animas: COUNTRY
SRVC.          Patterson Wireline: SERVICE COMPANY
DATE.          Wed Dec 10 19:09:59 2003: LOG DATE
UWI.                          : UNIQUE WELL ID
~Curve Information Block
DEPT.FT            0 000 00 00: Depth
CCL.                          : Casing Collar Locator
TT3.usec                      : CBL 3' Travel Time
AMP3.mV                       : CBL 3' Amplitude
GR.GAPI                       : Gamma Ray
~Parameter Information Block
~A  Depth       CCL         TT3         AMP3         GR     
# ...
   459.7500      0.0000    762.1440      2.5060     87.4308
   460.0000      0.0000    761.3513      2.3550     78.2995
   460.2500      0.0000    770.3383      2.2343     72.5018
   460.5000      0.0000    779.1639      2.1826     69.6985
   460.7500      0.0000    780.1486      2.2191     67.9340
   461.0000      0.0000    774.1818      2.3116     65.6587
   461.2500      0.0000    767.6375      2.3830     62.7720
   461.5000      0.0000    765.8008      2.3743     60.2723
   461.7500      0.0000    770.2766      2.3027     59.2433
   462.0000      0.0000    780.3816      2.2439     59.9872
   462.2500      0.0000    793.6904      2.2558     61.7423
   462.5000      0.0000    805.1871      2.3322     63.1922
   462.7500      0.0000    809.4033      2.4338     63.5622
   463.0000      0.0000    805.0880      2.5417     63.3685
   463.2500      0.0000    796.1318      2.6632     64.0359
   463.5000      0.0000    787.5229      2.7920     66.8993
   463.7500      0.0000    782.3309      2.8829     72.6139
   464.0000      0.0000    782.3007      2.8806     80.9855
   464.2500      0.0000    788.1461      2.7778     90.7731
   464.5000      0.0000    797.7195      2.6381     99.7759
   464.7500      0.0000    805.6620      2.5528    105.8065
   465.0000      0.0000    807.0394      2.5646    107.9770
   465.2500      0.0000    801.6222      2.6271    107.0283
   465.5000      0.0000    793.6284      2.6469    104.5419
   465.7500      0.0000    787.3257      2.5792    102.0611
   466.0000      0.0000    783.9208      2.4841    100.6253
   466.2500      0.0000    782.3551      2.4687    100.5117
   466.5000      0.0000    781.4671      2.5687    101.2625
   466.7500      0.0000    780.8538      2.7072    102.2069
   467.0000      0.0000    780.5083      2.7819    103.0900
   467.2500      0.0000    780.3438      2.7740    104.2169
   467.5000      0.0000    780.1198      2.7534    105.9961
   467.7500      0.0000    779.6569      2.7812    108.2422
   468.0000      0.0000    779.0273      2.8287    109.7053
   468.2500      0.0000    778.4238      2.8136    108.2219
   468.5000      0.0000    777.8336      2.7119    101.8155
   468.7500      0.0000    776.7872      2.6018     90.3586
   469.0000      0.0000    774.5069      2.5766     76.2294
   469.2500      0.0000    770.5225      2.6332     62.9179
   469.5000      0.0000    765.4185      2.6819     52.8741
   469.7500      0.0000    761.0252      2.6624     46.6480
   470.0000      0.0000    759.7709      2.6138     43.6122
   470.2500      0.0000    763.6175      2.6156     43.1406
   470.5000      0.0000    773.1044      2.6806     45.1541
   470.7500      0.0000    786.8719      2.7388     49.7118
   471.0000      0.0000    802.1289      2.7277     56.3102
   471.2500      0.0000    816.0511      2.6702     63.7723
   471.5000      0.0000    826.7928      2.6419     70.7711
   471.7500      0.0000    833.3282      2.6756     76.4746
   472.0000      0.0000    835.3599      2.7263     81.0253
   472.2500      0.0000    834.4999      2.7302     85.4800
   472.5000      0.0000    834.7678      2.6724     90.9335
   472.7500      0.0000    839.8842      2.5903     97.4739
   473.0000      0.0000    849.2861      2.5260    104.0698
   473.2500      0.0000    857.5349      2.4899    109.3760
   473.5000      0.0000    858.3768      2.4587    112.4095
   473.7500      0.0000    849.7561      2.3980    112.5988
   474.0000      0.0000    835.3058      2.2925    109.8685
   474.2500      0.0000    821.4801      2.1644    105.1304
   474.5000      0.0000    813.1555      2.0634    100.2083
   474.7500      0.0000    811.2831      2.0361     96.5591
   475.0000      0.0000    813.9305      2.0999     94.1855
   475.2500      0.0000    818.6646      2.2326     92.2531
   475.5000      0.0000    823.2773      2.3798     90.5468
   475.7500      0.0000    825.3816      2.4786     89.7414
   476.0000      0.0000    823.8704      2.4907     90.2990
   476.2500      0.0000    821.2831      2.4242     91.5555
   476.5000      0.0000    821.7446      2.3241     92.1075
   476.7500      0.0000    825.1327      2.2334     90.9093
   477.0000      0.0000    825.9619      2.1559     87.7913
   477.2500      0.0000    819.6972      2.0614     83.1700
   477.5000      0.0000    807.9756      1.9282     77.7083
   477.7500      0.0000    796.2877      1.7738     72.1588
   478.0000      0.0000    788.8616      1.6493     67.1248
   478.2500      0.0000    787.0806      1.6119     62.9162
   478.5000      0.0000    789.7200      1.6851     59.8623
   478.7500      0.0000    792.5188      1.8224     58.6055
   479.0000      0.0000    790.5939      1.9238     59.6023
   479.2500      0.0000    783.9456      1.9172     62.1910
   479.5000      0.0000    778.3865      1.8247     64.5273
   479.7500      0.0000    778.8987      1.7407     64.8575
   480.0000      0.0000    784.0253      1.7468     62.9893
   480.2500      0.0000    788.5969      1.8502     60.4442
   480.5000      0.0000    789.6890      1.9942     59.1811
   480.7500      0.0000    787.4743      2.1090     60.2390
   481.0000      0.0000    782.6669      2.1548     63.5282
   481.2500      0.0000    777.1356      2.1422     68.4123
   481.5000      0.0000    776.1907      2.1262     73.9932
   481.7500      0.0000    786.1252      2.1627     79.1212
   482.0000      0.0000    807.6798      2.2496     82.7547
   482.2500      0.0000    832.8179      2.3210     84.4773
   482.5000      0.0000    848.9379      2.3128     84.6899
   482.7500      0.0000    846.7949      2.2380     84.4516
   483.0000      0.0000    825.7538      2.1872     84.9385
   483.2500      0.0000    793.6678      2.2423     86.4590
   483.5000      0.0000    763.0406      2.3880     87.9105
   483.7500      0.0000    746.0901      2.5253     87.7273
   484.0000      0.0000    750.2622      2.5800     85.4217
   484.2500      0.0000    775.0189      2.5774     81.7703
   484.5000      0.0000    811.5590      2.5834     77.6256
   484.7500      0.0000    846.7896      2.5968     73.1412
   485.0000      0.0000    869.7055      2.5495     68.1942
   485.2500      0.0000    876.1663      2.4173     63.1212
   485.5000      0.0000    869.8493      2.2841     58.8276
   485.7500      0.0000    859.2719      2.2782     56.2861
   486.0000      0.0000    852.0911      2.4696     55.9836
   486.2500      0.0000    850.7527      2.8307     57.6797
   486.5000      0.0000    853.2128      3.2518     60.3792
   486.7500      0.0000    856.6422      3.5781     62.4313
   487.0000      0.0000    859.1445      3.6849     62.0732
   487.2500      0.0000    858.7688      3.5739     58.4931
   487.5000      0.0000    852.8302      3.3905     52.6549
   487.7500      0.0000    839.2771      3.3114     46.9466
   488.0000      0.0000    818.7090      3.4014     43.6991
   488.2500      0.0000    794.4861      3.5883     43.7224
   488.5000      0.0000    770.2650      3.7677     45.9581
   488.7500      0.0000    747.6215      3.8956     48.4056
   489.0000      0.0000    726.4733      3.9705     49.4933
   489.2500      0.0000    706.5148      3.9818     48.8471
   489.5000      0.0000    687.8899      3.9239     47.1114
   489.7500      0.0000    672.8104      3.8400     45.2377
   490.0000      0.0000    666.6957      3.8004     43.7192
   490.2500      0.0000    674.6725      3.8289     42.1979
   490.5000      0.0000    695.8786      3.8892     39.8987
   490.7500      0.0000    722.6255      3.9515     36.6465
   491.0000      0.0000    745.5893      4.0351     33.2975
   491.2500      0.0000    759.5552      4.1637     31.0080
   491.5000      0.0000    764.9588      4.3129     30.2930
   491.7500      0.0000    765.6619      4.4340     30.9330
   492.0000      0.0000    765.7576      4.5026     32.5318
   492.2500      0.0000    767.4934      4.5148     34.9085
   492.5000      0.0000    771.1276      4.4588     37.9694
   492.7500      0.0000    776.3005      4.3336     41.3443
   493.0000      0.0000    783.1107      4.1961     44.2384
