~Version Information
VERS.                      2.0: CWLS Log ASCII Standard - VERSION 2.0
WRAP.                       NO: One line per depth step
~Well Information Block
STRT.FT               850.0000: 
STOP.FT              1609.7000: 
STEP.FT                 0.1000: 
NULL.                -999.2500: 
COMP.          Petrogulf Corporation: COMPANY
WELL.          Great Plains 22-21R: WELL
FLD.           Purgatorie River: FIELD
LOC.           73' FNL & 1992' FWL: LOCATION
PROV.                 Colorado: PROVINCE
CNTY.               Las Animas: COUNTRY
SRVC.                Patterson: SERVICE COMPANY
DATE.          Wed Sep 14 12:10:29 2005: LOG DATE
UWI.                          : UNIQUE WELL ID
~Curve Information Block
DEPT.FT            0 000 00 00: Depth
NPOR.pu                       : Neutron Porosity
GR.GAPI                       : Gamma Ray
CCL.                          : Casing Collar Locator
~Parameter Information Block
~A  Depth       NPOR         GR         CCL     
# ...
  1284.2000     21.1154    106.2506      0.0000
  1284.3000     21.1243    104.2070      0.0000
  1284.4000     21.1243    104.2070      0.0000
  1284.5000     21.0917    101.9271      0.0000
  1284.6000     21.0917    101.9271      0.0000
  1284.7000     21.0917    101.9271      0.0000
  1284.8000     21.0327    100.0753      0.0000
  1284.9000     21.0327    100.0753      0.0000
  1285.0000     21.0278     98.5521      0.0000
  1285.1000     21.0278     98.5521      0.0000
  1285.2000     21.0278     98.5521      0.0000
  1285.3000     21.1533     96.8469      0.0000
  1285.4000     21.1533     96.8469      0.0000
  1285.5000     21.4249     95.0893      0.0000
  1285.6000     21.4249     95.0893      0.0000
  1285.7000     21.4249     95.0893      0.0000
  1285.8000     21.7961     94.6477      0.0000
  1285.9000     21.7961     94.6477      0.0000
  1286.0000     22.1985     97.4056      0.0000
  1286.1000     22.1985     97.4056      0.0000
  1286.2000     22.1985     97.4056      0.0000
  1286.3000     22.5813    104.0873      0.0000
  1286.4000     22.5813    104.0873      0.0000
  1286.5000     22.9188    113.2646      0.0000
  1286.6000     22.9188    113.2646      0.0000
  1286.7000     22.9188    113.2646      0.0000
  1286.8000     23.1923    122.2000      0.0000
  1286.9000     23.1923    122.2000      0.0000
  1287.0000     23.3785    128.4750      0.0000
  1287.1000     23.3785    128.4750      0.0000
  1287.2000     23.3785    128.4750      0.0000
  1287.3000     23.4414    130.5429      0.0000
  1287.4000     23.4414    130.5429      0.0000
  1287.5000     23.3204    127.4048      0.0000
  1287.6000     23.3204    127.4048      0.0000
  1287.7000     23.3204    127.4048      0.0000
  1287.8000     22.9509    118.9179      0.0000
  1287.9000     22.9509    118.9179      0.0000
  1288.0000     22.3424    106.7179      0.0000
  1288.1000     22.3424    106.7179      0.0000
  1288.2000     22.3424    106.7179      0.0000
  1288.3000     21.6348     94.3097      0.0000
  1288.4000     21.6348     94.3097      0.0000
  1288.5000     21.0372     85.7017      0.0000
  1288.6000     21.0372     85.7017      0.0000
  1288.7000     21.0372     85.7017      0.0000
  1288.8000     20.6955     83.4430      0.0000
  1288.9000     20.6955     83.4430      0.0000
  1289.0000     20.6260     87.4569      0.0000
  1289.1000     20.6260     87.4569      0.0000
  1289.2000     20.6260     87.4569      0.0000
  1289.3000     20.7481     95.4562      0.0000
  1289.4000     20.7481     95.4562      0.0000
  1289.5000     20.9502    104.4607      0.0000
  1289.6000     20.9502    104.4607      0.0000
  1289.7000     20.9502    104.4607      0.0000
  1289.8000     21.1429    112.1144      0.0000
  1289.9000     21.1429    112.1144      0.0000
  1290.0000     21.3020    116.9911      0.0000
  1290.1000     21.3020    116.9911      0.0000
  1290.2000     21.3020    116.9911      0.0000
  1290.3000     21.4750    118.4133      0.0000
  1290.4000     21.4750    118.4133      0.0000
  1290.5000     21.7246    116.6031      0.0000
  1290.6000     21.7246    116.6031      0.0000
  1290.7000     21.7246    116.6031      0.0000
  1290.8000     22.0667    112.9961      0.0000
  1290.9000     22.0667    112.9961      0.0000
  1291.0000     22.4746    109.9057      0.0000
  1291.1000     22.4746    109.9057      0.0000
  1291.2000     22.4746    109.9057      0.0000
  1291.3000     22.9186    109.4341      0.0000
  1291.4000     22.9186    109.4341      0.0000
  1291.5000     23.3665    112.4603      0.0000
  1291.6000     23.3665    112.4603      0.0000
  1291.7000     23.3665    112.4603      0.0000
  1291.8000     23.7607    118.5029      0.0000
  1291.9000     23.7607    118.5029      0.0000
  1292.0000     24.0443    126.3398      0.0000
  1292.1000     24.0443    126.3398      0.0000
  1292.2000     24.0443    126.3398      0.0000
  1292.3000     24.2155    134.5897      0.0000
  1292.4000     24.2155    134.5897      0.0000
  1292.5000     24.3309    141.9337      0.0000
  1292.6000     24.3309    141.9337      0.0000
  1292.7000     24.3309    141.9337      0.0000
  1292.8000     24.4553    147.4663      0.0000
  1292.9000     24.4553    147.4663      0.0000
  1293.0000     24.6167    151.1766      0.0000
  1293.1000     24.6167    151.1766      0.0000
  1293.2000     24.6167    151.1766      0.0000
  1293.3000     24.7981    153.7781      0.0000
  1293.4000     24.7981    153.7781      0.0000
  1293.5000     24.9475    155.8891      0.0000
  1293.6000     24.9475    155.8891      0.0000
  1293.7000     24.9475    155.8891      0.0000
  1293.8000     24.9916    157.6574      0.0000
  1293.9000     24.9916    157.6574      0.0000
  1294.0000     24.8694    159.0639      0.0000
  1294.1000     24.8694    159.0639      0.0000
  1294.2000     24.8694    159.0639      0.0000
  1294.3000     24.5909    159.8831      0.0000
  1294.4000     24.5909    159.8831      0.0000
  1294.5000     24.2535    159.0816      0.0000
  1294.6000     24.2535    159.0816      0.0000
  1294.7000     24.2535    159.0816      0.0000
  1294.8000     23.9623    154.9520      0.0000
  1294.9000     23.9623    154.9520      0.0000
  1295.0000     23.7293    146.4969      0.0000
  1295.1000     23.7293    146.4969      0.0000
  1295.2000     23.7293    146.4969      0.0000
  1295.3000     23.4802    134.6448      0.0000
  1295.4000     23.4802    134.6448      0.0000
  1295.5000     23.1628    122.0369      0.0000
  1295.6000     23.1628    122.0369      0.0000
  1295.7000     23.1628    122.0369      0.0000
  1295.8000     22.8353    111.7694      0.0000
  1295.9000     22.8353    111.7694      0.0000
  1296.0000     22.6462    106.0485      0.0000
  1296.1000     22.6462    106.0485      0.0000
  1296.2000     22.6462    106.0485      0.0000
  1296.3000     22.7335    105.4243      0.0000
  1296.4000     22.7335    105.4243      0.0000
  1296.5000     23.1395    109.1032      0.0000
  1296.6000     23.1395    109.1032      0.0000
  1296.7000     23.1395    109.1032      0.0000
  1296.8000     23.8056    116.0145      0.0000
  1296.9000     23.8056    116.0145      0.0000
  1297.0000     24.6237    125.2547      0.0000
  1297.1000     24.6237    125.2547      0.0000
  1297.2000     24.6237    125.2547      0.0000
  1297.3000     25.4744    135.4175      0.0000
  1297.4000     25.4744    135.4175      0.0000
  1297.5000     26.2346    144.2542      0.0000
  1297.6000     26.2346    144.2542      0.0000
  1297.7000     26.2346    144.2542      0.0000
  1297.8000     26.7972    149.7438      0.0000
  1297.9000     26.7972    149.7438      0.0000
  1298.0000     27.1094    151.4708      0.0000
  1298.1000     27.1094    151.4708      0.0000
  1298.2000     27.1094    151.4708      0.0000
  1298.3000     27.1839    150.7261      0.0000
  1298.4000     27.1839    150.7261      0.0000
  1298.5000     27.0791    149.4232      0.0000
  1298.6000     27.0791    149.4232      0.0000
  1298.7000     27.0791    149.4232      0.0000
  1298.8000     26.8954    148.9698      0.0000
  1298.9000     26.8954    148.9698      0.0000
  1299.0000     26.7752    149.7218      0.0000
  1299.1000     26.7752    149.7218      0.0000
  1299.2000     26.7752    149.7218      0.0000
  1299.3000     26.8532    150.9330      0.0000
  1299.4000     26.8532    150.9330      0.0000
  1299.5000     27.1748    151.2747      0.0000
  1299.6000     27.1748    151.2747      0.0000
  1299.7000     27.1748    151.2747      0.0000
  1299.8000     27.6703    150.0259      0.0000
  1299.9000     27.6703    150.0259      0.0000
  1300.0000     28.2043    148.0286      0.0000
  1300.1000     28.2043    148.0286      0.0000
  1300.2000     28.2043    148.0286      0.0000
  1300.3000     28.6466    147.1464      0.0000
  1300.4000     28.6466    147.1464      0.0000
  1300.5000     28.9238    148.6479      0.0000
  1300.6000     28.9238    148.6479      0.0000
  1300.7000     28.9238    148.6479      0.0000
  1300.8000     29.0403    152.2546      0.0000
