~Version Information
 VERS.                                  2.0 : CWLS LAS VERSION
 WRAP.                                   NO : WRAPING MODE
 SWARE .                 MController 2.5.0I : SOFTWARE VERSION
~Well Information
 WELL.                       Montoya 12-41v : WELL
 COMP.                       Petrogulf Corp : COMPANY
 FLD.                      Purgatoire River : FIELD
 LOC.                NE/NE Sec 12 T33S R68W : LOCATION
 DATE.                              8/10/04 : DATE(S) LOGGED
 SRVC.       Blanco Geological Services LLc : SERVICE COMPANY
 STAT.                                   CO : STATE
 CNTY.                           Las Animas : COUNTY
 CTRY.                                  USA : COUNTRY
 API.                       05-071-08139-00 : API NUMBER
 STRT.FT                            698.00 : START DEPTH
 STOP.FT                            2660.00 : STOP DEPTH
 STEP.FT                               1.00 : DEPTH INCREMENT
 NULL.                                 9999 : NULL VALUE
~Curve information
 DEPTH.FT                                   :
 ROP.MIN/FT                                 :
 GAS.UNITS                                  :
~ASCII Log data
# ...
      1690.0          0.5          6.1 
      1691.0          0.4          4.8 
      1692.0          0.4          6.0 
      1693.0          0.5          5.4 
      1694.0          0.4          8.4 
      1695.0          0.3          7.3 
      1696.0          0.4          6.5 
      1697.0          0.4          4.1 
      1698.0          0.5          3.3 
      1699.0          0.5          2.2 
      1700.0          0.7          3.5 
      1701.0          0.8          3.4 
      1702.0          0.5          3.0 
      1703.0          0.4          2.1 
      1704.0          0.4          2.0 
      1705.0          0.4          2.1 
      1706.0          0.5          1.7 
      1707.0          0.5          2.6 
      1708.0          0.5          2.5 
      1709.0          0.4          1.4 
      1710.0          0.4          0.5 
      1712.0          0.3          1.0 
      1712.0          0.3          1.5 
      1713.0          6.9         79.9 
      1714.0          0.5         70.1 
      1715.0          0.6         13.1 
      1716.0          0.5          7.9 
      1717.0          0.3          5.3 
      1718.0          0.2          4.5 
      1719.0          0.4          3.8 
      1720.0          0.4          4.2 
      1721.0          0.4          4.3 
      1722.0          0.4          3.7 
      1723.0          0.4          8.1 
      1724.0          0.4          8.8 
      1725.0          0.3          7.6 
      1726.0          0.2          6.8 
      1727.0          0.5          6.4 
      1728.0          0.6          8.9 
      1729.0          0.6          9.1 
      1730.0          0.5          7.2 
      1731.0          0.6          7.1 
      1732.0          0.8          9.4 
      1733.0          0.8          8.0 
      1734.0          0.3          6.2 
      1735.0          0.4          6.1 
      1736.0          0.3          5.6 
      1737.0          0.3          7.1 
      1738.0          0.3          6.8 
      1739.0          0.3          6.5 
      1740.0          0.3          7.2 
      1741.0          0.3          6.6 
      1742.0          0.3          6.1 
      1743.0          8.1         95.6 
      1744.0          0.7          7.0 
      1745.0          0.3          6.8 
      1746.0          0.4          5.0 
      1747.0          0.6          5.8 
      1748.0          0.3          5.3 
      1749.0          0.4          4.0 
      1750.0          0.3          4.3 
      1751.0          0.3          6.5 
      1752.0          0.3          7.2 
      1753.0          0.3          7.4 
      1754.0          0.3          7.4 
      1755.0          0.4          6.0 
      1756.0          0.3          6.8 
      1757.0          0.3          6.8 
      1758.0          0.4          6.8 
      1759.0          0.4          6.5 
      1760.0          0.3          4.9 
      1761.0          0.4          6.3 
      1762.0          0.3          7.6 
      1763.0          0.4          7.0 
      1764.0          0.5          5.7 
      1765.0          0.9          7.5 
      1766.0          0.6          7.5 
      1767.0          0.6          5.5 
      1768.0          0.7          3.9 
      1769.0          0.6          4.4 
      1770.0          0.6          4.5 
      1771.0          0.3          5.6 
      1772.0          0.1          6.0 
      1773.0          7.6        107.4 
      1774.0          0.8          4.0 
      1775.0          0.9          6.1 
      1776.0          0.8          6.0 
      1777.0          0.6          5.9 
      1778.0          0.5          6.1 
      1779.0          0.6          6.0 
      1780.0          0.4          6.4 
      1781.0          0.4          5.5 
      1782.0          0.4          4.5 
      1783.0          0.3          4.7 
      1784.0          0.3          5.5 
      1785.0          0.3          6.0 
      1786.0          0.3          6.4 
      1787.0          0.3          6.8 
      1788.0          0.3          6.2 
      1789.0          0.4          4.2 
      1790.0          0.3          4.2 
      1791.0          0.3          4.5 
      1792.0          0.3          4.4 
      1793.0          0.3          6.0 
      1794.0          0.3          5.7 
      1795.0          0.3          5.6 
      1796.0          0.3          5.2 
      1797.0          0.2          5.1 
      1798.0          0.3          4.6 
      1799.0          0.3          3.3 
      1800.0          0.3          3.5 
      1801.0          0.3          5.9 
      1802.0          0.2          5.5 
      1803.0          7.3        138.7 
      1804.0          0.4          2.7 
      1805.0          0.2         33.1 
      1806.0          0.8         78.5 
      1807.0          0.6         33.9 
      1808.0          0.4         12.7 
      1809.0          0.9          8.4 
      1810.0          1.4          9.5 
      1812.0          0.6         10.1 
      1812.0          0.4          8.6 
      1813.0          0.4          8.1 
      1814.0          0.5          7.4 
      1815.0          0.4          6.3 
      1816.0          0.3          5.3 
      1817.0          0.4          5.3 
      1818.0          0.3          6.9 
      1819.0          0.4          6.5 
      1820.0          0.3          6.5 
      1821.0          0.3          6.4 
      1822.0          0.3          6.3 
      1823.0          0.4          7.0 
      1824.0          0.5          9.8 
      1825.0          0.4          8.5 
      1826.0          0.7          6.4 
      1827.0          0.4          4.4 
      1828.0          0.4          6.8 
      1829.0          0.4          7.2 
      1830.0          0.5          9.0 
      1831.0          0.4          7.5 
      1832.0          0.5          7.8 
      1833.0          5.4        128.3 
      1834.0          0.4        145.5 
      1835.0          0.6         26.8 
      1836.0          0.4          3.9 
      1837.0          0.4          4.2 
      1838.0          1.2          5.1 
      1839.0          0.9         12.0 
      1840.0          1.0         19.4 
      1841.0          0.6         10.2 
      1842.0          0.5          5.1 
      1843.0          0.7          5.1 
      1844.0          0.5          5.7 
      1845.0          0.8         12.0 
      1846.0          0.5         17.7 
      1847.0          0.4         20.9 
      1848.0          0.4         20.4 
      1849.0          0.4         13.0 
      1850.0          0.3          8.8 
      1851.0          0.3          8.7 
      1852.0          0.4          8.0 
      1853.0          0.4          9.4 
      1854.0          0.4          9.8 
      1855.0          0.4          9.6 
      1856.0          0.4          8.9 
      1857.0          0.3         10.5 
      1858.0          0.4          8.7 
      1859.0          0.3          7.0 
      1860.0          0.4          8.0 
      1861.0          0.3          7.9 
      1862.0          0.4         12.9 
      1863.0          7.1        109.0 
      1864.0          0.5          7.0 
      1865.0          0.4          8.0 
      1866.0          0.4          8.3 
      1867.0          0.3          8.7 
      1868.0          0.4          8.7 
      1869.0          0.6          8.8 
      1870.0          0.5          8.4 
      1871.0          0.4          8.1 
      1872.0          0.4          7.5 
      1873.0          0.3          7.1 
      1874.0          0.4          8.6 
      1875.0          0.4          8.3 
      1876.0          0.5          9.0 
      1877.0          0.5          8.6 
      1878.0          0.5          7.4 
      1879.0          0.4          8.0 
      1880.0          0.4          8.1 
      1881.0          0.3          7.6 
      1882.0          0.3          7.6 
      1883.0          0.3          8.9 
      1884.0          0.6          7.5 
      1885.0          0.3          6.8 
      1886.0          0.5          8.4 
      1887.0          0.5          7.0 
      1888.0          0.5          7.5 
      1889.0          0.5          8.0 
