~Version Information
VERS.                      2.0: CWLS Log ASCII Standard - VERSION 2.0
WRAP.                       NO: One line per depth step
~Well Information Block
STRT.FT                -8.2500: 
STOP.FT               871.5000: 
STEP.FT                 0.2500: 
NULL.                -999.2500: 
COMP.          Pioneer Natural Resources: COMPANY
WELL.             Tomcat 32-10: WELL
FLD.           Purgatorie River: FIELD
LOC.           2286' FNL & 2463' FEL------: LOCATION
PROV.                       CO: PROVINCE
CNTY.               Las Animas: COUNTRY
SRVC.          Patterson Wireline: SERVICE COMPANY
DATE.          Mon Mar 28 09:03:25 2005: LOG DATE
UWI.           05 071 08301 00: UNIQUE WELL ID
~Curve Information Block
DEPT.FT            0 000 00 00: Depth
CCL.                          : Casing Collar Locator
TT3.usec                      : CBL 3' Travel Time
AMP3.mV                       : CBL 3' Amplitude
GR.GAPI                       : Gamma Ray
~Parameter Information Block
~A  Depth       CCL         TT3         AMP3         GR     
# ...
   393.7500      0.0000    801.4182     11.2712    159.3365
   394.0000      0.0000    798.8771     11.4261    152.0091
   394.2500      0.0000    797.8632     11.4606    145.2027
   394.5000      0.0000    797.2847     11.3623    139.0030
   394.7500      0.0000    795.7535     11.1603    134.2668
   395.0000      0.0000    792.8828     10.8940    131.6741
   395.2500      0.0000    789.4249     10.5867    130.9178
   395.5000      0.0000    786.3585     10.2535    131.3221
   395.7500      0.0000    783.9041      9.9235    133.0878
   396.0000      0.0000    781.3693      9.6371    137.3603
   396.2500      0.0000    777.9813      9.4210    144.7005
   396.5000      0.0000    774.0577      9.2723    153.6222
   396.7500      0.0000    771.2652      9.1663    160.9456
   397.0000      0.0000    771.2875      9.0784    163.7052
   397.2500      0.0000    774.1444      9.0015    160.8527
   397.5000      0.0000    778.1132      8.9402    153.3740
   397.7500      0.0000    781.2201      8.8891    143.1374
   398.0000      0.0000    782.4063      8.8240    132.0992
   398.2500      0.0000    781.5044      8.7227    122.5411
   398.5000      0.0000    778.8892      8.5930    117.1060
   398.7500      0.0000    775.4134      8.4729    117.7324
   399.0000      0.0000    772.1962      8.4026    124.3788
   399.2500      0.0000    770.1238      8.3994    134.7925
   399.5000      0.0000    769.7296      8.4589    145.3955
   399.7500      0.0000    771.5158      8.5708    152.5210
   400.0000      0.0000    775.8466      8.7283    153.4595
   400.2500      0.0000    782.2302      8.9280    147.2957
   400.5000      0.0000    788.9127      9.1647    135.5273
   400.7500      0.0000    793.5054      9.4214    121.7830
   401.0000      0.0000    794.4380      9.6657    110.1494
   401.2500      0.0000    792.0898      9.8627    103.2490
   401.5000      0.0000    788.3501      9.9946    101.8160
   401.7500      0.0000    784.9155     10.0653    105.5834
   402.0000      0.0000    782.0249     10.0885    113.6227
   402.2500      0.0000    778.6653     10.0751    123.7309
   402.5000      0.0000    773.7624     10.0301    132.6004
   402.7500      0.0000    767.3784      9.9568    137.5629
   403.0000      0.0000    761.0076      9.8630    138.1580
   403.2500      0.0000    756.4670      9.7626    135.7896
   403.5000      0.0000    754.2408      9.6714    132.1016
   403.7500      0.0000    753.1272      9.5986    128.0158
   404.0000      0.0000    751.6409      9.5418    124.0804
   404.2500      0.0000    749.4099      9.4877    120.9663
   404.5000      0.0000    747.0587      9.4198    119.0903
   404.7500      0.0000    745.2266      9.3323    117.9025
   405.0000      0.0000    744.0670      9.2395    116.0194
   405.2500      0.0000    743.4077      9.1689    112.2716
   405.5000      0.0000    743.0016      9.1403    106.6761
   405.7500      0.0000    742.6359      9.1485    100.4666
   406.0000      0.0000    742.2012      9.1681     95.1812
   406.2500      0.0000    741.7380      9.1767     91.6682
   406.5000      0.0000    741.3549      9.1703     89.8909
   406.7500      0.0000    741.0822      9.1535     89.4037
   407.0000      0.0000    740.7949      9.1168     89.6436
   407.2500      0.0000    740.3712      9.0342     89.9268
   407.5000      0.0000    740.1251      8.8836     89.7388
   407.7500      0.0000    741.1664      8.6616     89.2457
   408.0000      0.0000    745.0821      8.3824     89.2768
   408.2500      0.0000    752.8604      8.0807     90.7168
   408.5000      0.0000    763.5587      7.8148     94.0088
   408.7500      0.0000    773.5729      7.6375     99.1794
   409.0000      0.0000    778.2541      7.5496    106.1471
   409.2500      0.0000    776.2472      7.4960    114.8960
   409.5000      2.0000    772.1436      7.4167    125.3975
   409.7500     -2.0000    772.7379      7.2954    137.3692
   410.0000     -2.0000    780.3113      7.1706    149.8952
   410.2500      0.0000    790.5576      7.1119    161.1490
   410.5000      0.0000    796.4705      7.1704    168.8195
   410.7500      0.0000    793.5851      7.3287    171.5212
   411.0000      0.0000    782.6351      7.5129    170.3077
   411.2500      0.0000    768.4051      7.6716    168.7287
   411.5000      0.0000    756.0693      7.8183    170.7550
   411.7500      0.0000    748.1956      7.9740    177.7619
   412.0000      0.0000    744.4810      8.1115    187.0759
   412.2500      0.0000    743.3642      8.1908    193.9299
   412.5000      0.0000    743.5766      8.2158    195.3651
   412.7500      0.0000    744.8073      8.2240    192.2241
   413.0000      0.0000    747.5829      8.2354    187.4497
   413.2500      0.0000    752.5096      8.2373    183.0770
   413.5000      0.0000    759.2518      8.2146    179.1731
   413.7500      0.0000    766.1669      8.1771    174.8002
   414.0000      0.0000    771.3254      8.1466    168.9356
   414.2500      0.0000    774.0123      8.1270    160.9994
   414.5000      0.0000    774.8386      8.1000    151.7317
   414.7500      0.0000    774.2625      8.0498    143.4254
   415.0000      0.0000    771.6110      7.9850    138.4409
   415.2500      0.0000    765.9801      7.9311    137.4597
   415.5000      0.0000    757.7289      7.9100    139.2300
   415.7500      0.0000    748.7151      7.9270    141.4703
   416.0000      0.0000    741.2627      7.9696    142.0358
   416.2500      0.0000    736.9616      8.0124    139.9843
   416.5000      0.0000    735.9784      8.0291    135.7522
   416.7500      0.0000    737.1896      8.0123    130.1730
   417.0000      0.0000    739.1000      7.9880    123.8277
   417.2500      0.0000    740.8120      8.0001    117.6021
   417.5000      0.0000    742.3270      8.0748    113.0670
   417.7500      0.0000    744.1670      8.1995    111.6535
   418.0000      0.0000    746.6583      8.3367    113.6523
   418.2500      0.0000    749.4173      8.4534    118.2930
   418.5000      0.0000    751.7479      8.5400    124.5546
   418.7500      0.0000    753.7709      8.6043    131.7230
   419.0000      0.0000    756.7237      8.6508    139.4339
   419.2500      0.0000    761.5394      8.6717    147.5522
   419.5000      0.0000    767.2368      8.6600    155.9364
   419.7500      0.0000    771.1705      8.6220    164.0781
   420.0000      0.0000    770.9821      8.5674    170.7859
   420.2500      0.0000    766.3436      8.4953    174.2988
   420.5000      0.0000    759.0991      8.3979    173.2705
   420.7500      0.0000    751.9166      8.2744    168.1098
   421.0000      0.0000    746.6539      8.1300    161.0954
   421.2500      0.0000    743.7172      7.9671    154.8046
   421.5000      0.0000    742.6235      7.7891    150.5367
   421.7500      0.0000    742.9213      7.6137    148.0234
   422.0000      0.0000    744.6185      7.4726    145.9379
   422.2500      0.0000    747.9390      7.3911    142.7113
   422.5000      0.0000    752.8210      7.3698    137.6949
   422.7500      0.0000    758.7004      7.3882    131.8898
   423.0000      0.0000    764.6512      7.4292    127.2766
   423.2500      0.0000    769.5063      7.4910    125.3563
   423.5000      0.0000    771.9518      7.5718    126.2783
   423.7500      0.0000    771.1049      7.6558    129.0923
   424.0000      0.0000    767.3608      7.7284    132.4312
   424.2500      0.0000    762.3707      7.7935    134.8143
   424.5000      0.0000    757.7582      7.8623    134.7163
   424.7500      0.0000    753.9476      7.9329    131.0743
   425.0000      0.0000    750.4987      7.9952    124.0724
   425.2500      0.0000    747.2402      8.0494    115.2543
   425.5000      0.0000    744.5607      8.1023    106.7786
   425.7500      0.0000    742.8056      8.1461    100.5761
   426.0000      0.0000    741.8746      8.1575     97.8583
   426.2500      0.0000    741.4171      8.1228     98.7764
   426.5000      0.0000    741.1522      8.0594    102.3027
   426.7500      0.0000    740.9698      8.0073    106.7118
   427.0000      0.0000    740.8657      7.9986    110.4206
