~Version Information
VERS.                      2.0: CWLS Log ASCII Standard - VERSION 2.0
WRAP.                       NO: One line per depth step
~Well Information Block
STRT.FT               850.0000: 
STOP.FT              1609.7000: 
STEP.FT                 0.1000: 
NULL.                -999.2500: 
COMP.          Petrogulf Corporation: COMPANY
WELL.          Great Plains 22-21R: WELL
FLD.           Purgatorie River: FIELD
LOC.           73' FNL & 1992' FWL: LOCATION
PROV.                 Colorado: PROVINCE
CNTY.               Las Animas: COUNTRY
SRVC.                Patterson: SERVICE COMPANY
DATE.          Wed Sep 14 12:10:29 2005: LOG DATE
UWI.                          : UNIQUE WELL ID
~Curve Information Block
DEPT.FT            0 000 00 00: Depth
NPOR.pu                       : Neutron Porosity
GR.GAPI                       : Gamma Ray
CCL.                          : Casing Collar Locator
~Parameter Information Block
~A  Depth       NPOR         GR         CCL     
# ...
  1000.3000     20.4159     68.5270      1.0000
  1000.4000     20.4159     68.5270      0.0000
  1000.5000     20.3979     66.5769      0.0000
  1000.6000     20.3979     66.5769      0.0000
  1000.7000     20.3979     66.5769      0.0000
  1000.8000     20.4116     67.0007      0.0000
  1000.9000     20.4116     67.0007      0.0000
  1001.0000     20.4400     69.2468      0.0000
  1001.1000     20.4400     69.2468      0.0000
  1001.2000     20.4400     69.2468      0.0000
  1001.3000     20.5014     72.3969      0.0000
  1001.4000     20.5014     72.3969      0.0000
  1001.5000     20.6197     75.6927      0.0000
  1001.6000     20.6197     75.6927      0.0000
  1001.7000     20.6197     75.6927      0.0000
  1001.8000     20.7687     78.9614      0.0000
  1001.9000     20.7687     78.9614      0.0000
  1002.0000     20.8614     82.3087      0.0000
  1002.1000     20.8614     82.3087      0.0000
  1002.2000     20.8614     82.3087      0.0000
  1002.3000     20.8214     85.4566      0.0000
  1002.4000     20.8214     85.4566      0.0000
  1002.5000     20.6589     87.7437      0.0000
  1002.6000     20.6589     87.7437      0.0000
  1002.7000     20.6589     87.7437      0.0000
  1002.8000     20.4624     88.7983      0.0000
  1002.9000     20.4624     88.7983      0.0000
  1003.0000     20.3386     89.0023      0.0000
  1003.1000     20.3386     89.0023      0.0000
  1003.2000     20.3386     89.0023      0.0000
  1003.3000     20.3774     89.4267      0.0000
  1003.4000     20.3774     89.4267      0.0000
  1003.5000     20.6456     91.3164      0.0000
  1003.6000     20.6456     91.3164      0.0000
  1003.7000     20.6456     91.3164      0.0000
  1003.8000     21.1696     95.1384      0.0000
  1003.9000     21.1696     95.1384      0.0000
  1004.0000     21.8993     99.7813      0.0000
  1004.1000     21.8993     99.7813      0.0000
  1004.2000     21.8993     99.7813      0.0000
  1004.3000     22.6847    103.0376      0.0000
  1004.4000     22.6847    103.0376      0.0000
  1004.5000     23.3306    103.5522      0.0000
  1004.6000     23.3306    103.5522      0.0000
  1004.7000     23.3306    103.5522      0.0000
  1004.8000     23.7270    102.5353      0.0000
  1004.9000     23.7270    102.5353      0.0000
  1005.0000     23.9310    103.1525      0.0000
  1005.1000     23.9310    103.1525      0.0000
  1005.2000     23.9310    103.1525      0.0000
  1005.3000     24.0897    107.7816      0.0000
  1005.4000     24.0897    107.7816      0.0000
  1005.5000     24.2956    115.9688      0.0000
  1005.6000     24.2956    115.9688      0.0000
  1005.7000     24.2956    115.9688      0.0000
  1005.8000     24.5377    125.1812      0.0000
  1005.9000     24.5377    125.1812      0.0000
  1006.0000     24.7625    133.0462      0.0000
  1006.1000     24.7625    133.0462      0.0000
  1006.2000     24.7625    133.0462      0.0000
  1006.3000     24.9402    138.4292      0.0000
  1006.4000     24.9402    138.4292      0.0000
  1006.5000     25.0766    140.8524      0.0000
  1006.6000     25.0766    140.8524      0.0000
  1006.7000     25.0766    140.8524      0.0000
  1006.8000     25.1843    139.9252      0.0000
  1006.9000     25.1843    139.9252      0.0000
  1007.0000     25.2481    135.8592      0.0000
  1007.1000     25.2481    135.8592      0.0000
  1007.2000     25.2481    135.8592      0.0000
  1007.3000     25.2199    130.0680      0.0000
  1007.4000     25.2199    130.0680      0.0000
  1007.5000     25.0570    124.4406      0.0000
  1007.6000     25.0570    124.4406      0.0000
  1007.7000     25.0570    124.4406      0.0000
  1007.8000     24.7685    119.8875      0.0000
  1007.9000     24.7685    119.8875      0.0000
  1008.0000     24.4315    116.0035      0.0000
  1008.1000     24.4315    116.0035      0.0000
  1008.2000     24.4315    116.0035      0.0000
  1008.3000     24.1649    112.2572      0.0000
  1008.4000     24.1649    112.2572      0.0000
  1008.5000     24.0715    109.1526      0.0000
  1008.6000     24.0715    109.1526      0.0000
  1008.7000     24.0715    109.1526      0.0000
  1008.8000     24.1894    107.9177      0.0000
  1008.9000     24.1894    107.9177      0.0000
  1009.0000     24.4806    109.2234      0.0000
  1009.1000     24.4806    109.2234      0.0000
  1009.2000     24.4806    109.2234      0.0000
  1009.3000     24.8573    112.5863      0.0000
  1009.4000     24.8573    112.5863      0.0000
  1009.5000     25.2411    116.9598      0.0000
  1009.6000     25.2411    116.9598      0.0000
  1009.7000     25.2411    116.9598      0.0000
  1009.8000     25.6202    121.4116      0.0000
  1009.9000     25.6202    121.4116      0.0000
  1010.0000     26.0372    125.2668      0.0000
  1010.1000     26.0372    125.2668      0.0000
  1010.2000     26.0372    125.2668      0.0000
  1010.3000     26.5072    128.2574      0.0000
  1010.4000     26.5072    128.2574      0.0000
  1010.5000     26.9642    130.7947      0.0000
  1010.6000     26.9642    130.7947      0.0000
  1010.7000     26.9642    130.7947      0.0000
  1010.8000     27.3146    133.7655      0.0000
  1010.9000     27.3146    133.7655      0.0000
  1011.0000     27.5279    137.7239      0.0000
  1011.1000     27.5279    137.7239      0.0000
  1011.2000     27.5279    137.7239      0.0000
  1011.3000     27.6426    142.1387      0.0000
  1011.4000     27.6426    142.1387      0.0000
  1011.5000     27.6998    145.4092      0.0000
  1011.6000     27.6998    145.4092      0.0000
  1011.7000     27.6998    145.4092      0.0000
  1011.8000     27.7112    145.9238      0.0000
  1011.9000     27.7112    145.9238      0.0000
  1012.0000     27.6923    143.4629      0.0000
  1012.1000     27.6923    143.4629      0.0000
  1012.2000     27.6923    143.4629      0.0000
  1012.3000     27.6800    139.4946      0.0000
  1012.4000     27.6800    139.4946      0.0000
  1012.5000     27.6930    135.9366      0.0000
  1012.6000     27.6930    135.9366      0.0000
  1012.7000     27.6930    135.9366      0.0000
  1012.8000     27.6983    133.7631      0.0000
  1012.9000     27.6983    133.7631      0.0000
  1013.0000     27.6472    132.7380      0.0000
  1013.1000     27.6472    132.7380      0.0000
  1013.2000     27.6472    132.7380      0.0000
  1013.3000     27.5352    132.0830      0.0000
  1013.4000     27.5352    132.0830      0.0000
  1013.5000     27.4033    131.2136      0.0000
  1013.6000     27.4033    131.2136      0.0000
  1013.7000     27.4033    131.2136      0.0000
  1013.8000     27.2941    130.1123      0.0000
  1013.9000     27.2941    130.1123      0.0000
  1014.0000     27.2304    129.2496      0.0000
  1014.1000     27.2304    129.2496      0.0000
  1014.2000     27.2304    129.2496      0.0000
  1014.3000     27.2252    129.0718      0.0000
  1014.4000     27.2252    129.0718      0.0000
  1014.5000     27.2714    129.6365      0.0000
  1014.6000     27.2714    129.6365      0.0000
  1014.7000     27.2714    129.6365      0.0000
  1014.8000     27.3259    130.9173      0.0000
  1014.9000     27.3259    130.9173      0.0000
  1015.0000     27.3427    133.0747      0.0000
  1015.1000     27.3427    133.0747      0.0000
  1015.2000     27.3427    133.0747      0.0000
  1015.3000     27.3227    135.8436      0.0000
  1015.4000     27.3227    135.8436      0.0000
  1015.5000     27.3069    137.8816      0.0000
  1015.6000     27.3069    137.8816      0.0000
  1015.7000     27.3069    137.8816      0.0000
  1015.8000     27.3296    137.5406      0.0000
  1015.9000     27.3296    137.5406      0.0000
  1016.0000     27.4049    134.5137      0.0000
  1016.1000     27.4049    134.5137      0.0000
  1016.2000     27.4049    134.5137      0.0000
  1016.3000     27.5433    130.2554      0.0000
  1016.4000     27.5433    130.2554      0.0000
  1016.5000     27.7524    126.5014      0.0000
  1016.6000     27.7524    126.5014      0.0000
  1016.7000     27.7524    126.5014      0.0000
  1016.8000     28.0139    123.6268      0.0000
  1016.9000     28.0139    123.6268      0.0000
