~Version Information
VERS.                      2.0: CWLS Log ASCII Standard - VERSION 2.0
WRAP.                       NO: One line per depth step
~Well Information Block
STRT.FT                17.7500: 
STOP.FT              1139.0000: 
STEP.FT                 0.2500: 
NULL.                -999.2500: 
COMP.          El Paso E&P Company L.P.: COMPANY
WELL.              VPR "ST" 38: WELL
FLD.           Purgatorie River: FIELD
LOC.           687' FNL & 2121' FEL: LOCATION
CNTY.               Las Animas: COUNTY
SRVC.          Superior Well Services: SERVICE COMPANY
DATE.          Sat Oct 13 22-40-21 2007: LOG DATE
UWI.           05-071-08357-00: UNIQUE WELL ID
STAT.                       CO: STATE
~Curve Information Block
DEPT.FT            0 000 00 00: Depth
CCL.                          : Casing Collar Locator
TT3.usec                      : CBL 3' Travel Time
AMP3.mV                       : CBL 3' Amplitude
GR.GAPI                       : Gamma Ray
~Parameter Information Block
~A  Depth       CCL         TT3         AMP3         GR     
    17.7500   -999.2500   -999.2500   -999.2500   -999.2500
    18.0000   -999.2500   -999.2500   -999.2500     45.0161
    18.2500   -999.2500   -999.2500   -999.2500     43.6845
    18.5000   -999.2500   -999.2500   -999.2500     43.0562
    18.7500   -999.2500   -999.2500   -999.2500     42.9295
    19.0000   -999.2500   -999.2500   -999.2500     43.2919
    19.2500   -999.2500   -999.2500   -999.2500     43.7081
    19.5000   -999.2500   -999.2500   -999.2500     43.3351
    19.7500   -999.2500   -999.2500   -999.2500     41.4073
    20.0000   -999.2500   -999.2500   -999.2500     39.6147
    20.2500   -999.2500   -999.2500   -999.2500     38.0241
    20.5000   -999.2500   -999.2500   -999.2500     39.0444
    20.7500   -999.2500   -999.2500   -999.2500     44.9165
    21.0000   -999.2500   -999.2500   -999.2500     51.1747
    21.2500   -999.2500   -999.2500   -999.2500     61.2992
    21.5000   -999.2500   -999.2500   -999.2500     66.6155
    21.7500   -999.2500   -999.2500   -999.2500     70.3909
    22.0000   -999.2500   -999.2500   -999.2500     70.4289
    22.2500   -999.2500   -999.2500   -999.2500     69.5574
    22.5000   -999.2500   -999.2500   -999.2500     69.8512
    22.7500   -999.2500   -999.2500   -999.2500     71.6783
    23.0000   -999.2500   -999.2500   -999.2500     72.8609
    23.2500   -999.2500    482.7283      3.0259     73.7147
    23.5000   -999.2500    525.9846      3.1519     74.1265
    23.7500   -999.2500    565.7310      3.2524     75.7910
    24.0000   -999.2500    598.1091      3.3245     77.9961
    24.2500   -999.2500    625.4845      3.3751     82.8422
    24.5000   -999.2500    653.7189      3.4193     86.5819
    24.7500   -999.2500    686.7657      3.4703     91.1385
    25.0000   -999.2500    723.8924      3.5278     92.2411
    25.2500   -999.2500    761.0897      3.5770     90.2976
    25.5000   -999.2500    793.4452      3.6012     87.5416
    25.7500   -999.2500    816.2954      3.5931     83.7512
    26.0000   -999.2500    827.1570      3.5579     82.2107
    26.2500   -999.2500    829.0682      3.5105     81.0583
    26.5000   -999.2500    830.4496      3.4712     80.7684
    26.7500   -999.2500    838.6115      3.4572     81.0736
    27.0000   -999.2500    852.7930      3.4743     81.5910
    27.2500   -999.2500    864.0829      3.5130     82.0243
    27.5000   -999.2500    861.6705      3.5566     82.0079
    27.7500   -999.2500    839.3417      3.5923     82.3894
    28.0000   -999.2500    798.2725      3.6191     83.1140
    28.2500   -999.2500    746.1474      3.6433     83.5751
    28.5000   -999.2500    693.8829      3.6697     82.3818
    28.7500      0.0000    651.0888      3.6973     78.0963
    29.0000      0.0000    622.2462      3.7230     74.5997
    29.2500      0.0000    605.9940      3.7448     70.6571
    29.5000      0.0000    597.5912      3.7633     69.7172
    29.7500      0.0000    592.1768      3.7816     71.1512
    30.0000      0.0000    586.7463      3.8040     73.6916
    30.2500      0.0000    580.6347      3.8327     78.4549
    30.5000      0.0000    574.8113      3.8673     81.0859
    30.7500      0.0000    570.4655      3.9059     82.8121
    31.0000      0.0000    568.1245      3.9479     82.6010
    31.2500      0.0000    568.1932      3.9939     81.3938
    31.5000      0.0000    571.5220      4.0419     80.2912
    31.7500      0.0000    578.2997      4.0828     77.5492
    32.0000      0.0000    586.4356      4.1019     74.5513
    32.2500      0.0000    592.1841      4.0872     68.4033
    32.5000      0.0000    593.0314      4.0378     63.7056
    32.7500      0.0000    589.7284      3.9664     56.6595
    33.0000      0.0000    585.4019      3.8942     52.2248
    33.2500      0.0000    583.1470      3.8394     46.1220
    33.5000      0.0000    584.5715      3.8107     42.6585
    33.7500      0.0000    589.8219      3.8058     38.9208
    34.0000      0.0000    598.0318      3.8154     37.3788
    34.2500      0.0000    607.4352      3.8258     35.9092
    34.5000      0.0000    615.5410      3.8228     35.2992
    34.7500      0.0000    620.1696      3.7979     34.8826
    35.0000      0.0000    621.0128      3.7537     34.6409
    35.2500      0.0000    619.9227      3.7036     33.6035
    35.5000      0.0000    619.0482      3.6633     32.5501
    35.7500      0.0000    618.8520      3.6448     31.5435
    36.0000      0.0000    618.4348      3.6595     31.7042
    36.2500      0.0000    617.4277      3.7285     32.6909
    36.5000      0.0000    616.8578      3.8781     33.2108
    36.7500      0.0000    618.8167      4.1054     33.3361
    37.0000      0.0000    626.5223      4.3461     33.2427
    37.2500      0.0000    644.0717      4.5029     33.7087
    37.5000      0.0000    673.7576      4.5252     34.9088
    37.7500      0.0000    712.4981      4.4532     38.3321
    38.0000      0.0000    751.9510      4.3706     41.3623
    38.2500     -2.0000    783.2659      4.3301     46.1853
    38.5000      0.0000    801.5557      4.3279     49.5950
    38.7500      2.0000    805.7635      4.3335     56.0110
    39.0000      0.0000    796.0681      4.3286     61.5571
    39.2500      0.0000    773.6679      4.3197     70.7572
    39.5000      0.0000    743.0482      4.3147     75.9981
    39.7500      0.0000    712.0817      4.2941     79.9864
    40.0000      0.0000    688.3726      4.2265     79.4706
    40.2500      0.0000    675.8259      4.1175     75.1609
    40.5000      0.0000    674.4150      4.0144     71.4946
    40.7500      0.0000    682.1091      3.9505     66.6602
    41.0000      0.0000    697.9116      3.9096     63.4883
    41.2500      0.0000    723.4182      3.8560     56.7109
    41.5000      0.0000    758.7520      3.7795     50.6197
    41.7500      0.0000    795.5297      3.7037     42.0766
    42.0000      0.0000    817.8035      3.6643     39.2590
    42.2500      0.0000    814.4507      3.6819     41.5368
    42.5000      0.0000    789.3199      3.7461     46.9167
    42.7500      0.0000    756.7060      3.8190     58.5603
    43.0000      0.0000    729.3808      3.8591     67.4300
    43.2500      0.0000    713.0817      3.8457     80.1651
    43.5000      0.0000    708.7920      3.7868     86.6814
    43.7500      0.0000    715.3556      3.7102     90.9289
    44.0000      0.0000    729.1891      3.6487     89.4159
    44.2500      0.0000    744.1453      3.6235     81.6235
    44.5000      0.0000    754.7048      3.6351     74.3772
    44.7500      0.0000    760.8942      3.6664     64.0443
    45.0000      0.0000    769.6319      3.6953     59.4086
    45.2500      0.0000    788.6293      3.7068     57.5114
    45.5000      0.0000    817.0015      3.6998     59.3139
    45.7500      0.0000    843.1680      3.6855     64.2239
    46.0000      0.0000    855.2190      3.6791     67.2078
    46.2500      0.0000    853.0489      3.6884     69.0398
    46.5000      0.0000    846.7941      3.7097     67.9890
    46.7500      0.0000    843.6136      3.7333     63.1465
    47.0000      0.0000    839.9963      3.7522     58.1699
    47.2500      0.0000    827.3872      3.7635     49.3759
    47.5000      0.0000    802.0435      3.7644     43.8165
    47.7500      0.0000    768.4654      3.7502     38.2580
    48.0000      0.0000    734.9806      3.7201     37.1927
    48.2500      0.0000    707.1297      3.6824     38.9796
    48.5000      0.0000    685.3258      3.6515     41.2298
    48.7500      0.0000    667.8765      3.6375     43.8855
    49.0000      0.0000    654.2994      3.6398     44.3016
    49.2500      0.0000    645.1286      3.6512     42.9731
    49.5000      0.0000    640.1787      3.6643     41.6380
    49.7500      0.0000    638.2718      3.6750     40.4672
    50.0000      0.0000    638.3209      3.6818     40.5647
    50.2500      0.0000    640.4000      3.6853     41.8104
    50.5000      0.0000    646.3030      3.6894     43.1612
    50.7500      0.0000    659.5092      3.7008     45.6524
    51.0000      0.0000    683.8017      3.7268     47.3568
