~Version Information
VERS.                      2.0: CWLS Log ASCII Standard - VERSION 2.0
WRAP.                       NO: One line per depth step
~Well Information Block
STRT.FT                -5.5000: 
STOP.FT              1979.7500: 
STEP.FT                 0.2500: 
NULL.                -999.2500: 
COMP.          Pioneer Natural Resources: COMPANY
WELL.          Bucksnort 41-35: WELL
FLD.           Purgatorie River: FIELD
LOC.           117' FNL & 463' FEL: LOCATION
PROV.                 Colorado: PROVINCE
CNTY.               Las Animas: COUNTRY
SRVC.                Patterson: SERVICE COMPANY
DATE.          Fri Jul 29 10:31:46 2005: LOG DATE
UWI.                          : UNIQUE WELL ID
~Curve Information Block
DEPT.FT            0 000 00 00: Depth
GR.GAPI                       : Gamma Ray
CCL.                          : Casing Collar Locator
TT3.usec                      : CBL 3' Travel Time
AMP3.mV                       : CBL 3' Amplitude
~Parameter Information Block
~A  Depth        GR         CCL         TT3         AMP3    
# ...
  1669.5000    119.0746      0.0000    659.2014      5.8475
  1669.7500    120.5870      0.0000    658.9392      5.8989
  1670.0000    120.2372      0.0000    658.6419      5.9274
  1670.2500    118.4348      0.0000    658.3749      5.9231
  1670.5000    116.6605      0.0000    658.1419      5.9020
  1670.7500    116.0681      0.0000    657.9327      5.8738
  1671.0000    116.8449      0.0000    657.7153      5.8365
  1671.2500    118.5670      0.0000    657.4584      5.7990
  1671.5000    120.5978      0.0000    657.1962      5.7810
  1671.7500    122.0258      0.0000    657.0286      5.7936
  1672.0000    121.8131      0.0000    657.0363      5.8267
  1672.2500    119.6407      0.0000    657.1944      5.8581
  1672.5000    116.6092      0.0000    657.3555      5.8787
  1672.7500    114.6667      0.0000    657.3746      5.9016
  1673.0000    115.1840      0.0000    657.2896      5.9371
  1673.2500    118.1225      0.0000    657.2668      5.9699
  1673.5000    122.1787      0.0000    657.3131      5.9702
  1673.7500    125.4436      0.0000    656.9093      5.9294
  1674.0000    126.4425      0.0000    654.3693      5.8691
  1674.2500    125.0437      0.0000    646.7076      5.8152
  1674.5000    122.1993      0.0000    633.1154      5.7797
  1674.7500    118.7973      0.0000    620.4424      5.7620
  1675.0000    115.1943      0.0000    619.3175      5.7580
  1675.2500    111.8232      0.0000    630.7895      5.7661
  1675.5000    109.4841      0.0000    644.4250      5.7772
  1675.7500    108.5122      0.0000    652.4186      5.7757
  1676.0000    108.0682      0.0000    656.6068      5.7648
  1676.2500    106.8039      0.0000    661.3010      5.7616
  1676.5000    104.2218      0.0000    667.7936      5.7660
  1676.7500    101.1039      0.0000    674.6328      5.7655
  1677.0000     98.5837      0.0000    678.8275      5.7648
  1677.2500     96.9586      0.0000    677.4713      5.7849
  1677.5000     95.4733      0.0000    669.2301      5.8337
  1677.7500     93.2389      0.0000    656.1445      5.8874
  1678.0000     90.3164      0.0000    643.3176      5.9155
  1678.2500     87.8286      0.0000    634.1406      5.9147
  1678.5000     86.9267      0.0000    629.0959      5.9055
  1678.7500     87.6784      0.0000    628.8863      5.9010
  1679.0000     89.1501      0.0000    633.6321      5.8879
  1679.2500     90.5447      0.0000    642.8630      5.8494
  1679.5000     91.8982      0.0000    656.1500      5.7907
  1679.7500     93.5112      0.0000    669.8174      5.7271
  1680.0000     95.1187      0.0000    678.3864      5.6658
  1680.2500     96.0121      0.0000    679.5210      5.6169
  1680.5000     95.8505      0.0000    673.3989      5.5978
  1680.7500     94.9894      0.0000    658.6537      5.6077
  1681.0000     93.9838      0.0000    630.6716      5.6372
  1681.2500     93.0418      0.0000    588.3876      5.6996
  1681.5000     92.1403      0.0000    540.9895      5.8095
  1681.7500     91.3930      0.0000    496.1407      5.9420
  1682.0000     90.8243      0.0000    453.6835      6.0476
  1682.2500     89.8515      0.0000    419.0410      6.0816
  1682.5000     87.5714      0.0000    399.8240      5.9882
  1682.7500     83.8477      0.0000    394.6258      5.6851
  1683.0000     79.8117      0.0000    401.1327      5.1404
  1683.2500     76.9072      0.0000    426.0621      4.4854
  1683.5000     75.4673      0.0000    476.8617      3.9899
  1683.7500     74.4364      0.0000    541.7092      3.8036
  1684.0000     72.4793      0.0000    588.5229      3.7629
  1684.2500     69.2206      0.0000    590.4404      3.7339
  1684.5000     65.4888      0.0000    544.1005      3.9327
  1684.7500     62.5795      0.0000    471.2964      4.4898
  1685.0000     61.3339      0.0000    408.7335      5.1335
  1685.2500     61.7584      2.0000    385.9731      5.5843
  1685.5000     63.2547      0.0000    417.4128      5.7941
  1685.7500     64.9789      0.0000    501.8363      5.7524
  1686.0000     65.9999      0.0000    608.2875      5.5267
  1686.2500     65.5865      0.0000    689.0558      5.4903
  1686.5000     63.8294      0.0000    719.3250      5.9399
  1686.7500     61.8026      0.0000    695.9091      6.4900
  1687.0000     60.7080      0.0000    620.9228      6.5669
  1687.2500     60.9513      0.0000    518.6794      6.3089
  1687.5000     62.1134      0.0000    431.1568      6.2253
  1687.7500     63.3846      0.0000    379.8056      6.3977
  1688.0000     63.8507      0.0000    357.4308      6.5544
  1688.2500     62.9167      0.0000    349.6700      6.5492
  1688.5000     60.9446      0.0000    347.4479      6.4512
  1688.7500     59.2423      0.0000    346.9134      6.3599
  1689.0000     58.9932      0.0000    346.8180      6.2977
  1689.2500     60.2250      0.0000    346.8254      6.2245
  1689.5000     62.0474      0.0000    346.8850      6.1108
  1689.7500     63.8445      0.0000    347.0082      5.9841
  1690.0000     65.9146      0.0000    347.3503      5.8848
  1690.2500     68.8304      0.0000    349.2920      5.8146
  1690.5000     72.3900      0.0000    357.8450      5.7622
  1690.7500     75.3731      0.0000    381.3576      5.7297
  1691.0000     76.3445      0.0000    420.8177      5.7115
  1691.2500     74.7546      0.0000    461.4311      5.7034
  1691.5000     71.3465      0.0000    488.9258      5.7203
  1691.7500     67.5330      0.0000    505.4314      5.7645
  1692.0000     64.3879      0.0000    521.7205      5.8119
  1692.2500     62.0973      0.0000    549.8533      5.8478
  1692.5000     60.0978      0.0000    598.3326      5.8777
  1692.7500     57.6827      0.0000    659.9351      5.8926
  1693.0000     54.7935      0.0000    711.5410      5.8614
  1693.2500     52.4551      0.0000    736.6666      5.7389
  1693.5000     52.1758      0.0000    735.2001      5.4629
  1693.7500     54.5507      0.0000    714.5245      5.0049
  1694.0000     58.4171      0.0000    688.0485      4.4297
  1694.2500     61.5248      0.0000    670.8008      3.8587
  1694.5000     62.0870      0.0000    667.0129      3.3824
  1694.7500     59.8198      0.0000    670.2825      3.0018
  1695.0000     55.8152      0.0000    673.4623      2.6520
  1695.2500     51.6478      0.0000    672.2419      2.2966
  1695.5000     48.4717      0.0000    665.8082      1.9591
  1695.7500     46.6157      0.0000    657.5349      1.6760
  1696.0000     45.8503      0.0000    650.9818      1.4622
  1696.2500     45.9762      0.0000    646.7198      1.3037
  1696.5000     46.9754      0.0000    644.1182      1.1738
  1696.7500     48.5797      0.0000    643.2653      1.0641
  1697.0000     50.1521      0.0000    645.0575      0.9781
  1697.2500     51.3796      0.0000    650.9565      0.9128
  1697.5000     52.8410      0.0000    661.6234      0.8695
  1697.7500     55.5180      0.0000    674.0291      0.8586
  1698.0000     59.7843      0.0000    682.0483      0.8884
  1698.2500     65.0555      0.0000    682.3181      0.9699
  1698.5000     70.3772      0.0000    677.5755      1.1138
  1698.7500     75.2474      0.0000    673.1042      1.3106
  1699.0000     79.9402      0.0000    671.7316      1.5425
  1699.2500     85.1308      0.0000    673.1633      1.8163
  1699.5000     91.1723      0.0000    676.1537      2.1641
  1699.7500     97.7275      0.0000    679.6453      2.6163
  1700.0000    103.9404      0.0000    682.6617      3.1704
  1700.2500    108.7195      0.0000    684.4599      3.7634
  1700.5000    111.1607      0.0000    685.0340      4.2905
  1700.7500    111.2979      0.0000    684.9374      4.6738
  1701.0000    110.3395      0.0000    684.5507      4.9026
  1701.2500    109.6598      0.0000    683.9120      5.0101
  1701.5000    109.5849      0.0000    683.1151      5.0380
  1701.7500    109.4833      0.0000    682.4418      5.0223
  1702.0000    108.8802      0.0000    682.1055      4.9879
  1702.2500    108.1165      0.0000    682.1033      4.9470
  1702.5000    107.9314      0.0000    682.3350      4.9061
  1702.7500    108.6968      0.0000    682.7217      4.8801
