~Version Information
 VERS.                                  2.0 : CWLS LAS VERSION
 WRAP.                                   NO : WRAPING MODE
 SWARE .                 MController 2.5.0J : SOFTWARE VERSION
~Well Information
 WELL.                       Rancher 12-35 Tr : WELL
 COMP.    Pioneer Natural Resources USA Inc : COMPANY
 FLD.                      Purgatoire River : FIELD
 LOC.                2242' FNL & 308' FWL SWNW 35 32S 67W : LOCATION
 DATE.                            7/02/2005 : DATE(S) LOGGED
 SRVC.       BLANCO Geological Services LLC : SERVICE COMPANY
 STAT.                                   CO : STATE
 CNTY.                           Las Animas : COUNTY
 CTRY.                                  USA : COUNTRY
 API.                       05-071-08430-00 : API NUMBER
 STRT.FT                             369.00 : START DEPTH
 STOP.FT                            1735.00 : STOP DEPTH
 STEP.FT                               1.00 : DEPTH INCREMENT
 NULL.                                -9999 : NULL VALUE
~Curve information
 DEPTH.FT                                   :
 ROP.MIN/FT                                 :
 GAS.UNITS                                  :
~ASCII Log data
# ...
       569.0         0.20        973.8 
       570.0         0.20        844.8 
       571.0         0.23        766.3 
       572.0         0.27        703.3 
       573.0         0.27        616.4 
       574.0         0.23        486.3 
       575.0         0.18        440.0 
       576.0         0.20        120.8 
       577.0         0.20        127.2 
       578.0         0.23        129.5 
       579.0         0.23        146.8 
       580.0         0.23        170.7 
       581.0         0.33        203.7 
       582.0         0.30        211.6 
       583.0         0.27        211.1 
       584.0         0.20        204.3 
       585.0         0.20        192.3 
       586.0         0.17        179.0 
       587.0         0.13        178.1 
       588.0         0.20        176.5 
       589.0         0.20        176.7 
       590.0         0.25        176.1 
       591.0         0.20        181.7 
       592.0         0.23        180.3 
       593.0         0.23        164.6 
       594.0         0.17        263.8 
       595.0         0.13        343.9 
       596.0         1.13       3108.9 
       597.0         0.47       2077.9 
       598.0         0.30       1363.3 
       599.0         0.23       1096.5 
       600.0         0.25        959.7 
       601.0         0.27        881.2 
       602.0         0.23        820.2 
       603.0         0.23        788.9 
       604.0         0.20        762.3 
       605.0         0.20        750.1 
       606.0         0.23        736.0 
       607.0         0.23        715.4 
       608.0         0.30        703.0 
       609.0         0.27        704.3 
       610.0         0.17        706.0 
       611.0         0.20        699.9 
       612.0         0.27        713.4 
       613.0         0.17        712.7 
       614.0         0.17        706.0 
       615.0         0.18        694.5 
       616.0         0.17        685.8 
       617.0         0.23        688.1 
       618.0         0.23        695.9 
       619.0         0.13        697.2 
       620.0         0.13        697.2 
       621.0         0.13        696.2 
       622.0         0.17        663.2 
       623.0         0.17        648.7 
       624.0         0.20        677.0 
       625.0         0.23        918.9 
       626.0         1.52       3148.3 
       627.0         0.37       1569.2 
       628.0         0.30       1128.2 
       629.0         0.37        940.5 
       630.0         0.20        829.0 
       631.0         0.20        773.0 
       632.0         0.20        747.1 
       633.0         0.20        690.5 
       634.0         0.20        677.0 
       635.0         0.23        662.9 
       636.0         0.23        662.2 
       637.0         0.23        659.5 
       638.0         0.20        654.8 
       639.0         0.33        644.0 
       640.0         0.25        639.6 
       641.0         0.20        638.6 
       642.0         0.27        636.9 
       643.0         0.33        635.2 
       644.0         0.20        638.6 
       645.0         0.20        637.3 
       646.0         0.20        634.9 
       647.0         0.27        633.9 
       648.0         0.27        633.6 
       649.0         0.23        641.6 
       650.0         0.20        637.6 
       651.0         0.20        633.9 
       652.0         0.17        624.8 
       653.0         0.23        601.2 
       654.0         0.22        519.0 
       655.0         0.17        558.8 
       656.0         1.37       2754.8 
       657.0         0.23       2367.7 
       658.0         0.07       1748.4 
       659.0         0.40       1581.3 
       660.0         0.30       1119.1 
       661.0         0.20        873.1 
       662.0         0.33        798.0 
       663.0         0.32        715.1 
       664.0         0.40        671.3 
       665.0         0.23        632.5 
       666.0         0.20        625.5 
       667.0         0.17        616.0 
       668.0         0.20        607.6 
       669.0         0.20        606.9 
       670.0         0.20        598.9 
       671.0         0.17        596.8 
       672.0         0.20        593.8 
       673.0         0.17        572.6 
       674.0         0.20        531.8 
       675.0         0.20        548.0 
       676.0         0.13        561.1 
       677.0         0.10        585.7 
       678.0         0.30        651.8 
       679.0         0.28        657.5 
       680.0         0.13        640.3 
       681.0         0.13        625.8 
       682.0         0.13        684.1 
       683.0         0.10        846.5 
       684.0         0.30       1120.1 
       685.0         0.10       1238.3 
       686.0         1.23       3573.1 
       687.0         0.30       2023.3 
       688.0         0.17       1478.9 
       689.0         0.13       1197.9 
       690.0         0.17       1126.8 
       691.0         0.23       1023.4 
       692.0         0.22        845.5 
       693.0         0.37        771.0 
       694.0         0.27        690.5 
       695.0         0.17        672.3 
       696.0         0.20        650.7 
       697.0         0.20        637.9 
       698.0         0.20        629.2 
       699.0         0.20        621.1 
       700.0         0.17        600.9 
       701.0         0.17        570.6 
       702.0         0.20        561.8 
       703.0         0.13        579.7 
       704.0         0.30        596.5 
       705.0         0.17        590.1 
       706.0         0.17        556.1 
       707.0         0.17        536.9 
       708.0         0.13        543.6 
       709.0         0.22        551.4 
       710.0         0.23        535.2 
       711.0         0.10        494.4 
       712.0         0.20        440.0 
       713.0         0.17        478.9 
       714.0         0.17        627.2 
       715.0         0.30       1089.1 
       716.0         1.10       1545.9 
       717.0         0.30       1109.3 
       718.0         0.33        956.7 
       719.0         0.28        771.4 
       720.0         0.23        703.0 
       721.0         0.23        658.8 
       722.0         0.20        613.7 
       723.0         0.20        572.9 
       724.0         0.23        536.9 
       725.0         0.20        508.2 
       726.0         0.27        518.0 
       727.0         0.30        545.3 
       728.0         0.30        559.8 
       729.0         0.23        562.1 
       730.0         0.17        563.8 
       731.0         0.20        563.8 
       732.0         0.20        564.8 
       733.0         0.20        565.8 
       734.0         0.22        567.9 
       735.0         0.23        569.9 
       736.0         0.23        570.9 
       737.0         0.13        567.9 
       738.0         0.17        564.8 
       739.0         0.20        562.5 
       740.0         0.17        548.7 
       741.0         0.17        531.8 
       742.0         0.17        489.0 
       743.0         0.17        440.0 
       744.0         0.13        110.5 
       745.0         0.30        259.1 
       746.0         1.10       1770.6 
       747.0         0.42       1330.6 
       748.0         0.20       1047.0 
       749.0         0.23        918.3 
       750.0         0.27        788.9 
       751.0         0.23        722.5 
       752.0         0.20        675.3 
       753.0         0.20        619.4 
       754.0         0.17        605.3 
       755.0         0.20        592.8 
       756.0         0.18        587.1 
       757.0         0.13        572.6 
       758.0         0.17        569.9 
       759.0         0.20        557.4 
       760.0         0.20        472.2 
       761.0         0.20        517.0 
       762.0         0.13        530.5 
       763.0         0.10        547.0 
       764.0         0.13        554.0 
       765.0         0.17        566.5 
       766.0         0.17        568.9 
       767.0         0.13        568.2 
       768.0         0.18        569.2 
