~Version Information
VERS.                      2.0: CWLS Log ASCII Standard - VERSION 2.0
WRAP.                       NO: One line per depth step
~Well Information Block
STRT.FT               292.0000: 
STOP.FT               801.0000: 
STEP.FT                 0.1000: 
NULL.                -999.2500: 
COMP.          Pioneer Natural Resources: COMPANY
WELL.          HG Duran 34-27 Tr: WELL
FLD.           Purgatoire River: FIELD
LOC.           1076' FSL & 1465' FEL: LOCATION
PROV.                 Colorado: PROVINCE
CNTY.               Las Animas: COUNTRY
SRVC.                Patterson: SERVICE COMPANY
DATE.          Wed Apr 13 08:36:06 2005: LOG DATE
UWI.           05 071 08218 00: UNIQUE WELL ID
~Curve Information Block
DEPT.FT            0 000 00 00: Depth
DCAL.in                       : CDL Caliper
RHOB.g/cc                     : CDL Bulk Density
RHOC.g/cc                     : CDL Density Correction
DPOR.pu                       : CDL Density Porosity
GR.GAPI                       : Gamma Ray
NPOR.pu                       : Neutron Porosity
~Parameter Information Block
~A  Depth       DCAL        RHOB        RHOC        DPOR         GR         NPOR    
# ...
   426.4000      7.9729      2.4334      0.0543     13.1246    142.2560     19.0274
   426.5000      7.9157      2.4305      0.0524     13.3046    142.1846     19.4136
   426.6000      7.9157      2.3437     -0.0144     18.5628    140.0536     19.9847
   426.7000      7.9157      2.2151     -0.0820     26.3567    137.7438     20.0184
   426.8000      7.9407      2.1186     -0.0734     32.2087    134.5998     19.4242
   426.9000      7.9407      2.0718      0.0019     35.0438    130.5761     18.6449
   427.0000      7.9515      2.0462     -0.0054     36.5949    131.2286     18.1784
   427.1000      7.9515      2.0244      0.0018     37.9171    134.7457     18.2984
   427.2000      7.9515      2.0092     -0.0214     38.8369    133.1105     19.0795
   427.3000      7.9867      2.0124      0.0040     38.6394    127.1605     20.0291
   427.4000      7.9867      2.0404      0.0694     36.9483    121.5935     20.2243
   427.5000      8.0100      2.0821      0.1274     34.4175    117.3850     19.6407
   427.6000      8.0100      2.1228      0.2052     31.9497    118.5187     19.1575
   427.7000      8.0100      2.1610      0.2107     29.6362    125.9765     19.2371
   427.8000      8.0067      2.2036      0.2222     27.0567    130.1603     19.7328
   427.9000      8.0067      2.2427      0.1883     24.6854    127.5631     20.4769
   428.0000      7.9937      2.2685      0.1348     23.1226    124.8733     21.3726
   428.1000      7.9937      2.2896      0.1311     21.8423    125.4714     22.0706
   428.2000      7.9937      2.3179      0.0806     20.1272    127.5837     22.4460
   428.3000      8.0134      2.3488      0.1262     18.2572    129.6774     22.9084
   428.4000      8.0134      2.3720      0.1142     16.8459    130.5765     23.5360
   428.5000      8.0314      2.3974      0.1153     15.3114    130.5313     23.7195
   428.6000      8.0314      2.4421      0.1498     12.6021    131.8438     23.3812
   428.7000      8.0314      2.4998      0.1713      9.1014    135.6487     23.4862
   428.8000      8.0280      2.5314      0.2264      7.1865    139.4829     24.1517
   428.9000      8.0280      2.5046      0.0977      8.8116    138.6183     24.4716
   429.0000      8.0194      2.4451      0.0531     12.4192    133.8382     24.2841
   429.1000      8.0194      2.3930      0.0589     15.5744    129.8547     24.0154
   429.2000      8.0194      2.3614      0.0561     17.4920    130.8157     23.8850
   429.3000      7.9689      2.3558     -0.0236     17.8315    138.9823     23.8451
   429.4000      7.9689      2.3636      0.0625     17.3601    146.9629     23.7744
   429.5000      7.9406      2.3583      0.0071     17.6764    145.9062     23.5418
   429.6000      7.9406      2.3336     -0.0745     19.1787    140.4988     22.9594
   429.7000      7.9406      2.3043     -0.0841     20.9485    138.4440     22.3685
   429.8000      7.9350      2.2990     -0.0245     21.2737    138.2205     22.2988
   429.9000      7.9350      2.3252      0.1337     19.6869    136.6666     22.4902
   430.0000      7.9388      2.3550      0.1115     17.8770    136.6124     22.4544
   430.1000      7.9388      2.3679      0.1242     17.0971    138.3249     22.3038
   430.2000      7.9388      2.3705      0.0848     16.9395    136.8603     22.3574
   430.3000      7.9530      2.3670      0.0998     17.1517    131.0593     22.7543
   430.4000      7.9530      2.3491      0.0713     18.2388    123.1528     23.2319
   430.5000      7.9405      2.3300      0.0754     19.3942    116.0535     23.4953
   430.6000      7.9405      2.3403      0.0567     18.7687    111.2822     23.5868
   430.7000      7.9405      2.3793      0.0936     16.4056    106.6038     23.5751
   430.8000      7.9464      2.4233      0.0930     13.7365    102.2379     23.6992
   430.9000      7.9464      2.4632      0.0363     11.3223    101.7872     23.9566
   431.0000      7.9217      2.4935      0.0787      9.4857    102.9781     24.0807
   431.1000      7.9217      2.5134      0.0338      8.2780    102.8789     24.1810
   431.2000      7.9217      2.5375      0.1662      6.8197    102.5577     24.2988
   431.3000      7.8976      2.5778      0.1253      4.3783    103.2188     24.2609
   431.4000      7.8976      2.6249      0.1684      1.5231    104.5018     24.0191
   431.5000      7.8632      2.6476      0.1636      0.1442    103.2476     23.7815
   431.6000      7.8632      2.6337      0.1479      0.9894    101.7841     23.7061
   431.7000      7.8632      2.6000      0.0869      3.0294    104.9442     23.6510
   431.8000      7.8524      2.5633      0.0220      5.2540    107.9538     23.6727
   431.9000      7.8524      2.5426      0.0275      6.5066    106.6846     24.0247
   432.0000      7.8527      2.5491      0.0610      6.1135    107.6186     24.3238
   432.1000      7.8527      2.5666      0.0915      5.0567    111.4098     24.1738
   432.2000      7.8527      2.5725      0.0218      4.7000    111.0218     23.9580
   432.3000      7.8473      2.5556      0.0051      5.7188    108.5756     23.7854
   432.4000      7.8473      2.5292      0.0267      7.3199    107.8126     23.4464
   432.5000      7.8395      2.5161      0.0631      8.1175    107.0638     23.0858
   432.6000      7.8395      2.5155      0.0878      8.1488    107.1551     22.9692
   432.7000      7.8395      2.5220     -0.0031      7.7596    110.2558     22.9808
   432.8000      7.8278      2.5284      0.0632      7.3686    115.2514     22.8245
   432.9000      7.8278      2.5118      0.0357      8.3770    118.7919     22.5472
   433.0000      7.8158      2.4735     -0.0347     10.6940    119.5873     22.1795
   433.1000      7.8158      2.4405     -0.0405     12.6959    120.1504     21.7382
   433.2000      7.8158      2.4193     -0.0149     13.9845    121.7061     21.3260
   433.3000      7.8002      2.4044      0.0387     14.8821    122.5778     20.8714
   433.4000      7.8002      2.3950     -0.0233     15.4534    124.0478     20.4606
   433.5000      7.8197      2.3878      0.0377     15.8928    127.9367     20.3559
   433.6000      7.8197      2.3784     -0.0388     16.4635    132.0211     20.4113
   433.7000      7.8197      2.3779     -0.0001     16.4908    133.6906     20.5159
   433.8000      7.8438      2.3997      0.0143     15.1705    133.0470     20.7262
   433.9000      7.8438      2.4272      0.0654     13.5026    134.5484     21.0640
   434.0000      7.8581      2.4309      0.0666     13.2764    140.7118     21.5112
   434.1000      7.8581      2.4385      0.0062     12.8174    144.5284     21.6681
   434.2000      7.8581      2.5015      0.1218      8.9978    141.4600     21.6784
   434.3000      7.8926      2.5888      0.1807      3.7070    136.8477     22.0747
   434.4000      7.8926      2.6210      0.1936      1.7558    133.8930     22.5800
   434.5000      7.9179      2.5796      0.1314      4.2649    129.4350     22.9018
   434.6000      7.9179      2.5250      0.0672      7.5769    126.0457     23.2243
   434.7000      7.9179      2.5091      0.0125      8.5421    126.3927     23.4082
   434.8000      7.9273      2.5090      0.0762      8.5481    124.1675     23.3440
   434.9000      7.9273      2.4821     -0.0301     10.1745    117.6098     23.4402
   435.0000      7.9137      2.4417     -0.0299     12.6239    115.8246     23.9139
   435.1000      7.9137      2.4274     -0.0893     13.4926    120.9682     24.4610
   435.2000      7.9137      2.4555     -0.0444     11.7866    121.8895     24.8084
   435.3000      7.9225      2.5092     -0.0442      8.5355    117.9272     25.0004
   435.4000      7.9225      2.5492      0.0197      6.1082    119.6785     24.9512
   435.5000      7.9295      2.5421      0.0369      6.5403    125.4411     24.3651
   435.6000      7.9295      2.5025      0.0209      8.9365    126.2359     23.5912
   435.7000      7.9295      2.4768      0.0111     10.4993    120.4133     23.0142
   435.8000      7.9347      2.4748      0.0320     10.6180    112.2442     22.6936
   435.9000      7.9347      2.4704      0.0664     10.8844    105.4284     22.6848
