~Version Information
VERS.                      2.0: CWLS Log ASCII Standard - VERSION 2.0
WRAP.                       NO: One line per depth step
~Well Information Block
STRT.FT               650.0000: 
STOP.FT              2087.0000: 
STEP.FT                 0.2500: 
NULL.                -999.2500: 
COMP.          Pioneer Natural Resources: COMPANY
WELL.           Galloway 32-13: WELL
FLD.           Purgatoire River: FIELD
LOC.           1809' FNL & 2004' FEL: LOCATION
PROV.                 Colorado: PROVINCE
CNTY.               Las Animas: COUNTRY
SRVC.                Patterson: SERVICE COMPANY
DATE.          Fri Jul 08 15:50:04 2005: LOG DATE
UWI.           05 071 08423 00: UNIQUE WELL ID
~Curve Information Block
DEPT.FT            0 000 00 00: Depth
SN.Ohm-m                      : IEL Short Normal
SP.mV                         : IEL Spontaneous Potential
DIR.Ohm-m                     : IEL Induction Resistivity
GR.GAPI                       : Gamma Ray
~Parameter Information Block
~A  Depth        SN          SP         DIR          GR     
# ...
  1956.5000     29.3959     77.4222     29.3896     93.9164
  1956.7500     29.0433     76.7085     29.4721     88.2879
  1957.0000     28.7028     75.9732     29.3171     84.6800
  1957.2500     28.2678     75.2142     28.9120     85.4212
  1957.5000     27.6456     74.4341     28.3560     90.8724
  1957.7500     26.8411     73.6353     27.7935     96.7445
  1958.0000     26.0031     72.8246     27.3248    106.4589
  1958.2500     25.3205     72.0206     26.9753    111.4745
  1958.5000     24.9024     71.2531     26.7305    113.4634
  1958.7500     24.7350     70.5555     26.5832    110.2416
  1959.0000     24.7285     69.9592     26.5437    100.1252
  1959.2500     24.8291     69.4970     26.6107     92.0548
  1959.5000     25.0584     69.2119     26.7438     81.4999
  1959.7500     25.4596     69.1596     26.8699     76.4632
  1960.0000     26.0610     69.3852     26.9249     71.9927
  1960.2500     26.7909     69.8778     26.8965     70.8863
  1960.5000     27.3755     70.5437     26.8331     71.7409
  1960.7500     27.5354     71.2409     26.8073     73.5527
  1961.0000     27.3083     71.8540     26.8664     76.6557
  1961.2500     26.9769     72.3423     27.0044     78.0046
  1961.5000     26.7463     72.7267     27.1683     78.1816
  1961.7500     26.6586     73.0486     27.2862     77.4599
  1962.0000     26.7020     73.3429     27.2951     76.4523
  1962.2500     26.8484     73.6315     27.1582     76.2284
  1962.5000     27.0197     73.9244     26.8748     76.1664
  1962.7500     27.0903     74.2197     26.4852     75.9241
  1963.0000     26.9669     74.5027     26.0638     75.1560
  1963.2500     26.6555     74.7472     25.6968     74.5598
  1963.5000     26.2359     74.9219     25.4523     73.9135
  1963.7500     25.8038     74.9992     25.3604     73.9490
  1964.0000     25.4352     74.9608     25.4110     75.3620
  1964.2500     25.1566     74.8015     25.5669     77.3174
  1964.5000     24.9491     74.5361     25.7845     80.9812
  1964.7500     24.8100     74.2094     26.0277     83.1570
  1965.0000     24.7666     73.8910     26.2687     85.1062
  1965.2500     24.8430     73.6453     26.4852     85.3568
  1965.5000     25.0846     73.5020     26.6624     84.1700
  1965.7500     25.5308     73.4550     26.8016     82.4466
  1966.0000     26.1264     73.4793     26.9192     79.0384
  1966.2500     26.7459     73.5406     27.0338     76.8143
  1966.5000     27.2905     73.5984     27.1537     74.3946
  1966.7500     27.7186     73.6162     27.2783     73.3549
  1967.0000     28.0148     73.5760     27.4084     71.8332
  1967.2500     28.1918     73.4863     27.5505     70.5160
  1967.5000     28.2790     73.3767     27.7117     68.4070
  1967.7500     28.2779     73.2820     27.8916     67.3311
  1968.0000     28.2519     73.2249     28.0829     66.5451
  1968.2500     28.3824     73.2057     28.2833     66.5092
  1968.5000     28.6970     73.2032     28.5045     67.0874
  1968.7500     28.9229     73.1798     28.7693     67.9401
  1969.0000     28.8764     73.0888     29.0921     69.7628
  1969.2500     28.7404     72.8899     29.4589     70.8696
  1969.5000     28.7114     72.5673     29.8228     71.2869
  1969.7500     28.6939     72.1350     30.1231     70.4917
  1970.0000     28.5465     71.6227     30.3161     68.4208
  1970.2500     28.3417     71.0609     30.3930     67.2520
  1970.5000     28.2653     70.4806     30.3707     66.9080
  1970.7500     28.3969     69.9125     30.2703     67.8126
  1971.0000     28.6534     69.3759     30.1062     70.4213
  1971.2500     28.9074     68.8683     29.8960     72.4921
  1971.5000     29.0925     68.3777     29.6706     75.4481
  1971.7500     29.2022     67.9036     29.4689     77.1923
  1972.0000     29.2347     67.4575     29.3199     79.2393
  1972.2500     29.1893     67.0406     29.2378     79.9019
  1972.5000     29.0692     66.6338     29.2338     79.5238
  1972.7500     28.8380     66.2170     29.3230     78.7218
  1973.0000     28.4577     65.7951     29.5023     77.9786
  1973.2500     27.9519     65.3989     29.7080     78.3108
  1973.5000     27.3820     65.0638     29.7964     79.9247
  1973.7500     26.8300     64.8102     29.6059     81.2934
  1974.0000     26.3764     64.6402     29.0791     83.0872
  1974.2500     26.0457     64.5450     28.3257     83.8966
  1974.5000     25.7986     64.5084     27.5440     84.2781
  1974.7500     25.5921     64.5081     26.8879     83.7767
  1975.0000     25.4280     64.5196     26.4018     81.6460
  1975.2500     25.3057     64.5265     26.0492     79.4037
  1975.5000     25.1815     64.5279     25.7815     75.4684
  1975.7500     25.0094     64.5360     25.5809     73.0506
  1976.0000     24.7576     64.5610     25.4573     70.7211
  1976.2500     24.4069     64.5978     25.4183     70.2373
  1976.5000     24.0066     64.6262     25.4526     70.4455
  1976.7500     23.6768     64.6243     25.5427     70.5768
  1977.0000     23.4798     64.5821     25.6869     70.3746
  1977.2500     23.3500     64.5073     25.9048     70.2984
  1977.5000     23.2223     64.4151     26.2107     71.0286
  1977.7500     23.1449     64.3118     26.5761     72.1763
  1978.0000     23.1740     64.1873     26.9175     74.2348
  1978.2500     23.2534     64.0266     27.1330     75.2282
  1978.5000     23.3057     63.8280     27.1674     75.5437
  1978.7500     23.3497     63.6091     27.0448     75.1158
  1979.0000     23.4390     63.3944     26.8423     74.2512
  1979.2500     23.5719     63.1993     26.6390     73.8349
  1979.5000     23.7226     63.0250     26.4877     73.4864
  1979.7500     23.8978     62.8701     26.4128     73.3704
  1980.0000     24.0924     62.7452     26.4156     73.4893
  1980.2500     24.2392     62.6754     26.4748     73.8965
  1980.5000     24.2860     62.6815     26.5505     74.8194
  1980.7500     24.2660     62.7561     26.5953     75.1939
  1981.0000     24.2353     62.8581     26.5685     74.5854
  1981.2500     24.2219     62.9331     26.4439     73.3312
  1981.5000     24.2262     62.9420     26.2147     70.9295
  1981.7500     24.1792     62.8757     25.8997     69.6019
  1982.0000     24.0091     62.7503     25.5415     68.7454
  1982.2500     23.7798     62.5933     25.1880     69.0625
  1982.5000     23.6190     62.4278     24.8685     70.7645
  1982.7500     23.5516     62.2612     24.5844     72.5031
  1983.0000     23.4956     62.0836     24.3230     75.3372
  1983.2500     23.3744     61.8748     24.0810     76.8472
  1983.5000     23.2260     61.6119     23.8772     77.8471
  1983.7500     23.1972     61.2734     23.7469     77.6859
  1984.0000     23.3795     60.8407     23.7297     76.9211
  1984.2500     23.6987     60.3029     23.8622     76.5081
  1984.5000     24.0081     59.6626     24.1752     76.2373
  1984.7500     24.2377     58.9396     24.6900     76.0867
  1985.0000     24.4537     58.1642     25.4118     75.3866
  1985.2500     24.8115     57.3675     26.3277     74.4492
  1985.5000     25.4803     56.5754     27.4165     72.6057
  1985.7500     26.5595     55.8155     28.6628     71.3803
  1986.0000     28.0100     55.1329     30.0596     69.6017
  1986.2500     29.7127     54.6100     31.5901     68.1998
  1986.5000     31.5778     54.3815     33.2062     65.6345
  1986.7500     33.5837     54.6350     34.8368     63.9821
  1987.0000     35.7690     55.5709     36.4314     62.5111
  1987.2500     38.1664     57.2963     38.0073     62.5020
  1987.5000     40.6865     59.6875     39.6505     63.8576
  1987.7500     43.0751     62.3444     41.4595     65.3457
  1988.0000     45.0004     64.7398     43.4671     67.5679
  1988.2500     46.2152     66.4880     45.5824     68.5314
  1988.5000     46.7073     67.5109     47.5823     68.8539
  1988.7500     46.6917     67.9807     49.1697     68.5225
  1989.0000     46.4123     68.1435     50.0864     67.9047
  1989.2500     46.0064     68.1906     50.2313     67.7796
  1989.5000     45.5593     68.2223     49.7049     68.2474
  1989.7500     45.1284     68.2562     48.7472     68.8408
