~Version Information
VERS.                      2.0: CWLS Log ASCII Standard - VERSION 2.0
WRAP.                       NO: One line per depth step
~Well Information Block
STRT.FT                -6.7500: 
STOP.FT              2058.2500: 
STEP.FT                 0.2500: 
NULL.                -999.2500: 
COMP.          Petrogulf Corporation: COMPANY
WELL.           Schedler 9-23R: WELL
FLD.           Purgatorie River: FIELD
LOC.           2084' FSL & 2331' FWL--: LOCATION
PROV.                       CO: PROVINCE
CNTY.               Las Animas: COUNTRY
SRVC.                         : SERVICE COMPANY
DATE.          Fri Nov 12 13:22:46 2004: LOG DATE
UWI.       005 071 08040 : UNIQUE WELL ID
~Curve Information Block
DEPT.FT            0 000 00 00: Depth
GR.GAPI                       : Gamma Ray
CCL.                          : Casing Collar Locator
TT3.usec                      : CBL 3' Travel Time
AMP3.mV                       : CBL 3' Amplitude
~Parameter Information Block
~A  Depth        GR         CCL         TT3         AMP3    
# ...
  1768.7500     81.5503      0.0000    705.0566      3.7063
  1769.0000     81.0555      0.0000    693.1812      3.7416
  1769.2500     80.9230      0.0000    681.0675      3.8185
  1769.5000     82.2319      0.0000    671.0342      3.9166
  1769.7500     84.6017      0.0000    664.8357      3.9993
  1770.0000     86.4069      0.0000    664.0396      4.0427
  1770.2500     86.4812      0.0000    669.5021      4.0524
  1770.5000     85.4219      0.0000    681.0638      4.0473
  1770.7500     85.1618      0.0000    697.8906      4.0359
  1771.0000     87.3511      0.0000    718.7647      4.0137
  1771.2500     91.9469      0.0000    742.1749      3.9756
  1771.5000     96.9528      0.0000    766.4709      3.9262
  1771.7500     99.5828      0.0000    790.1401      3.8824
  1772.0000     98.2390      0.0000    812.2039      3.8682
  1772.2500     93.6339      0.0000    832.1217      3.8977
  1772.5000     87.9552      0.0000    848.3471      3.9592
  1772.7500     83.0978      0.0000    857.1620      4.0169
  1773.0000     79.8552      0.0000    854.5492      4.0351
  1773.2500     78.3844      0.0000    839.9636      3.9999
  1773.5000     78.6375      0.0000    817.6039      3.9230
  1773.7500     80.1149      0.0000    793.7047      3.8296
  1774.0000     81.8017      0.0000    772.4621      3.7462
  1774.2500     82.8177      0.0000    753.4872      3.6945
  1774.5000     82.8692      0.0000    732.6783      3.6884
  1774.7500     81.9316      0.0000    706.7283      3.7318
  1775.0000     80.0048      0.0000    677.4431      3.8160
  1775.2500     77.4608      0.0000    650.9024      3.9231
  1775.5000     75.1726      0.0000    632.3563      4.0337
  1775.7500     73.9965      0.0000    622.8682      4.1343
  1776.0000     74.3488      0.0000    620.7273      4.2212
  1776.2500     76.2465      0.0000    624.9190      4.3009
  1776.5000     79.3349      0.0000    637.1558      4.3833
  1776.7500     82.8240      0.0000    661.2003      4.4722
  1777.0000     85.7267      0.0000    699.6376      4.5597
  1777.2500     87.3204      0.0000    749.5488      4.6347
  1777.5000     87.3523      0.0000    800.7213      4.6914
  1777.7500     85.9899      0.0000    839.6900      4.7289
  1778.0000     83.7942      0.0000    856.9431      4.7472
  1778.2500     81.6138      0.0000    850.2963      4.7488
  1778.5000     80.0948      0.0000    822.5422      4.7410
  1778.7500     79.2234      0.0000    779.0023      4.7310
  1779.0000     78.5510      0.0000    728.1392      4.7235
  1779.2500     77.8259      0.0000    680.8933      4.7280
  1779.5000     77.1267      0.0000    645.9075      4.7619
  1779.7500     76.4763      0.0000    625.3090      4.8434
  1780.0000     75.6898      0.0000    615.6670      4.9816
  1780.2500     74.6281      0.0000    612.0528      5.1777
  1780.5000     73.4387      0.0000    610.8846      5.4328
  1780.7500     72.5220      0.0000    610.3704      5.7459
  1781.0000     72.1751      0.0000    609.8987      6.0995
  1781.2500     72.2121      0.0000    609.4688      6.4567
  1781.5000     72.1547      0.0000    609.5414      6.7798
  1781.7500     71.9492      0.0000    611.4006      7.0446
  1782.0000     72.3149      0.0000    617.7545      7.2256
  1782.2500     74.0723      0.0000    632.2774      7.2913
  1782.5000     77.1818      0.0000    656.4969      7.2416
  1782.7500     80.6882      0.0000    685.5707      7.1355
  1783.0000     83.4885      0.0000    709.2311      7.0395
  1783.2500     84.9827      0.0000    720.3754      6.9648
  1783.5000     85.2638      0.0000    722.0650      6.8963
  1783.7500     84.9628      0.0000    723.1229      6.8461
  1784.0000     84.6852      0.0000    728.6496      6.8142
  1784.2500     84.4685      0.0000    738.1682      6.7215
  1784.5000     83.9500      2.0000    749.8107      6.4571
  1784.7500     82.9938      0.0000    761.3379      6.0007
  1785.0000     81.9174      0.0000    769.0051      5.4609
  1785.2500     81.2192      0.0000    769.8029      4.9980
  1785.5000     81.2708      0.0000    764.3669      4.7295
  1785.7500     82.0389      0.0000    756.0083      4.6905
  1786.0000     82.8008      0.0000    748.3342      4.8436
  1786.2500     82.3885      0.0000    744.4934      5.1293
  1786.5000     80.2285      0.0000    746.6943      5.5219
  1786.7500     77.0892      0.0000    755.1756      6.0356
  1787.0000     74.4396      0.0000    768.2944      6.6740
  1787.2500     73.1739      0.0000    783.9392      7.3777
  1787.5000     73.2968      0.0000    800.8538      8.0216
  1787.7500     74.7214      0.0000    818.8807      8.4670
  1788.0000     77.7683      0.0000    837.9353      8.6316
  1788.2500     82.4046      0.0000    856.1841      8.5300
  1788.5000     87.2098      0.0000    868.7822      8.2637
  1788.7500     89.8204      0.0000    868.7738      7.9684
  1789.0000     88.8291      0.0000    850.7804      7.7391
  1789.2500     85.1811      0.0000    816.2391      7.5793
  1789.5000     81.5722      0.0000    775.9763      7.4120
  1789.7500     80.3240      0.0000    745.3691      7.1502
  1790.0000     81.5753      0.0000    734.0029      6.7658
  1790.2500     83.4240      0.0000    739.4245      6.3021
  1790.5000     83.9464      0.0000    751.8651      5.8335
  1790.7500     83.1308      0.0000    764.4722      5.4184
  1791.0000     82.7909      0.0000    777.1406      5.0760
  1791.2500     84.6636      0.0000    791.1252      4.7910
  1791.5000     88.7993      0.0000    804.1702      4.5370
  1791.7500     93.8616      0.0000    813.3224      4.2974
  1792.0000     98.6453      0.0000    819.1497      4.0722
  1792.2500    102.7823      0.0000    823.0682      3.8734
  1792.5000    106.1223      0.0000    822.1956      3.7118
  1792.7500    108.2156      0.0000    811.7799      3.5875
  1793.0000    108.7327      0.0000    793.4288      3.4953
  1793.2500    108.0759      0.0000    777.4885      3.4388
  1793.5000    107.4300      0.0000    775.1356      3.4325
  1793.7500    108.1561      0.0000    788.1685      3.4848
  1794.0000    110.8989      0.0000    806.8654      3.5806
  1794.2500    115.0230      0.0000    818.4010      3.6830
  1794.5000    118.8767      0.0000    817.8811      3.7506
  1794.7500    120.7971      0.0000    811.1848      3.7581
  1795.0000    120.0881      0.0000    808.0004      3.7114
  1795.2500    117.2435      0.0000    813.0406      3.6428
  1795.5000    113.3485      0.0000    822.8026      3.5848
  1795.7500    109.1418      0.0000    829.0911      3.5415
  1796.0000    104.5774      0.0000    825.5036      3.4889
  1796.2500     99.3908      0.0000    811.2457      3.4008
  1796.5000     93.8571      0.0000    789.7775      3.2708
  1796.7500     88.6140      0.0000    765.4688      3.1096
  1797.0000     83.9931      0.0000    742.3776      2.9281
  1797.2500     80.1892      0.0000    725.4840      2.7293
  1797.5000     78.0073      0.0000    721.4639      2.5185
  1797.7500     78.8249      0.0000    735.9271      2.3154
  1798.0000     83.6982      0.0000    767.3691      2.1468
  1798.2500     92.4522      0.0000    803.8262      2.0248
  1798.5000    103.1714      0.0000    828.6982      1.9358
  1798.7500    112.5639      0.0000    832.6072      1.8587
  1799.0000    117.4675      0.0000    819.7670      1.7898
  1799.2500    116.5431      0.0000    802.7067      1.7467
  1799.5000    110.9549      0.0000    791.5979      1.7454
  1799.7500    103.8997      0.0000    788.3063      1.7814
  1800.0000     99.2812      0.0000    788.5373      1.8335
  1800.2500     99.7694      0.0000    787.8735      1.8795
  1800.5000    105.1581      0.0000    785.3210      1.9076
  1800.7500    112.3914      0.0000    781.9246      1.9184
  1801.0000    117.5090      0.0000    778.1048      1.9201
  1801.2500    118.0969      0.0000    774.3116      1.9237
  1801.5000    114.4482      0.0000    773.1296      1.9424
  1801.7500    108.7335      0.0000    777.8309      1.9891
  1802.0000    103.2366      0.0000    788.1075      2.0620
