~Version Information
VERS.                      2.0: CWLS Log ASCII Standard - VERSION 2.0
WRAP.                       NO: One line per depth step
~Well Information Block
STRT.FT               830.0000: 
STOP.FT              3122.7000: 
STEP.FT                 0.1000: 
NULL.                -999.2500: 
COMP.          Pioneer Natural Resources: COMPANY
WELL.              Stones 24-8: WELL
FLD.           Purgatoire River: FIELD
LOC.           648' FSL & 2264' FWL: LOCATION
PROV.                 Colorado: PROVINCE
CNTY.               Las Animas: COUNTRY
SRVC.                Patterson: SERVICE COMPANY
DATE.          Wed Jan 19 15:33:00 2005: LOG DATE
UWI.           05 071 07945 00: UNIQUE WELL ID
~Curve Information Block
DEPT.FT            0 000 00 00: Depth
DCAL.in                       : CDL Caliper
RHOB.g/cc                     : CDL Bulk Density
RHOC.g/cc                     : CDL Density Correction
DPOR.pu                       : CDL Density Porosity
NPOR.pu                       : Neutron Porosity
GR.GAPI                       : Gamma Ray
~Parameter Information Block
~A  Depth       DCAL        RHOB        RHOC        DPOR        NPOR         GR     
# ...
  2490.8000      8.0552      2.5789      0.0619      4.3085     17.8732     81.2605
  2490.9000      8.0552      2.5819      0.0899      4.1291     18.1939     77.2241
  2491.0000      8.0574      2.5763      0.0834      4.4681     18.9688     78.9609
  2491.1000      8.0574      2.5646      0.0608      5.1755     18.8852     86.8783
  2491.2000      8.0574      2.5538      0.0425      5.8319     17.9327     93.6798
  2491.3000      8.0590      2.5451      0.0520      6.3581     17.3462     93.4343
  2491.4000      8.0590      2.5351      0.0403      6.9650     17.7113     89.9335
  2491.5000      8.0599      2.5258      0.0269      7.5243     18.6006     86.2991
  2491.6000      8.0599      2.5230      0.0508      7.6992     19.3425     79.6107
  2491.7000      8.0599      2.5251      0.0107      7.5680     19.6262     70.9211
  2491.8000      8.0602      2.5291      0.0214      7.3271     19.4317     66.0760
  2491.9000      8.0602      2.5383      0.0299      6.7720     19.0655     66.8428
  2492.0000      8.0599      2.5573      0.0712      5.6173     19.0534     69.3705
  2492.1000      8.0599      2.5780      0.0904      4.3659     19.5811     67.4221
  2492.2000      8.0599      2.5829      0.0980      4.0663     20.1341     59.7967
  2492.3000      8.0582      2.5693      0.0827      4.8908     20.1706     52.1461
  2492.4000      8.0582      2.5487      0.1017      6.1378     19.5535     49.2660
  2492.5000      8.0554      2.5318      0.0328      7.1655     18.5979     50.0890
  2492.6000      8.0554      2.5234      0.0790      7.6745     18.2073     52.7752
  2492.7000      8.0554      2.5218      0.0625      7.7708     18.9457     58.8649
  2492.8000      8.0546      2.5285      0.0607      7.3648     20.2696     66.2454
  2492.9000      8.0546      2.5399      0.0903      6.6747     21.1962     68.0712
  2493.0000      8.0545      2.5467      0.0713      6.2578     21.5552     63.7415
  2493.1000      8.0545      2.5488      0.0739      6.1361     21.9339     60.5453
  2493.2000      8.0545      2.5507      0.0663      6.0168     22.4420     62.7889
  2493.3000      8.0534      2.5577      0.0776      5.5940     22.8453     66.4671
  2493.4000      8.0534      2.5678      0.0834      4.9794     22.9939     68.2596
  2493.5000      8.0530      2.5737      0.0968      4.6218     22.9458     69.4648
  2493.6000      8.0530      2.5736      0.0775      4.6316     22.8656     72.3789
  2493.7000      8.0530      2.5683      0.0750      4.9532     22.7870     79.2626
  2493.8000      8.0537      2.5591      0.0869      5.5086     23.0214     87.6072
  2493.9000      8.0537      2.5549      0.0637      5.7647     23.3915     92.6863
  2494.0000      8.0547      2.5621      0.0826      5.3255     23.1090     93.0472
  2494.1000      8.0547      2.5780      0.0696      4.3643     22.1701     89.9291
  2494.2000      8.0547      2.5976      0.1151      3.1735     21.2548     86.3730
  2494.3000      8.0539      2.6104      0.1102      2.4026     20.7150     85.1794
  2494.4000      8.0539      2.6094      0.0912      2.4609     20.4891     87.9585
  2494.5000      8.0510      2.5964      0.0831      3.2461     20.4250     93.5852
  2494.6000      8.0510      2.5745      0.0574      4.5728     20.3563     97.2570
  2494.7000      8.0510      2.5538      0.0607      5.8329     20.4410     96.2829
  2494.8000      8.0510      2.5435      0.0289      6.4520     20.7069     95.4798
  2494.9000      8.0510      2.5400      0.0450      6.6640     20.8402     97.3062
  2495.0000      8.0538      2.5387      0.0406      6.7443     20.9433     94.2816
  2495.1000      8.0538      2.5514      0.0344      5.9777     21.1139     83.7666
  2495.2000      8.0538      2.5810      0.0769      4.1805     20.7976     74.5319
  2495.3000      8.0537      2.6082      0.0890      2.5313     19.9886     73.4478
  2495.4000      8.0537      2.6185      0.0871      1.9063     19.8857     80.9815
  2495.5000      8.0528      2.6193      0.0634      1.8623     21.1756     89.3078
  2495.6000      8.0528      2.6206      0.0929      1.7827     22.9492     90.9857
  2495.7000      8.0528      2.6176      0.0610      1.9651     24.0234     89.5321
  2495.8000      8.0553      2.6063      0.0397      2.6470     24.4268     91.8407
  2495.9000      8.0553      2.5901      0.0758      3.6286     24.6509     99.6073
  2496.0000      8.0579      2.5657      0.0450      5.1098     24.6453    106.4066
  2496.1000      8.0579      2.5305      0.0348      7.2432     24.6278    108.0696
  2496.2000      8.0579      2.4934      0.0328      9.4937     25.1095    109.4151
  2496.3000      8.0569      2.4674      0.0189     11.0691     25.8862    111.1712
  2496.4000      8.0569      2.4560      0.0150     11.7575     26.7925    108.7716
  2496.5000      8.0544      2.4448      0.0506     12.4361     28.0627    103.7474
  2496.6000      8.0544      2.4203      0.0146     13.9197     29.5129    104.3118
  2496.7000      8.0544      2.3900     -0.0151     15.7571     30.5129    114.9583
  2496.8000      8.0524      2.3632      0.0269     17.3836     30.6657    131.3106
  2496.9000      8.0524      2.3412      0.0285     18.7155     30.2646    143.7702
  2497.0000      8.0517      2.3325      0.0252     19.2437     29.8838    145.1286
  2497.1000      8.0517      2.3432      0.0632     18.5952     29.5929    138.8007
  2497.2000      8.0517      2.3660      0.0610     17.2120     29.2370    132.4079
  2497.3000      8.0519      2.3888      0.0695     15.8322     28.5959    126.4657
  2497.4000      8.0519      2.4054      0.0678     14.8224     27.6895    118.7246
  2497.5000      8.0520      2.4255      0.0826     13.6072     26.7580    112.7461
  2497.6000      8.0520      2.4635      0.0769     11.3054     25.6052    113.4428
  2497.7000      8.0520      2.5130      0.1429      8.3009     24.0461    119.3969
  2497.8000      8.0527      2.5559      0.1146      5.7059     22.7377    125.7131
  2497.9000      8.0527      2.5917      0.1162      3.5312     22.4052    128.1572
  2498.0000      8.0537      2.6240      0.1442      1.5760     22.6769    126.6774
  2498.1000      8.0537      2.6404      0.1445      0.5831     23.2276    126.2560
  2498.2000      8.0537      2.6311      0.1325      1.1470     24.0097    127.0663
  2498.3000      8.0526      2.6042      0.0679      2.7758     24.2698    122.1499
  2498.4000      8.0526      2.5793      0.0587      4.2822     23.6463    112.0074
  2498.5000      8.0524      2.5749      0.0156      4.5497     22.4925    106.3437
  2498.6000      8.0524      2.5936      0.0563      3.4169     21.0835    109.5545
  2498.7000      8.0524      2.6187      0.0653      1.8954     19.7582    115.2611
  2498.8000      8.0548      2.6386      0.0559      0.6904     19.0401    115.1991
  2498.9000      8.0548      2.6513      0.0448     -0.0762     19.0702    106.5617
  2499.0000      8.0567      2.6527      0.0762     -0.1664     19.5574     93.7661
  2499.1000      8.0567      2.6403      0.0735      0.5851     20.3668     87.5192
  2499.2000      8.0567      2.6175      0.0052      1.9700     21.6039     91.2391
  2499.3000      8.0582      2.5899      0.0512      3.6408     23.0625     96.9583
  2499.4000      8.0582      2.5590     -0.0021      5.5174     24.1991     99.8424
  2499.5000      8.0621      2.5366     -0.0244      6.8722     25.0392    101.6056
  2499.6000      8.0621      2.5334      0.0132      7.0674     25.9701    105.1510
  2499.7000      8.0621      2.5357      0.0072      6.9301     26.6141    111.2664
  2499.8000      8.0728      2.5320      0.0334      7.1532     26.6126    117.8137
  2499.9000      8.0728      2.5268      0.0313      7.4687     26.4933    123.3645
  2500.0000      8.0920      2.5263      0.0153      7.4945     26.5920    126.6669
  2500.1000      8.0920      2.5316      0.0456      7.1735     26.7745    125.1981
  2500.2000      8.0920      2.5392      0.0336      6.7167     27.0560    121.3790
  2500.3000      8.1133      2.5504      0.0673      6.0356     27.1665    120.2854
