~Version Information
VERS.                      2.0: CWLS Log ASCII Standard - VERSION 2.0
WRAP.                       NO: One line per depth step
~Well Information Block
STRT.FT                -6.0000: 
STOP.FT              2490.5000: 
STEP.FT                 0.2500: 
NULL.                -999.2500: 
COMP.          Pioneer Natural Resources: COMPANY
WELL.          Aztec Federal 41-15: WELL
FLD.           Purgatorie River: FIELD
LOC.           706' FNL & 1253' FEL--: LOCATION
CNTY.               Las Animas: COUNTY
SRVC.          Superior Well Services: SERVICE COMPANY
DATE.          Wed May 28 14-18-16 2008: LOG DATE
UWI.           05 071 08342 00: UNIQUE WELL ID
STAT.                       CO: STATE
~Curve Information Block
DEPT.FT            0 000 00 00: Depth
GR.GAPI                       : Gamma Ray
CCL.                          : Casing Collar Locator
AMP3FT.mV                     : AMP3FT Amplitude
TT3FT.usec                    : 3FT Travel Time
AMP5FT.mV                     : AMP5FT Amplitude
~Parameter Information Block
~A  Depth        GR         CCL        AMP3FT      TT3FT       AMP5FT   
# ...
  1478.0000     89.4264      0.0000      2.2244    642.0000      1.8193
  1478.2500     81.2969      0.0000      2.2381    642.0000      1.8250
  1478.5000     74.9880      0.0000      2.2690    642.0000      1.8325
  1478.7500     71.6483      0.0000      2.2999    642.0000      1.8314
  1479.0000     70.9163      0.0000      2.3157    642.0000      1.8150
  1479.2500     71.6496      0.0000      2.3114    642.0000      1.7883
  1479.5000     73.0517      0.0000      2.2909    642.0000      1.7655
  1479.7500     75.4426      0.0000      2.2605    642.0000      1.7595
  1480.0000     80.0260      0.0000      2.2255    642.0000      1.7738
  1480.2500     87.6687      0.0000      2.1921    642.0000      1.8024
  1480.5000     97.6977      0.0000      2.1687    642.0000      1.8352
  1480.7500    107.7738      0.0000      2.1616    642.0000      1.8627
  1481.0000    114.9673      0.0000      2.1677    642.0000      1.8805
  1481.2500    117.3673      0.0000      2.1765    642.0000      1.8912
  1481.5000    115.0831      0.0000      2.1797    642.0000      1.9001
  1481.7500    109.7689      0.0000      2.1780    642.0000      1.9087
  1482.0000    103.2361      0.0000      2.1759    642.0000      1.9141
  1482.2500     96.7313      0.0000      2.1744    642.0000      1.9126
  1482.5000     91.3693      0.0000      2.1735    642.0000      1.9010
  1482.7500     88.4632      0.0000      2.1791    642.0000      1.8789
  1483.0000     88.9441      0.0000      2.1997    642.0000      1.8513
  1483.2500     92.6047      0.0000      2.2345    642.0000      1.8270
  1483.5000     98.1105      0.0000      2.2679    642.0000      1.8116
  1483.7500    103.6101      0.0000      2.2813    642.0000      1.8060
  1484.0000    107.4863      0.0000      2.2673    642.0000      1.8087
  1484.2500    109.2365      0.0000      2.2332    642.0000      1.8172
  1484.5000    109.8635      0.0000      2.1940    641.9979      1.8260
  1484.7500    110.7418      0.0000      2.1625    641.9865      1.8291
  1485.0000    111.8474      0.0000      2.1434    641.9312      1.8246
  1485.2500    111.7161      0.0000      2.1340    641.7279      1.8175
  1485.5000    109.2914      0.0000      2.1285    641.1619      1.8149
  1485.7500    105.3549      0.0000      2.1222    639.9896      1.8203
  1486.0000    101.9827      0.0000      2.1116    638.2441      1.8311
  1486.2500    100.9097      0.0000      2.0965    636.5352      1.8405
  1486.5000    102.5979      0.0000      2.0820    635.8076      1.8402
  1486.7500    106.5681      0.0000      2.0754    636.5352      1.8259
  1487.0000    112.0768      0.0000      2.0796    638.2441      1.8026
  1487.2500    118.2238      0.0000      2.0897    639.9896      1.7821
  1487.5000    123.8033      0.0000      2.0985    641.1619      1.7736
  1487.7500    127.5958      0.0000      2.1015    641.7279      1.7789
  1488.0000    128.9909      0.0000      2.0997    641.9312      1.7954
  1488.2500    128.3321      0.0000      2.0991    641.9865      1.8190
  1488.5000    126.7252      0.0000      2.1039    641.9979      1.8446
  1488.7500    125.4930      0.0000      2.1082    642.0000      1.8666
  1489.0000    125.6439      0.0000      2.1008    642.0000      1.8804
  1489.2500    127.6157      0.0000      2.0786    642.0000      1.8812
  1489.5000    131.3226      0.0000      2.0513    642.0000      1.8676
  1489.7500    136.3640      0.0000      2.0311    642.0000      1.8450
  1490.0000    141.9983      0.0000      2.0251    642.0000      1.8270
  1490.2500    146.8319      0.0000      2.0362    641.9979      1.8274
  1490.5000    149.0202      0.0000      2.0634    641.9836      1.8496
  1490.7500    147.3395      0.0000      2.0987    641.9135      1.8822
  1491.0000    142.1148      0.0000      2.1282    641.6401      1.9065
  1491.2500    135.0661      0.0000      2.1431    640.8221      1.9106
  1491.5000    128.3373      0.0000      2.1479    638.9607      1.8969
  1491.7500    123.4953      0.0000      2.1551    635.8093      1.8784
  1492.0000    121.0695      0.0000      2.1708    632.0352      1.8704
  1492.2500    120.6070      0.0000      2.1865    629.3154      1.8842
  1492.5000    120.8331      0.0000      2.1870    629.2274      1.9257
  1492.7500    120.0307      0.0000      2.1667    631.8285      1.9950
  1493.0000    117.1066      0.0000      2.1380    635.5982      2.0818
  1493.2500    112.6630      0.0000      2.1209    638.8188      2.1608
  1493.5000    108.6087      0.0000      2.1262    640.7536      2.1984
  1493.7500    106.3890      0.0000      2.1480    641.6155      2.1742
  1494.0000    105.8189      0.0000      2.1712    641.9067      2.0985
  1494.2500    105.7459      0.0000      2.1854    641.9822      2.0084
  1494.5000    105.6114      0.0000      2.1944    641.9976      1.9437
  1494.7500    106.2358      0.0000      2.2125    642.0000      1.9246
  1495.0000    109.1764      0.0000      2.2495    642.0000      1.9451
  1495.2500    115.2839      0.0000      2.2989    642.0000      1.9800
  1495.5000    123.6450      0.0000      2.3444    642.0000      2.0020
  1495.7500    131.7398      0.0000      2.3771    642.0000      1.9981
  1496.0000    136.8014      0.0000      2.4014    642.0000      1.9769
  1496.2500    137.5566      0.0000      2.4235    642.0000      1.9587
  1496.5000    135.0865      0.0000      2.4399    642.0000      1.9591
  1496.7500    132.0166     -3.1372      2.4447    642.0000      1.9808
  1497.0000    130.6102     -1.5601      2.4439    642.0000      2.0158
  1497.2500    131.2983      0.0000      2.4565    642.0000      2.0503
  1497.5000    132.8307      0.0000      2.5005    642.0000      2.0687
  1497.7500    133.9192      0.0000      2.5777    642.0000      2.0587
  1498.0000    134.7594      0.0000      2.6704    642.0000      2.0192
  1498.2500    136.8008      0.0000      2.7504    642.0000      1.9648
  1498.5000    141.1611      0.0000      2.7976    642.0000      1.9227
  1498.7500    147.5107      0.0000      2.8132    642.0000      1.9181
  1499.0000    154.3994      0.0000      2.8135    642.0000      1.9571
  1499.2500    160.1542      0.0000      2.8106    642.0000      2.0187
  1499.5000    163.2748      0.0000      2.8032    642.0000      2.0700
  1499.7500    162.5403      0.0000      2.7871    642.0000      2.0906
  1500.0000    157.6318      0.0000      2.7677    642.0000      2.0841
  1500.2500    149.9978      0.0000      2.7552    642.0000      2.0655
  1500.5000    142.6129      0.0000      2.7514    642.0000      2.0443
  1500.7500    138.1216      0.0000      2.7472    642.0000      2.0214
  1501.0000    136.9222      0.0000      2.7326    642.0000      1.9964
  1501.2500    137.2605      0.0000      2.7032    642.0000      1.9719
  1501.5000    137.4185      0.0000      2.6581    642.0000      1.9540
  1501.7500    137.4397      0.0000      2.5985    642.0000      1.9484
  1502.0000    138.1264      0.0000      2.5299    641.9963      1.9552
  1502.2500    138.8711      0.0000      2.4628    641.9759      1.9645
  1502.5000    137.6622      0.0000      2.4088    641.8771      1.9612
  1502.7500    133.2594      0.0000      2.3765    641.5119      1.9348
  1503.0000    126.5903      0.0000      2.3680    640.4874      1.8889
  1503.2500    120.0362      0.0000      2.3783    638.3418      1.8423
  1503.5000    115.8116      0.0000      2.4000    635.0808      1.8179
  1503.7500    114.8287      0.0000      2.4275    631.7186      1.8275
  1504.0000    116.5288      0.0000      2.4555    629.8580      1.8642
  1504.2500    119.3865      0.0000      2.4771    630.2671      1.9070
  1504.5000    121.4614      0.0000      2.4871    632.0121      1.9331
  1504.7500    121.0090      0.0000      2.4867    633.1371      1.9294
  1505.0000    117.4538      0.0000      2.4827    631.6349      1.9010
  1505.2500    112.0614      0.0000      2.4812    625.6537      1.8686
  1505.5000    107.3764      0.0000      2.4834    614.3724      1.8535
  1505.7500    105.6527      0.0000      2.4878    600.2322      1.8636
