~Version Information
VERS.                      2.0: CWLS Log ASCII Standard - VERSION 2.0
WRAP.                       NO: One line per depth step
~Well Information Block
STRT.FT               298.0000: 
STOP.FT              1325.5000: 
STEP.FT                 0.2500: 
NULL.                -999.2500: 
COMP.          Pioneer Natural Resources: COMPANY
WELL.          Santa Fe 43-27 Tr: WELL
FLD.           Purgatoire River: FIELD
LOC.           2018' FSL & 534' FEL: LOCATION
PROV.                 Colorado: PROVINCE
CNTY.               Las Animas: COUNTRY
SRVC.                Patterson: SERVICE COMPANY
DATE.          Tue Mar 08 10:44:11 2005: LOG DATE
UWI.           05 071 08303 00: UNIQUE WELL ID
~Curve Information Block
DEPT.FT            0 000 00 00: Depth
SN.Ohm-m                      : IEL Short Normal
SP.mV                         : IEL Spontaneous Potential
DIR.Ohm-m                     : IEL Induction Resistivity
GR.GAPI                       : Gamma Ray
~Parameter Information Block
~A  Depth        SN          SP         DIR          GR     
# ...
  1035.0000     11.6854     32.4508     10.0922    138.9636
  1035.2500     12.0397     32.1155     10.1853    133.5276
  1035.5000     12.4540     31.7568     10.3089    123.8203
  1035.7500     12.8990     31.4142     10.4735    117.6780
  1036.0000     13.3697     31.1292     10.6938    111.3796
  1036.2500     13.8684     30.9315     10.9853    109.7651
  1036.5000     14.3727     30.8289     11.3605    110.6993
  1036.7500     14.8269     30.8067     11.8251    112.7534
  1037.0000     15.1677     30.8345     12.3754    116.5154
  1037.2500     15.3824     30.8805     12.9962    118.6489
  1037.5000     15.5503     30.9257     13.6615    119.8430
  1037.7500     15.8062     30.9708     14.3395    118.5636
  1038.0000     16.2703     31.0323     15.0016    112.9523
  1038.2500     17.0254     31.1344     15.6337    107.0148
  1038.5000     18.1220     31.3001     16.2457     96.2760
  1038.7500     19.5576     31.5419     16.8699     89.0558
  1039.0000     21.2567     31.8532     17.5504     79.8117
  1039.2500     23.0966     32.2052     18.3281     75.1655
  1039.5000     24.9574     32.5547     19.2318     70.4613
  1039.7500     26.7407     32.8603     20.2719     68.6416
  1040.0000     28.3556     33.1015     21.4284     67.4753
  1040.2500     29.7287     33.2868     22.6292     67.3873
  1040.5000     30.8292     33.4461     23.7356     67.5427
  1040.7500     31.6677     33.6110     24.5682     67.5197
  1041.0000     32.2752     33.7983     24.9876     67.2637
  1041.2500     32.6685     34.0051     24.9741     67.1543
  1041.5000     32.8247     34.2143     24.6316     67.5199
  1041.7500     32.6865     34.4041     24.1112     68.3951
  1042.0000     32.1891     34.5573     23.5305     71.2681
  1042.2500     31.2845     34.6680     22.9463     74.5971
  1042.5000     29.9657     34.7416     22.3742     82.1455
  1042.7500     28.3046     34.7857     21.8206     88.9743
  1043.0000     26.4752     34.7996     21.2978    101.6175
  1043.2500     24.7048     34.7723     20.8188    110.9387
  1043.5000     23.1825     34.6918     20.3854    123.7801
  1043.7500     21.9997     34.5559     19.9842    129.7268
  1044.0000     21.1433     34.3776     19.5919    132.4235
  1044.2500     20.5443     34.1822     19.1832    129.9978
  1044.5000     20.1572     33.9998     18.7352    122.0910
  1044.7500     20.0107     33.8502     18.2315    115.7161
  1045.0000     20.1807     33.7257     17.6691    106.7363
  1045.2500     20.6869     33.5903     17.0637    101.6636
  1045.5000     21.3870     33.4031     16.4463     95.7723
  1045.7500     21.9819     33.1479     15.8497     93.4638
  1046.0000     22.1720     32.8440     15.2957     93.6709
  1046.2500     21.8168     32.5356     14.7893     96.6220
  1046.5000     20.9466     32.2688     14.3220    104.5164
  1046.7500     19.6884     32.0727     13.8784    111.0754
  1047.0000     18.2206     31.9521     13.4414    121.1036
  1047.2500     16.7288     31.8918     12.9954    127.1702
  1047.5000     15.3447     31.8664     12.5297    134.4910
  1047.7500     14.1278     31.8497     12.0438    137.8849
  1048.0000     13.1040     31.8205     11.5504    140.7516
  1048.2500     12.2923     31.7681     11.0712    141.5903
  1048.5000     11.6902     31.6960     10.6280    142.3189
  1048.7500     11.2631     31.6225     10.2350    142.8620
  1049.0000     10.9642     31.5721      9.8978    143.6536
  1049.2500     10.7522     31.5621      9.6159    143.8998
  1049.5000     10.5952     31.5953      9.3866    143.7723
  1049.7500     10.4728     31.6655      9.2063    143.5992
  1050.0000     10.3933     31.7656      9.0713    143.6472
  1050.2500     10.4001     31.8843      8.9791    143.9482
  1050.5000     10.5125     31.9991      8.9277    144.5383
  1050.7500     10.6748     32.0774      8.9143    144.7288
  1051.0000     10.8154     32.0898      8.9353    144.2828
  1051.2500     10.9166     32.0236      8.9875    143.5319
  1051.5000     11.0013     31.8908      9.0700    142.3069
  1051.7500     11.0892     31.7251      9.1856    141.7930
  1052.0000     11.1844     31.5732      9.3399    141.8415
  1052.2500     11.2911     31.4810      9.5389    142.5668
  1052.5000     11.4213     31.4821      9.7871    144.6626
  1052.7500     11.5839     31.5898     10.0863    146.2312
  1053.0000     11.7821     31.7939     10.4369    147.1600
  1053.2500     12.0379     32.0648     10.8412    145.8228
  1053.5000     12.4154     32.3634     11.3049    140.1062
  1053.7500     12.9653     32.6553     11.8367    134.2558
  1054.0000     13.6464     32.9218     12.4454    124.5407
  1054.2500     14.3755     33.1655     13.1365    118.8784
  1054.5000     15.1868     33.4076     13.9134    113.1573
  1054.7500     16.2896     33.6771     14.7828    111.3219
  1055.0000     17.9249     33.9974     15.7631    110.5828
  1055.2500     20.1628     34.3697     16.8879    110.2663
  1055.5000     22.7898     34.7636     18.1974    107.6177
  1055.7500     25.4122     35.1243     19.7183    103.5287
  1056.0000     27.7631     35.4000     21.4399     94.4593
  1056.2500     29.8795     35.5671     23.3026     87.6521
  1056.5000     31.9632     35.6334     25.2159     78.2308
  1056.7500     34.1596     35.6262     27.1056     73.0541
  1057.0000     36.4711     35.5807     28.9548     67.3517
  1057.2500     38.7964     35.5299     30.7869     65.0862
  1057.5000     40.9802     35.4949     32.5922     63.9086
  1057.7500     42.8384     35.4826     34.2577     64.1190
  1058.0000     44.2076     35.4910     35.5784     64.6393
  1058.2500     45.0141     35.5183     36.3625     64.5741
  1058.5000     45.3185     35.5672     36.5417     63.8314
  1058.7500     45.2785     35.6429     36.1815     63.3074
  1059.0000     45.0192     35.7446     35.4087     63.1876
  1059.2500     44.5560     35.8568     34.3412     63.6921
  1059.5000     43.8423     35.9474     33.0556     65.1981
  1059.7500     42.8456     35.9800     31.5856     66.6716
  1060.0000     41.5833     35.9342     29.9448     69.6345
  1060.2500     40.1122     35.8186     28.1622     71.9001
  1060.5000     38.4681     35.6641     26.3014     74.9486
  1060.7500     36.5944     35.4995     24.4427     76.6126
  1061.0000     34.3572     35.3340     22.6520     79.7589
  1061.2500     31.6954     35.1591     20.9685     83.4725
  1061.5000     28.7593     34.9637     19.4150     92.6660
  1061.7500     25.8691     34.7414     18.0110    100.7888
  1062.0000     23.3259     34.4910     16.7767    113.5191
  1062.2500     21.2452     34.2184     15.7293    120.7596
  1062.5000     19.5491     33.9436     14.8799    128.5062
  1062.7500     18.1031     33.7028     14.2322    132.0609
  1063.0000     16.8557     33.5374     13.7820    136.6336
  1063.2500     15.8736     33.4745     13.5139    139.7731
  1063.5000     15.2564     33.5125     13.3980    144.5856
  1063.7500     15.0225     33.6244     13.3892    147.5941
  1064.0000     15.0865     33.7721     13.4354    151.5075
  1064.2500     15.3207     33.9228     13.4920    153.5288
  1064.5000     15.6185     34.0581     13.5334    154.8358
  1064.7500     15.9438     34.1762     13.5527    153.7809
  1065.0000     16.3528     34.2882     13.5496    148.2674
  1065.2500     16.9529     34.4083     13.5223    142.0153
  1065.5000     17.8166     34.5445     13.4679    130.2107
  1065.7500     18.9397     34.6925     13.3905    122.0915
  1066.0000     20.2902     34.8378     13.3085    111.9174
  1066.2500     21.7494     34.9646     13.2552    107.5147
  1066.5000     22.9304     35.0667     13.2711    105.4974
  1066.7500     23.3150     35.1511     13.3867    107.4900
  1067.0000     22.7080     35.2298     13.6067    115.5221
  1067.2500     21.4112     35.3065     13.9022    123.7185
  1067.5000     19.9387     35.3712     14.2201    137.7996
  1067.7500     18.6675     35.4070     14.5048    146.1564
  1068.0000     17.7246     35.4068     14.7182    153.4890
  1068.2500     17.0825     35.3844     14.8488    153.8358
