~Version Information
VERS.                      2.0: CWLS Log ASCII Standard - VERSION 2.0
WRAP.                       NO: One line per depth step
~Well Information Block
STRT.FT               362.0000: 
STOP.FT               983.0000: 
STEP.FT                 0.1000: 
NULL.                -999.2500: 
COMP.          Pioneer Natural Resources: COMPANY
WELL.             Tomcat 32-10: WELL
FLD.           Purgatoire River: FIELD
LOC.           2286' FNL & 2463' FEL: LOCATION
PROV.                 Colorado: PROVINCE
CNTY.               Las Animas: COUNTRY
SRVC.                Patterson: SERVICE COMPANY
DATE.          Tue Mar 22 11:24:45 2005: LOG DATE
UWI.           05 071 08301 00: UNIQUE WELL ID
~Curve Information Block
DEPT.FT            0 000 00 00: Depth
DCAL.in                       : CDL Caliper
RHOB.g/cc                     : CDL Bulk Density
RHOC.g/cc                     : CDL Density Correction
DPOR.pu                       : CDL Density Porosity
GR.GAPI                       : Gamma Ray
NPOR.pu                       : Neutron Porosity
~Parameter Information Block
~A  Depth       DCAL        RHOB        RHOC        DPOR         GR         NPOR    
# ...
   688.4000      7.9684      2.6568      0.0281     -0.4103     56.4312     25.3277
   688.5000      8.0047      2.6265     -0.0302      1.4261     55.8701     24.8987
   688.6000      8.0047      2.5913     -0.0406      3.5583     53.7510     24.8159
   688.7000      8.0047      2.5594     -0.0243      5.4933     53.8797     24.5965
   688.8000      7.9951      2.5322     -0.0081      7.1382     57.3122     24.1790
   688.9000      7.9951      2.5125     -0.0252      8.3349     64.5220     23.9147
   689.0000      7.9971      2.4978     -0.0199      9.2265     75.6730     23.9178
   689.1000      7.9971      2.4795     -0.0211     10.3351     86.4317     24.0153
   689.2000      7.9971      2.4570     -0.0391     11.6952     91.5152     24.1584
   689.3000      8.0042      2.4470     -0.0865     12.3036     91.6076     24.4297
   689.4000      8.0042      2.4575      0.0124     11.6678     90.1699     24.9004
   689.5000      8.0115      2.4748     -0.0076     10.6208     87.8848     25.4661
   689.6000      8.0115      2.5007     -0.0371      9.0463     86.7994     26.0276
   689.7000      8.0115      2.5411      0.0460      6.5996     89.6932     26.5904
   689.8000      8.0078      2.5720      0.0867      4.7292     94.4306     26.9990
   689.9000      8.0078      2.5778      0.0652      4.3750     97.9910     26.9924
   690.0000      8.0201      2.5752      0.0287      4.5321    101.0814     26.5167
   690.1000      8.0201      2.5819      0.0796      4.1269    104.5483     25.9609
   690.2000      8.0201      2.5969      0.0545      3.2180    107.7636     25.8713
   690.3000      7.9938      2.6082      0.1170      2.5330    109.0916     26.2261
   690.4000      7.9938      2.6055      0.0910      2.6993    106.3937     26.5468
   690.5000      7.9728      2.5939      0.0833      3.3973    101.0993     26.5227
   690.6000      7.9728      2.5853      0.0804      3.9231     95.4346     26.2972
   690.7000      7.9728      2.5757      0.0587      4.5043     91.4879     26.3049
   690.8000      7.9703      2.5578      0.0360      5.5885     90.4852     26.5576
   690.9000      7.9703      2.5410      0.0238      6.6076     90.6101     26.6820
   691.0000      7.9777      2.5363      0.0696      6.8933     91.3854     26.5599
   691.1000      7.9777      2.5357      0.0376      6.9247     91.5799     26.3527
   691.2000      7.9777      2.5314      0.0176      7.1897     89.2567     26.0269
   691.3000      7.9869      2.5409      0.0134      6.6122     89.1973     25.7071
   691.4000      7.9869      2.5751      0.0616      4.5412     94.3301     25.6549
   691.5000      7.9957      2.6101      0.1183      2.4200     99.7518     25.6450
   691.6000      7.9957      2.6237      0.1233      1.5934    102.7623     25.4134
   691.7000      7.9957      2.6199      0.0835      1.8214    102.6989     25.2136
   691.8000      7.9842      2.6103      0.1017      2.4033     99.4091     25.2820
   691.9000      7.9842      2.6029      0.0945      2.8535     94.6622     25.5240
   692.0000      7.9476      2.5998      0.1331      3.0399     90.9794     25.9062
   692.1000      7.9476      2.5974      0.0707      3.1901     90.4475     26.3191
   692.2000      7.9476      2.5978      0.0946      3.1642     92.3478     26.5061
   692.3000      7.9628      2.5994      0.0770      3.0680     94.1499     26.4027
   692.4000      7.9628      2.5914      0.0836      3.5509     95.1441     26.0586
   692.5000      7.9593      2.5743      0.0543      4.5870     96.0098     25.6923
   692.6000      7.9593      2.5635     -0.0079      5.2401     96.7311     25.6324
   692.7000      7.9593      2.5678      0.0566      4.9788     97.0567     25.9388
   692.8000      7.9520      2.5760      0.0295      4.4873     97.4491     26.3143
   692.9000      7.9520      2.5740      0.0195      4.6079     98.6173     26.3965
   693.0000      7.9902      2.5570      0.0233      5.6388     99.7729     26.1454
   693.1000      7.9902      2.5341     -0.0226      7.0223     99.7940     25.7903
   693.2000      7.9902      2.5236     -0.0217      7.6577     99.8296     25.4472
   693.3000      7.9669      2.5276      0.0240      7.4165    101.2487     25.1960
   693.4000      7.9669      2.5378     -0.0149      6.8006    101.7759     25.0865
   693.5000      7.9773      2.5518      0.0360      5.9511     99.3658     24.9973
   693.6000      7.9773      2.5610      0.1026      5.3957     96.0824     24.7995
   693.7000      7.9773      2.5560      0.0788      5.6967     94.4993     24.6093
   693.8000      7.9927      2.5447     -0.0049      6.3846     93.2895     24.7703
   693.9000      7.9927      2.5388      0.0823      6.7384     91.5659     25.4643
   694.0000      7.9902      2.5444      0.0467      6.4013     93.5080     26.2322
   694.1000      7.9902      2.5614      0.1026      5.3717    102.1275     26.6492
   694.2000      7.9902      2.5718      0.1183      4.7389    113.6125     26.8723
   694.3000      7.9775      2.5698      0.0284      4.8623    118.2445     27.0230
   694.4000      7.9775      2.5713      0.1075      4.7675    111.6866     27.1803
   694.5000      7.9682      2.5801      0.0377      4.2351    103.6983     27.4234
   694.6000      7.9682      2.5916      0.0612      3.5424    103.3567     27.4927
   694.7000      7.9682      2.5993      0.0547      3.0708    105.6508     27.1484
   694.8000      7.9682      2.5957      0.0637      3.2937    101.4756     26.6071
   694.9000      7.9682      2.5820      0.0396      4.1190     90.5488     26.1732
   695.0000      7.9718      2.5719     -0.0229      4.7305     81.7078     25.8565
   695.1000      7.9718      2.5791     -0.0158      4.2973     80.9058     25.4652
   695.2000      7.9718      2.5945      0.0410      3.3627     84.6150     25.0270
   695.3000      7.9846      2.5955      0.0218      3.3018     86.5939     24.8088
   695.4000      7.9846      2.5781     -0.0442      4.3602     84.1149     24.8099
   695.5000      7.9706      2.5551     -0.0464      5.7500     77.3252     24.9104
   695.6000      7.9706      2.5335     -0.0331      7.0582     69.5366     25.1254
   695.7000      7.9706      2.5135     -0.0703      8.2708     66.7999     25.3311
   695.8000      7.9816      2.5021     -0.0352      8.9653     68.2877     25.3618
   695.9000      7.9816      2.5074     -0.0309      8.6412     67.1643     25.3288
   696.0000      8.0083      2.5217     -0.0109      7.7735     63.6103     25.3984
   696.1000      8.0083      2.5321     -0.0565      7.1431     62.9777     25.7244
   696.2000      8.0083      2.5448     -0.0356      6.3781     64.2518     26.1547
   696.3000      8.0088      2.5725     -0.0944      4.6943     64.5644     26.2820
   696.4000      8.0088      2.6154      0.0000      2.0958     62.6907     26.1313
   696.5000      8.0123      2.6588      0.0690     -0.5329     58.5263     26.0117
   696.6000      8.0123      2.6862      0.1301     -2.1933     55.0008     25.9721
   696.7000      8.0123      2.6967      0.0498     -2.8309     53.3345     25.9048
   696.8000      7.9976      2.7065      0.0524     -3.4267     50.7315     25.7838
   696.9000      7.9976      2.7212      0.0431     -4.3134     46.8635     25.6643
   697.0000      7.9634      2.7294      0.0598     -4.8150     43.1849     25.4387
   697.1000      7.9634      2.7122      0.1106     -3.7688     40.4746     25.0389
   697.2000      7.9634      2.6689      0.0185     -1.1467     40.4012     24.7693
   697.3000      7.9246      2.6355      0.0006      0.8780     41.7558     24.6433
   697.4000      7.9246      2.6333      0.0097      1.0140     42.2489     24.3117
   697.5000      7.9296      2.6383      0.0319      0.7114     43.4770     23.4949
   697.6000      7.9296      2.6198      0.0013      1.8319     47.9349     22.4311
   697.7000      7.9296      2.5790      0.0099      4.3038     54.5619     21.6605
   697.8000      7.9449      2.5445     -0.0191      6.3950     58.6911     21.3174
   697.9000      7.9449      2.5353     -0.0098      6.9492     56.8869     21.3254
