~Version Information
VERS.                      2.0: CWLS Log ASCII Standard - VERSION 2.0
WRAP.                       NO: One line per depth step
~Well Information Block
STRT.FT               510.5000: 
STOP.FT              2075.5000: 
STEP.FT                 0.1000: 
NULL.                -999.2500: 
COMP.          Petrogulf Corporation: COMPANY
WELL.          Robinson 15-11V: WELL
FLD.           Purgatorie River: FIELD
LOC.           226' FNL & 592' FWL: LOCATION
CNTY.               Las Animas: COUNTY
SRVC.                         : SERVICE COMPANY
DATE.          Wed Aug 04 06:17:53 2004: LOG DATE
UWI.           05 071 08027 00: UNIQUE WELL ID
STAT.                 Colorado: STATE
~Curve Information Block
DEPT.FT            0 000 00 00: Depth
DCAL.in                       : CDL Caliper
RHOB.g/cc                     : CDL Bulk Density
RHOC.g/cc                     : CDL Density Correction
DPOR.pu                       : CDL Density Porosity
GR.GAPI                       : Gamma Ray
NPOR.pu                       : Neutron Porosity
~Parameter Information Block
~A  Depth       DCAL        RHOB        RHOC        DPOR         GR         NPOR    
# ...
  1547.3000      7.9984      2.3461      0.0356     18.4160     71.1147     20.5255
  1547.4000      7.9984      2.2978      0.0419     21.3458     75.0809     20.4682
  1547.5000      7.9860      2.2486      0.0023     24.3281     70.6795     20.4451
  1547.6000      7.9860      2.1905      0.0604     27.8475     62.2381     20.2726
  1547.7000      7.9860      2.0993      0.0363     33.3769     58.1592     19.5808
  1547.8000      8.0120      1.9852     -0.0286     40.2885     59.1108     18.5157
  1547.9000      8.0120      1.8740      0.0405     47.0290     61.3031     17.4175
  1548.0000      8.0165      1.7429      0.0472     54.9781     63.6076     16.1195
  1548.1000      8.0165      1.5631     -0.0631     65.8718     65.6589     14.5660
  1548.2000      8.0165      1.3556     -0.1113     78.4457     65.9063     13.0752
  1548.3000      8.0104      1.1396     -0.0628     91.5423     63.8096     12.0078
  1548.4000      8.0104      0.9160     -0.2866    105.0882     59.9171     11.3881
  1548.5000      8.0580      0.7338     -0.4664    116.1318     56.6223     10.9326
  1548.6000      8.0580      0.6492     -0.5767    121.2620     54.8357     10.5343
  1548.7000      8.0580      0.6373     -0.5960    121.9807     52.1637     10.3250
  1548.8000      8.1831      0.6374     -0.6021    121.9785     48.0036     10.2676
  1548.9000      8.1831      0.6475     -0.7044    121.3609     44.2427     10.1866
  1549.0000      8.2686      0.7183     -0.6962    117.0756     40.8598     10.1686
  1549.1000      8.2686      0.8564     -0.5375    108.7039     37.7527     10.4582
  1549.2000      8.2686      0.9896     -0.3581    100.6307     37.1211     11.0343
  1549.3000      8.3233      1.0410     -0.2922     97.5163     38.8357     11.6860
  1549.4000      8.3233      0.9993     -0.2858    100.0411     39.2600     12.2426
  1549.5000      8.4885      0.9055     -0.2071    105.7262     36.9374     12.6301
  1549.6000      8.4885      0.8138     -0.2803    111.2853     34.7232     12.7799
  1549.7000      8.4885      0.7859     -0.3472    112.9784     33.0523     12.6311
  1549.8000      9.0147      0.8710     -0.3270    107.8154     30.4496     12.1446
  1549.9000      9.0147      1.0709     -0.0938     95.7010     29.0413     11.4455
  1550.0000      9.8081      1.3210      0.2616     80.5432     30.5670     10.7953
  1550.1000      9.8081      1.5232      0.3813     68.2895     32.2558     10.3108
  1550.2000      9.8081      1.6230      0.3700     62.2408     31.7758      9.9283
  1550.3000     10.6706      1.6598      0.2262     60.0140     30.4838      9.6088
  1550.4000     10.6706      1.7283      0.1490     55.8598     29.6678      9.5807
  1550.5000     11.4718      1.8647      0.3795     47.5910     28.7948     10.1214
  1550.6000     11.4718      2.0161      0.4879     38.4182     27.4797     11.0191
  1550.7000     11.4718      2.1488      0.5837     30.3762     27.4213     12.0753
  1550.8000     11.6184      2.2921      0.6135     21.6933     29.9431     13.3514
  1550.9000     11.6184      2.4550      0.6698     11.8176     32.1883     14.5272
  1551.0000     11.3969      2.5919      0.6878      3.5242     30.3441     15.4823
  1551.1000     11.3969      2.6829      0.5311     -1.9966     25.5818     16.7024
  1551.2000     11.3969      2.7626      0.5500     -6.8228     23.1595     18.3869
  1551.3000     11.3709      2.8393      0.6293    -11.4753     24.9655     20.1344
  1551.4000     11.3709      2.8740      0.6507    -13.5772     26.5776     21.5010
  1551.5000     11.0700      2.8480      0.5209    -11.9990     26.1977     22.4592
  1551.6000     11.0700      2.7908      0.4606     -8.5334     29.2927     23.3241
  1551.7000     11.0700      2.7312      0.4504     -4.9242     38.1099     24.0458
  1551.8000      8.7000      2.6819      0.3066     -1.9359     48.1053     24.3919
  1551.9000      8.7000      2.6546      0.2747     -0.2784     55.2681     24.5898
  1552.0000      8.2422      2.6369      0.2563      0.7933     60.6062     24.8015
  1552.1000      8.2422      2.6041      0.2049      2.7790     65.5219     24.9489
  1552.2000      8.2422      2.5681      0.1246      4.9659     69.2502     24.9958
  1552.3000      8.7337      2.5613      0.1782      5.3780     71.7369     24.9715
  1552.4000      8.7337      2.5744      0.3062      4.5790     75.1574     24.9256
  1552.5000      9.2934      2.5755      0.2309      4.5133     82.2438     24.9465
  1552.6000      9.2934      2.5666      0.1991      5.0571     92.5242     25.0285
  1552.7000      9.2934      2.5615      0.1954      5.3667    100.5256     24.9644
  1552.8000      9.2774      2.5445      0.2449      6.3936    101.4930     24.6738
  1552.9000      9.2774      2.4968      0.1979      9.2867     98.7939     24.5990
  1553.0000      8.1931      2.4478      0.1349     12.2525     98.5876     24.9626
  1553.1000      8.1931      2.4436      0.2192     12.5080    100.1316     25.2958
  1553.2000      8.1931      2.4729      0.3186     10.7336    102.1405     25.3741
  1553.3000      7.8890      2.4957      0.2771      9.3489    107.0995     25.4906
  1553.4000      7.8890      2.5060      0.2650      8.7263    113.2358     25.6323
  1553.5000      7.8705      2.5248      0.2452      7.5891    114.8519     25.5666
  1553.6000      7.8705      2.5688      0.2995      4.9210    112.0787     25.3017
  1553.7000      7.8705      2.6226      0.3820      1.6604    112.7744     24.9652
  1553.8000      7.8906      2.6473      0.3821      0.1630    120.0390     24.5739
  1553.9000      7.8906      2.6274      0.3271      1.3697    130.1587     24.2223
  1554.0000      7.9057      2.5865      0.2396      3.8507    139.2524     24.0296
  1554.1000      7.9057      2.5516      0.2099      5.9651    141.9184     23.9488
  1554.2000      7.9057      2.5185      0.2272      7.9706    138.3376     24.1169
  1554.3000      7.9895      2.4768      0.1871     10.4962    138.4285     24.3752
  1554.4000      7.9895      2.4383      0.1435     12.8322    145.3348     24.2888
  1554.5000      8.0015      2.4132      0.1481     14.3497    149.7424     24.1126
  1554.6000      8.0015      2.4025      0.1313     14.9981    145.8364     24.1590
  1554.7000      8.0015      2.4114      0.1559     14.4585    140.6192     24.1912
  1554.8000      8.0031      2.4424      0.1872     12.5806    142.9834     24.1333
  1554.9000      8.0031      2.4895      0.2612      9.7282    151.2688     24.0351
  1555.0000      7.9878      2.5427      0.3191      6.5014    156.0423     23.9310
  1555.1000      7.9878      2.5855      0.3549      3.9075    152.1229     23.9115
  1555.2000      7.9878      2.6060      0.3224      2.6683    145.5508     24.0082
  1555.3000      8.0242      2.6167      0.2874      2.0162    143.7947     24.2232
  1555.4000      8.0242      2.6376      0.2903      0.7527    144.3488     24.3845
  1555.5000      8.0017      2.6574      0.3250     -0.4484    141.7549     24.3978
  1555.6000      8.0017      2.6516      0.2523     -0.0953    136.9454     24.4160
  1555.7000      8.0017      2.6278      0.1919      1.3436    132.6750     24.5298
  1555.8000      7.9729      2.6059      0.2284      2.6746    129.4875     24.6589
  1555.9000      7.9729      2.5832      0.1613      4.0460    129.1887     24.6869
  1556.0000      7.9733      2.5589      0.0834      5.5225    129.7553     24.6876
  1556.1000      7.9733      2.5463      0.0887      6.2874    127.5003     24.7937
  1556.2000      7.9733      2.5517      0.0867      5.9597    125.1217     24.9234
  1556.3000      7.9731      2.5643      0.1134      5.1909    125.6362     24.9640
  1556.4000      7.9731      2.5649      0.1172      5.1557    130.4460     25.0332
  1556.5000      7.9623      2.5386      0.1242      6.7486    136.6163     25.1627
  1556.6000      7.9623      2.4878      0.0514      9.8299    137.2569     25.1111
  1556.7000      7.9623      2.4362      0.0513     12.9603    133.1933     24.7611
  1556.8000      7.9593      2.4069      0.0232     14.7353    129.7481     24.3322
