~Version Information
VERS.                      2.0: CWLS Log ASCII Standard - VERSION 2.0
WRAP.                       NO: One line per depth step
~Well Information Block
STRT.FT               -14.0000: 
STOP.FT              2565.5000: 
STEP.FT                 0.5000: 
NULL.                -999.2500: 
COMP.          Pioneer Natural Resources: COMPANY
WELL.             Carbon 34-21: WELL
FLD.           Purgatorie River: FIELD
LOC.           56' FSL & 2304' FEL: LOCATION
PROV.                 Colorado: PROVINCE
CNTY.               Las Animas: COUNTRY
SRVC.          Patterson Wireline: SERVICE COMPANY
DATE.          Mon Nov 08 08:55:10 2004: LOG DATE
UWI.           05-071-08117-00: UNIQUE WELL ID
~Curve Information Block
DEPT.FT            0 000 00 00: Depth
TT3.usec                      : CBL 3' Travel Time
AMP3.mV                       : CBL 3' Amplitude
GR.GAPI                       : Gamma Ray
CCL.                          : Casing Collar Locator
~Parameter Information Block
~A  Depth       TT3         AMP3         GR         CCL     
# ...
  1862.0000    285.0874     45.5204    152.9006      0.0000
  1862.5000    285.4608     43.6335    167.3199      0.0000
  1863.0000    285.7350     42.6831    166.7946      0.0000
  1863.5000    286.0924     41.8000    157.9277      0.0000
  1864.0000    286.4191     40.8981    145.3139      0.0000
  1864.5000    286.8657     39.6910    140.3750      0.0000
  1865.0000    287.2601     39.0108    148.3562      0.0000
  1865.5000    287.1629     39.6111    162.4826      0.0000
  1866.0000    286.8669     40.6000    175.1656      0.0000
  1866.5000    286.4922     42.3297    183.0374      0.0000
  1867.0000    286.0042     44.9923    189.1801      0.0000
  1867.5000    285.7575     47.4300    191.4225      0.0000
  1868.0000    285.5154     50.5623    192.9238      0.0000
  1868.5000    285.0980     53.6601    199.3992      0.0000
  1869.0000    284.6877     54.7237    209.2459      0.0000
  1869.5000    284.3025     55.7274    200.9473      0.0000
  1870.0000    283.9481     57.2874    174.8565      0.0000
  1870.5000    283.8661     56.8284    163.0070      0.0000
  1871.0000    283.8569     56.2972    173.6259      0.0000
  1871.5000    283.8158     57.0409    187.2459      0.0000
  1872.0000    283.8835     57.9420    190.4622      0.0000
  1872.5000    284.0092     57.9822    188.3273      0.0000
  1873.0000    284.1846     55.3120    180.2386      0.0000
  1873.5000    284.4555     50.7962    165.6882      0.0000
  1874.0000    284.6124     48.8706    153.2782      0.0000
  1874.5000    284.5697     50.2109    145.9143      0.0000
  1875.0000    284.6098     51.1775    137.1586      0.0000
  1875.5000    284.8030     50.9405    133.0064      0.0000
  1876.0000    285.1393     50.3733    135.0237      0.0000
  1876.5000    285.3835     49.7994    136.0909      0.0000
  1877.0000    285.3972     50.0846    143.9438      0.0000
  1877.5000    285.3446     51.4650    163.5892      0.0000
  1878.0000    285.4631     52.2181    179.8590      0.0000
  1878.5000    285.6066     52.0837    184.4164      0.0000
  1879.0000    285.6411     51.8397    181.0703      0.0000
  1879.5000    285.6164     51.9880    176.7211      0.0000
  1880.0000    285.6082     52.4991    173.2646      0.0000
  1880.5000    285.6281     52.5642    171.8152      0.0000
  1881.0000    285.6703     51.9249    174.9872      0.0000
  1881.5000    285.6456     50.9788    177.8145      0.0000
  1882.0000    285.5356     49.8223    177.9945      0.0000
  1882.5000    285.4452     49.5083    181.1831      0.0000
  1883.0000    285.4582     50.0434    184.3830      0.0000
  1883.5000    285.5085     49.9758    186.2096      0.0000
  1884.0000    285.4580     49.2254    191.1695      0.0000
  1884.5000    285.2948     48.0832    192.4275      0.0000
  1885.0000    285.1365     46.8499    193.3241      0.0000
  1885.5000    284.9855     46.4602    193.1972      0.0000
  1886.0000    284.8195     46.7639    185.5515      0.0000
  1886.5000    284.7723     46.4222    181.9845      0.0000
  1887.0000    284.8665     45.3473    186.0753      0.0000
  1887.5000    285.0476     44.2502    189.1640      0.0000
  1888.0000    285.3411     42.7561    190.1116      0.0000
  1888.5000    285.5719     40.9548    189.4351      0.0000
  1889.0000    285.4998     39.8984    188.0162      0.0000
  1889.5000    285.3252     39.5504    189.5748      0.0000
  1890.0000    285.4357     38.8994    188.5855      0.0000
  1890.5000    285.7509     38.1325    186.9089      0.0000
  1891.0000    285.9064     37.8468    187.0912      0.0000
  1891.5000    285.5542     39.0800    188.2618      0.0000
  1892.0000    284.7857     42.4550    188.5808      0.0000
  1892.5000    284.1987     46.2420    185.3375      0.0000
  1893.0000    283.9443     48.8648    177.2476      0.0000
  1893.5000    283.8400     50.3509    162.5250      0.0000
  1894.0000    283.9102     50.1601    146.1825      0.0000
  1894.5000    284.0708     49.1570    138.3217      0.0000
  1895.0000    284.0808     49.7575    148.8089      0.0000
  1895.5000    283.9915     51.1381    165.2275      0.0000
  1896.0000    283.8563     52.1394    170.7392      0.0000
  1896.5000    283.7430     53.0709    169.0570      0.0000
  1897.0000    284.1732     51.8606    177.2371      0.0000
  1897.5000    286.8459     46.5403    191.1717      0.0000
  1898.0000    294.2024     40.6877    188.8249      0.0000
  1898.5000    301.0886     36.9934    169.9277      0.0000
  1899.0000    298.9774     36.1849    153.8854      0.0000
  1899.5000    294.8375     37.8597    152.4782     -5.0000
  1900.0000    295.5851     39.4536    158.5582      0.0000
  1900.5000    299.3471     41.2177    164.7091      0.0000
  1901.0000    296.7652     46.0776    167.6989      0.0000
  1901.5000    288.7871     51.7614    169.0677      0.0000
  1902.0000    284.6839     54.9786    166.9933      0.0000
  1902.5000    283.9161     55.7032    166.2255      0.0000
  1903.0000    283.8057     56.0370    167.5932      0.0000
  1903.5000    283.7191     56.7838    170.4910      0.0000
  1904.0000    283.7021     57.1960    175.1409      0.0000
  1904.5000    283.8053     56.2740    175.6398      0.0000
  1905.0000    283.9198     55.0072    175.2891      0.0000
  1905.5000    283.9126     54.9029    175.5536      0.0000
  1906.0000    283.7883     55.1810    173.3615      0.0000
  1906.5000    283.6644     54.1547    171.3563      0.0000
  1907.0000    283.7183     51.4272    161.9216      0.0000
  1907.5000    283.9365     48.1164    146.4451      0.0000
  1908.0000    284.1118     46.0778    147.9284      0.0000
  1908.5000    284.1939     45.5132    163.6245      0.0000
  1909.0000    284.2487     45.0833    166.5445      0.0000
  1909.5000    284.3143     44.0156    158.2662      0.0000
  1910.0000    284.3423     43.2263    157.0816      0.0000
  1910.5000    284.2320     43.6682    161.0532      0.0000
  1911.0000    283.8997     45.5918    147.1146      0.0000
  1911.5000    283.4739     48.5317    116.2228      0.0000
  1912.0000    283.2501     50.6122     94.2809      0.0000
  1912.5000    283.2102     51.5429     89.3758      0.0000
  1913.0000    283.2126     52.5184     91.0613      0.0000
  1913.5000    283.2390     53.6384     88.2579      0.0000
  1914.0000    283.1697     54.7109     89.2678      0.0000
  1914.5000    283.1186     54.4388    101.8622      0.0000
  1915.0000    283.4186     51.2560    109.5910      0.0000
  1915.5000    284.6024     45.7104    105.6704      0.0000
  1916.0000    289.4962     39.4162    101.5879      0.0000
  1916.5000    302.6245     33.2219    102.4665      0.0000
  1917.0000    318.2278     27.6868    104.2479      0.0000
  1917.5000    326.5240     22.6797    102.5473      0.0000
  1918.0000    335.5674     18.0247    101.3998      0.0000
  1918.5000    379.0097     14.0063    104.6902      0.0000
  1919.0000    494.0914     10.7429    108.4933      0.0000
  1919.5000    626.3232      8.7067    109.5465      0.0000
  1920.0000    689.0543      8.1628    106.2979      0.0000
  1920.5000    699.6219      8.3639    103.5772      0.0000
  1921.0000    708.6600      8.6949     98.6201      0.0000
  1921.5000    718.2276      8.9837     89.1555      0.0000
  1922.0000    709.1487      9.1517     79.3206      0.0000
  1922.5000    677.7518      9.6903     74.4751      0.0000
  1923.0000    631.4683     10.3945     77.0595      0.0000
  1923.5000    621.4899     10.2597     83.3120      0.0000
  1924.0000    644.7828      9.7736     83.0753      0.0000
  1924.5000    656.9614      9.6811     79.2519      0.0000
  1925.0000    655.4598      9.9389     77.9114      0.0000
  1925.5000    605.6719     10.5197     77.5121      0.0000
  1926.0000    491.7603     11.2428     75.4343      0.0000
  1926.5000    394.2058     11.7448     71.4579      0.0000
  1927.0000    357.1371     11.9236     69.4334      0.0000
  1927.5000    353.2051     11.9097     66.9222      0.0000
  1928.0000    363.6381     11.6794     63.8297      0.0000
  1928.5000    379.1104     11.2371     63.5465      0.0000
