~Version Information
VERS.                      2.0: CWLS Log ASCII Standard - VERSION 2.0
WRAP.                       NO: One line per depth step
~Well Information Block
STRT.FT                10.0000: 
STOP.FT              1066.5000: 
STEP.FT                 0.2500: 
NULL.                -999.2500: 
COMP.          Pioneer Natural Resources: COMPANY
WELL.            Redland 23-24: WELL
FLD.           Purgatoire River: FIELD
LOC.           2356' FSL & 1880' FWL----: LOCATION
PROV.                 Colorado: PROVINCE
CNTY.               Las Animas: COUNTRY
SRVC.                         : SERVICE COMPANY
DATE.          Thu Mar 24 10:01:02 2005: LOG DATE
UWI.           05 071 08221   : UNIQUE WELL ID
~Curve Information Block
DEPT.FT            0 000 00 00: Depth
CCL.                          : Casing Collar Locator
TT3.usec                      : CBL 3' Travel Time
AMP3.mV                       : CBL 3' Amplitude
AMP5.mV                       : CBL 5' Amplitude
GR.GAPI                       : Gamma Ray
~Parameter Information Block
~A  Depth       CCL         TT3         AMP3        AMP5         GR     
# ...
   570.0000      0.0000    908.9870      6.5489      3.1725    135.4958
   570.2500      0.0000    908.9600      6.6609      3.8689    145.9562
   570.5000      0.0000    908.7971      6.7529      3.9560    154.7981
   570.7500      0.0000    908.1908      6.8272      3.5207    160.4875
   571.0000      0.0000    906.4852      6.8932      3.6948    162.7358
   571.2500      0.0000    902.8538      6.9683      3.3466    161.8763
   571.5000      0.0000    897.0690      7.0738      3.7819    158.2892
   571.7500      0.0000    890.2591      7.2189      3.6078    152.8066
   572.0000      0.0000    884.4500      7.3879      4.1301    147.0462
   572.2500      0.0000    881.1436      7.5492      4.0430    142.6765
   572.5000      0.0000    880.8467      7.6752      3.1725    140.5190
   572.7500      0.0000    883.7233      7.7497      4.1301    140.5737
   573.0000      0.0000    889.4538      7.7684      3.8689    142.2944
   573.2500      0.0000    896.4545      7.7423      3.8689    144.3683
   573.5000      0.0000    902.4684      7.6972      3.9560    144.9347
   573.7500      0.0000    906.1470      7.6600      4.3041    142.8313
   574.0000      0.0000    907.5212      7.6491      4.3041    138.5187
   574.2500      0.0000    907.1976      7.6776      4.2171    133.6661
   574.5000      0.0000    905.6804      7.7530      4.0430    130.1970
   574.7500      0.0000    903.3911      7.8684      4.3912    129.5694
   575.0000      0.0000    900.8306      8.0000      4.7394    132.0382
   575.2500      0.0000    898.4100      8.1191      4.7394    136.1271
   575.5000      0.0000    896.0419      8.2071      4.9135    139.3239
   575.7500      0.0000    892.8159      8.2625      4.3041    139.9087
   576.0000      0.0000    887.2981      8.2975      4.7394    137.9827
   576.2500      0.0000    878.8191      8.3257      5.1746    134.3447
   576.5000      0.0000    868.8439      8.3500      5.0876    128.7495
   576.7500      0.0000    860.4450      8.3618      5.5228    120.1447
   577.0000      0.0000    855.7286      8.3516      4.6523    108.7247
   577.2500      0.0000    854.1614      8.3104      4.9135     96.9221
   577.5000      0.0000    853.9948      8.2267      4.8264     87.9312
   577.7500      0.0000    854.7313      8.0953      4.3041     83.5139
   578.0000      0.0000    857.2888      7.9320      4.1301     83.3010
   578.2500      0.0000    861.9966      7.7688      4.4782     85.7555
   578.5000      0.0000    867.2057      7.6252      5.7839     89.5453
   578.7500      0.0000    870.0857      7.4851      2.3021     94.3743
   579.0000      0.0000    868.5349      7.2936      4.6523    101.2409
   579.2500      0.0000    861.7166      6.9857      3.6948    111.7988
   579.5000      0.0000    848.4446      6.5456      0.7352    126.4407
   579.7500      0.0000    826.3398      6.0309      2.1280    142.5905
   580.0000      0.0000    795.3775      5.5058      1.5187    155.5580
   580.2500      0.0000    763.0499      4.9773      1.7798    161.4740
   580.5000      0.0000    742.7375      4.4427      0.7352    159.3278
   580.7500      0.0000    743.8679      3.9537      0.9093    150.7200
   581.0000      0.0000    764.2755      3.5750      1.6057    138.8430
   581.2500      0.0000    793.4280      3.3148      1.6057    127.8579
   581.5000      1.0000    821.3644      3.1432      1.3446    121.8347
   581.7500      0.0000    842.9747      3.0471      1.6057    122.9770
   582.0000      0.0000    856.1125      3.0345      1.6927    130.6450
   582.2500      0.0000    859.7050      3.1057      2.0409    142.0273
   582.5000      0.0000    855.1528      3.2375      1.2575    153.7473
   582.7500      0.0000    848.2531      3.4048      1.1705    163.4139
   583.0000      0.0000    847.0377      3.6397      1.9539    170.2671
   583.2500      0.0000    855.6377      4.0555      1.0834    174.4510
   583.5000      0.0000    870.9522      4.7310      1.2575    175.8814
   583.7500      0.0000    886.3517      5.5624      2.4762    174.1775
   584.0000      0.0000    897.4764      6.3119      4.0430    169.6398
   584.2500      0.0000    903.8687      6.8210      1.3446    163.8750
   584.5000      0.0000    906.9871      7.1140      1.3446    159.1092
   584.7500      0.0000    908.3145      7.3022      5.2617    156.7088
   585.0000      0.0000    908.7742      7.4629      3.9560    156.4365
   585.2500      0.0000    908.7532      7.6176      3.6948    157.2645
   585.5000      0.0000    907.9853      7.7650      3.8689    158.7513
   585.7500      0.0000    905.0493      7.8954      3.5207    161.3028
   586.0000      0.0000    896.7087      7.9918      4.0430    165.1167
   586.2500      0.0000    878.6404      8.0360      3.9560    169.2651
   586.5000      0.0000    849.3678      8.0218      3.7819    172.1842
   586.7500      0.0000    815.4771      7.9649      4.0430    173.1637
   587.0000      0.0000    790.8217      7.8952      3.6948    173.1124
   587.2500      0.0000    786.0646      7.8340      3.2596    173.6038
   587.5000      0.0000    798.1893      7.7797      2.9984    175.2753
   587.7500      0.0000    812.8871      7.7148      2.2150    177.6286
   588.0000      0.0000    817.2003      7.6236      3.6078    180.4634
   588.2500      0.0000    807.9932      7.5115      3.4337    184.6077
   588.5000      0.0000    790.6765      7.4106      2.9114    190.4457
   588.7500      0.0000    774.5439      7.3559      3.3466    196.2765
   589.0000      0.0000    768.9663      7.3486      3.7819    199.3247
   589.2500      0.0000    778.7108      7.3515      4.0430    198.4573
   589.5000      0.0000    799.8907      7.3305      3.3466    195.0044
   589.7500      0.0000    821.7726      7.2878      3.6078    191.0356
   590.0000      0.0000    834.3550      7.2441      3.8689    187.7364
   590.2500      0.0000    835.5306      7.2033      3.7819    185.2624
   590.5000      0.0000    832.2421      7.1502      3.9560    183.3356
   590.7500      0.0000    834.0353      7.0752      3.7819    181.9060
   591.0000      0.0000    843.9919      6.9899      3.9560    181.4223
   591.2500      0.0000    856.5934      6.9210      3.5207    182.2931
   591.5000      0.0000    864.6286      6.8932      3.6948    184.1272
   591.7500      0.0000    865.6660      6.9119      3.8689    185.8218
   592.0000      0.0000    861.2762      6.9612      3.6078    186.3566
   592.2500      0.0000    853.6604      7.0195      3.1725    185.4289
   592.5000      0.0000    845.2622      7.0705      2.8244    183.4805
   592.7500      0.0000    839.0636      7.0976      3.6948    181.3108
   593.0000      0.0000    836.8771      7.0803      3.6078    179.8022
   593.2500      0.0000    838.1031      7.0120      3.2596    179.7128
   593.5000      0.0000    840.8237      6.9106      2.9984    181.0407
   593.7500      0.0000    843.0313      6.7975      3.1725    182.5593
   594.0000      0.0000    843.0876      6.6714      3.1725    182.6825
   594.2500      0.0000    840.8742      6.5201      2.2150    180.8072
   594.5000      0.0000    838.9297      6.3567      2.0409    177.1882
   594.7500      0.0000    841.0341      6.2309      2.6503    171.7193
   595.0000      0.0000    849.2076      6.1918      1.6057    163.7654
   595.2500      0.0000    862.4068      6.2399      2.3891    153.3357
   595.5000      0.0000    877.4872      6.3186      2.5632    141.8135
   595.7500      0.0000    890.9205      6.3563      1.5187    131.3135
   596.0000      0.0000    900.4051      6.3212      1.9539    123.6155
   596.2500      0.0000    905.6804      6.2368      2.4762    119.6836
   596.5000      0.0000    907.9744      6.1530      3.0855    119.8288
   596.7500      0.0000    908.7496      6.1086      3.5207    124.1880
   597.0000      0.0000    908.9525      6.1153      1.9539    132.8875
   597.2500      0.0000    908.9929      6.1544      2.7373    145.2094
   597.5000      0.0000    909.0000      6.1928      2.2150    158.5656
   597.7500      0.0000    909.0000      6.2192      2.9984    169.1131
