~Version Information
VERS.                      2.0: CWLS Log ASCII Standard - VERSION 2.0
WRAP.                       NO: One line per depth step
~Well Information Block
STRT.FT               950.0000: 
STOP.FT              2417.7000: 
STEP.FT                 0.1000: 
NULL.                -999.2500: 
COMP.          Pioneer Natural Resources: COMPANY
WELL.            Chevron 13-13: WELL
FLD.           Purgatoire River: FIELD
LOC.           1560' FSL & 711' FWL--: LOCATION
CNTY.               Las Animas: COUNTY
SRVC.          Superior Well Services: SERVICE COMPANY
DATE.          Mon Feb 12 14:55:24 2007: LOG DATE
UWI.           05 071 08319 00: UNIQUE WELL ID
STAT.                 Colorado: STATE
~Curve Information Block
DEPT.FT            0 000 00 00: Depth
DCAL.in                       : CDL Caliper
RHOB.g/cc                     : CDL Bulk Density
RHOC.g/cc                     : CDL Density Correction
DPOR.pu                       : CDL Density Porosity
GR.GAPI                       : Gamma Ray
~Parameter Information Block
~A  Depth       DCAL        RHOB        RHOC        DPOR         GR     
# ...
  1812.4000      7.9243      2.5683      0.0332      4.9491    107.0338
  1812.5000      7.9241      2.5653      0.0236      5.1305    105.3827
  1812.6000      7.9241      2.5751      0.0631      4.5372    106.3243
  1812.7000      7.9241      2.5680      0.0935      4.9712    107.1868
  1812.8000      7.9310      2.5419      0.0336      6.5529    105.8175
  1812.9000      7.9310      2.5220      0.0200      7.7589    107.4321
  1813.0000      7.9385      2.5159      0.0650      8.1276    116.9117
  1813.1000      7.9385      2.5141      0.0737      8.2356    130.1001
  1813.2000      7.9385      2.5112      0.0510      8.4110    138.3813
  1813.3000      7.9391      2.4937      0.0850      9.4735    137.4527
  1813.4000      7.9391      2.4388      0.0637     12.7973    130.0724
  1813.5000      7.9350      2.3515     -0.0092     18.0893    122.4442
  1813.6000      7.9350      2.2650      0.0073     23.3342    118.3720
  1813.7000      7.9350      2.1988     -0.0279     27.3477    116.9128
  1813.8000      7.9323      2.1434     -0.0284     30.7056    113.3795
  1813.9000      7.9323      2.0831     -0.0477     34.3571    107.8255
  1814.0000      7.9360      2.0335     -0.1129     37.3646    105.7297
  1814.1000      7.9360      2.0295     -0.0412     37.6076    105.0696
  1814.2000      7.9360      2.0758      0.0130     34.8019    101.2259
  1814.3000      7.9477      2.1473      0.1096     30.4679     98.9040
  1814.4000      7.9477      2.2266      0.1278     25.6580    104.0889
  1814.5000      7.9680      2.3071      0.2144     20.7794    113.1032
  1814.6000      7.9680      2.3683      0.2577     17.0701    116.7510
  1814.7000      7.9680      2.3998      0.1730     15.1632    112.4735
  1814.8000      7.9911      2.4184      0.1767     14.0389    107.9299
  1814.9000      7.9911      2.4337      0.1291     13.1089    109.8257
  1815.0000      8.0152      2.4389      0.1641     12.7913    116.1004
  1815.1000      8.0152      2.4332      0.1110     13.1386    119.6956
  1815.2000      8.0152      2.4237      0.1185     13.7169    118.7158
  1815.3000      8.0354      2.4089      0.0930     14.6145    116.1954
  1815.4000      8.0354      2.3931      0.0722     15.5701    115.4003
  1815.5000      8.0332      2.3885      0.1002     15.8487    117.3230
  1815.6000      8.0332      2.3946      0.1241     15.4760    119.4984
  1815.7000      8.0332      2.4014      0.1275     15.0679    120.1276
  1815.8000      8.0110      2.4059      0.0851     14.7924    122.3323
  1815.9000      8.0110      2.4138      0.1251     14.3138    126.9405
  1816.0000      7.9956      2.4326      0.0747     13.1763    129.8981
  1816.1000      7.9956      2.4681      0.0944     11.0266    130.5581
  1816.2000      7.9956      2.5083      0.1701      8.5852    129.0081
  1816.3000      7.9932      2.5364      0.1297      6.8868    122.3270
  1816.4000      7.9932      2.5520      0.1491      5.9395    113.5705
  1816.5000      7.9916      2.5581      0.1437      5.5697    109.0145
  1816.6000      7.9916      2.5560      0.1184      5.6942    110.4212
  1816.7000      7.9916      2.5473      0.1328      6.2243    112.7470
  1816.8000      7.9826      2.5319      0.0898      7.1562    110.7293
  1816.9000      7.9826      2.5148      0.0685      8.1960    106.7402
  1817.0000      7.9743      2.5046      0.0331      8.8136    105.9688
  1817.1000      7.9743      2.5007      0.0617      9.0471    109.8981
  1817.2000      7.9743      2.4957      0.0654      9.3496    117.0629
  1817.3000      7.9762      2.4949      0.0643      9.4026    125.8098
  1817.4000      7.9762      2.5062      0.0937      8.7148    133.7389
  1817.5000      7.9877      2.5217      0.1186      7.7746    136.5921
  1817.6000      7.9877      2.5270      0.0934      7.4568    131.1731
  1817.7000      7.9877      2.5213      0.0744      7.8023    121.5383
  1817.8000      8.0008      2.5168      0.0825      8.0748    118.5247
  1817.9000      8.0008      2.5257      0.0529      7.5358    123.4947
  1818.0000      8.0065      2.5450      0.1293      6.3664    125.4627
  1818.1000      8.0065      2.5587      0.1016      5.5322    121.9203
  1818.2000      8.0065      2.5635      0.1259      5.2450    120.2595
  1818.3000      7.9982      2.5664      0.1236      5.0683    120.1419
  1818.4000      7.9982      2.5790      0.1170      4.3060    115.9173
  1818.5000      7.9768      2.6121      0.1466      2.2985    109.3468
  1818.6000      7.9768      2.6508      0.2280     -0.0467    106.2339
  1818.7000      7.9768      2.6719      0.1631     -1.3299    108.1584
  1818.8000      7.9602      2.6770      0.1229     -1.6385    111.3853
  1818.9000      7.9602      2.6729      0.1083     -1.3906    110.6910
  1819.0000      7.9479      2.6624      0.1107     -0.7528    105.3929
  1819.1000      7.9479      2.6493      0.1326      0.0448    102.5777
  1819.2000      7.9479      2.6375      0.0641      0.7571    102.4428
  1819.3000      7.9028      2.6281      0.0514      1.3282     98.2110
  1819.4000      7.9028      2.6081      0.0418      2.5423     94.8781
  1819.5000      7.8533      2.5649     -0.0081      5.1572     98.4692
  1819.6000      7.8533      2.4994     -0.0004      9.1298    103.5382
  1819.7000      7.8533      2.4317     -0.0591     13.2286    105.0867
  1819.8000      7.8310      2.3981      0.0009     15.2694    106.2632
  1819.9000      7.8310      2.4061      0.0427     14.7810    110.7100
  1820.0000      7.8425      2.4295      0.1104     13.3644    116.6617
  1820.1000      7.8425      2.4485      0.0897     12.2151    120.0875
  1820.2000      7.8425      2.4642      0.1211     11.2602    118.5631
  1820.3000      7.8714      2.4791      0.1358     10.3572    115.6607
  1820.4000      7.8714      2.4917      0.1201      9.5954    115.2871
  1820.5000      7.8811      2.5096      0.1096      8.5097    113.8554
  1820.6000      7.8811      2.5369      0.1241      6.8563    110.5825
  1820.7000      7.8811      2.5475      0.1943      6.2147    111.0578
  1820.8000      7.8743      2.5205      0.1425      7.8506    113.7753
  1820.9000      7.8743      2.4715      0.1108     10.8183    113.2764
  1821.0000      7.8625      2.4187      0.0709     14.0164    111.4818
  1821.1000      7.8625      2.3742      0.0172     16.7153    111.7910
  1821.2000      7.8625      2.3447      0.0009     18.5034    111.5143
  1821.3000      7.8436      2.3077      0.0659     20.7425    110.5195
  1821.4000      7.8436      2.2362      0.0180     25.0813    113.8147
  1821.5000      7.8393      2.1459     -0.0666     30.5511    118.9871
  1821.6000      7.8393      2.0729     -0.0167     34.9765    117.2116
  1821.7000      7.8393      2.0276     -0.0100     37.7237    109.1046
  1821.8000      7.8930      2.0099     -0.0286     38.7957    104.7740
  1821.9000      7.8930      2.0252      0.0196     37.8680    105.7466
  1822.0000      7.9773      2.0690      0.0545     35.2134    104.5201
  1822.1000      7.9773      2.1287      0.1508     31.5954     99.3383
  1822.2000      7.9773      2.1957      0.2243     27.5333     94.0037
  1822.3000      7.9870      2.2720      0.2494     22.9116     91.3039
  1822.4000      7.9870      2.3635      0.2896     17.3658     93.0704
  1822.5000      7.9222      2.4511      0.3359     12.0523    101.7632
  1822.6000      7.9222      2.4977      0.2382      9.2278    115.1902
  1822.7000      7.9222      2.5044      0.1432      8.8233    124.0778
  1822.8000      7.8726      2.5071      0.1147      8.6607    125.2712
  1822.9000      7.8726      2.5199      0.1396      7.8822    125.1331
  1823.0000      7.8564      2.5262      0.1237      7.5059    123.6658
  1823.1000      7.8564      2.5164      0.0860      8.0965    119.2228
  1823.2000      7.8564      2.5052      0.0933      8.7761    115.1010
  1823.3000      7.8633      2.5062      0.0603      8.7124    111.1542
  1823.4000      7.8633      2.5126      0.1321      8.3285    108.6178
  1823.5000      7.8853      2.5089      0.0830      8.5519    110.7791
