~Version Information
VERS.                      2.0: CWLS Log ASCII Standard - VERSION 2.0
WRAP.                       NO: One line per depth step
~Well Information Block
STRT.FT               801.5000: 
STOP.FT              2513.0000: 
STEP.FT                 0.2500: 
NULL.                -999.2500: 
COMP.          Petrogulf Corporation: COMPANY
WELL.               YWAM 7-32V: WELL
FLD.           Purgatoire River: FIELD
LOC.           2423' FNL & 2412' FEL: LOCATION
PROV.                 Colorado: PROVINCE
CNTY.               Las Animas: COUNTRY
SRVC.                Patterson: SERVICE COMPANY
DATE.          Sun Dec 14 06:58:17 2003: LOG DATE
UWI.                          : UNIQUE WELL ID
~Curve Information Block
DEPT.FT            0 000 00 00: Depth
SP.mV                         : DIL Spontaneous Potential
RILD.Ohm-m                    : DIL Deep Resistivity
RILM.Ohm-m                    : DIL Medium Resistivity
RLL3.Ohm-m                    : DIL Shallow Resistivity
GR.GAPI                       : Gamma Ray
~Parameter Information Block
~A  Depth        SP         RILD        RILM        RLL3         GR     
# ...
   829.5000   -812.0006     15.1902 100000.0000      1.0200     83.1557
   829.7500   -812.0006     14.8822 100000.0000      0.8720     83.3649
   830.0000   -812.0006     14.2597 100000.0000      0.6165     80.8965
   830.2500   -812.0006     13.5843 100000.0000      0.3555     76.9661
   830.5000   -812.0006     13.0439 100000.0000      0.1817     68.4599
   830.7500   -812.0006     12.7125 100000.0000      0.1215     62.1852
   831.0000   -812.0006     12.5831 100000.0000      0.1333     54.2126
   831.2500   -812.0006     12.6141 100000.0000      0.1635     50.9634
   831.5000   -812.0006     12.7613 100000.0000      0.1990     49.8257
   831.7500   -812.0006     12.9878 100000.0000      0.2631     51.1420
   832.0000   -812.0006     13.2530 100000.0000      0.3771     54.8109
   832.2500   -812.0006     13.4986 100000.0000      0.5379     57.5624
   832.5000   -812.0006     13.6532 100000.0000      0.7111     61.2135
   832.7500   -812.0006     13.6636 100000.0000      0.8208     63.1102
   833.0000   -812.0006     13.5291 100000.0000      0.7748     65.1129
   833.2500   -812.0006     13.3012 100000.0000      0.5402     65.9317
   833.5000   -812.0006     13.0507 100000.0000      0.1910     66.6618
   833.7500   -812.0006     12.8307 100000.0000     -0.1476     67.1819
   834.0000   -812.0006     12.6643 100000.0000     -0.3955     68.7362
   834.2500   -812.0006     12.5545 100000.0000     -0.5409     70.5059
   834.5000   -812.0006     12.4966 100000.0000     -0.5936     74.1179
   834.7500   -812.0006     12.4777 100000.0000     -0.5555     76.9008
   835.0000   -812.0006     12.4652 100000.0000     -0.4410     80.9646
   835.2500   -812.0006     12.4019 100000.0000     -0.2963     83.0125
   835.5000   -812.0006     12.2313 100000.0000     -0.1805     83.8754
   835.7500   -812.0006     11.9415 100000.0000     -0.1335     82.4644
   836.0000   -812.0006     11.5814 100000.0000     -0.1635     77.5138
   836.2500   -812.0006     11.2263 100000.0000     -0.2528     73.1164
   836.5000   -812.0006     10.9315 100000.0000     -0.3674     66.8445
   836.7500   -812.0006     10.7145 100000.0000     -0.4592     63.8741
   837.0000   -812.0006     10.5667 100000.0000     -0.4698     62.2107
   837.2500   -812.0006     10.4712 100000.0000     -0.3622     63.2292
   837.5000   -812.0006     10.4149 100000.0000     -0.1759     67.9891
   837.7500   -812.0006     10.3899 100000.0000     -0.0381     72.8178
   838.0000   -812.0006     10.3904 100000.0000     -0.0797     80.5496
   838.2500   -812.0006     10.4094 100000.0000     -0.3154     84.7567
   838.5000   -812.0006     10.4379 100000.0000     -0.6194     88.7217
   838.7500   -812.0006     10.4663 100000.0000     -0.8289     90.1062
   839.0000   -812.0006     10.4869 100000.0000     -0.8625     91.1797
   839.2500   -812.0006     10.4929 100000.0000     -0.7503     91.4900
   839.5000   -812.0006     10.4776 100000.0000     -0.5870     91.4972
   839.7500   -812.0006     10.4362 100000.0000     -0.4657     91.3181
   840.0000   -812.0006     10.3677 100000.0000     -0.4280     90.7839
   840.2500   -812.0006     10.2764 100000.0000     -0.4537     89.8333
   840.5000   -812.0006     10.1699 100000.0000     -0.4961     86.4225
   840.7500   -812.0006     10.0564 100000.0000     -0.5254     82.7114
   841.0000   -812.0006      9.9415 100000.0000     -0.5382     76.4047
   841.2500   -812.0006      9.8271 100000.0000     -0.5395     72.7861
   841.5000   -812.0006      9.7109 100000.0000     -0.5289     68.6174
   841.7500   -812.0006      9.5873 100000.0000     -0.4987     65.9971
   842.0000   -812.0006      9.4475 100000.0000     -0.4398     61.4055
   842.2500   -812.0006      9.2793 100000.0000     -0.3552     58.2325
   842.5000   -812.0006      9.0673 100000.0000     -0.2704     54.5513
   842.7500   -812.0006      8.7984 100000.0000     -0.2145     53.0934
   843.0000   -812.0006      8.4733 100000.0000     -0.1894     51.7527
   843.2500   -812.0006      8.1193 100000.0000     -0.1714     50.8808
   843.5000   -812.0006      7.7919 100000.0000     -0.1428     49.3747
   843.7500   -812.0006      7.5591 100000.0000     -0.1095     48.6408
   844.0000   -812.0006      7.4773 100000.0000     -0.0805     49.0159
   844.2500   -812.0006      7.5731 100000.0000     -0.0418     50.6081
   844.5000   -812.0006      7.8343 100000.0000      0.0291     54.5873
   844.7500   -812.0006      8.2113 100000.0000      0.1251     57.5673
   845.0000   -812.0006      8.6303 100000.0000      0.2126     61.2070
   845.2500   -812.0006      9.0213 100000.0000      0.2696     62.6046
   845.5000   -812.0006      9.3468 100000.0000      0.3022     62.9623
   845.7500   -812.0006      9.6159 100000.0000      0.3277     62.2062
   846.0000   -812.0006      9.8843 100000.0000      0.3639     60.1151
   846.2500   -812.0006     10.2442 100000.0000      0.4229     58.4389
   846.5000   -812.0006     10.8000 100000.0000      0.4905     56.2579
   846.7500   -812.0006     11.6139 100000.0000      0.5198     55.6708
   847.0000   -812.0006     12.6031 100000.0000      0.4730     57.2343
   847.2500   -812.0006     13.4232 100000.0000      0.3740     60.1720
   847.5000   -812.0006     13.5635 100000.0000      0.2996     66.8037
   847.7500   -812.0006     12.8268 100000.0000      0.3098     71.9470
   848.0000   -812.0006     11.5917 100000.0000      0.3979     79.4627
   848.2500   -812.0006     10.3873 100000.0000      0.5136     83.8953
   848.5000   -812.0006      9.4986 100000.0000      0.6171     89.6186
   848.7500   -812.0006      8.9909 100000.0000      0.7009     93.0565
   849.0000   -812.0006      8.8647 100000.0000      0.7740     97.9459
   849.2500   -812.0006      9.1699 100000.0000      0.8408    100.8441
   849.5000   -812.0006     10.0776 100000.0000      0.8957    103.6143
   849.7500   -812.0006     11.9188 100000.0000      0.9319    103.6827
   850.0000   -812.0006     15.0302 100000.0000      0.9501    100.5982
   850.2500   -812.0006     18.5701 100000.0000      0.9559     96.8189
   850.5000   -811.9937     18.6697 100000.0000      0.9524     89.9665
   850.7500   -811.9479     14.1991 100000.0000      0.9450     85.2508
   851.0000   -811.7170      9.7227 100000.0000      0.9537     78.2286
   851.2500   -810.8074      7.0322 100000.0000      1.0366     73.6206
   851.5000   -808.0229      5.6646 100000.0000      1.3278     67.6495
   851.7500   -801.4326      5.0815 100000.0000      2.0754     65.1636
   852.0000   -789.4305      4.9800 100000.0000      3.6081     64.6228
   852.2500   -772.7645      5.1850 100000.0000      6.1572     66.1442
   852.5000   -755.3378      5.5214 100000.0000      9.5985     69.8809
   852.7500   -741.6826      5.7043 100000.0000     13.3649     72.6270
   853.0000   -732.9111      5.4114 100000.0000     16.7165     76.7908
   853.2500   -725.7090      4.6533 100000.0000     19.1632     79.7301
   853.5000   -715.6694      3.8240 100000.0000     20.6248     84.4147
   853.7500   -701.2809      3.2504 100000.0000     21.2462     87.5686
   854.0000   -684.7963      3.0442    459.0750     21.1997     92.2789
   854.2500   -669.9688      3.2729     16.4478     20.6873     95.5653
   854.5000   -659.2875      4.1678      9.5558     19.9821    100.9383
   854.7500   -652.9471      6.5974      7.9253     19.3317    104.7050
   855.0000   -649.6706     15.3436      7.9931     18.8203    110.0996
   855.2500   -648.0250 100000.0000      9.1798     18.3669    113.3127
   855.5000   -647.0991 100000.0000     11.3207     17.8702    117.7547
   855.7500   -646.4866 100000.0000     14.0263     17.3575    120.6411
   856.0000   -646.0364 100000.0000     16.5854     17.0026    124.4605
   856.2500   -645.6921 100000.0000     18.7071     17.0012    126.1082
   856.5000   -645.4479 100000.0000     20.9814     17.4092    126.7018
   856.7500   -645.3627 100000.0000     24.2859     18.0841    126.1359
   857.0000   -645.5706 100000.0000     28.9324     18.7705    125.1739
   857.2500   -646.2885 100000.0000     33.4216     19.2490    125.3029
