~Version Information
 VERS.                                  2.0 : CWLS LAS VERSION
 WRAP.                                   NO : WRAPING MODE
 SWARE .                 MController 2.5.0E : SOFTWARE VERSION
~Well Information
 WELL.                         Burson 8-31r : WELL
 COMP.                      Petrogulf CORP. : COMPANY
 FLD.                       Purgatory River : FIELD
 LOC.                        NWNE 8 33S 67W : LOCATION
 DATE.                         4/28-4/29/04 : DATE(S) LOGGED
 SRVC.                                  BGS : SERVICE COMPANY
 STAT.                             Colorado : STATE
 CNTY.                           Las Animas : COUNTY
 CTRY.                        United States : COUNTRY
 API.                       05-071-08039-00 : API NUMBER
 STRT.FT                              41.00 : START DEPTH
 STOP.FT                            2225.00 : STOP DEPTH
 STEP.FT                               1.00 : DEPTH INCREMENT
 NULL.                                -9999 : NULL VALUE
~Curve information
 DEPTH.FT                                   :
 ROP.MIN/FT                                 :
 GAS.UNITS                                  :
~ASCII Log data
# ...
      241.00        0.267          0.0 
      242.00        0.267          0.0 
      243.00        0.233          0.0 
      244.00        0.233          0.0 
      245.00        0.233          0.0 
      246.00        0.200          0.0 
      247.00        0.267          0.0 
      248.00        0.233          0.0 
      249.00        0.233          0.0 
      250.00        0.233          0.0 
      251.00        0.233          0.0 
      252.00        0.283          0.0 
      253.00        0.233          0.0 
      254.00        0.300          0.0 
      255.00        0.300          0.0 
      256.00        0.267          0.0 
      257.00        0.233          0.0 
      258.00        0.267          0.0 
      259.00        0.267          0.0 
      260.00        0.267          0.0 
      261.00        0.333          0.0 
      262.00        0.267          0.0 
      263.00        0.267          0.0 
      264.00        0.283          0.0 
      265.00        0.233          0.0 
      266.00        2.700          0.0 
      267.00        0.517          0.0 
      268.00        0.233          0.0 
      269.00        0.267          0.0 
      270.00        0.233          0.0 
      271.00        0.233          0.0 
      272.00        0.267          0.0 
      273.00        0.233          0.0 
      274.00        0.267          0.0 
      275.00        0.233          0.0 
      276.00        0.267          0.0 
      277.00        0.233          0.0 
      278.00        0.233          0.0 
      279.00        0.267          0.0 
      280.00        0.250          0.0 
      281.00        0.267          0.0 
      282.00        0.233          0.0 
      283.00        0.233          0.0 
      284.00        0.267          0.0 
      285.00        0.267          0.0 
      286.00        0.233          0.0 
      287.00        0.267          0.0 
      288.00        0.267          0.0 
      289.00        0.333          0.0 
      290.00        0.267          0.0 
      291.00        0.300          0.0 
      292.00        0.300          0.0 
      293.00        0.250          0.0 
      294.00        0.267          0.0 
      295.00        0.267          0.0 
      296.00        2.000          0.0 
      297.00        0.650          0.0 
      298.00        0.300          0.0 
      299.00        0.300          0.0 
      300.00        0.267          0.0 
      301.00        0.267          0.0 
      302.00        0.333          0.0 
      303.00        0.267          0.0 
      304.00        0.267          0.0 
      305.00        0.267          0.0 
      306.00        0.267          0.0 
      307.00        0.233          0.0 
      308.00        0.333          0.0 
      309.00        0.283          0.0 
      310.00        0.300          0.0 
      311.00        0.333          0.0 
      312.00        0.233          0.0 
      313.00        0.267          0.0 
      314.00        0.300          0.0 
      315.00        0.267          0.0 
      316.00        0.267          0.0 
      317.00        0.267          0.0 
      318.00        0.267          0.0 
      319.00        0.300          0.0 
      320.00        0.267          0.0 
      321.00        0.417          0.0 
      322.00        0.367          0.0 
      323.00        0.267          0.0 
      324.00        0.267          0.0 
      325.00        0.300          0.0 
      326.00        1.767          0.0 
      327.00        0.483          0.0 
      328.00        0.400          0.0 
      329.00        0.267          0.0 
      330.00        0.267          0.0 
      331.00        0.300          0.0 
      332.00        0.267          0.0 
      333.00        0.267          0.0 
      334.00        0.300          0.0 
      335.00        0.267          0.0 
      336.00        0.267          0.0 
      337.00        0.267          0.0 
      338.00        0.283          0.0 
      339.00        0.267          0.0 
      340.00        0.300          0.0 
      341.00        0.267          0.0 
      342.00        0.300          0.0 
      343.00        0.267          0.0 
      344.00        0.267          0.0 
      345.00        0.267          0.0 
      346.00        0.233          0.0 
      347.00        0.267          0.0 
      348.00        0.267          0.0 
      349.00        0.267          0.0 
      350.00        0.283          0.0 
      351.00        0.267          0.0 
      352.00        0.267          0.0 
      353.00        0.267          0.0 
      354.00        0.233          0.0 
      355.00        0.267          0.0 
      356.00        3.250          0.0 
      357.00        0.333          0.0 
      358.00        0.267          0.0 
      359.00        0.267          0.0 
      360.00        0.267          0.0 
      361.00        0.267          0.0 
      362.00        0.267          0.0 
      363.00        0.267          0.0 
      364.00        0.250          0.0 
      365.00        0.267          0.0 
      366.00        0.233          0.0 
      367.00        0.233          0.0 
      368.00        0.267          0.0 
      369.00        0.233          0.0 
      370.00        0.267          0.0 
      371.00        0.233          0.0 
      372.00        0.233          0.0 
      373.00        0.267          0.0 
      374.00        0.233          0.0 
      375.00        0.233          0.0 
      376.00        0.233          0.0 
      377.00        0.233          0.0 
      378.00        0.317          0.0 
      379.00        0.600          0.0 
      380.00        0.500          0.0 
      381.00        0.500          0.0 
      382.00        0.700          0.0 
      383.00        0.917          0.0 
      384.00        0.600          0.0 
      385.00        0.200          0.0 
      386.00        1.733          0.0 
      387.00        0.133          0.0 
      388.00        0.333          0.0 
      389.00        0.283          0.0 
      390.00        0.267          0.0 
      391.00        0.600          0.0 
      392.00        0.500          0.0 
      393.00        0.100          0.0 
      394.00        0.200          0.0 
      395.00        0.500          0.0 
      396.00        0.400          0.0 
      397.00        0.600          0.0 
      398.00        0.217          0.0 
      399.00        5.817          0.0 
      400.00        0.500          0.0 
      401.00        0.417          0.0 
      402.00        0.400          0.0 
      403.00        0.300          0.0 
      404.00        0.333          0.0 
      405.00        0.267          0.0 
      406.00        0.433          0.0 
      407.00        0.500          0.0 
      408.00        0.467          0.0 
      409.00        0.433          0.0 
      410.00        0.450          0.0 
      411.00        0.467          0.0 
      412.00        0.400          0.0 
      413.00        0.367          0.0 
      414.00        0.367          0.0 
      415.00        0.400          0.0 
      416.00        2.517          0.0 
      417.00        0.367          0.0 
      418.00        0.367          0.0 
      419.00        0.300          0.0 
      420.00        0.400          0.0 
      421.00        0.717          0.0 
      422.00        0.300          0.0 
      423.00        0.367          0.0 
      424.00        0.433          0.0 
      425.00        0.467          0.0 
      426.00        0.400          0.0 
      427.00        0.367          0.0 
      428.00        0.367          0.0 
      429.00        0.383          0.0 
      430.00        0.367          0.0 
      431.00        0.300          0.0 
      432.00        0.400          0.0 
      433.00        0.367          0.0 
      434.00        0.500          0.0 
      435.00        0.400          0.0 
      436.00        0.300          0.0 
      437.00        0.467          0.0 
      438.00        0.350          0.0 
      439.00        0.333          0.0 
      440.00        0.367          0.0 
