~Version Information
VERS.                      2.0: CWLS Log ASCII Standard - VERSION 2.0
WRAP.                       NO: One line per depth step
~Well Information Block
STRT.FT               510.0000: 
STOP.FT              1861.5000: 
STEP.FT                 0.1000: 
NULL.                -999.2500: 
COMP.          Pioneer Natural Resources: COMPANY
WELL.           Guajardo 24-16: WELL
FLD.           Purgatoire River: FIELD
LOC.           883' FSL & 2147' FWL: LOCATION
PROV.                 Colorado: PROVINCE
CNTY.               Las Animas: COUNTRY
SRVC.                Patterson: SERVICE COMPANY
DATE.          Mon Aug 08 09:13:01 2005: LOG DATE
UWI.           05 071 08377 00: UNIQUE WELL ID
~Curve Information Block
DEPT.FT            0 000 00 00: Depth
DCAL.in                       : CDL Caliper
RHOB.g/cc                     : CDL Bulk Density
RHOC.g/cc                     : CDL Density Correction
DPOR.pu                       : CDL Density Porosity
GR.GAPI                       : Gamma Ray
NPOR.pu                       : Neutron Porosity
~Parameter Information Block
~A  Depth       DCAL        RHOB        RHOC        DPOR         GR         NPOR    
# ...
  1134.0000      8.0615      2.4921      0.0584      9.5678     69.0506     15.7993
  1134.1000      8.0615      2.4630      0.0431     11.3333     73.5595     15.6986
  1134.2000      8.0615      2.4296     -0.0173     13.3598     75.6662     16.0423
  1134.3000      8.0692      2.4081      0.0220     14.6623     75.7524     16.3077
  1134.4000      8.0692      2.3989     -0.0410     15.2165     73.4987     16.2924
  1134.5000      8.0636      2.3957     -0.0544     15.4128     70.4978     16.2834
  1134.6000      8.0636      2.3991     -0.0156     15.2033     70.7716     16.4326
  1134.7000      8.0636      2.4144     -0.0070     14.2786     74.6903     16.6367
  1134.8000      8.0703      2.4333      0.0425     13.1314     78.5036     16.6609
  1134.9000      8.0703      2.4362      0.0509     12.9553     78.1046     16.5837
  1135.0000      8.0565      2.4218      0.0309     13.8296     74.0107     16.6759
  1135.1000      8.0565      2.4153     -0.0094     14.2255     69.9221     16.7039
  1135.2000      8.0565      2.4370     -0.0156     12.9081     67.6491     16.4114
  1135.3000      8.0533      2.4696      0.0542     10.9334     67.0872     15.9584
  1135.4000      8.0533      2.4805      0.0274     10.2710     66.3402     15.5640
  1135.5000      8.0548      2.4721      0.0524     10.7814     65.2374     15.3131
  1135.6000      8.0548      2.4708      0.0440     10.8624     66.8088     15.1104
  1135.7000      8.0548      2.4822      0.0689     10.1679     70.2435     14.8424
  1135.8000      8.0532      2.4868      0.0875      9.8934     71.0901     14.3576
  1135.9000      8.0532      2.4760      0.0167     10.5453     68.6952     13.6628
  1136.0000      8.0501      2.4626      0.0484     11.3570     66.8051     12.9725
  1136.1000      8.0501      2.4548      0.0266     11.8323     67.5284     12.7509
  1136.2000      8.0501      2.4523      0.0353     11.9837     69.7854     13.4887
  1136.3000      8.0518      2.4464      0.0285     12.3412     70.5758     14.6318
  1136.4000      8.0518      2.4295      0.0158     13.3617     68.8559     15.3977
  1136.5000      8.0490      2.4118     -0.0095     14.4390     66.6570     15.6408
  1136.6000      8.0490      2.4132     -0.0219     14.3503     65.1906     15.5756
  1136.7000      8.0490      2.4389      0.0573     12.7959     64.3422     15.3731
  1136.8000      8.0574      2.4729      0.0180     10.7332     63.8826     15.1789
  1136.9000      8.0574      2.5030      0.0428      8.9106     63.5771     15.0949
  1137.0000      8.0417      2.5252      0.0685      7.5637     64.0876     14.9145
  1137.1000      8.0417      2.5322      0.0735      7.1377     66.6011     14.4622
  1137.2000      8.0417      2.5141      0.0866      8.2342     69.7136     14.1762
  1137.3000      8.0378      2.4764      0.0052     10.5194     69.4174     14.2332
  1137.4000      8.0378      2.4418     -0.0008     12.6186     66.5099     14.2663
  1137.5000      8.0426      2.4218      0.0011     13.8333     65.9732     14.3311
  1137.6000      8.0426      2.4146     -0.0219     14.2692     68.0230     14.4452
  1137.7000      8.0426      2.4215      0.0198     13.8498     70.9944     14.4574
  1137.8000      8.0403      2.4406      0.0018     12.6903     74.4702     14.3894
  1137.9000      8.0403      2.4631      0.0449     11.3243     76.1996     14.4499
  1138.0000      8.0451      2.4785      0.0369     10.3965     75.9426     14.7030
  1138.1000      8.0451      2.4847      0.0474     10.0155     76.2550     14.8842
  1138.2000      8.0451      2.4880      0.0547      9.8206     76.5867     14.8005
  1138.3000      8.0464      2.4915      0.0676      9.6051     74.1720     14.7013
  1138.4000      8.0464      2.4936      0.0725      9.4811     71.8765     14.7361
  1138.5000      8.0443      2.4876      0.0661      9.8404     72.3523     14.7045
  1138.6000      8.0443      2.4723      0.0489     10.7715     73.0076     14.7548
  1138.7000      8.0443      2.4598      0.0332     11.5243     73.5052     15.2175
  1138.8000      8.0447      2.4627      0.0202     11.3522     73.8331     15.8948
  1138.9000      8.0447      2.4749      0.0526     10.6150     71.9456     16.0292
  1139.0000      8.0477      2.4794      0.1046     10.3375     68.3007     15.1186
  1139.1000      8.0477      2.4713      0.0685     10.8292     66.2238     13.5302
  1139.2000      8.0477      2.4594      0.0191     11.5543     68.0685     12.4314
  1139.3000      8.0516      2.4466      0.0001     12.3277     71.6171     12.4966
  1139.4000      8.0516      2.4367     -0.0178     12.9286     73.5205     13.0948
  1139.5000      8.0521      2.4427     -0.0052     12.5632     70.2218     13.4289
  1139.6000      8.0521      2.4594      0.0407     11.5503     60.1484     13.7652
  1139.7000      8.0521      2.4602      0.0703     11.5058     51.4883     14.3638
  1139.8000      8.0572      2.4436     -0.0231     12.5114     51.2407     14.5439
  1139.9000      8.0572      2.4338      0.0263     13.1012     55.9981     14.0928
  1140.0000      8.0485      2.4313      0.0392     13.2549     60.1557     13.7179
  1140.1000      8.0485      2.4274     -0.0047     13.4886     61.5560     13.5863
  1140.2000      8.0485      2.4358     -0.0166     12.9816     62.1683     12.8425
  1140.3000      8.0450      2.4651      0.0242     11.2079     64.6369     11.3640
  1140.4000      8.0450      2.4958      0.0738      9.3473     67.0920     10.4072
  1140.5000      8.0387      2.5066      0.0637      8.6913     67.1417     10.6402
  1140.6000      8.0387      2.5004      0.0553      9.0660     66.2232     11.2953
  1140.7000      8.0387      2.4930      0.0001      9.5133     64.8879     11.7748
  1140.8000      8.0380      2.4921      0.0724      9.5684     62.1324     12.0060
  1140.9000      8.0380      2.4873      0.0578      9.8607     59.8979     11.9483
  1141.0000      8.0382      2.4717      0.0231     10.8065     61.1577     11.7719
  1141.1000      8.0382      2.4616      0.0129     11.4205     65.4975     12.0895
  1141.2000      8.0382      2.4747      0.0195     10.6242     69.4341     12.9450
  1141.3000      8.0366      2.5000      0.0868      9.0880     69.5395     13.3861
  1141.4000      8.0366      2.5112      0.0761      8.4113     67.0562     12.8620
  1141.5000      8.0365      2.5021      0.0828      8.9640     67.2022     12.1373
  1141.6000      8.0365      2.4871      0.0716      9.8726     70.0442     11.9887
  1141.7000      8.0365      2.4788      0.0604     10.3766     70.5255     11.9977
  1141.8000      8.0303      2.4795      0.0465     10.3328     68.3104     12.1357
  1141.9000      8.0303      2.4875      0.0507      9.8476     68.1678     12.9736
  1142.0000      8.0478      2.4958      0.0370      9.3439     71.6469     14.1059
  1142.1000      8.0478      2.4880      0.0721      9.8211     74.7527     14.5462
  1142.2000      8.0478      2.4584      0.0031     11.6122     73.1773     14.0464
  1142.3000      8.0502      2.4305     -0.0176     13.3032     68.7946     13.2279
  1142.4000      8.0502      2.4195      0.0289     13.9673     66.7866     12.7081
  1142.5000      8.0529      2.4147     -0.0124     14.2578     66.2930     12.3098
  1142.6000      8.0529      2.4066      0.0236     14.7526     65.3303     11.8175
  1142.7000      8.0529      2.3958      0.0161     15.4044     64.5324     11.6399
  1142.8000      8.0556      2.3961     -0.0006     15.3874     62.4026     11.9430
  1142.9000      8.0556      2.4198      0.0209     13.9510     56.8984     12.4401
  1143.0000      8.0531      2.4501      0.0168     12.1139     50.0608     12.9730
  1143.1000      8.0531      2.4637      0.0160     11.2936     45.8771     13.4371
  1143.2000      8.0531      2.4601      0.0684     11.5112     46.4560     13.6674
  1143.3000      8.0518      2.4526      0.0182     11.9628     50.8719     13.4601
  1143.4000      8.0518      2.4579     -0.0106     11.6397     55.1942     12.8398
  1143.5000      8.0518      2.4791      0.0508     10.3601     56.7282     12.5362
