~Version Information
 VERS.                      2.0: CWLS Log ASCII Standard - VERSION 2.0
 WRAP.                       NO: One line per depth step
 ~Well Information Block
 STRT.FT               465.6000: 
 STOP.FT              1777.2000: 
 STEP.FT                 0.1000: 
 NULL.                -999.2500: 
 COMP.          Petrogulf Corporation: COMPANY
 WELL.          Alexander 9-43R: WELL
 FLD.           Purgatorie River: FIELD
 LOC.           1652' FSL & 1049' FEL: LOCATION
 CNTY.               Las Animas: COUNTY
 SRVC.                         : SERVICE COMPANY
 DATE.          Fri Sep 03 15:08:45 2004: LOG DATE
 UWI.           05 071 08036 00: UNIQUE WELL ID
 STAT.                 Colorado: STATE
 PROV.                         :Province
 ~Curve Information Block
 DEPT.FT            0 000 00 00: Depth
 DCAL.in                       : CDL Caliper
 RHOB.g/cc                     : CDL Bulk Density
 RHOC.g/cc                     : CDL Density Correction
 DPOR.pu                       : CDL Density Porosity
 GR.GAPI                       : Gamma Ray
 NPOR.pu                       : Neutron Porosity
 ~Parameter Information Block
 ~A  Depth       DCAL        RHOB        RHOC        DPOR         GR         NPOR    
# ...
   494.4000   -999.2500   -999.2500   -999.2500   -999.2500     60.1752     43.9525
   494.5000   -999.2500   -999.2500   -999.2500   -999.2500     60.0783     44.1504
   494.6000   -999.2500   -999.2500   -999.2500   -999.2500     64.1138     44.5426
   494.7000   -999.2500   -999.2500   -999.2500   -999.2500     69.4345     44.5832
   494.8000   -999.2500   -999.2500   -999.2500   -999.2500     72.2093     44.3739
   494.9000   -999.2500   -999.2500   -999.2500   -999.2500     71.5501     44.4940
   495.0000   -999.2500   -999.2500   -999.2500   -999.2500     70.3670     45.0844
   495.1000   -999.2500   -999.2500   -999.2500   -999.2500     71.1947     45.6477
   495.2000   -999.2500   -999.2500   -999.2500   -999.2500     71.3773     45.8068
   495.3000   -999.2500   -999.2500   -999.2500   -999.2500     68.2293     45.6665
   495.4000   -999.2500   -999.2500   -999.2500   -999.2500     64.5483     45.4678
   495.5000   -999.2500   -999.2500   -999.2500   -999.2500     64.5475     45.3180
   495.6000   -999.2500   -999.2500   -999.2500   -999.2500     69.7520     45.1186
   495.7000   -999.2500   -999.2500      0.2423   -999.2500     77.2857     44.9137
   495.8000   -999.2500   -999.2500      0.1817   -999.2500     81.4922     45.0080
   495.9000   -999.2500   -999.2500      0.1987   -999.2500     80.1253     45.4565
   496.0000      5.0739   -999.2500      0.2275   -999.2500     76.4579     45.7715
   496.1000      5.0739   -999.2500      0.2363   -999.2500     74.4515     45.7046
   496.2000      5.0739      2.4740      0.2173     10.6638     76.4859     45.5558
   496.3000      5.1291      2.4657      0.1993     11.1683     80.9113     45.3772
   496.4000      5.1291      2.4577      0.2078     11.6563     83.2307     45.0502
   496.5000      7.4280      2.4560      0.2143     11.7601     82.9862     44.7869
   496.6000      7.4280      2.4490      0.2329     12.1789     83.3821     44.6763
   496.7000      7.4280      2.4280      0.2021     13.4522     85.9132     44.7125
   496.8000     21.0493      2.4126      0.1999     14.3874     89.0349     44.8735
   496.9000     21.0493      2.4182      0.2346     14.0491     90.5630     45.0183
   497.0000     18.5984      2.4294      0.2093     13.3688     89.6977     45.1610
   497.1000     18.5984      2.4294      0.2220     13.3677     85.3816     45.1629
   497.2000     18.5984      2.4182      0.1740     14.0463     77.9805     44.9711
   497.3000      6.6483      2.4091      0.1802     14.5978     71.4720     44.9104
   497.4000      6.6483      2.4117      0.2116     14.4431     68.0290     45.0104
   497.5000      5.0762      2.4223      0.2041     13.8001     65.1993     44.9755
   497.6000      5.0762      2.4377      0.1803     12.8677     62.7599     44.8615
   497.7000      5.0762      2.4568      0.2099     11.7063     61.6079     44.9243
   497.8000      5.0759      2.4757      0.2278     10.5607     60.1123     45.0327
   497.9000      5.0759      2.4935      0.1994      9.4834     58.9919     44.9520
   498.0000      5.0694      2.5124      0.2286      8.3419     59.7495     44.7679
   498.1000      5.0694      2.5344      0.1872      7.0037     59.6181     44.6571
   498.2000      5.0694      2.5647      0.2237      5.1681     56.9884     44.6741
   498.3000      5.0719      2.5981      0.2660      3.1472     52.8912     44.9192
   498.4000      5.0719      2.6216      0.2401      1.7224     47.6153     45.4158
   498.5000      5.0735      2.6353      0.2647      0.8909     44.1817     45.7796
   498.6000      5.0735      2.6487      0.2493      0.0799     44.0147     45.6049
   498.7000      5.0735      2.6641      0.2161     -0.8537     42.8999     45.0429
   498.8000      5.0720      2.6756      0.2400     -1.5532     40.5010     44.5951
   498.9000      5.0720      2.6791      0.2590     -1.7658     41.9512     44.4765
   499.0000      5.0767      2.6743      0.2697     -1.4698     48.4863     44.4712
   499.1000      5.0767      2.6682      0.2258     -1.1045     56.2781     44.2337
   499.2000      5.0767      2.6705      0.2497     -1.2427     63.7050     43.8138
   499.3000      5.0756      2.6714      0.2882     -1.2996     68.7011     43.5640
   499.4000      5.0756      2.6533      0.2749     -0.1977     68.7944     43.5608
   499.5000      5.0748      2.6198      0.2374      1.8331     67.1474     43.7949
   499.6000      5.0748      2.5846      0.2092      3.9610     65.7399     44.3114
   499.7000      5.0748      2.5505      0.2138      6.0314     64.8787     44.9027
   499.8000      5.0683      2.5163      0.2221      8.1010     65.5208     45.4366
   499.9000      5.0683      2.4865      0.2065      9.9114     66.1839     45.8304
   500.0000      5.0720      2.4693      0.1770     10.9498     67.1096     45.7819
   500.1000      5.0720      2.4706      0.2114     10.8742     69.1872     45.5014
   500.2000      5.0720      2.4835      0.2582     10.0910     70.6741     45.7086
   500.3000      5.0751      2.4955      0.2303      9.3620     71.6819     46.4378
   500.4000      5.0751      2.5051      0.2371      8.7838     73.9884     46.9204
   500.5000      5.0722      2.5218      0.2074      7.7686     76.7422     46.8289
   500.6000      5.0722      2.5398      0.2773      6.6788     77.7924     46.5454
   500.7000      5.0722      2.5369      0.2454      6.8570     77.1512     46.2143
   500.8000      5.0705      2.5123      0.2014      8.3453     78.3173     45.7306
   500.9000      5.0705      2.4838      0.1970     10.0717     81.7969     45.2808
   501.0000      5.0804      2.4594      0.1920     11.5543     82.9155     45.1721
   501.1000      5.0804      2.4354      0.2007     13.0091     81.1895     45.3742
   501.2000      5.0804      2.4083      0.2025     14.6479     81.1277     45.6053
   501.3000      5.0744      2.3870      0.1286     15.9401     81.2940     45.8178
   501.4000      5.0744      2.3827      0.1294     16.1975     76.9466     46.1120
   501.5000      5.0838      2.3906      0.1604     15.7199     70.8542     46.2974
   501.6000      5.0838      2.3997      0.1921     15.1691     66.2669     46.0513
   501.7000      5.0838      2.4077      0.2015     14.6867     62.4761     45.4552
   501.8000      5.0757      2.4143      0.1962     14.2856     61.5681     45.0391
   501.9000      5.0757      2.4179      0.1845     14.0642     63.2168     45.2499
   502.0000      5.0763      2.4192      0.1998     13.9857     63.3664     45.8887
   502.1000      5.0763      2.4179      0.1773     14.0689     62.6336     46.3996
   502.2000      5.0763      2.4140      0.1855     14.3010     63.8695     46.6093
   502.3000      5.0736      2.4115      0.1544     14.4554     65.5289     46.5367
   502.4000      5.0736      2.4100      0.1922     14.5427     64.8738     46.1787
   502.5000      5.0756      2.4031      0.2094     14.9617     65.0635     45.6440
   502.6000      5.0756      2.3925      0.1928     15.6055     69.1887     45.2117
   502.7000      5.0756      2.3851      0.2098     16.0562     73.7938     45.2758
   502.8000      5.0767      2.3773      0.1925     16.5281     75.7886     45.7268
   502.9000      5.0767      2.3637      0.1778     17.3531     76.6408     45.9708
   503.0000      5.0744      2.3520      0.1563     18.0579     78.2241     45.9098
   503.1000      5.0744      2.3543      0.1684     17.9224     78.4733     45.7886
   503.2000      5.0744      2.3671      0.1741     17.1451     74.6604     45.8274
   503.3000      5.0692      2.3816      0.1805     16.2670     69.0602     46.1293
   503.4000      5.0692      2.3909      0.2081     15.7039     64.9636     46.4019
   503.5000      5.0625      2.3851      0.2165     16.0563     64.3815     46.4458
   503.6000      5.0625      2.3636      0.1812     17.3547     68.9956     46.3874
   503.7000      5.0625      2.3452      0.1475     18.4715     75.8028     46.3046
   503.8000      5.0752      2.3473      0.1412     18.3435     79.9343     46.2169
   503.9000      5.0752      2.3608      0.2117     17.5274     81.3321     46.1883
