~Version Information
VERS.                      2.0: CWLS Log ASCII Standard - VERSION 2.0
WRAP.                       NO: One line per depth step
~Well Information Block
STRT.FT               221.2000: 
STOP.FT              2260.4000: 
STEP.FT                 0.1000: 
NULL.                -999.2500: 
COMP.          Petrogulf Corporation: COMPANY
WELL.          Anderson 18-43V: WELL
FLD.           Purgatorie River: FIELD
LOC.           1782' FSL & 887' FEL--: LOCATION
CNTY.               Las Animas: COUNTY
SRVC.                         : SERVICE COMPANY
DATE.          Mon Sep 13 14:11:09 2004: LOG DATE
UWI.                          : UNIQUE WELL ID
STAT.                       CO: STATE
~Curve Information Block
DEPT.FT            0 000 00 00: Depth
TT3.usec                      : CBL 3' Travel Time
AMP3.mV                       : CBL 3' Amplitude
GR.GAPI                       : Gamma Ray
CCL.                          : Casing Collar Locator
~Parameter Information Block
~A  Depth       TT3         AMP3         GR         CCL     
# ...
   904.6000    713.3217      4.6842    133.4727      2.0000
   904.7000    713.3217      4.6842    133.4727     -2.0000
   904.8000    710.1949      4.8520    134.0126      2.0000
   904.9000    710.1949      4.8520    134.0126      0.0000
   905.0000    699.7163      5.0581    136.3326      0.0000
   905.1000    699.7163      5.0581    136.3326      0.0000
   905.2000    699.7163      5.0581    136.3326      0.0000
   905.3000    683.2233      5.3131    139.9837      0.0000
   905.4000    683.2233      5.3131    139.9837      0.0000
   905.5000    663.1676      5.5817    145.2161      0.0000
   905.6000    663.1676      5.5817    145.2161      0.0000
   905.7000    663.1676      5.5817    145.2161      0.0000
   905.8000    642.1793      5.7806    151.8761      0.0000
   905.9000    642.1793      5.7806    151.8761      0.0000
   906.0000    622.3380      5.8373    158.5540      0.0000
   906.1000    622.3380      5.8373    158.5540      0.0000
   906.2000    622.3380      5.8373    158.5540      0.0000
   906.3000    605.5558      5.7448    163.2663      0.0000
   906.4000    605.5558      5.7448    163.2663      0.0000
   906.5000    593.6936      5.5435    164.6380      0.0000
   906.6000    593.6936      5.5435    164.6380      0.0000
   906.7000    593.6936      5.5435    164.6380      0.0000
   906.8000    587.4832      5.2803    162.3184      0.0000
   906.9000    587.4832      5.2803    162.3184      0.0000
   907.0000    585.7678      5.0086    157.0382      0.0000
   907.1000    585.7678      5.0086    157.0382      0.0000
   907.2000    585.7678      5.0086    157.0382      0.0000
   907.3000    586.4754      4.7936    150.7637      0.0000
   907.4000    586.4754      4.7936    150.7637      0.0000
   907.5000    588.3553      4.6767    146.0117      0.0000
   907.6000    588.3553      4.6767    146.0117      0.0000
   907.7000    588.3553      4.6767    146.0117      0.0000
   907.8000    591.9380      4.6329    143.9350      0.0000
   907.9000    591.9380      4.6329    143.9350      0.0000
   908.0000    599.3228      4.5805    143.0298      0.0000
   908.1000    599.3228      4.5805    143.0298      0.0000
   908.2000    599.3228      4.5805    143.0298      0.0000
   908.3000    612.8868      4.4517    140.3458      0.0000
   908.4000    612.8868      4.4517    140.3458      0.0000
   908.5000    633.1703      4.2615    134.2117      0.0000
   908.6000    633.1703      4.2615    134.2117      0.0000
   908.7000    633.1703      4.2615    134.2117      0.0000
   908.8000    657.4806      4.1027    125.8809      0.0000
   908.9000    657.4806      4.1027    125.8809      0.0000
   909.0000    680.9495      4.0667    118.7985      0.0000
   909.1000    680.9495      4.0667    118.7985      0.0000
   909.2000    680.9495      4.0667    118.7985      0.0000
   909.3000    699.3840      4.1692    115.9936      0.0000
   909.4000    699.3840      4.1692    115.9936      0.0000
   909.5000    711.2482      4.3478    117.6185      0.0000
   909.6000    711.2482      4.3478    117.6185      0.0000
   909.7000    711.2482      4.3478    117.6185      0.0000
   909.8000    717.3796      4.5153    120.8950      0.0000
   909.9000    717.3796      4.5153    120.8950      0.0000
   910.0000    719.3625      4.6069    122.4060      0.0000
   910.1000    719.3625      4.6069    122.4060      0.0000
   910.2000    719.3625      4.6069    122.4060      0.0000
   910.3000    718.0791      4.5975    120.3355      0.0000
   910.4000    718.0791      4.5975    120.3355      0.0000
   910.5000    713.1672      4.5029    115.0671      0.0000
   910.6000    713.1672      4.5029    115.0671      0.0000
   910.7000    713.1672      4.5029    115.0671      0.0000
   910.8000    703.3855      4.3780    108.6748      0.0000
   910.9000    703.3855      4.3780    108.6748      0.0000
   911.0000    687.6611      4.2971    104.1336      0.0000
   911.1000    687.6611      4.2971    104.1336      0.0000
   911.2000    687.6611      4.2971    104.1336      0.0000
   911.3000    666.4509      4.3128    104.0592      0.0000
   911.4000    666.4509      4.3128    104.0592      0.0000
   911.5000    642.5726      4.4195    108.9877      0.0000
   911.6000    642.5726      4.4195    108.9877      0.0000
   911.7000    642.5726      4.4195    108.9877      0.0000
   911.8000    620.4155      4.5583    116.6127      0.0000
   911.9000    620.4155      4.5583    116.6127      0.0000
   912.0000    603.7156      4.6647    123.2896      0.0000
   912.1000    603.7156      4.6647    123.2896      0.0000
   912.2000    603.7156      4.6647    123.2896      0.0000
   912.3000    593.9841      4.7191    126.5895      0.0000
   912.4000    593.9841      4.7191    126.5895      0.0000
   912.5000    591.2058      4.7596    126.4480      0.0000
   912.6000    591.2058      4.7596    126.4480      0.0000
   912.7000    591.2058      4.7596    126.4480      0.0000
   912.8000    595.5472      4.8411    124.3769      0.0000
   912.9000    595.5472      4.8411    124.3769      0.0000
   913.0000    607.4572      4.9726    122.0126      0.0000
   913.1000    607.4572      4.9726    122.0126      0.0000
   913.2000    607.4572      4.9726    122.0126      0.0000
   913.3000    625.6924      5.0967    120.0369      0.0000
   913.4000    625.6924      5.0967    120.0369      0.0000
   913.5000    645.8618      5.1376    117.9924      0.0000
   913.6000    645.8618      5.1376    117.9924      0.0000
   913.7000    645.8618      5.1376    117.9924      0.0000
   913.8000    661.9061      5.0696    115.1803      0.0000
   913.9000    661.9061      5.0696    115.1803      0.0000
   914.0000    669.3429      4.9416    111.7806      0.0000
   914.1000    669.3429      4.9416    111.7806      0.0000
   914.2000    669.3429      4.9416    111.7806      0.0000
   914.3000    667.1733      4.8400    109.0189      0.0000
   914.4000    667.1733      4.8400    109.0189      0.0000
   914.5000    657.7296      4.8255    108.3061      0.0000
   914.6000    657.7296      4.8255    108.3061      0.0000
   914.7000    657.7296      4.8255    108.3061      0.0000
   914.8000    645.7912      4.9036    110.1672      0.0000
   914.9000    645.7912      4.9036    110.1672      0.0000
   915.0000    636.6767      5.0446    113.6242      0.0000
   915.1000    636.6767      5.0446    113.6242      0.0000
   915.2000    636.6767      5.0446    113.6242      0.0000
   915.3000    632.7914      5.2194    116.5139      0.0000
   915.4000    632.7914      5.2194    116.5139      0.0000
   915.5000    631.5971      5.4109    116.5638      0.0000
   915.6000    631.5971      5.4109    116.5638      0.0000
   915.7000    631.5971      5.4109    116.5638      0.0000
   915.8000    628.3397      5.6006    112.4431      0.0000
   915.9000    628.3397      5.6006    112.4431      0.0000
   916.0000    621.1024      5.7510    104.2889      0.0000
   916.1000    621.1024      5.7510    104.2889      0.0000
   916.2000    621.1024      5.7510    104.2889      0.0000
   916.3000    612.4506      5.8065     93.5882      0.0000
   916.4000    612.4506      5.8065     93.5882      0.0000
   916.5000    606.6572      5.7274     82.4102      0.0000
   916.6000    606.6572      5.7274     82.4102      0.0000
   916.7000    606.6572      5.7274     82.4102      0.0000
   916.8000    606.4579      5.5301     72.4071      0.0000
   916.9000    606.4579      5.5301     72.4071      0.0000
   917.0000    612.3992      5.2878     64.4378      0.0000
   917.1000    612.3992      5.2878     64.4378      0.0000
   917.2000    612.3992      5.2878     64.4378      0.0000
   917.3000    624.2262      5.0771     58.8824      0.0000
   917.4000    624.2262      5.0771     58.8824      0.0000
   917.5000    641.6705      4.9198     55.6723      0.0000
   917.6000    641.6705      4.9198     55.6723      0.0000
   917.7000    641.6705      4.9198     55.6723      0.0000
   917.8000    662.9200      4.7840     53.7635      0.0000
   917.9000    662.9200      4.7840     53.7635      0.0000
