~Version Information
VERS.                      2.0: CWLS Log ASCII Standard - VERSION 2.0
WRAP.                       NO: One line per depth step
~Well Information Block
STRT.FT               350.0000: 
STOP.FT              1391.5000: 
STEP.FT                 0.2500: 
NULL.                -999.2500: 
COMP.          Petrogulf Corporation: COMPANY
WELL.             Leier 17-42R: WELL
FLD.           Purgatorie River: FIELD
LOC.           2398' FNL & 1109' FEL: LOCATION
PROV.                 Colorado: PROVINCE
CNTY.               Las Animas: COUNTRY
SRVC.                Patterson: SERVICE COMPANY
DATE.          Mon Oct 17 09:42:26 2005: LOG DATE
UWI.                          : UNIQUE WELL ID
~Curve Information Block
DEPT.FT            0 000 00 00: Depth
SP.mV                         : DIL Spontaneous Potential
RILD.Ohm-m                    : DIL Deep Resistivity
RILM.Ohm-m                    : DIL Medium Resistivity
RLL3.Ohm-m                    : DIL Shallow Resistivity
GR.GAPI                       : Gamma Ray
~Parameter Information Block
~A  Depth        SP         RILD        RILM        RLL3         GR     
# ...
  1218.0000    262.8428      6.6670      6.8218      8.3964    140.8707
  1218.2500    263.8448      6.6919      6.8964      8.4317    139.3465
  1218.5000    265.1820      6.7219      7.0056      8.7203    135.6106
  1218.7500    266.9020      6.7537      7.1429      9.5492    132.8337
  1219.0000    269.0570      6.7869      7.2967     11.1310    128.5185
  1219.2500    271.6637      6.8231      7.4524     13.3607    125.1074
  1219.5000    274.6481      6.8651      7.5938     15.6340    118.5350
  1219.7500    277.8141      6.9141      7.7075     17.0217    113.5020
  1220.0000    280.8678      6.9694      7.7859     16.8674    106.7232
  1220.2500    283.5034      7.0282      7.8285     15.3210    103.8571
  1220.5000    285.5108      7.0859      7.8405     13.2254    103.0434
  1220.7500    286.8402      7.1358      7.8299     11.4654    104.5631
  1221.0000    287.5892      7.1699      7.8039     10.4464    108.3217
  1221.2500    287.9315      7.1806      7.7666     10.0811    110.6741
  1221.5000    288.0395      7.1632      7.7184     10.0768    112.5907
  1221.7500    288.0404      7.1187      7.6579     10.1779    112.5463
  1222.0000    288.0124      7.0534      7.5835     10.2469    110.7536
  1222.2500    287.9992      6.9775      7.4955     10.2407    108.6630
  1222.5000    288.0226      6.9023      7.3974     10.1603    104.8358
  1222.7500    288.0840      6.8378      7.2955     10.0154    102.6098
  1223.0000    288.1643      6.7915      7.1982      9.8115    101.5857
  1223.2500    288.2323      6.7679      7.1143      9.5574    103.0289
  1223.5000    288.2617      6.7684      7.0524      9.2808    107.2630
  1223.7500    288.2420      6.7925      7.0193      9.0341    109.8442
  1224.0000    288.1755      6.8391      7.0206      8.8836    111.0189
  1224.2500    288.0606      6.9065      7.0598      8.8843    109.9008
  1224.5000    287.8766      6.9931      7.1392      9.0581    107.3783
  1224.7500    287.5833      7.0961      7.2591      9.3907    106.7732
  1225.0000    287.1373      7.2122      7.4179      9.8422    109.4417
  1225.2500    286.5128      7.3379      7.6121     10.3606    113.6504
  1225.5000    285.7153      7.4718      7.8361     10.8939    121.5712
  1225.7500    284.7827      7.6143      8.0825     11.4021    126.1347
  1226.0000    283.7789      7.7657      8.3417     11.8667    129.9537
  1226.2500    282.7784      7.9239      8.6033     12.2874    130.5807
  1226.5000    281.8434      8.0834      8.8560     12.6650    129.6980
  1226.7500    281.0084      8.2387      9.0888     12.9789    128.1262
  1227.0000    280.2773      8.3888      9.2921     13.1771    124.1158
  1227.2500    279.6290      8.5382      9.4589     13.1944    120.5712
  1227.5000    279.0232      8.6923      9.5857     12.9910    115.3469
  1227.7500    278.4074      8.8476      9.6729     12.5847    112.8890
  1228.0000    277.7318      8.9873      9.7246     12.0499    111.6786
  1228.2500    276.9645      9.0862      9.7470     11.4888    112.4541
  1228.5000    276.0978      9.1237      9.7468     11.0017    115.0420
  1228.7500    275.1411      9.0951      9.7291     10.6735    116.9549
  1229.0000    274.1073      9.0119      9.6964     10.5639    118.8044
  1229.2500    273.0034      8.8937      9.6484     10.6882    118.6538
  1229.5000    271.8293      8.7582      9.5829     10.9999    115.6082
  1229.7500    270.5858      8.6174      9.4975     11.4019    112.0674
  1230.0000    269.2868      8.4787      9.3914     11.7835    106.8218
  1230.2500    267.9654      8.3484      9.2666     12.0508    104.9089
  1230.5000    266.6705      8.2331      9.1288     12.1340    105.3091
  1230.7500    265.4552      8.1384      8.9858     11.9913    107.0687
  1231.0000    264.3679      8.0667      8.8462     11.6248    110.1476
  1231.2500    263.4495      8.0145      8.7173     11.0908    111.8158
  1231.5000    262.7356      7.9724      8.6034     10.4895    113.3403
  1231.7500    262.2596      7.9275      8.5048      9.9475    113.6773
  1232.0000    262.0554      7.8670      8.4174      9.6084    113.2013
  1232.2500    262.1586      7.7817      8.3338      9.6115    112.1943
  1232.5000    262.6028      7.6685      8.2441     10.0284    109.4273
  1232.7500    263.4105      7.5312      8.1386     10.7790    106.7821
  1233.0000    264.5792      7.3786      8.0098     11.6125    102.5997
  1233.2500    266.0601      7.2219      7.8554     12.2019    100.6664
  1233.5000    267.7400      7.0721      7.6783     12.2955    100.5584
  1233.7500    269.4427      6.9374      7.4867     11.8345    102.7063
  1234.0000    270.9726      6.8219      7.2916     10.9774    108.8258
  1234.2500    272.1859      6.7254      7.1040     10.0207    113.9828
  1234.5000    273.0446      6.6440      6.9330      9.2502    121.2356
  1234.7500    273.6128      6.5718      6.7841      8.8137    124.7341
  1235.0000    274.0054      6.5037      6.6601      8.6949    127.5335
  1235.2500    274.3323      6.4379      6.5613      8.7742    128.1258
  1235.5000    274.6727      6.3764      6.4870      8.9084    127.7986
  1235.7500    275.0760      6.3243      6.4371      8.9879    126.9774
  1236.0000    275.5697      6.2873      6.4121      8.9727    125.2014
  1236.2500    276.1646      6.2698      6.4130      8.9060    124.0143
  1236.5000    276.8569      6.2734      6.4411      8.8898    122.7754
  1236.7500    277.6255      6.2963      6.4963      9.0238    122.3968
  1237.0000    278.4307      6.3341      6.5766      9.3511    122.4950
  1237.2500    279.2227      6.3814      6.6771      9.8685    123.1791
  1237.5000    279.9635      6.4339      6.7898     10.5938    125.4181
  1237.7500    280.6412      6.4895      6.9043     11.5772    127.4776
  1238.0000    281.2629      6.5490      7.0095     12.7684    130.5048
  1238.2500    281.8283      6.6148      7.0964     13.8631    132.1809
  1238.5000    282.3073      6.6904      7.1599     14.3871    134.2970
  1238.7500    282.6401      6.7793      7.2014     14.0384    135.5146
  1239.0000    282.7609      6.8850      7.2283     12.9491    136.7644
  1239.2500    282.6292      7.0107      7.2528     11.5872    136.9943
  1239.5000    282.2499      7.1597      7.2892     10.4307    136.5126
  1239.7500    281.6700      7.3339      7.3522      9.7388    135.9613
  1240.0000    280.9608      7.5332      7.4550      9.5359    135.0424
  1240.2500    280.1968      7.7564      7.6091      9.7095    134.0310
  1240.5000    279.4367      8.0028      7.8255     10.1125    131.1268
  1240.7500    278.7106      8.2754      8.1149     10.6380    128.2772
  1241.0000    278.0185      8.5824      8.4901     11.2741    123.5309
  1241.2500    277.3420      8.9362      8.9665     12.1453    120.6177
  1241.5000    276.6614      9.3495      9.5630     13.5377    117.0745
  1241.7500    275.9706      9.8319     10.3028     15.9208    115.1701
  1242.0000    275.2870     10.3874     11.2116     19.9897    112.3097
  1242.2500    274.6515     11.0120     12.3155     26.6967    109.8641
  1242.5000    274.1208     11.6920     13.6336     37.1122    104.6342
  1242.7500    273.7545     12.4004     15.1651     51.9901     99.8113
  1243.0000    273.6050     13.0945     16.8674     71.2418     90.4090
  1243.2500    273.7124     13.7172     18.6275     93.7307     82.9834
  1243.5000    274.1021     14.2049     20.2401    117.3200     71.3523
  1243.7500    274.7787     14.5037     21.4256    138.5699     64.2187
  1244.0000    275.7190     14.5867     21.9176    152.3060     56.1417
  1244.2500    276.8711     14.4634     21.5945    152.7651     53.5094
  1244.5000    278.1577     14.1731     20.5549    137.1112     55.2294
  1244.7500    279.4825     13.7688     19.0609    108.6364     60.6921
  1245.0000    280.7393     13.2994     17.4053     75.8196     75.1371
  1245.2500    281.8314     12.8006     15.8092     47.4026     87.8520
  1245.5000    282.6970     12.2941     14.3945     27.9132    108.1071
  1245.7500    283.3230     11.7911     13.2040     17.0627    120.2169
