~Version Information
VERS.                      2.0: CWLS Log ASCII Standard - VERSION 2.0
WRAP.                       NO: One line per depth step
~Well Information Block
STRT.FT               275.0000: 
STOP.FT              1682.2500: 
STEP.FT                 0.2500: 
NULL.                -999.2500: 
COMP.          Pioneer Natural Resources: COMPANY
WELL.               Elmo 14-21: WELL
FLD.           Purgatoire River: FIELD
LOC.           623' FSL & 450' FWL----: LOCATION
PROV.                 Colorado: PROVINCE
CNTY.               Las Animas: COUNTRY
SRVC.                Patterson: SERVICE COMPANY
DATE.          Tue May 17 16:07:31 2005: LOG DATE
UWI.           05 071 08360 00: UNIQUE WELL ID
~Curve Information Block
DEPT.FT            0 000 00 00: Depth
SN.Ohm-m                      : IEL Short Normal
SP.mV                         : IEL Spontaneous Potential
DIR.Ohm-m                     : IEL Induction Resistivity
GR.GAPI                       : Gamma Ray
~Parameter Information Block
~A  Depth        SN          SP         DIR          GR     
# ...
  1548.0000     14.0972     19.9900     13.9879     82.3492
  1548.2500     14.7069     19.4844     14.3083     78.4784
  1548.5000     15.4336     19.0129     14.5725     76.0034
  1548.7500     16.2407     18.5707     14.8415     76.6394
  1549.0000     17.0035     18.1482     15.1630     79.9097
  1549.2500     17.5793     17.7355     15.5544     82.5786
  1549.5000     17.8895     17.3287     15.9999     85.5309
  1549.7500     17.9574     16.9347     16.4581     86.0041
  1550.0000     17.8880     16.5732     16.8807     84.0058
  1550.2500     17.8198     16.2746     17.2380     81.3624
  1550.5000     17.8784     16.0725     17.5399     77.2020
  1550.7500     18.1416     15.9928     17.8353     75.2087
  1551.0000     18.6188     16.0422     18.1903     73.6914
  1551.2500     19.2544     16.2013     18.6592     73.1075
  1551.5000     19.9558     16.4238     19.2647     71.7116
  1551.7500     20.6319     16.6451     19.9908     70.3439
  1552.0000     21.2162     16.7969     20.7859     68.7066
  1552.2500     21.6746     16.8230     21.5733     68.5223
  1552.5000     22.0034     16.6910     22.2670     69.2525
  1552.7500     22.2254     16.3972     22.7942     69.4142
  1553.0000     22.3802     15.9639     23.1177     67.7299
  1553.2500     22.5098     15.4307     23.2473     65.4357
  1553.5000     22.6417     14.8444     23.2331     61.8426
  1553.7500     22.7762     14.2510     23.1426     60.2754
  1554.0000     22.8847     13.6896     23.0327     59.5564
  1554.2500     22.9236     13.1906     22.9304     59.7527
  1554.5000     22.8555     12.7750     22.8306     60.2609
  1554.7500     22.6699     12.4553     22.7101     60.6680
  1555.0000     22.3884     12.2354     22.5473     61.9151
  1555.2500     22.0506     12.1113     22.3338     63.5316
  1555.5000     21.6887     12.0713     22.0748     67.3956
  1555.7500     21.3129     12.0971     21.7832     70.8298
  1556.0000     20.9208     12.1652     21.4763     76.5710
  1556.2500     20.5212     12.2502     21.1764     80.0763
  1556.5000     20.1455     12.3276     20.9093     83.5665
  1556.7500     19.8351     12.3780     20.6983     84.3627
  1557.0000     19.6160     12.3898     20.5577     83.6585
  1557.2500     19.4816     12.3611     20.4882     82.4834
  1557.5000     19.3928     12.2997     20.4773     80.3894
  1557.7500     19.2987     12.2201     20.5023     78.8500
  1558.0000     19.1709     12.1398     20.5385     76.1158
  1558.2500     19.0356     12.0745     20.5683     74.0327
  1558.5000     18.9755     12.0340     20.5896     71.2764
  1558.7500     19.0855     12.0201     20.6179     70.4929
  1559.0000     19.4030     12.0262     20.6775     72.0235
  1559.2500     19.8647     12.0403     20.7863     74.7317
  1559.5000     20.3346     12.0477     20.9427     79.5681
  1559.7500     20.6850     12.0346     21.1231     82.0571
  1560.0000     20.8691     11.9896     21.2937     83.7263
  1560.2500     20.9385     11.9045     21.4277     83.7309
  1560.5000     21.0134     11.7742     21.5212     82.9627
  1560.7500     21.2307     11.5963     21.6002     82.2604
  1561.0000     21.6907     11.3718     21.7166     81.1523
  1561.2500     22.4141     11.1065     21.9331     80.4319
  1561.5000     23.3294     10.8122     22.3006     79.3677
  1561.7500     24.3008     10.5080     22.8345     78.6087
  1562.0000     25.1845     10.2189     23.4985     77.2752
  1562.2500     25.8800      9.9738     24.2057     76.1814
  1562.5000     26.3587      9.8009     24.8476     74.1033
  1562.7500     26.6666      9.7229     25.3421     72.4204
  1563.0000     26.8983      9.7531     25.6710     69.8748
  1563.2500     27.1463      9.8927     25.8742     68.7568
  1563.5000     27.4472     10.1314     26.0098     69.1655
  1563.7500     27.7576     10.4497     26.1127     71.0812
  1564.0000     27.9782     10.8233     26.1825     75.2008
  1564.2500     28.0096     11.2277     26.1976     77.3298
  1564.5000     27.8041     11.6417     26.1407     77.5034
  1564.7500     27.3879     12.0496     26.0137     75.4318
  1565.0000     26.8472     12.4417     25.8357     70.6135
  1565.2500     26.2922     12.8128     25.6329     67.5443
  1565.5000     25.8141     13.1600     25.4306     64.5690
  1565.7500     25.4543     13.4817     25.2488     63.8731
  1566.0000     25.1994     13.7762     25.1000     64.4779
  1566.2500     25.0037     14.0419     24.9836     65.5678
  1566.5000     24.8207     14.2777     24.8837     67.1751
  1566.7500     24.6249     14.4835     24.7753     67.7289
  1567.0000     24.4176     14.6609     24.6372     67.7632
  1567.2500     24.2178     14.8127     24.4657     67.6299
  1567.5000     24.0481     14.9431     24.2792     67.8503
  1567.7500     23.9226     15.0580     24.1113     68.5381
  1568.0000     23.8392     15.1651     23.9955     70.6834
  1568.2500     23.7745     15.2747     23.9485     72.7917
  1568.5000     23.6827     15.3998     23.9611     76.0082
  1568.7500     23.5074     15.5554     23.9985     77.3071
  1569.0000     23.2040     15.7570     24.0110     77.0403
  1569.2500     22.7617     16.0191     23.9537     75.5685
  1569.5000     22.2141     16.3522     23.8043     72.6627
  1569.7500     21.6312     16.7616     23.5692     71.0261
  1570.0000     21.0978     17.2458     23.2746     69.7358
  1570.2500     20.6865     17.7963     22.9525     69.6224
  1570.5000     20.4351     18.3985     22.6309     70.0560
  1570.7500     20.3398     19.0329     22.3294     70.4953
  1571.0000     20.3628     19.6776     22.0581     71.4773
  1571.2500     20.4492     20.3100     21.8188     72.6606
  1571.5000     20.5427     20.9098     21.6088     75.6145
  1571.7500     20.5991     21.4608     21.4247     78.1711
  1572.0000     20.5982     21.9518     21.2652     81.7073
  1572.2500     20.5497     22.3771     21.1319     82.9834
  1572.5000     20.4880     22.7361     21.0316     82.3688
  1572.7500     20.4568     23.0312     20.9768     80.4689
  1573.0000     20.4910     23.2674     20.9821     76.7097
  1573.2500     20.6039     23.4506     21.0551     74.4325
  1573.5000     20.7848     23.5872     21.1911     72.1745
  1573.7500     21.0063     23.6842     21.3734     71.5322
  1574.0000     21.2360     23.7492     21.5799     71.6142
  1574.2500     21.4453     23.7907     21.7891     72.1118
  1574.5000     21.6184     23.8177     21.9856     73.0421
  1574.7500     21.7571     23.8389     22.1608     73.4811
  1575.0000     21.8770     23.8610     22.3113     73.3314
  1575.2500     21.9935     23.8880     22.4355     72.5800
  1575.5000     22.1114     23.9201     22.5306     70.9055
  1575.7500     22.2256     23.9533     22.5923     69.7843
  1576.0000     22.3314     23.9802     22.6154     68.2107
  1576.2500     22.4325     23.9910     22.5953     67.0889
  1576.5000     22.5379     23.9742     22.5334     65.4080
  1576.7500     22.6539     23.9190     22.4437     64.6495
  1577.0000     22.7793     23.8156     22.3550     64.6421
  1577.2500     22.9039     23.6578     22.3020     65.4240
  1577.5000     23.0073     23.4445     22.3081     67.1540
  1577.7500     23.0603     23.1816     22.3710     68.0330
  1578.0000     23.0273     22.8826     22.4588     67.9209
  1578.2500     22.8716     22.5676     22.5196     66.7248
  1578.5000     22.5643     22.2603     22.5000     63.9268
  1578.7500     22.1007     21.9814     22.3637     62.0985
  1579.0000     21.5130     21.7422     22.1013     60.6258
  1579.2500     20.8669     21.5384     21.7289     61.1459
  1579.5000     20.2362     21.3475     21.2779     65.0031
  1579.7500     19.6740     21.1313     20.7846     69.5327
  1580.0000     19.1983     20.8459     20.2817     77.6801
  1580.2500     18.7928     20.4543     19.7926     82.5772
  1580.5000     18.4140     19.9422     19.3299     86.9730
  1580.7500     18.0035     19.3293     18.8979     87.3956
  1581.0000     17.5160     18.6733     18.4989     84.9216
  1581.2500     16.9506     18.0633     18.1387     82.2812
