~Version Information
VERS.                      2.0: CWLS Log ASCII Standard - VERSION 2.0
WRAP.                       NO: One line per depth step
~Well Information Block
STRT.FT                -9.0000: 
STOP.FT              2130.0000: 
STEP.FT                 0.2500: 
NULL.                -999.2500: 
COMP.          Pioneer Natural Resources: COMPANY
WELL.               King 22-13: WELL
FLD.           Purgatorie River: FIELD
LOC.           2419' FNL & 1806' FWL: LOCATION
PROV.                 Colorado: PROVINCE
CNTY.               Las Animas: COUNTRY
SRVC.                Patterson: SERVICE COMPANY
DATE.          Wed Apr 20 09:20:28 2005: LOG DATE
UWI.           05-071-08318-00: UNIQUE WELL ID
~Curve Information Block
DEPT.FT            0 000 00 00: Depth
CCL.                          : Casing Collar Locator
TT3.usec                      : CBL 3' Travel Time
AMP3.mV                       : CBL 3' Amplitude
GR.GAPI                       : Gamma Ray
~Parameter Information Block
~A  Depth       CCL         TT3         AMP3         GR     
# ...
   828.5000      0.0000    783.4090      5.6360    109.6354
   828.7500      0.0000    784.3182      5.6310    111.6610
   829.0000      0.0000    782.1584      5.6086    114.9461
   829.2500      0.0000    778.3378      5.5640    119.7871
   829.5000      0.0000    775.0477      5.5049    125.3590
   829.7500      0.0000    774.3278      5.4431    129.7467
   830.0000      0.0000    777.3698      5.3806    131.1396
   830.2500      0.0000    783.9886      5.3078    128.7022
   830.5000      0.0000    792.8286      5.2193    122.7458
   830.7500      0.0000    802.1946      5.1258    115.0559
   831.0000      0.0000    810.7159      5.0484    108.7038
   831.2500      0.0000    817.9930      5.0012    105.9555
   831.5000      0.0000    825.5246      4.9828    105.9101
   831.7500      0.0000    836.5633      4.9832    105.2062
   832.0000      0.0000    853.3320      4.9974    101.5387
   832.2500      0.0000    872.9616      5.0299     95.9767
   832.5000      0.0000    886.5857      5.0886     91.8264
   832.7500      0.0000    885.0177      5.1784     91.8274
   833.0000      0.0000    867.2012      5.2993     96.3170
   833.2500      0.0000    841.8757      5.4427    103.4260
   833.5000      0.0000    819.9533      5.5874    110.7635
   833.7500      0.0000    806.6218      5.7058    116.8244
   834.0000      0.0000    800.7053      5.7786    120.9947
   834.2500      0.0000    798.7216      5.8040    123.1386
   834.5000      0.0000    797.8886      5.7944    123.6490
   834.7500      0.0000    796.5375      5.7709    123.2851
   835.0000      0.0000    793.5389      5.7582    122.5749
   835.2500      0.0000    788.1504      5.7747    121.6306
   835.5000      0.0000    780.5090      5.8231    120.4486
   835.7500      0.0000    772.0259      5.8906    119.0492
   836.0000      0.0000    764.7907      5.9580    117.4545
   836.2500      0.0000    760.3789      6.0092    115.7573
   836.5000      0.0000    759.1545      6.0346    114.0339
   836.7500      0.0000    760.3723      6.0344    112.2019
   837.0000      0.0000    762.5126      6.0184    110.4115
   837.2500      0.0000    764.0124      6.0020    109.6296
   837.5000      0.0000    764.5341      5.9929    111.2650
   837.7500      0.0000    766.0281      5.9789    115.7391
   838.0000      0.0000    772.3354      5.9277    121.5384
   838.2500      0.0000    786.6253      5.8081    126.2274
   838.5000      0.0000    807.5049      5.6213    128.5072
   838.7500      0.0000    828.0636      5.4140    128.8056
   839.0000      0.0000    841.4565      5.2532    127.8009
   839.2500      0.0000    847.3097      5.1807    125.0988
   839.5000      0.0000    849.6161      5.1887    119.7882
   839.7500     -5.0000    849.4077      5.2369    111.9019
   840.0000      0.0000    844.1885      5.2871    102.9727
   840.2500      0.0000    834.2294      5.3273     95.3273
   840.5000      0.0000    824.0505      5.3772     90.9235
   840.7500      0.0000    816.1373      5.4735     90.4370
   841.0000      0.0000    807.2144      5.6279     93.0842
   841.2500      0.0000    793.2429      5.7894     97.4407
   841.5000      0.0000    775.7647      5.8718    102.4447
   841.7500      0.0000    761.2133      5.8355    107.4187
   842.0000      0.0000    755.2624      5.7255    111.4412
   842.2500      0.0000    759.3978      5.6179    113.4342
   842.5000      0.0000    771.5161      5.5530    113.0670
   842.7500      0.0000    787.7269      5.5270    111.2628
   843.0000      0.0000    804.1545      5.5199    109.5888
   843.2500      0.0000    819.3383      5.5177    109.0708
   843.5000      0.0000    835.8122      5.5181    109.4821
   843.7500      0.0000    857.9909      5.5243    109.6850
   844.0000      0.0000    887.0509      5.5365    108.6705
   844.2500      0.0000    917.8558      5.5485    106.2984
   844.5000      0.0000    941.4454      5.5527    103.3107
   844.7500      0.0000    950.5330      5.5472    100.9579
   845.0000      0.0000    943.0092      5.5352    100.3661
   845.2500      0.0000    922.0027      5.5187    101.7172
   845.5000      0.0000    894.1124      5.4957    103.9557
   845.7500      0.0000    866.9637      5.4659    105.5206
   846.0000      0.0000    846.6779      5.4343    105.3637
   846.2500      0.0000    836.4713      5.4063    103.3432
   846.5000      0.0000    837.1808      5.3844    100.0842
   846.7500      0.0000    848.2698      5.3725     96.7640
   847.0000      0.0000    867.4465      5.3780     94.7643
   847.2500      0.0000    889.7759      5.4074     95.0599
   847.5000      0.0000    908.6255      5.4588     97.6406
   847.7500      0.0000    918.6634      5.5214    101.4662
   848.0000      0.0000    918.8170      5.5803    105.1461
   848.2500      0.0000    912.7094      5.6263    107.8799
   848.5000      0.0000    905.5688      5.6608    109.8752
   848.7500      0.0000    899.7242      5.6907    111.8908
   849.0000      0.0000    892.9603      5.7174    114.3367
   849.2500      0.0000    881.6660      5.7332    116.7813
   849.5000      0.0000    865.3411      5.7293    118.2716
   849.7500      0.0000    847.5458      5.7061    118.0818
   850.0000      0.0000    832.7911      5.6725    116.1809
   850.2500      0.0000    822.8878      5.6354    113.1095
   850.5000      0.0000    815.7209      5.5939    109.5773
   850.7500      0.0000    806.9418      5.5451    106.3833
   851.0000      0.0000    793.4063      5.4897    104.6130
   851.2500      0.0000    775.7253      5.4317    105.2748
   851.5000      0.0000    757.6650      5.3743    108.1881
   851.7500      0.0000    743.3602      5.3202    111.5117
   852.0000      0.0000    735.4530      5.2703    113.1750
   852.2500      0.0000    735.1941      5.2220    113.0537
   852.5000      0.0000    742.5032      5.1718    113.2009
   852.7500      0.0000    754.9297      5.1180    115.4330
   853.0000      0.0000    767.5532      5.0611    118.8666
   853.2500      0.0000    775.5551      5.0013    120.3758
   853.5000      0.0000    777.4607      4.9392    117.6962
   853.7500      0.0000    775.6035      4.8790    111.9801
   854.0000      0.0000    773.4628      4.8286    107.1893
   854.2500      0.0000    772.9419      4.7950    106.9692
   854.5000      0.0000    774.3482      4.7773    111.9924
   854.7500      0.0000    778.2029      4.7670    119.8774
   855.0000      0.0000    785.9749      4.7576    127.0899
   855.2500      0.0000    798.6377      4.7537    130.9075
   855.5000      0.0000    815.0685      4.7686    130.3261
   855.7500      0.0000    832.4325      4.8113    125.9417
   856.0000      0.0000    847.9554      4.8768    119.3182
   856.2500      0.0000    860.2242      4.9457    112.5002
   856.5000      0.0000    869.6222      4.9903    107.8089
   856.7500      0.0000    877.9755      4.9801    107.0516
   857.0000      0.0000    886.8653      4.8876    109.8837
   857.2500      0.0000    894.9526      4.6954    113.1442
   857.5000      0.0000    896.8636      4.4056    112.8599
   857.7500      0.0000    886.4487      4.0443    107.2987
   858.0000      0.0000    862.8215      3.6520     97.8605
   858.2500      0.0000    832.8625      3.2662     87.2846
   858.5000      0.0000    806.7820      2.9132     77.5575
   858.7500      0.0000    792.5739      2.6126     69.4509
   859.0000      0.0000    796.0223      2.3818     63.2779
   859.2500      0.0000    822.4255      2.2305     59.3589
   859.5000      0.0000    872.6653      2.1542     57.7617
   859.7500      0.0000    938.0392      2.1403     57.9674
   860.0000      0.0000   1002.7682      2.1835     58.9287
   860.2500      0.0000   1051.1630      2.2904     59.6761
   860.5000      0.0000   1071.1167      2.4714     60.2351
   860.7500      0.0000   1056.9463      2.7296     61.9272
   861.0000      0.0000   1015.4456      3.0608     66.3022
   861.2500      0.0000    964.8606      3.4641     73.5135
   861.5000      0.0000    920.7791      3.9438     81.8540
   861.7500      0.0000    885.0370      4.4949     88.9892
