~Version Information
VERS.                      2.0: CWLS Log ASCII Standard - VERSION 2.0
WRAP.                       NO: One line per depth step
~Well Information Block
STRT.FT               850.0000: 
STOP.FT              1609.7000: 
STEP.FT                 0.1000: 
NULL.                -999.2500: 
COMP.          Petrogulf Corporation: COMPANY
WELL.          Great Plains 22-21R: WELL
FLD.           Purgatorie River: FIELD
LOC.           73' FNL & 1992' FWL: LOCATION
PROV.                 Colorado: PROVINCE
CNTY.               Las Animas: COUNTRY
SRVC.                Patterson: SERVICE COMPANY
DATE.          Wed Sep 14 12:10:29 2005: LOG DATE
UWI.                          : UNIQUE WELL ID
~Curve Information Block
DEPT.FT            0 000 00 00: Depth
NPOR.pu                       : Neutron Porosity
GR.GAPI                       : Gamma Ray
CCL.                          : Casing Collar Locator
~Parameter Information Block
~A  Depth       NPOR         GR         CCL     
# ...
  1484.6000     20.8568     63.6885      0.0000
  1484.7000     20.8568     63.6885      0.0000
  1484.8000     20.7293     63.2335      0.0000
  1484.9000     20.7293     63.2335      0.0000
  1485.0000     20.6894     65.1602      0.0000
  1485.1000     20.6894     65.1602      0.0000
  1485.2000     20.6894     65.1602      0.0000
  1485.3000     20.7659     68.1835      0.0000
  1485.4000     20.7659     68.1835      0.0000
  1485.5000     20.9582     71.0249      0.0000
  1485.6000     20.9582     71.0249      0.0000
  1485.7000     20.9582     71.0249      0.0000
  1485.8000     21.2422     73.0279      0.0000
  1485.9000     21.2422     73.0279      0.0000
  1486.0000     21.5718     73.9987      0.0000
  1486.1000     21.5718     73.9987      0.0000
  1486.2000     21.5718     73.9987      0.0000
  1486.3000     21.8811     73.8962      0.0000
  1486.4000     21.8811     73.8962      0.0000
  1486.5000     22.1067     72.7806      0.0000
  1486.6000     22.1067     72.7806      0.0000
  1486.7000     22.1067     72.7806      0.0000
  1486.8000     22.2226     70.9991      0.0000
  1486.9000     22.2226     70.9991      0.0000
  1487.0000     22.2584     69.4259      0.0000
  1487.1000     22.2584     69.4259      0.0000
  1487.2000     22.2584     69.4259      0.0000
  1487.3000     22.2715     69.3650      0.0000
  1487.4000     22.2715     69.3650      0.0000
  1487.5000     22.2935     71.7601      0.0000
  1487.6000     22.2935     71.7601      0.0000
  1487.7000     22.2935     71.7601      0.0000
  1487.8000     22.3069     76.2573      0.0000
  1487.9000     22.3069     76.2573      0.0000
  1488.0000     22.2739     81.3527      0.0000
  1488.1000     22.2739     81.3527      0.0000
  1488.2000     22.2739     81.3527      0.0000
  1488.3000     22.1760     85.6712      0.0000
  1488.4000     22.1760     85.6712      0.0000
  1488.5000     22.0257     88.7798      0.0000
  1488.6000     22.0257     88.7798      0.0000
  1488.7000     22.0257     88.7798      0.0000
  1488.8000     21.8495     90.7314      0.0000
  1488.9000     21.8495     90.7314      0.0000
  1489.0000     21.6600     91.3944      0.0000
  1489.1000     21.6600     91.3944      0.0000
  1489.2000     21.6600     91.3944      0.0000
  1489.3000     21.4408     90.4382      0.0000
  1489.4000     21.4408     90.4382      0.0000
  1489.5000     21.1575     87.5617      0.0000
  1489.6000     21.1575     87.5617      0.0000
  1489.7000     21.1575     87.5617      0.0000
  1489.8000     20.7910     82.6277      0.0000
  1489.9000     20.7910     82.6277      0.0000
  1490.0000     20.3733     75.9545      0.0000
  1490.1000     20.3733     75.9545      0.0000
  1490.2000     20.3733     75.9545      0.0000
  1490.3000     19.9891     68.5397      0.0000
  1490.4000     19.9891     68.5397      0.0000
  1490.5000     19.7311     61.7051      0.0000
  1490.6000     19.7311     61.7051      0.0000
  1490.7000     19.7311     61.7051      0.0000
  1490.8000     19.6570     56.4694      0.0000
  1490.9000     19.6570     56.4694      0.0000
  1491.0000     19.7728     53.2786      0.0000
  1491.1000     19.7728     53.2786      0.0000
  1491.2000     19.7728     53.2786      0.0000
  1491.3000     20.0361     52.0429      0.0000
  1491.4000     20.0361     52.0429      0.0000
  1491.5000     20.3806     52.2021      0.0000
  1491.6000     20.3806     52.2021      0.0000
  1491.7000     20.3806     52.2021      0.0000
  1491.8000     20.7511     52.9599      0.0000
  1491.9000     20.7511     52.9599      0.0000
  1492.0000     21.1053     53.7080      0.0000
  1492.1000     21.1053     53.7080      0.0000
  1492.2000     21.1053     53.7080      0.0000
  1492.3000     21.3811     54.2136      0.0000
  1492.4000     21.3811     54.2136      0.0000
  1492.5000     21.5041     54.3828      0.0000
  1492.6000     21.5041     54.3828      0.0000
  1492.7000     21.5041     54.3828      0.0000
  1492.8000     21.4563     54.0306      0.0000
  1492.9000     21.4563     54.0306      0.0000
  1493.0000     21.3068     53.1076      0.0000
  1493.1000     21.3068     53.1076      0.0000
  1493.2000     21.3068     53.1076      0.0000
  1493.3000     21.1626     52.1374      0.0000
  1493.4000     21.1626     52.1374      0.0000
  1493.5000     21.1204     52.2816      0.0000
  1493.6000     21.1204     52.2816      0.0000
  1493.7000     21.1204     52.2816      0.0000
  1493.8000     21.2551     54.8036      0.0000
  1493.9000     21.2551     54.8036      0.0000
  1494.0000     21.5908     60.1433      0.0000
  1494.1000     21.5908     60.1433      0.0000
  1494.2000     21.5908     60.1433      0.0000
  1494.3000     22.0544     67.1336      0.0000
  1494.4000     22.0544     67.1336      0.0000
  1494.5000     22.4828     73.2090      0.0000
  1494.6000     22.4828     73.2090      0.0000
  1494.7000     22.4828     73.2090      0.0000
  1494.8000     22.7137     75.9287      0.0000
  1494.9000     22.7137     75.9287      0.0000
  1495.0000     22.6968     74.6844      0.0000
  1495.1000     22.6968     74.6844      0.0000
  1495.2000     22.6968     74.6844      1.0000
  1495.3000     22.5390     71.0361     -1.0000
  1495.4000     22.5390     71.0361      0.0000
  1495.5000     22.4382     67.6734      0.0000
  1495.6000     22.4382     67.6734      0.0000
  1495.7000     22.4382     67.6734      0.0000
  1495.8000     22.5415     67.1537      0.0000
  1495.9000     22.5415     67.1537      0.0000
  1496.0000     22.8426     70.9069      0.0000
  1496.1000     22.8426     70.9069      0.0000
  1496.2000     22.8426     70.9069      0.0000
  1496.3000     23.2054     78.4314      0.0000
  1496.4000     23.2054     78.4314      0.0000
  1496.5000     23.4848     87.2729      0.0000
  1496.6000     23.4848     87.2729      0.0000
  1496.7000     23.4848     87.2729      0.0000
  1496.8000     23.6364     94.4212      0.0000
  1496.9000     23.6364     94.4212      0.0000
  1497.0000     23.7309     98.2399      0.0000
  1497.1000     23.7309     98.2399      0.0000
  1497.2000     23.7309     98.2399      0.0000
  1497.3000     23.8805     99.2180      0.0000
  1497.4000     23.8805     99.2180      0.0000
  1497.5000     24.1513     99.1078      0.0000
  1497.6000     24.1513     99.1078      0.0000
  1497.7000     24.1513     99.1078      0.0000
  1497.8000     24.5091     99.6355      0.0000
  1497.9000     24.5091     99.6355      0.0000
  1498.0000     24.8089    101.8961      0.0000
  1498.1000     24.8089    101.8961      0.0000
  1498.2000     24.8089    101.8961      0.0000
  1498.3000     24.8506    106.2500      0.0000
  1498.4000     24.8506    106.2500      0.0000
  1498.5000     24.5086    112.1649      0.0000
  1498.6000     24.5086    112.1649      0.0000
  1498.7000     24.5086    112.1649      0.0000
  1498.8000     23.8425    118.2992      0.0000
  1498.9000     23.8425    118.2992      0.0000
  1499.0000     23.0664    123.2776      0.0000
  1499.1000     23.0664    123.2776      0.0000
  1499.2000     23.0664    123.2776      0.0000
  1499.3000     22.3996    126.5588      0.0000
  1499.4000     22.3996    126.5588      0.0000
  1499.5000     21.9545    128.4228      0.0000
  1499.6000     21.9545    128.4228      0.0000
  1499.7000     21.9545    128.4228      0.0000
  1499.8000     21.7479    129.3100      0.0000
  1499.9000     21.7479    129.3100      0.0000
  1500.0000     21.7876    129.5684      0.0000
  1500.1000     21.7876    129.5684      0.0000
  1500.2000     21.7876    129.5684      0.0000
  1500.3000     22.1266    129.6704      0.0000
  1500.4000     22.1266    129.6704      0.0000
  1500.5000     22.8227    130.0636      0.0000
  1500.6000     22.8227    130.0636      0.0000
  1500.7000     22.8227    130.0636      0.0000
  1500.8000     23.8527    130.8332      0.0000
  1500.9000     23.8527    130.8332      0.0000
  1501.0000     25.0716    131.9979      0.0000
  1501.1000     25.0716    131.9979      0.0000
  1501.2000     25.0716    131.9979      0.0000
