~Version Information
VERS.                      2.0: CWLS Log ASCII Standard - VERSION 2.0
WRAP.                       NO: One line per depth step
~Well Information Block
STRT.FT                -7.5000: 
STOP.FT               978.5000: 
STEP.FT                 0.2500: 
NULL.                -999.2500: 
COMP.          Pioneer Natural Resources: COMPANY
WELL.          Piggyback 33-25: WELL
FLD.           Purgatoire River: FIELD
LOC.           1600' FSL & 1800' FEL: LOCATION
PROV.                 Colorado: PROVINCE
CNTY.               Las Animas: COUNTRY
SRVC.                Patterson: SERVICE COMPANY
DATE.          Mon May 09 09:22:28 2005: LOG DATE
UWI.           05 071 08233 00: UNIQUE WELL ID
~Curve Information Block
DEPT.FT            0 000 00 00: Depth
CCL.                          : Casing Collar Locator
TT3.usec                      : CBL 3' Travel Time
AMP3.mV                       : CBL 3' Amplitude
GR.GAPI                       : Gamma Ray
~Parameter Information Block
~A  Depth       CCL         TT3         AMP3         GR     
# ...
   227.0000      0.0000    725.9304      8.4726     83.2617
   227.2500      0.0000    728.6826      8.3695     87.3226
   227.5000      0.0000    732.1479      8.2664     88.8371
   227.7500      0.0000    735.6885      8.2031     86.4863
   228.0000      0.0000    738.9003      8.2147     81.2280
   228.2500      0.0000    741.4877      8.3032     75.7001
   228.5000      0.0000    742.6744      8.4348     72.4903
   228.7500      0.0000    741.6916      8.5669     72.8624
   229.0000      0.0000    739.0897      8.6721     76.6484
   229.2500      0.0000    736.6089      8.7434     82.8448
   229.5000      0.0000    735.3599      8.7876     90.0987
   229.7500      0.0000    734.9553      8.8168     96.7967
   230.0000      0.0000    734.6992      8.8393    101.2614
   230.2500      0.0000    734.6439      8.8540    102.4083
   230.5000      0.0000    734.9396      8.8522    100.2816
   230.7500      0.0000    735.1113      8.8292     95.8028
   231.0000      0.0000    734.7430      8.7916     90.0372
   231.2500      0.0000    734.1661      8.7533     83.7620
   231.5000      0.0000    733.7166      8.7217     77.5323
   231.7500      0.0000    732.9127      8.6911     71.8767
   232.0000      0.0000    731.1128      8.6525     67.3555
   232.2500      0.0000    728.5738      8.6124     64.4142
   232.5000      0.0000    726.2676      8.5898     63.0144
   232.7500      0.0000    724.9589      8.5877     62.4302
   233.0000      0.0000    724.8546      8.5791     61.7076
   233.2500      0.0000    725.8085      8.5390     60.3546
   233.5000      0.0000    727.2291      8.4787     58.4428
   233.7500      0.0000    727.8354      8.4315     56.1243
   234.0000      0.0000    726.3063      8.4121     53.2280
   234.2500      0.0000    722.7744      8.4070     49.3683
   234.5000      0.0000    719.1935      8.3980     44.5468
   234.7500      0.0000    717.5788      8.3807     39.7642
   235.0000      0.0000    718.1786      8.3607     36.8801
   235.2500      0.0000    719.7621      8.3472     37.5593
   235.5000      0.0000    721.1581      8.3490     42.1626
   235.7500      0.0000    722.0280      8.3702     49.5779
   236.0000      0.0000    722.5571      8.4077     58.0505
   236.2500      0.0000    723.0051      8.4553     66.2002
   236.5000      0.0000    723.6614      8.5091     73.3988
   236.7500      0.0000    725.0856      8.5642     79.4259
   237.0000      0.0000    728.2363      8.6088     83.9742
   237.2500      0.0000    734.1915      8.6287     86.5231
   237.5000      0.0000    743.6022      8.6202     86.7236
   237.7500      0.0000    756.6647      8.5941     84.9955
   238.0000      0.0000    773.7995      8.5673     82.7923
   238.2500      0.0000    795.5762      8.5550     82.1371
   238.5000      0.0000    820.8494      8.5632     84.5893
   238.7500      0.0000    845.2797      8.5800     90.2712
   239.0000      0.0000    863.1270      8.5736     97.6321
   239.2500      0.0000    870.9079      8.5125    104.1337
   239.5000      0.0000    869.0486      8.3951    107.5137
   239.7500      0.0000    860.6893      8.2583    107.0275
   240.0000      0.0000    849.6635      8.1528    103.9598
   240.2500      0.0000    839.0170      8.1081    100.8468
   240.5000      0.0000    830.4295      8.1192     99.6986
   240.7500      0.0000    824.4229      8.1534    100.6731
   241.0000      0.0000    820.4883      8.1671    102.5084
   241.2500      0.0000    816.6260      8.1291    104.1501
   241.5000      0.0000    809.6794      8.0436    105.6602
   241.7500      0.0000    797.7708      7.9482    107.5804
   242.0000      0.0000    782.9059      7.8822    109.8918
   242.2500      0.0000    770.2104      7.8593    111.8707
   242.5000      0.0000    763.7767      7.8740    112.7289
   242.7500      0.0000    763.6918      7.9251    112.0652
   243.0000      0.0000    767.5410      8.0180    109.8764
   243.2500      0.0000    774.0856      8.1498    106.5178
   243.5000      0.0000    784.6342      8.2994    102.6772
   243.7500      0.0000    800.5250      8.4365     99.1394
   244.0000      0.0000    819.2359      8.5407     96.4547
   244.2500      0.0000    833.9382      8.6120     94.8119
   244.5000      0.0000    838.8646      8.6611     94.1772
   244.7500      0.0000    835.4952      8.6912     94.3417
   245.0000      0.0000    831.4122      8.6984     94.6096
   245.2500      0.0000    831.9033      8.6912     93.5858
   245.5000      0.0000    834.3506      8.7007     89.9049
   245.7500      0.0000    832.6370      8.7630     83.7094
   246.0000      0.0000    825.5973      8.8885     77.0756
   246.2500      0.0000    818.1171      9.0484     72.4369
   246.5000      0.0000    814.0723      9.1931     70.7862
   246.7500      0.0000    811.5687      9.2906     71.5561
   247.0000      0.0000    806.3467      9.3503     73.6757
   247.2500      0.0000    797.3345      9.4065     76.3343
   247.5000      0.0000    787.1908      9.4778     79.0573
   247.7500      0.0000    778.9810      9.5476     81.6187
   248.0000      0.0000    773.7756      9.5859     84.2228
   248.2500      0.0000    770.6723      9.5782     87.6604
   248.5000      0.0000    767.7754      9.5261     92.6569
   248.7500      0.0000    763.0599      9.4328     98.6390
   249.0000      0.0000    755.1379      9.3053    103.6243
   249.2500      0.0000    743.9711      9.1700    105.8846
   249.5000      0.0000    730.8784      9.0711    105.4744
   249.7500      0.0000    717.8717      9.0447    103.8607
   250.0000      0.0000    707.0335      9.0926    102.4818
   250.2500      0.0000    699.8517      9.1743    101.9276
   250.5000      0.0000    696.0815      9.2226    101.9537
   250.7500      0.0000    693.6547      9.1799    101.9113
   251.0000      0.0000    690.9312      9.0408    101.6219
   251.2500      0.0000    689.1187      8.8592    101.8674
   251.5000      0.0000    692.0854      8.7064    103.3132
   251.7500      0.0000    703.7977      8.6251    105.0032
   252.0000      0.0000    725.7010      8.6183    104.8346
   252.2500      0.0000    755.4993      8.6607    101.8243
   252.5000      0.0000    787.6699      8.7061     97.2812
   252.7500      0.0000    815.0627      8.6978     93.3669
   253.0000      0.0000    830.6794      8.5908     90.8799
   253.2500      0.0000    829.7556      8.3678     88.9562
   253.5000      0.0000    811.9612      8.0283     86.7910
   253.7500      0.0000    782.0391      7.5848     84.8771
   254.0000      0.0000    747.8293      7.1001     84.1650
   254.2500      0.0000    717.6250      6.7074     84.6252
   254.5000      0.0000    699.1030      6.5247     85.1841
   254.7500      0.0000    698.2507      6.5335     84.7129
   255.0000      0.0000    716.7974      6.5958     82.6782
   255.2500      0.0000    750.9069      6.5941     79.1290
   255.5000      0.0000    793.1558      6.5145     74.6055
   255.7500      0.0000    835.6213      6.4168     70.2694
   256.0000     -2.0000    872.3219      6.3796     67.7330
   256.2500      0.0000    900.1484      6.4661     68.1761
   256.5000      0.0000    917.1310      6.7248     71.4721
   256.7500      0.0000    919.5662      7.2157     76.3464
   257.0000      0.0000    903.0726      8.0022     81.2721
   257.2500      0.0000    867.8874      9.0552     85.2010
   257.5000      0.0000    821.2948     10.1749     87.8906
   257.7500      0.0000    773.4280     11.0832     89.7824
   258.0000      0.0000    731.5890     11.6090     91.2407
   258.2500      0.0000    697.9924     11.7653     91.8200
   258.5000      0.0000    670.9764     11.6864     90.7852
   258.7500      0.0000    648.6497     11.5283     88.5585
   259.0000      0.0000    632.2053     11.3948     87.0179
   259.2500      0.0000    624.4792     11.3102     87.8795
   259.5000      0.0000    625.6300     11.2478     91.0903
   259.7500      0.0000    633.5932     11.1772     95.0389
   260.0000      0.0000    647.8665     11.0897     97.9093
   260.2500      0.0000    666.8994     10.9953     98.5900
