~Version Information
VERS.                      2.0: CWLS Log ASCII Standard - VERSION 2.0
WRAP.                       NO: One line per depth step
~Well Information Block
STRT.FT                -7.5000: 
STOP.FT              1545.0000: 
STEP.FT                 0.2500: 
NULL.                -999.2500: 
COMP.          Pioneer Natural Resources: COMPANY
WELL.          Kristin 22-23 Tr: WELL
FLD.           Purgatorie River: FIELD
LOC.           2273' FNL & 2029' FWL--: LOCATION
PROV.                       CO: PROVINCE
CNTY.               Las Animas: COUNTRY
SRVC.                         : SERVICE COMPANY
DATE.          Tue Jan 25 11:16:36 2005: LOG DATE
UWI.           071-08259      : UNIQUE WELL ID
~Curve Information Block
DEPT.FT            0 000 00 00: Depth
CCL.                          : Casing Collar Locator
TT3.usec                      : CBL 3' Travel Time
AMP3.mV                       : CBL 3' Amplitude
GR.GAPI                       : Gamma Ray
~Parameter Information Block
~A  Depth       CCL         TT3         AMP3         GR     
# ...
   294.0000      0.0000    750.4834      6.3280     77.4115
   294.2500      0.0000    751.0735      6.3190     79.4385
   294.5000      0.0000    752.0760      6.3374     82.3569
   294.7500      0.0000    751.9555      6.3922     85.4450
   295.0000      0.0000    747.1064      6.4859     87.8109
   295.2500      0.0000    733.0944      6.6076     88.5369
   295.5000      0.0000    709.5848      6.7179     86.7911
   295.7500      0.0000    685.1000      6.7525     82.2121
   296.0000      0.0000    673.6655      6.6676     75.5266
   296.2500      0.0000    682.9420      6.4892     68.7494
   296.5000      0.0000    706.3165      6.3002     64.3173
   296.7500      0.0000    728.9515      6.1710     63.6109
   297.0000      0.0000    740.5455      6.1177     66.2970
   297.2500     -2.0000    740.2798      6.1208     71.0140
   297.5000      0.0000    731.2546      6.1609     76.4014
   297.7500      0.0000    714.4061      6.2417     81.4079
   298.0000      0.0000    690.3864      6.4019     85.0782
   298.2500      0.0000    665.6129      6.6801     86.6907
   298.5000      0.0000    651.9982      7.0306     86.3802
   298.7500      0.0000    657.9941      7.2985     85.1467
   299.0000      0.0000    680.5749      7.3451     83.6497
   299.2500      0.0000    707.8062      7.1918     81.2240
   299.5000      0.0000    728.8960      6.9911     76.8599
   299.7500      0.0000    740.6796      6.8666     71.1051
   300.0000      0.0000    745.9802      6.8276     66.1225
   300.2500      0.0000    748.8903      6.8150     63.6845
   300.5000      0.0000    752.1856      6.7771     63.9013
   300.7500      0.0000    756.8972      6.6984     66.1179
   301.0000      0.0000    762.2751      6.5927     70.0588
   301.2500      0.0000    766.1340      6.4876     75.2899
   301.5000      0.0000    766.4405      6.4073     80.1109
   301.7500      0.0000    763.1496      6.3593     82.0295
   302.0000      0.0000    758.3052      6.3383     79.7492
   302.2500      0.0000    754.2346      6.3408     74.5524
   302.5000      0.0000    751.9470      6.3666     69.6090
   302.7500      0.0000    751.1010      6.4066     67.8208
   303.0000      0.0000    750.8689      6.4407     70.0578
   303.2500      0.0000    750.5980      6.4521     74.9800
   303.5000      0.0000    750.0128      6.4406     80.1099
   303.7500      0.0000    749.1956      6.4210     83.1345
   304.0000      0.0000    748.4456      6.4056     82.7569
   304.2500      0.0000    748.0425      6.3909     78.9326
   304.5000      0.0000    748.0420      6.3667     72.6769
   304.7500      0.0000    748.2505      6.3376     65.7707
   305.0000      0.0000    748.3907      6.3278     60.3340
   305.2500      0.0000    748.3110      6.3596     57.9929
   305.5000      0.0000    748.1019      6.4316     58.9089
   305.7500      0.0000    748.1121      6.5155     61.6354
   306.0000      0.0000    748.9670      6.5721     64.2847
   306.2500      0.0000    751.5105      6.5752     66.0003
   306.5000      0.0000    756.3409      6.5272     67.1713
   306.7500      0.0000    762.9417      6.4553     68.2355
   307.0000      0.0000    769.2715      6.3932     68.8105
   307.2500      0.0000    772.8206      6.3604     68.4855
   307.5000      0.0000    772.5400      6.3550     67.9928
   307.7500      0.0000    769.5450      6.3619     68.7569
   308.0000      0.0000    765.6754      6.3660     71.5293
   308.2500      0.0000    761.7856      6.3598     76.1862
   308.5000      0.0000    757.8359      6.3444     82.4695
   308.7500      0.0000    754.0321      6.3281     89.9823
   309.0000      0.0000    751.0438      6.3171     97.5429
   309.2500      0.0000    749.2848      6.3060    103.3838
   309.5000      0.0000    748.5555      6.2826    106.2781
   309.7500      0.0000    748.3633      6.2423    106.2369
   310.0000      0.0000    748.3137      6.1914    104.0838
   310.2500      0.0000    748.2241      6.1374    100.6973
   310.5000      0.0000    748.0857      6.0858     96.7666
   310.7500      0.0000    748.0038      6.0422     92.8348
   311.0000      0.0000    748.1414      6.0101     89.2300
   311.2500      0.0000    748.6721      5.9859     86.0510
   311.5000      0.0000    749.7549      5.9607     83.2586
   311.7500      0.0000    751.4350      5.9326     80.7246
   312.0000      0.0000    753.3229      5.9155     78.5006
   312.2500      0.0000    754.4101      5.9319     77.3696
   312.5000      0.0000    753.8005      5.9884     78.6988
   312.7500      0.0000    751.9961      6.0605     83.0260
   313.0000      0.0000    750.7596      6.1104     88.9608
   313.2500      0.0000    751.1323      6.1216     94.1121
   313.5000      0.0000    752.3865      6.1088     97.0485
   313.7500      0.0000    753.4861      6.0961     97.9247
   314.0000      0.0000    754.4590      6.0962     97.4369
   314.2500      0.0000    755.5231      6.1072     95.8788
   314.5000      0.0000    755.9283      6.1237     93.4059
   314.7500      0.0000    754.5927      6.1488     90.7344
   315.0000      0.0000    751.4517      6.1926     89.1922
   315.2500      0.0000    747.6672      6.2556     90.0709
   315.5000      0.0000    744.4761      6.3193     93.7838
   315.7500      0.0000    742.0431      6.3633     99.2060
   316.0000      0.0000    739.7444      6.3870    103.6198
   316.2500      0.0000    737.4318      6.4027    103.6908
   316.5000      0.0000    735.7471      6.4185     97.2110
   316.7500      0.0000    735.0678      6.4397     84.5237
   317.0000      0.0000    734.8843      6.4787     68.6590
   317.2500      0.0000    734.4765      6.5494     54.1000
   317.5000      0.0000    733.3676      6.6548     44.7648
   317.7500      0.0000    730.4019      6.7844     42.1495
   318.0000      0.0000    723.4517      6.9191     44.8448
   318.2500      0.0000    711.9782      7.0345     49.8217
   318.5000      0.0000    700.2003      7.1064     54.4648
   318.7500      0.0000    695.4807      7.1223     57.8825
   319.0000      0.0000    701.6871      7.0913     60.7919
   319.2500      0.0000    715.1899      7.0401     64.2259
   319.5000      0.0000    728.6241      6.9938     68.1105
   319.7500      0.0000    737.2712      6.9607     71.1895
   320.0000      0.0000    740.8660      6.9369     72.5364
   320.2500      0.0000    741.1936      6.9198     72.8800
   320.5000      0.0000    739.9504      6.9147     74.1441
   320.7500      0.0000    738.5045      6.9319     77.6470
   321.0000      0.0000    738.0613      6.9778     82.7777
   321.2500      0.0000    739.1559      7.0484     87.5169
   321.5000      0.0000    741.2803      7.1299     90.4274
   321.7500      0.0000    743.4306      7.2017     92.0848
   322.0000      0.0000    745.0088      7.2419     94.2764
   322.2500      0.0000    746.0366      7.2371     97.7838
   322.5000      0.0000    746.7577      7.1892    101.4604
   322.7500      0.0000    747.3030      7.1122    103.6809
   323.0000      0.0000    747.6658      7.0244    104.0616
   323.2500      0.0000    747.8055      6.9482    103.3522
   323.5000      0.0000    747.7173      6.9084    102.1763
   323.7500      0.0000    747.4547      6.9194    100.5467
   324.0000      0.0000    747.1147      6.9726     98.6235
   324.2500      0.0000    746.8015      7.0389     97.3763
   324.5000      0.0000    746.5797      7.0914     97.7556
   324.7500      0.0000    746.4561      7.1256     99.1177
   325.0000      0.0000    746.4013      7.1499     99.2874
   325.2500      0.0000    746.3627      7.1628     96.7230
   325.5000      0.0000    746.2365      7.1528     92.1458
   325.7500      0.0000    745.6645      7.1233     87.5850
   326.0000      0.0000    743.5058      7.1018     84.4355
   326.2500      0.0000    737.0013      7.1152     82.9974
   326.5000      0.0000    721.7093      7.1623     83.1158
   326.7500      0.0000    694.1575      7.2158     84.2505
   327.0000      0.0000    657.1562      7.2473     85.1273
   327.2500      0.0000    622.7052      7.2455     84.1808
