~Version Information
VERS.                      2.0: CWLS Log ASCII Standard - VERSION 2.0
WRAP.                       NO: One line per depth step
~Well Information Block
STRT.FT               650.0000: 
STOP.FT              2000.5000: 
STEP.FT                 0.1000: 
NULL.                -999.2500: 
COMP.          Pioneer Natural Resources: COMPANY
WELL.           Firehawk 34-26: WELL
FLD.           Purgatoire River: FIELD
LOC.           1196' FSL & 1595' FEL--: LOCATION
STAT.                 Colorado: State
CNTY.               Las Animas: COUNTY
CTRY. USA : Country
SECT. 26 : Section
TOWN. 32S : Township
RANG. 66W : Range
SRVC.                Patterson: SERVICE COMPANY
DATE.          Mon Oct 17 07:23:34 2005: LOG DATE
API.           05 071 08389 00: UNIQUE WELL ID
~Curve Information Block
DEPT.FT            0 000 00 00: Depth
DCAL.in                       : CDL Caliper
RHOB.g/cc                     : CDL Bulk Density
RHOC.g/cc                     : CDL Density Correction
DPOR.pu                       : CDL Density Porosity
NPOR.pu                       : Neutron Porosity
GR.GAPI                       : Gamma Ray
~Parameter Information Block
~A  Depth       DCAL        RHOB        RHOC        DPOR        NPOR         GR     
# ...
  1350.8000      7.9868      2.5942      0.1253      3.3792     23.0721    105.0729
  1350.9000      7.9868      2.5648      0.0454      5.1639     23.4744    103.5862
  1351.0000      7.9879      2.5280      0.0195      7.3916     23.7241    103.6587
  1351.1000      7.9879      2.5113     -0.0242      8.4038     23.7306    106.3406
  1351.2000      7.9879      2.5302      0.0285      7.2623     23.7178    106.5765
  1351.3000      7.9867      2.5714      0.0444      4.7639     23.8310    100.3360
  1351.4000      7.9867      2.6035      0.0971      2.8199     23.9262     93.3108
  1351.5000      7.9855      2.6090      0.0594      2.4854     24.0559     93.5849
  1351.6000      7.9855      2.6024      0.0564      2.8825     24.2063    101.4647
  1351.7000      7.9855      2.5972      0.0601      3.2025     24.1380    109.3924
  1351.8000      7.9865      2.5904      0.0481      3.6142     24.0273    111.0262
  1351.9000      7.9865      2.5785      0.0538      4.3345     24.0507    108.1014
  1352.0000      7.9859      2.5594      0.0458      5.4894     23.9422    106.1488
  1352.1000      7.9859      2.5415      0.0338      6.5778     23.8337    107.0327
  1352.2000      7.9859      2.5462      0.0065      6.2935     23.9599    107.2065
  1352.3000      7.9843      2.5819      0.0099      4.1297     24.0666    105.8774
  1352.4000      7.9843      2.6269      0.0608      1.4013     24.0360    106.9484
  1352.5000      7.9839      2.6447      0.1389      0.3186     24.1174    111.9567
  1352.6000      7.9839      2.6213      0.0929      1.7411     24.2829    113.6927
  1352.7000      7.9839      2.5840      0.0505      3.9992     24.2207    107.1669
  1352.8000      7.9814      2.5649      0.0615      5.1574     23.9275     99.9144
  1352.9000      7.9814      2.5672      0.0704      5.0164     23.7757     97.8995
  1353.0000      7.9785      2.5787      0.0840      4.3242     23.9252     98.3986
  1353.1000      7.9785      2.5912      0.0646      3.5652     24.1007     99.3370
  1353.2000      7.9785      2.5960      0.0827      3.2727     23.8544    100.6800
  1353.3000      7.9772      2.5813      0.0732      4.1623     23.2208    100.5241
  1353.4000      7.9772      2.5559      0.0283      5.7001     22.7820     99.2399
  1353.5000      7.9744      2.5425      0.0293      6.5155     22.7646     99.2452
  1353.6000      7.9744      2.5430      0.0424      6.4861     22.9118    100.1554
  1353.7000      7.9744      2.5458      0.0057      6.3131     23.0490    100.9512
  1353.8000      7.9702      2.5528      0.0138      5.8892     23.2817    101.2466
  1353.9000      7.9702      2.5623      0.0656      5.3131     23.4632     99.2821
  1354.0000      7.9682      2.5621      0.0612      5.3263     23.3353     94.9195
  1354.1000      7.9682      2.5569      0.0177      5.6449     23.2989     93.0304
  1354.2000      7.9682      2.5557      0.0544      5.7164     23.6700     96.4369
  1354.3000      7.9707      2.5505      0.0174      6.0297     24.1534     99.5267
  1354.4000      7.9707      2.5381      0.0142      6.7814     24.4770     97.3485
  1354.5000      7.9761      2.5318      0.0076      7.1635     24.6329     93.7674
  1354.6000      7.9761      2.5445      0.0328      6.3919     24.6690     95.5862
  1354.7000      7.9761      2.5677      0.0723      4.9893     24.6070    101.1315
  1354.8000      7.9799      2.5803      0.0658      4.2263     24.5773    104.6728
  1354.9000      7.9799      2.5806      0.0830      4.2074     24.7482    106.7840
  1355.0000      7.9795      2.5771      0.1038      4.4158     25.0854    107.4343
  1355.1000      7.9795      2.5702      0.1216      4.8366     25.2885    105.4580
  1355.2000      7.9795      2.5628      0.0994      5.2877     25.2074    104.8731
  1355.3000      7.9763      2.5605      0.1092      5.4249     24.9949    107.0386
  1355.4000      7.9763      2.5595      0.1061      5.4863     24.7696    107.1061
  1355.5000      7.9755      2.5574      0.0912      5.6146     24.6801    103.9573
  1355.6000      7.9755      2.5584      0.1039      5.5500     24.8773    102.1131
  1355.7000      7.9755      2.5604      0.1007      5.4316     25.0851    103.2026
  1355.8000      7.9796      2.5657      0.0633      5.1061     24.8059    105.2615
  1355.9000      7.9796      2.5842      0.0877      3.9888     24.2019    107.8374
  1356.0000      7.9919      2.6086      0.1105      2.5114     23.8544    111.7333
  1356.1000      7.9919      2.6164      0.1148      2.0385     23.7800    113.9175
  1356.2000      7.9919      2.5962      0.1105      3.2629     23.5924    112.1345
  1356.3000      8.0083      2.5648      0.0365      5.1660     23.3361    108.6225
  1356.4000      8.0083      2.5441      0.0461      6.4176     23.2507    105.3001
  1356.5000      8.0168      2.5337      0.0089      7.0477     23.2973    104.5362
  1356.6000      8.0168      2.5242      0.0316      7.6256     23.5578    106.2369
  1356.7000      8.0168      2.5096      0.0144      8.5113     24.2119    106.9462
  1356.8000      8.0176      2.4857      0.0138      9.9589     25.1725    107.9599
  1356.9000      8.0176      2.4474      0.0323     12.2763     26.1231    112.2629
  1357.0000      8.0137      2.4056     -0.0384     14.8117     26.7389    116.3446
  1357.1000      8.0137      2.3903     -0.0123     15.7404     26.9180    116.1936
  1357.2000      8.0137      2.4110      0.0278     14.4845     26.9304    112.4204
  1357.3000      8.0060      2.4502      0.0502     12.1077     26.9950    107.3075
  1357.4000      8.0060      2.4902      0.1525      9.6853     27.0038    104.5456
  1357.5000      7.9976      2.5179      0.1913      8.0037     26.8207    106.2888
  1357.6000      7.9976      2.5286      0.1692      7.3570     26.6502    107.0393
  1357.7000      7.9976      2.5287      0.1579      7.3523     26.6534    100.5630
  1357.8000      7.9928      2.5282      0.1978      7.3807     26.7167     90.8212
  1357.9000      7.9928      2.5291      0.2333      7.3265     26.6502     84.6963
  1358.0000      7.9871      2.5257      0.2075      7.5330     26.2876     83.2552
  1358.1000      7.9871      2.5210      0.1213      7.8170     25.7938     83.2457
  1358.2000      7.9871      2.5274      0.0572      7.4289     25.6766     82.3182
  1358.3000      7.9728      2.5455      0.0688      6.3345     25.9653     83.6970
  1358.4000      7.9728      2.5587      0.0996      5.5316     26.0989     88.7042
  1358.5000      7.9619      2.5518      0.1028      5.9503     25.7982     93.8899
  1358.6000      7.9619      2.5344      0.0451      7.0068     25.2809     94.6381
  1358.7000      7.9619      2.5303      0.0458      7.2517     24.7582     90.8109
  1358.8000      7.9584      2.5355      0.0814      6.9409     24.1427     88.4088
  1358.9000      7.9584      2.5288      0.0632      7.3471     23.3789     88.9595
  1359.0000      7.9570      2.5163      0.0430      8.1032     22.8225     87.7704
  1359.1000      7.9570      2.5177      0.0408      8.0167     22.6350     83.1299
  1359.2000      7.9570      2.5338      0.0350      7.0439     22.5500     77.5087
  1359.3000      7.9565      2.5509      0.0512      6.0057     22.3260     74.0780
  1359.4000      7.9565      2.5608      0.0444      5.4045     22.0058     72.4344
  1359.5000      7.9566      2.5658      0.0741      5.1044     21.6225     72.0721
  1359.6000      7.9566      2.5682      0.0356      4.9564     21.0547     73.7725
  1359.7000      7.9566      2.5723      0.0309      4.7071     20.4793     74.3296
  1359.8000      7.9565      2.5810      0.0387      4.1799     20.1854     70.8203
  1359.9000      7.9565      2.5862      0.0616      3.8673     20.1899     66.1200
  1360.0000      7.9573      2.5817      0.0433      4.1378     20.3538     63.3612
  1360.1000      7.9573      2.5764      0.0025      4.4623     20.4685     61.3583
  1360.2000      7.9573      2.5743      0.0573      4.5909     20.4277     57.6076
  1360.3000      7.9578      2.5688     -0.0088      4.9224     20.2874     51.9741
