~Version Information
VERS.                      2.0: CWLS Log ASCII Standard - VERSION 2.0
WRAP.                       NO: One line per depth step
~Well Information Block
STRT.FT               954.0000: 
STOP.FT              2517.0000: 
STEP.FT                 0.2500: 
NULL.                -999.2500: 
COMP.          Petrogulf Corporation: COMPANY
WELL.             Royal 8-33 V: WELL
FLD.           Purgatoire River: FIELD
LOC.           2365' FSL & 2336' FEL: LOCATION
PROV.                 Colorado: PROVINCE
CNTY.               Las Animas: COUNTRY
SRVC.                Patterson: SERVICE COMPANY
DATE.          Fri Dec 05 04:39:41 2003: LOG DATE
UWI.                          : UNIQUE WELL ID
~Curve Information Block
DEPT.FT            0 000 00 00: Depth
SP.mV                         : DIL Spontaneous Potential
RILD.Ohm-m                    : DIL Deep Resistivity
RILM.Ohm-m                    : DIL Medium Resistivity
RLL3.Ohm-m                    : DIL Shallow Resistivity
GR.GAPI                       : Gamma Ray
~Parameter Information Block
~A  Depth        SP         RILD        RILM        RLL3         GR     
# ...
  1878.0000   -125.3573    210.4497     45.2817     35.6938     37.2061
  1878.2500   -125.4888    207.0804     53.7174     37.1164     33.7961
  1878.5000   -125.6086    177.6451     62.9892     39.1692     30.2659
  1878.7500   -125.6964    137.0878     69.9880     41.7217     28.9457
  1879.0000   -125.7552    102.2233     72.4702     44.3668     28.6857
  1879.2500   -125.8162     78.6685     71.8047     46.4062     29.7004
  1879.5000   -125.9273     64.6934     70.6926     46.7906     33.1484
  1879.7500   -126.1276     57.1210     70.0168     44.4270     37.1532
  1880.0000   -126.4303     53.1844     68.5552     39.0000     47.1176
  1880.2500   -126.8292     50.5811     64.7929     31.6005     57.0573
  1880.5000   -127.3069     47.6070     59.0421     24.2865     76.1640
  1880.7500   -127.8270     43.6830     53.1669     18.8124     89.8773
  1881.0000   -128.3264     39.2918     48.6855     15.7337    107.9398
  1881.2500   -128.7292     35.1504     46.0622     14.5630    116.8568
  1881.5000   -128.9744     31.6436     45.0932     14.4889    125.6155
  1881.7500   -129.0367     28.8721     45.3209     14.8953    129.2187
  1882.0000   -128.9314     26.8794     46.2498     15.4640    132.1405
  1882.2500   -128.7061     25.7625     47.4636     16.0919    132.3299
  1882.5000   -128.4212     25.6596     48.7826     16.8415    129.8002
  1882.7500   -128.1261     26.6869     50.4467     17.9330    126.5758
  1883.0000   -127.8362     28.8514     53.2442     19.6540    120.2321
  1883.2500   -127.5194     31.9420     58.5448     22.1077    115.2198
  1883.5000   -127.1112     35.4835     68.4296     24.9314    107.0350
  1883.7500   -126.5538     38.9254     86.2143     27.3202    101.9870
  1884.0000   -125.8252     41.9707    117.8206     28.5271     96.9684
  1884.2500   -124.9372     44.5659    175.6338     28.4901     95.8526
  1884.5000   -123.9261     46.5059    293.6131     27.9806     96.4230
  1884.7500   -122.8624     47.2589    622.6369     28.1177    116.1949
  1885.0000   -121.8612     46.4383   4775.8770     29.6788    114.0727
  1885.2500   -121.0594     44.3668 100000.0000     32.6662    109.8444
  1885.5000   -120.5582     41.8533 100000.0000     36.2880     99.2906
  1885.7500   -120.3649     39.5381 100000.0000     39.3427    101.5948
  1886.0000   -120.3801     37.6300 100000.0000     40.8606     86.2463
  1886.2500   -120.4503     36.0894 100000.0000     40.6157     77.9224
  1886.5000   -120.4577     34.8555 100000.0000     39.1364     70.0746
  1886.7500   -120.3782     33.9109 100000.0000     37.2580     67.4057
  1887.0000   -120.2599     33.2235 100000.0000     35.6322     64.9801
  1887.2500   -120.1615     32.7322 100000.0000     34.5321     63.5025
  1887.5000   -120.1205     32.4045 100000.0000     33.9533     61.4286
  1887.7500   -120.1596     32.2866 100000.0000     33.7955     60.5251
  1888.0000   -120.2899     32.4825    962.9459     33.9408     60.2715
  1888.2500   -120.5103     33.0987    312.1455     34.2384     60.7166
  1888.5000   -120.8199     34.1874    167.6058     34.5520     61.5643
  1888.7500   -121.2338     35.7283    104.2929     34.8994     61.6397
  1889.0000   -121.7773     37.6191     71.6125     35.4788     60.3185
  1889.2500   -122.4552     39.6510     53.8233     36.4365     58.6335
  1889.5000   -123.2217     41.4526     43.9302     37.5630     56.0523
  1889.7500   -123.9760     42.4518     38.4285     38.2311     55.1224
  1890.0000   -124.5895     42.0810     35.4472     37.7073     56.0781
  1890.2500   -124.9530     40.2698     33.9347     35.6932     58.6928
  1890.5000   -125.0183     37.6454     33.2867     32.7274     65.3897
  1890.7500   -124.8120     35.0472     33.1648     30.0504     70.7500
  1891.0000   -124.4093     32.9736     33.3910     28.9082     77.3051
  1891.2500   -123.8805     31.4911     33.8799     29.7876     79.1894
  1891.5000   -123.2447     30.4403     34.5933     32.1783     77.7600
  1891.7500   -122.4641     29.6603     35.5099     35.0157     74.9972
  1892.0000   -121.4843     29.0990     36.6096     37.3559     70.7534
  1892.2500   -120.2870     28.7953     37.8558     38.6663     68.9988
  1892.5000   -118.9190     28.7970     39.2183     38.6495     68.6764
  1892.7500   -117.4858     29.1043     40.7357     37.1792     69.8002
  1893.0000   -116.1286     29.6595     42.5558     34.6783     72.3638
  1893.2500   -115.0003     30.3811     44.8597     32.3261     73.6290
  1893.5000   -114.2387     31.2065     47.6377     31.4496     72.9442
  1893.7500   -113.9376     32.1206     50.4811     32.5834     70.1008
  1894.0000   -114.1202     33.1440     52.7334     35.2279     62.7401
  1894.2500   -114.7297     34.2998     54.0904     38.4722     56.9095
  1894.5000   -115.6458     35.5928     54.9755     41.7367     49.0138
  1894.7500   -116.7228     37.0137     56.1039     45.0029     45.0927
  1895.0000   -117.8328     38.5538     57.7941     48.5198     41.1742
  1895.2500   -118.8964     40.2009     59.7026     52.3336     39.2983
  1895.5000   -119.8885     41.9116     61.0968     56.0306     36.6102
  1895.7500   -120.8231     43.5966     61.4648     58.9136     34.6470
  1896.0000   -121.7332     45.1501     60.9272     60.4673     31.5737
  1896.2500   -122.6525     46.5244     60.0340     60.6963     29.7823
  1896.5000   -123.5993     47.7858     59.2951     60.0593     28.2957
  1896.7500   -124.5648     49.1032     58.9193     59.1198     28.3391
  1897.0000   -125.5176     50.6467     58.8422     58.2277     29.3700
  1897.2500   -126.4249     52.4623     58.8989     57.4242     30.0532
  1897.5000   -127.2720     54.4067     59.0342     56.5861     30.5084
  1897.7500   -128.0625     56.2281     59.4209     55.7212     30.5313
  1898.0000   -128.7964     57.7570     60.3947     55.2428     30.3241
  1898.2500   -129.4487     59.0061     62.2637     55.9876     29.9294
  1898.5000   -129.9649     60.0238     65.1036     58.8189     28.8604
  1898.7500   -130.2710     60.6595     68.6218     63.9308     28.0253
  1899.0000   -130.2903     60.5341     72.1305     70.3070     27.0887
  1899.2500   -129.9808     59.2979     74.7111     75.8822     26.8166
  1899.5000   -129.3805     56.9331     75.6020     78.5269     26.8209
  1899.7500   -128.6117     53.7977     74.5915     77.2503     26.9608
  1900.0000   -127.8193     50.4123     72.0743     72.7104     27.2958
  1900.2500   -127.0933     47.2145     68.7061     66.6355     27.7034
  1900.5000   -126.4345     44.4357     65.0118     60.6262     29.0529
  1900.7500   -125.7732     42.1088     61.2218     55.2387     30.9206
  1901.0000   -125.0208     40.1462     57.3521     50.0173     36.0861
  1901.2500   -124.1226     38.4342     53.3903     44.3879     41.1664
  1901.5000   -123.0839     36.8968     49.4503     38.5414     49.4876
  1901.7500   -121.9582     35.5124     45.7820     33.4201     53.6141
  1902.0000   -120.8205     34.2918     42.6313     29.8960     55.1339
  1902.2500   -119.7524     33.2432     40.0940     28.0661     53.0416
  1902.5000   -118.8406     32.3448     38.0855     27.3074     47.5740
  1902.7500   -118.1613     31.5487     36.4421     26.8635     44.0155
  1903.0000   -117.7395     30.8050     35.0773     26.3467     40.4557
  1903.2500   -117.5156     30.0877     34.0619     25.8266     39.3538
  1903.5000   -117.3661     29.3971     33.5558     25.6091     38.7313
  1903.7500   -117.1714     28.7375     33.6563     25.9794     38.3406
  1904.0000   -116.8775     28.0903     34.2823     27.0746     37.2177
  1904.2500   -116.5052     27.4062     35.1509     28.8774     36.2494
  1904.5000   -116.1143     26.6294     35.8672     31.2351     35.0215
  1904.7500   -115.7571     25.7457     36.0885     33.8391     34.5299
  1905.0000   -115.4515     24.8088     35.6386     36.1764     34.3171
  1905.2500   -115.1851     23.9124     34.5061     37.5370     34.7521
  1905.5000   -114.9457     23.1269     32.8128     37.1969     37.7725
  1905.7500   -114.7592     22.4601     30.7954     34.8093     42.8309
