
~Version Information
 VERS.                                  2.0 : CWLS LAS VERSION
 WRAP.                                   NO : WRAPING MODE
 SWARE .                 MController 2.5.0N : SOFTWARE VERSION
~Well Information
 WELL.                          Whinny 42-4 : WELL
 COMP.                                  N/A : COMPANY
 FLD.                      Purgatoire River : FIELD
 LOC.                SE/NE Sec 2 T33S  R67W : LOCATION
 DATE.                           8/19-20/05 : DATE(S) LOGGED
 SRVC.       BLANCO Geological Services LLC : SERVICE COMPANY
 STAT.                                   CO : STATE
 CNTY.                           Las Animas : COUNTY
 CTRY.                                  USA : COUNTRY
 API.                       05-071-08406-00 : API NUMBER
 STRT.FT                             574.00 : START DEPTH
 STOP.FT                            2360.00 : STOP DEPTH
 STEP.FT                               1.00 : DEPTH INCREMENT
 NULL.                                -9999 : NULL VALUE
~Curve information
 DEPTH.FT                                   :
 ROP.MIN/FT                                 :
 GAS.UNITS                                  :
~ASCII Log data
# ...
      1174.0         0.80        198.3 
      1175.0         0.48        207.8 
      1176.0         0.50        196.6 
      1177.0         0.80        195.1 
      1178.0         0.30        194.1 
      1179.0         0.40        197.1 
      1180.0         0.40        209.5 
      1181.0         0.33        215.3 
      1182.0         0.57        198.3 
      1183.0         0.42        178.2 
      1184.0         0.40        184.8 
      1185.0         0.40        184.7 
      1186.0         0.30        186.1 
      1187.0         0.50        182.4 
      1188.0         0.30        178.2 
      1189.0         0.40        177.4 
      1190.0         0.40        177.2 
      1191.0         0.42        178.7 
      1192.0         0.50        182.9 
      1193.0         0.50        192.7 
      1194.0         0.40        191.2 
      1195.0         0.30        191.4 
      1196.0         0.50        212.0 
      1197.0         0.23        294.3 
      1198.0         0.63        204.8 
      1199.0         0.42        156.3 
      1200.0         0.80        151.9 
      1201.0         0.50        167.1 
      1202.0         0.40        180.6 
      1203.0         0.53        217.8 
      1204.0         0.30        211.2 
      1205.0         0.72        184.1 
      1206.0         0.73        174.8 
      1207.0         0.60        175.5 
      1208.0         1.00        173.9 
      1209.0         1.38        221.3 
      1210.0         0.10        222.0 
      1211.0         0.80        232.0 
      1212.0         0.63        228.7 
      1213.0         0.10        225.4 
      1214.0         0.30        222.3 
      1215.0         0.37        226.4 
      1216.0         0.42        235.6 
      1217.0         0.40        220.4 
      1218.0         0.23        212.6 
      1219.0         0.30        207.3 
      1220.0         0.30        207.6 
      1221.0         0.20        207.6 
      1222.0         0.30        199.8 
      1223.0         0.10        196.1 
      1224.0         0.20        190.0 
      1225.0         0.20        187.8 
      1226.0         0.20        186.7 
      1227.0         0.33        185.3 
      1228.0         0.10        184.9 
      1229.0         0.40        186.5 
      1230.0         0.12        186.9 
      1231.0         0.20        189.6 
      1232.0         0.40        198.3 
      1233.0         0.20        189.6 
      1234.0         0.20        192.6 
      1235.0         0.40        195.6 
      1236.0         0.20        192.5 
      1237.0         0.30        198.9 
      1238.0         0.20        191.1 
      1239.0         0.30        194.4 
      1240.0         0.30        198.7 
      1241.0         0.20        202.7 
      1242.0         0.30        203.4 
      1243.0         0.32        200.9 
      1244.0         0.30        199.9 
      1245.0         0.40        197.5 
      1246.0         0.30        195.5 
      1247.0         0.10        195.4 
      1248.0         0.40        194.5 
      1249.0         0.40        201.2 
      1250.0         0.30        202.6 
      1251.0         0.30        198.3 
      1252.0         0.10        196.7 
      1253.0         0.30        198.9 
      1254.0         0.20        206.9 
      1255.0         0.22        207.6 
      1256.0         0.40        197.6 
      1257.0         0.30        193.0 
      1258.0         0.10        193.3 
      1259.0         0.30        194.2 
      1260.0         0.30        196.8 
      1261.0         0.30        197.7 
      1262.0         0.40        200.9 
      1263.0         0.30        207.1 
      1264.0         0.13        213.2 
      1265.0         0.20        221.9 
      1266.0         0.30        216.6 
      1267.0         0.32        204.9 
      1268.0         0.20        202.5 
      1269.0         0.10        202.5 
      1270.0         0.30        201.1 
      1271.0         0.30        194.0 
      1272.0         0.13        191.6 
      1273.0         0.30        198.7 
      1274.0         0.10        198.7 
      1275.0         0.30        187.6 
      1276.0         0.20        191.8 
      1277.0         0.30        208.5 
      1278.0         0.30        212.2 
      1279.0         0.30        207.0 
      1280.0         0.20        203.7 
      1281.0         0.22        201.7 
      1282.0         0.40        198.6 
      1283.0         0.37        199.5 
      1284.0         0.23        202.2 
      1285.0         0.37        192.9 
      1286.0         0.20        187.4 
      1287.0         0.40        185.6 
      1288.0         0.20        186.5 
      1289.0         0.20        198.0 
      1290.0         0.30        191.0 
      1291.0         0.20        191.2 
      1292.0         0.30        198.3 
      1293.0         0.22        187.4 
      1294.0         0.30        198.8 
      1295.0         0.10        189.9 
      1296.0         0.30        193.1 
      1297.0         0.10        193.2 
      1298.0         0.30        192.4 
      1299.0         0.30        192.6 
      1300.0         0.20        192.5 
      1301.0         0.40        192.4 
      1302.0         0.20        193.8 
      1303.0         0.40        195.0 
      1304.0         0.30        195.0 
      1305.0         0.20        195.9 
      1306.0         0.35        209.5 
      1307.0         0.20        215.7 
      1308.0         0.30        217.5 
      1309.0         0.10        217.5 
      1310.0         0.20        216.4 
      1311.0         0.30        212.8 
      1312.0         0.20        212.0 
      1313.0         0.10        211.4 
      1314.0         0.30        199.9 
      1315.0         0.30        191.2 
      1316.0         0.20        194.7 
      1317.0         0.30        204.7 
      1318.0         0.10        206.5 
      1319.0         0.30        209.9 
      1320.0         0.10        209.5 
      1321.0         0.32        203.1 
      1322.0         0.20        197.8 
      1323.0         0.33        198.5 
      1324.0         0.10        186.2 
      1325.0         0.40        196.2 
      1326.0         0.30        200.1 
      1327.0         0.30        187.2 
      1328.0         0.20        179.3 
      1329.0         0.30        177.2 
      1330.0         0.10        178.5 
      1331.0         0.20        177.8 
      1332.0         0.30        175.5 
      1333.0         0.30        179.1 
      1334.0         0.12        181.3 
      1335.0         0.30        183.1 
      1336.0         0.10        182.7 
      1337.0         0.40        184.2 
      1338.0         0.27        185.4 
      1339.0         0.30        187.6 
      1340.0         0.50        197.3 
      1341.0         0.20        199.4 
      1342.0         0.20        198.5 
      1343.0         0.30        195.0 
      1344.0         0.50        195.1 
      1345.0         0.32        196.6 
      1346.0         0.30        195.3 
      1347.0         0.50        198.0 
      1348.0         0.30        202.6 
      1349.0         0.53        214.1 
      1350.0         0.30        215.0 
      1351.0         0.30        195.7 
      1352.0         0.23        187.2 
      1353.0         0.40        186.6 
      1354.0         0.52        192.1 
      1355.0         0.30        191.5 
      1356.0         0.43        213.7 
      1357.0         0.30        211.5 
      1358.0         0.40        190.3 
      1359.0         0.63        173.9 
      1360.0         0.50        186.4 
      1361.0         0.30        184.8 
      1362.0         0.42        172.3 
      1363.0         0.20        170.3 
      1364.0         0.60        177.2 
      1365.0         0.30        181.8 
      1366.0         0.50        185.1 
      1367.0         0.30        185.1 
      1368.0         0.60        181.5 
      1369.0         0.23        182.9 
      1370.0         0.13        182.9 
      1371.0         0.30        182.3 
      1372.0         0.42        198.5 
      1373.0         0.20        192.8 
