~Version Information
VERS.                      2.0: CWLS Log ASCII Standard - VERSION 2.0
WRAP.                       NO: One line per depth step
~Well Information Block
STRT.FT               964.2000: 
STOP.FT              2596.7000: 
STEP.FT                 0.1000: 
NULL.                -999.2500: 
COMP.          Petrogulf Corporation: COMPANY
WELL.             Valejo 8-12V: WELL
FLD.           Purgatorie River: FIELD
LOC.           1510' FNL & 1460' FWL: LOCATION
CNTY.               Las Animas: COUNTY
SRVC.                         : SERVICE COMPANY
DATE.          Sat Nov 15 12:30:37 2003: LOG DATE
UWI.                          : UNIQUE WELL ID
STAT.                 Colorado: STATE
~Curve Information Block
DEPT.FT            0 000 00 00: Depth
DCAL.in                       : CDL Caliper
RHOB.g/cc                     : CDL Bulk Density
RHOC.g/cc                     : CDL Density Correction
DPOR.pu                       : CDL Density Porosity
GR.GAPI                       : Gamma Ray
NPOR.pu                       : Neutron Porosity
~Parameter Information Block
~A  Depth       DCAL        RHOB        RHOC        DPOR         GR         NPOR    
# ...
  1089.0000      8.8104      1.8806      0.0408     46.6276     73.1168     35.0740
  1089.1000      8.8104      1.8897      0.0466     46.0760     80.3292     33.6122
  1089.2000      8.8104      1.8988      0.0261     45.5262     88.0284     31.4985
  1089.3000      8.8083      1.9129      0.0585     44.6704     95.2581     29.1101
  1089.4000      8.8083      1.9328      0.0103     43.4645     99.4923     27.9500
  1089.5000      8.8036      1.9633     -0.0191     41.6200     96.6175     28.7038
  1089.6000      8.8036      2.0082     -0.0443     38.8989     91.1243     30.1792
  1089.7000      8.8036      2.0631     -0.0023     35.5670     88.0745     30.9628
  1089.8000      8.7974      2.1146      0.0830     32.4480     87.3182     31.0294
  1089.9000      8.7974      2.1535      0.1131     30.0906     87.8203     29.8269
  1090.0000      8.7922      2.1931      0.1435     27.6883     88.3600     26.2065
  1090.1000      8.7922      2.2505      0.1093     24.2110     89.8347     22.2784
  1090.2000      8.7922      2.3159      0.1056     20.2465     91.5582     21.7133
  1090.3000      8.7909      2.3662      0.0870     17.2016     92.7725     24.0576
  1090.4000      8.7909      2.4009      0.0370     15.0960     95.1830     25.8185
  1090.5000      8.7943      2.4312      0.0762     13.2609    100.0552     26.0317
  1090.6000      8.7943      2.4544      0.0780     11.8536    107.3922     26.3835
  1090.7000      8.7943      2.4676      0.0652     11.0525    114.5536     27.3284
  1090.8000      8.8008      2.4784      0.0611     10.4007    118.9063     27.5895
  1090.9000      8.8008      2.4932      0.0641      9.5045    122.8647     27.2043
  1091.0000      8.8072      2.5048      0.0709      8.7978    128.5935     27.1649
  1091.1000      8.8072      2.5007      0.0616      9.0469    133.6189     27.2073
  1091.2000      8.8072      2.4878      0.0104      9.8306    136.3239     26.9419
  1091.3000      8.8117      2.4827      0.0597     10.1395    135.2645     26.3073
  1091.4000      8.8117      2.4857      0.0110      9.9588    128.7370     26.0294
  1091.5000      8.8141      2.4951      0.0274      9.3853    121.8960     26.8691
  1091.6000      8.8141      2.5095      0.0668      8.5155    119.4343     27.8060
  1091.7000      8.8141      2.5154      0.0776      8.1546    117.8264     28.8266
  1091.8000      8.8149      2.5058      0.0482      8.7421    116.0798     30.8335
  1091.9000      8.8149      2.4905      0.0568      9.6690    115.3246     32.5129
  1092.0000      8.8147      2.4767      0.0360     10.5017    113.7305     32.5014
  1092.1000      8.8147      2.4661      0.0411     11.1483    110.5415     31.3902
  1092.2000      8.8147      2.4624      0.0080     11.3708    107.4463     30.1848
  1092.3000      8.8139      2.4586      0.0589     11.6018    107.3204     29.0286
  1092.4000      8.8139      2.4413      0.0289     12.6477    109.6749     28.0790
  1092.5000      8.8128      2.4200      0.0393     13.9374    111.3595     28.0044
  1092.6000      8.8128      2.4078      0.0418     14.6809    112.0294     28.5478
  1092.7000      8.8128      2.3945      0.0288     15.4860    114.6445     28.5486
  1092.8000      8.8114      2.3604      0.0281     17.5495    118.8948     28.0193
  1092.9000      8.8114      2.2968      0.0008     21.4075    120.4681     28.2217
  1093.0000      8.8102      2.2204     -0.0543     26.0378    117.0433     29.7752
  1093.1000      8.8102      2.1622     -0.0612     29.5617    110.5912     32.3248
  1093.2000      8.8102      2.1336     -0.0587     31.2987    103.7799     34.8711
  1093.3000      8.8095      2.1264     -0.0667     31.7315    100.3606     36.1987
  1093.4000      8.8095      2.1279     -0.0226     31.6444    100.3077     36.6276
  1093.5000      8.8094      2.1180      0.0544     32.2430     94.8828     37.4544
  1093.6000      8.8094      2.0910     -0.0068     33.8783     84.2254     38.9210
  1093.7000      8.8094      2.0609      0.0348     35.7032     79.8816     40.3644
  1093.8000      8.8096      2.0291      0.0177     37.6308     83.1665     40.9784
  1093.9000      8.8096      1.9874      0.0119     40.1584     84.2168     40.4324
  1094.0000      8.8093      1.9368     -0.0251     43.2225     79.2884     39.2521
  1094.1000      8.8093      1.8835     -0.0863     46.4565     73.0083     38.2409
  1094.2000      8.8093      1.8249     -0.0946     50.0059     69.3866     37.4061
  1094.3000      8.8078      1.7529     -0.1014     54.3676     69.2044     36.4962
  1094.4000      8.8078      1.6733     -0.0928     59.1967     68.0898     36.3577
  1094.5000      8.8048      1.5995     -0.0868     63.6691     61.8498     37.3173
  1094.6000      8.8048      1.5336     -0.0654     67.6582     52.9337     37.8082
  1094.7000      8.8048      1.4720     -0.0743     71.3911     45.6506     37.1758
  1094.8000      8.8007      1.4172     -0.0888     74.7125     40.5202     36.3442
  1094.9000      8.8007      1.3715     -0.0285     77.4843     35.3538     35.7948
  1095.0000      8.7963      1.3352     -0.0273     79.6845     31.4730     35.3772
  1095.1000      8.7963      1.3184     -0.0003     80.7046     30.6349     35.2990
  1095.2000      8.7963      1.3348     -0.0051     79.7093     30.5566     35.2789
  1095.3000      8.7921      1.3892      0.0223     76.4106     31.0169     34.4592
  1095.4000      8.7921      1.4737      0.0468     71.2884     35.3946     32.6483
  1095.5000      8.7869      1.5757      0.0868     65.1076     42.0900     30.2393
  1095.6000      8.7869      1.6900      0.1044     58.1825     46.0082     28.0104
  1095.7000      8.7869      1.8162      0.1514     50.5304     47.1211     26.4618
  1095.8000      8.7780      1.9449      0.1891     42.7358     48.4069     25.1577
  1095.9000      8.7780      2.0629      0.2157     35.5846     51.9375     23.7263
  1096.0000      8.7642      2.1700      0.2059     29.0880     58.2476     22.6406
  1096.1000      8.7642      2.2680      0.1956     23.1489     66.2182     22.5864
  1096.2000      8.7642      2.3462      0.1572     18.4143     72.2197     23.4621
  1096.3000      8.7477      2.4028      0.0557     14.9814     77.1980     24.5074
  1096.4000      8.7477      2.4522      0.0714     11.9889     85.4736     25.5421
  1096.5000      8.7330      2.4977      0.0807      9.2318     92.0516     26.8420
  1096.6000      8.7330      2.5363      0.0770      6.8879     92.0128     28.6994
  1096.7000      8.7330      2.5706      0.0887      4.8127     92.5152     30.1813
  1096.8000      8.7230      2.6008      0.0915      2.9836     97.8806     28.5302
  1096.9000      8.7230      2.6263      0.0478      1.4339    102.8915     22.8773
  1097.0000      8.7174      2.6494      0.0997      0.0385    102.7235     17.4387
  1097.1000      8.7174      2.6693      0.0650     -1.1726     98.5324     16.3499
  1097.2000      8.7174      2.6824      0.1015     -1.9661     96.9811     18.3975
  1097.3000      8.7146      2.6816      0.0685     -1.9168     98.4838     19.7517
  1097.4000      8.7146      2.6659      0.0267     -0.9636     95.1213     19.4165
  1097.5000      8.7132      2.6468     -0.0094      0.1946     87.1863     18.6494
  1097.6000      8.7132      2.6357     -0.0098      0.8676     83.9195     18.2397
  1097.7000      8.7132      2.6300     -0.0313      1.2101     89.1056     18.3738
  1097.8000      8.7126      2.6235     -0.0369      1.6091    100.2681     18.7175
  1097.9000      8.7126      2.6148     -0.0269      2.1351    111.3579     19.0254
  1098.0000      8.7130      2.6015      0.0320      2.9374    113.3910     18.4783
  1098.1000      8.7130      2.5894     -0.0024      3.6748    107.8776     16.6463
  1098.2000      8.7130      2.5912      0.0199      3.5613    103.3592     15.3187
  1098.3000      8.7142      2.5953      0.0714      3.3166     99.9664     15.4961
  1098.4000      8.7142      2.5793      0.0384      4.2844     95.0445     16.5277
  1098.5000      8.7164      2.5518      0.0112      5.9497     90.5917     17.5891
