~Version Information
VERS.                      2.0: CWLS Log ASCII Standard - VERSION 2.0
WRAP.                       NO: One line per depth step
~Well Information Block
STRT.FT               698.9000: 
STOP.FT              2460.4000: 
STEP.FT                 0.1000: 
NULL.                -999.2500: 
COMP.          Petrogulf Corporation: COMPANY
WELL.             State 16-23V: WELL
FLD.           Purgatorie River: FIELD
LOC.           2414' FSL & 2215' FWL: LOCATION
PROV.                 Colorado: PROVINCE
CNTY.               Las Animas: COUNTRY
SRVC.                         : SERVICE COMPANY
DATE.          Mon Jun 09 14:24:56 2003: LOG DATE
UWI.           05 071 07865 00: UNIQUE WELL ID
~Curve Information Block
DEPT.FT            0 000 00 00: Depth
DCAL.in                       : CDL Caliper
RHOB.g/cc                     : CDL Bulk Density
RHOC.g/cc                     : CDL Density Correction
DPOR.pu                       : CDL Density Porosity
GR.GAPI                       : Gamma Ray
NPOR.pu                       : Neutron Porosity
~Parameter Information Block
~A  Depth       DCAL        RHOB        RHOC        DPOR         GR         NPOR    
# ...
  1303.7000      8.5253      2.2586      0.0708     23.7231    124.4425     34.0043
  1303.8000      8.4775      2.2493      0.0667     24.2840    125.2605     34.0286
  1303.9000      8.4775      2.2385      0.0623     24.9403    125.9306     34.0609
  1304.0000      8.4597      2.2257      0.0578     25.7167    126.4100     34.1073
  1304.1000      8.4597      2.2105      0.0534     26.6364    126.6714     34.1702
  1304.2000      8.4597      2.1926      0.0489     27.7208    126.7009     34.2487
  1304.3000      8.4599      2.1717      0.0445     28.9885    126.4846     34.3387
  1304.4000      8.4599      2.1475      0.0399     30.4546    126.0055     34.4344
  1304.5000      8.4638      2.1199      0.0351     32.1296    125.2304     34.5296
  1304.6000      8.4638      2.0887      0.0299     34.0186    124.1107     34.6190
  1304.7000      8.4638      2.0540      0.0240     36.1202    122.5811     34.6998
  1304.8000      8.4676      2.0160      0.0174     38.4261    120.5653     34.7719
  1304.9000      8.4676      1.9748      0.0099     40.9201    117.9862     34.8385
  1305.0000      8.4637      1.9310      0.0015     43.5782    114.7771     34.9051
  1305.1000      8.4637      1.8849     -0.0076     46.3689    110.8940     34.9789
  1305.2000      8.4637      1.8373     -0.0170     49.2543    106.3222     35.0671
  1305.3000      8.4557      1.7888     -0.0263     52.1911    101.0883     35.1757
  1305.4000      8.4557      1.7403     -0.0349     55.1331     95.2618     35.3084
  1305.5000      8.4513      1.6925     -0.0421     58.0327     88.9530     35.4661
  1305.6000      8.4513      1.6461     -0.0473     60.8440     82.3090     35.6468
  1305.7000      8.4513      1.6018     -0.0502     63.5245     75.5035     35.8459
  1305.8000      8.4484      1.5604     -0.0504     66.0376     68.7229     36.0569
  1305.9000      8.4484      1.5222     -0.0481     68.3544     62.1484     36.2726
  1306.0000      8.4573      1.4875     -0.0434     70.4542     55.9412     36.4853
  1306.1000      8.4573      1.4566     -0.0369     72.3255     50.2291     36.6878
  1306.2000      8.4573      1.4296     -0.0291     73.9656     45.0983     36.8739
  1306.3000      8.5263      1.4062     -0.0207     75.3795     40.5907     37.0382
  1306.4000      8.5263      1.3864     -0.0123     76.5788     36.7066     37.1768
  1306.5000      8.7493      1.3699     -0.0047     77.5799     33.4131     37.2871
  1306.6000      8.7493      1.3564      0.0018     78.4015     30.6577     37.3683
  1306.7000      8.7493      1.3455      0.0067     79.0633     28.3760     37.4208
  1306.8000      9.1993      1.3369      0.0098     79.5834     26.5035     37.4471
  1306.9000      9.1993      1.3304      0.0110     79.9767     24.9847     37.4511
  1307.0000      9.6930      1.3258      0.0105     80.2535     23.7773     37.4380
  1307.1000      9.6930      1.3231      0.0085     80.4187     22.8553     37.4139
  1307.2000      9.6930      1.3222      0.0055     80.4712     22.2091     37.3847
  1307.3000      9.7082      1.3233      0.0018     80.4038     21.8433     37.3560
  1307.4000      9.7082      1.3266     -0.0018     80.2039     21.7797     37.3320
  1307.5000      9.1693      1.3324     -0.0048     79.8544     22.0487     37.3146
  1307.6000      9.1693      1.3410     -0.0065     79.3345     22.6863     37.3035
  1307.7000      9.1693      1.3527     -0.0067     78.6220     23.7358     37.2955
  1307.8000      8.6864      1.3681     -0.0049     77.6939     25.2341     37.2850
  1307.9000      8.6864      1.3873     -0.0011     76.5288     27.2143     37.2640
  1308.0000      8.5546      1.4107      0.0047     75.1076     29.6991     37.2230
  1308.1000      8.5546      1.4386      0.0121     73.4158     32.6986     37.1515
  1308.2000      8.5546      1.4712      0.0209     71.4438     36.2087     37.0384
  1308.3000      8.6521      1.5084      0.0306     69.1882     40.2038     36.8730
  1308.4000      8.6521      1.5502      0.0406     66.6528     44.6392     36.6451
  1308.5000      8.8159      1.5965      0.0506     63.8487     49.4446     36.3459
  1308.6000      8.8159      1.6469      0.0601     60.7947     54.5262     35.9677
  1308.7000      8.8159      1.7010      0.0686     57.5176     59.7638     35.5053
  1308.8000      8.9635      1.7581      0.0761     54.0520     65.0182     34.9559
  1308.9000      8.9635      1.8177      0.0822     50.4394     70.1434     34.3209
  1309.0000      9.0598      1.8790      0.0869     46.7281     74.9951     33.6058
  1309.1000      9.0598      1.9410      0.0903     42.9714     79.4470     32.8218
  1309.2000      9.0598      2.0028      0.0924     39.2260     83.4066     31.9849
  1309.3000      8.9220      2.0634      0.0933     35.5501     86.8252     31.1158
  1309.4000      8.9220      2.1220      0.0931     32.0011     89.7007     30.2389
  1309.5000      8.5326      2.1776      0.0918     28.6326     92.0772     29.3796
  1309.6000      8.5326      2.2294      0.0893     25.4924     94.0340     28.5627
  1309.7000      8.5326      2.2768      0.0855     22.6196     95.6720     27.8099
  1309.8000      8.2672      2.3193      0.0803     20.0429     97.0980     27.1381
  1309.9000      8.2672      2.3566      0.0737     17.7796     98.4079     26.5583
  1310.0000      8.2017      2.3887      0.0660     15.8350     99.6780     26.0751
  1310.1000      8.2017      2.4157      0.0574     14.2028    100.9563     25.6872
  1310.2000      8.2017      2.4377      0.0484     12.8669    102.2620     25.3882
  1310.3000      8.1939      2.4553      0.0397     11.8025    103.5872     25.1678
  1310.4000      8.1939      2.4688      0.0317     10.9795    104.9069     25.0135
  1310.5000      8.1906      2.4790      0.0250     10.3645    106.1856     24.9116
  1310.6000      8.1906      2.4863      0.0200      9.9237    107.3864     24.8493
  1310.7000      8.1906      2.4912      0.0167      9.6248    108.4756     24.8152
  1310.8000      8.1908      2.4943      0.0154      9.4392    109.4312     24.8006
  1310.9000      8.1908      2.4958      0.0157      9.3430    110.2388     24.7999
  1311.0000      8.2127      2.4963      0.0173      9.3174    110.8954     24.8111
  1311.1000      8.2127      2.4957      0.0199      9.3489    111.4047     24.8353
  1311.2000      8.2127      2.4944      0.0231      9.4281    111.7754     24.8765
  1311.3000      8.2561      2.4924      0.0264      9.5494    112.0209     24.9409
  1311.4000      8.2561      2.4898      0.0295      9.7091    112.1572     25.0357
  1311.5000      8.2888      2.4866      0.0323      9.9043    112.2064     25.1684
  1311.6000      8.2888      2.4828      0.0346     10.1315    112.1989     25.3453
  1311.7000      8.2888      2.4786      0.0365     10.3859    112.1718     25.5708
  1311.8000      8.2858      2.4741      0.0383     10.6601    112.1647     25.8467
  1311.9000      8.2858      2.4694      0.0403     10.9444    112.2209     26.1715
  1312.0000      8.2629      2.4648      0.0430     11.2268    112.3752     26.5401
  1312.1000      8.2629      2.4604      0.0469     11.4932    112.6487     26.9439
  1312.2000      8.2629      2.4565      0.0524     11.7291    113.0427     27.3712
  1312.3000      8.2486      2.4533      0.0601     11.9201    113.5356     27.8082
  1312.4000      8.2486      2.4511      0.0700     12.0532    114.0877     28.2390
  1312.5000      8.2330      2.4500      0.0820     12.1185    114.6435     28.6471
  1312.6000      8.2330      2.4502      0.0957     12.1092    115.1463     29.0163
  1312.7000      8.2330      2.4516      0.1104     12.0231    115.5477     29.3316
  1312.8000      8.2138      2.4543      0.1251     11.8621    115.8178     29.5799
  1312.9000      8.2138      2.4581      0.1390     11.6321    115.9511     29.7509
  1313.0000      8.2189      2.4628      0.1510     11.3426    115.9678     29.8378
  1313.1000      8.2189      2.4684      0.1604     11.0052    115.9070     29.8374
  1313.2000      8.2189      2.4746      0.1665     10.6325    115.8212     29.7513
