~Version Information
VERS.                      2.0: CWLS Log ASCII Standard - VERSION 2.0
WRAP.                       NO: One line per depth step
~Well Information Block
STRT.FT               250.0000: 
STOP.FT              2600.7000: 
STEP.FT                 0.1000: 
NULL.                -999.2500: 
COMP.          Pioneer Natural Resources: COMPANY
WELL.              Quack 22-24: WELL
FLD.           Purgatoire River: FIELD
LOC.           2492' FNL & 2459' FWL--: LOCATION
PROV.                 Colorado: PROVINCE
CNTY.               Las Animas: COUNTRY
SRVC.                Patterson: SERVICE COMPANY
DATE.          Mon Jun 13 08:03:15 2005: LOG DATE
UWI.            05 071 0840200: UNIQUE WELL ID
~Curve Information Block
DEPT.FT            0 000 00 00: Depth
DCAL.in                       : CDL Caliper
RHOB.g/cc                     : CDL Bulk Density
RHOC.g/cc                     : CDL Density Correction
DPOR.pu                       : CDL Density Porosity
NPOR.pu                       : Neutron Porosity
GR.GAPI                       : Gamma Ray
~Parameter Information Block
~A  Depth       DCAL        RHOB        RHOC        DPOR        NPOR         GR     
# ...
  1795.6000      8.3303      2.5926      0.1393      3.4778     28.6804    148.4348
  1795.7000      8.3303      2.5770      0.1307      4.4269     27.9339    156.3627
  1795.8000      8.2294      2.5571      0.1310      5.6297     27.8586    160.3662
  1795.9000      8.2294      2.5407      0.0987      6.6233     27.6323    156.7927
  1796.0000      8.1557      2.5443      0.1062      6.4062     27.1319    150.1467
  1796.1000      8.1557      2.5669      0.1234      5.0335     26.9073    147.3023
  1796.2000      8.1557      2.5915      0.1043      3.5426     26.8930    149.4836
  1796.3000      8.1381      2.6041      0.1261      2.7795     26.9421    152.6855
  1796.4000      8.1381      2.6003      0.1047      3.0105     27.5147    150.5608
  1796.5000      8.1388      2.5857      0.0832      3.8974     28.6443    144.0918
  1796.6000      8.1388      2.5687      0.0328      4.9263     29.4083    139.4259
  1796.7000      8.1388      2.5489      0.0986      6.1273     29.5296    139.4931
  1796.8000      8.1460      2.5283      0.0079      7.3781     29.9494    145.2131
  1796.9000      8.1460      2.5219      0.0326      7.7643     30.8090    151.3493
  1797.0000      8.1618      2.5197      0.0684      7.8955     31.1564    152.8508
  1797.1000      8.1618      2.4926      0.0896      9.5373     30.9528    154.6021
  1797.2000      8.1618      2.4491      0.0065     12.1774     30.9129    157.8532
  1797.3000      8.1957      2.4269      0.0077     13.5195     30.9986    157.4153
  1797.4000      8.1957      2.4373      0.0363     12.8936     31.2202    153.9444
  1797.5000      8.2558      2.4547      0.1002     11.8337     31.8714    152.6166
  1797.6000      8.2558      2.4570      0.0890     11.6977     32.3541    152.5488
  1797.7000      8.2558      2.4428      0.1046     12.5570     31.9937    152.6377
  1797.8000      8.3348      2.4115      0.1268     14.4520     31.3218    155.8998
  1797.9000      8.3348      2.3619      0.0991     17.4622     31.2192    159.7055
  1798.0000      8.4126      2.3088      0.1218     20.6814     31.7857    158.7225
  1798.1000      8.4126      2.2750      0.1215     22.7287     32.2033    154.4351
  1798.2000      8.4126      2.2682      0.1304     23.1394     31.8477    153.8800
  1798.3000      8.4684      2.2755      0.1350     22.6970     31.1242    157.0832
  1798.4000      8.4684      2.2870      0.1373     21.9976     30.9374    156.8936
  1798.5000      8.4982      2.3155      0.0935     20.2731     31.4920    150.0597
  1798.6000      8.4982      2.3764      0.1721     16.5800     31.5605    138.9424
  1798.7000      8.4982      2.4585      0.3111     11.6062     30.4044    131.5199
  1798.8000      8.5247      2.5342      0.3485      7.0158     29.1646    132.0867
  1798.9000      8.5247      2.5765      0.4088      4.4540     28.7883    138.2307
  1799.0000      8.5779      2.5667      0.3704      5.0507     28.9379    141.8920
  1799.1000      8.5779      2.5220      0.2407      7.7595     29.3147    136.1300
  1799.2000      8.5779      2.4774      0.2100     10.4594     29.7820    126.6531
  1799.3000      8.6195      2.4359      0.1939     12.9751     30.0401    121.4151
  1799.4000      8.6195      2.3773      0.1421     16.5293     29.9369    119.6633
  1799.5000      8.5948      2.2939      0.0656     21.5828     29.8323    117.1935
  1799.6000      8.5948      2.1996      0.0330     27.2947     30.2360    115.0004
  1799.7000      8.5948      2.1269      0.0043     31.7016     30.7365    119.9178
  1799.8000      8.5512      2.1035      0.0539     33.1185     30.5743    133.0401
  1799.9000      8.5512      2.1209      0.1417     32.0652     30.0541    144.2181
  1800.0000      8.6262      2.1522      0.2186     30.1676     29.7957    146.0336
  1800.1000      8.6262      2.1883      0.2254     27.9803     30.0223    142.7310
  1800.2000      8.6262      2.2339      0.2892     25.2178     30.4922    140.1453
  1800.3000      8.9148      2.2816      0.3570     22.3270     30.4545    138.4801
  1800.4000      8.9148      2.3123      0.3689     20.4692     30.0064    136.9093
  1800.5000      9.2895      2.3223      0.3522     19.8580     29.8872    137.7350
  1800.6000      9.2895      2.3281      0.3485     19.5098     30.1495    140.8218
  1800.7000      9.2895      2.3423      0.3432     18.6485     30.3189    140.3288
  1800.8000      9.4634      2.3667      0.3277     17.1711     30.4676    136.7425
  1800.9000      9.4634      2.3913      0.3533     15.6776     31.0652    135.6865
  1801.0000      9.3481      2.4031      0.3148     14.9611     31.6672    135.1127
  1801.1000      9.3481      2.4075      0.2852     14.6990     31.4539    132.8229
  1801.2000      9.3481      2.4247      0.2727     13.6520     30.3510    130.8454
  1801.3000      9.0169      2.4711      0.3090     10.8408     29.0538    129.9118
  1801.4000      9.0169      2.5399      0.3694      6.6716     28.3272    133.5817
  1801.5000      8.5637      2.6094      0.4009      2.4596     28.0926    142.3437
  1801.6000      8.5637      2.6656      0.4289     -0.9430     27.5939    149.4136
  1801.7000      8.5637      2.7022      0.4158     -3.1654     26.7058    150.1134
  1801.8000      8.2367      2.7134      0.4035     -3.8404     26.0155    145.5773
  1801.9000      8.2367      2.7004      0.3048     -3.0554     25.7831    141.4539
  1802.0000      8.1682      2.6826      0.2551     -1.9729     25.7218    143.1837
  1802.1000      8.1682      2.6750      0.2550     -1.5137     25.4141    146.2479
  1802.2000      8.1682      2.6686      0.2324     -1.1248     24.7795    141.4293
  1802.3000      8.1777      2.6457      0.1764      0.2617     24.2550    129.3973
  1802.4000      8.1777      2.6097      0.0495      2.4429     24.2710    119.0525
  1802.5000      8.1036      2.5870      0.0508      3.8183     24.4156    116.5350
  1802.6000      8.1036      2.5934      0.0645      3.4330     24.1559    118.3148
  1802.7000      8.1036      2.6134      0.0832      2.2176     23.5181    115.7638
  1802.8000      8.0153      2.6211      0.0809      1.7517     22.5237    106.4551
  1802.9000      8.0153      2.6121      0.0488      2.2972     21.2292     98.0433
  1803.0000      7.9637      2.5971      0.0723      3.2040     20.1605     95.7835
  1803.1000      7.9637      2.5818      0.0417      4.1334     19.7497     95.6851
  1803.2000      7.9637      2.5769      0.0034      4.4325     19.8947     94.9765
  1803.3000      7.9349      2.5944      0.0108      3.3717     20.4342     93.8262
  1803.4000      7.9349      2.6272      0.0461      1.3824     20.9666     89.6450
  1803.5000      7.9210      2.6581      0.0526     -0.4889     20.7741     85.2348
  1803.6000      7.9210      2.6744      0.0996     -1.4804     20.0474     85.3556
  1803.7000      7.9210      2.6690      0.0885     -1.1519     19.6655     85.7846
  1803.8000      7.9125      2.6423      0.0850      0.4682     19.8496     82.2084
  1803.9000      7.9125      2.6032      0.0904      2.8372     20.0806     79.1697
  1804.0000      7.9085      2.5695      0.0291      4.8811     20.1499     81.2198
  1804.1000      7.9085      2.5536      0.0206      5.8444     20.3316     83.9168
  1804.2000      7.9085      2.5427      0.0905      6.5058     20.7391     83.9927
  1804.3000      7.9189      2.5271     -0.0072      7.4489     21.3062     85.0015
  1804.4000      7.9189      2.5263      0.0340      7.4960     21.5714     88.1172
  1804.5000      7.9385      2.5467      0.0331      6.2594     21.0689     92.1419
  1804.6000      7.9385      2.5738      0.0336      4.6191     20.4511     93.8261
  1804.7000      7.9385      2.6012      0.0602      2.9593     20.7612     91.1964
  1804.8000      7.9499      2.6199      0.0955      1.8248     21.9943     90.9420
  1804.9000      7.9499      2.6114      0.0767      2.3371     23.4901     98.2658
  1805.0000      7.9549      2.5786      0.0632      4.3288     24.9672    107.8694
  1805.1000      7.9549      2.5511      0.0546      5.9936     26.1795    111.0216
