~Version Information
VERS.                      2.0: CWLS Log ASCII Standard - VERSION 2.0
WRAP.                       NO: One line per depth step
~Well Information Block
STRT.FT               550.0000: 
STOP.FT              2042.5000: 
STEP.FT                 0.1000: 
NULL.                -999.2500: 
COMP.          Petrogulf Corporation: COMPANY
WELL.          Robinson 15-12V: WELL
FLD.           Purgatorie River: FIELD
LOC.           1788' FNL & 466' FWL: LOCATION
PROV.                 Colorado: PROVINCE
CNTY.               Las Animas: COUNTRY
SRVC.                Patterson: SERVICE COMPANY
DATE.          Mon Sep 12 10:04:59 2005: LOG DATE
UWI.                          : UNIQUE WELL ID
~Curve Information Block
DEPT.FT            0 000 00 00: Depth
DCAL.in                       : CDL Caliper
RHOB.g/cc                     : CDL Bulk Density
RHOC.g/cc                     : CDL Density Correction
DPOR.pu                       : CDL Density Porosity
GR.GAPI                       : Gamma Ray
NPOR.pu                       : Neutron Porosity
~Parameter Information Block
~A  Depth       DCAL        RHOB        RHOC        DPOR         GR         NPOR    
   550.0000      8.0647      2.3193     -0.3879     20.0405     82.6537     38.7446
   550.1000      8.0647      2.3161     -0.3717     20.2342     83.7726     38.7836
   550.2000      8.0647      2.3058     -0.4317     20.8589     82.9431     38.8722
   550.3000      8.0635      2.3041     -0.3664     20.9619     82.5670     38.7989
   550.4000      8.0635      2.3073     -0.4336     20.7695     84.3573     38.7145
   550.5000      8.0604      2.3087     -0.4072     20.6830     86.2848     38.7999
   550.6000      8.0604      2.3100     -0.4126     20.6035     86.9177     38.9647
   550.7000      8.0604      2.3197     -0.4619     20.0159     87.2066     39.0707
   550.8000      8.0598      2.3401     -0.4130     18.7791     87.4480     39.0694
   550.9000      8.0598      2.3509     -0.3804     18.1253     87.2966     38.9488
   551.0000      8.0659      2.3356     -0.4213     19.0561     87.8360     38.8004
   551.1000      8.0659      2.3116     -0.4848     20.5065     88.6895     38.8667
   551.2000      8.0659      2.2955     -0.4053     21.4829     89.0342     39.1437
   551.3000      8.0664      2.2771     -0.4323     22.6007     90.1715     39.2562
   551.4000      8.0664      2.2585     -0.4895     23.7286     92.0010     39.0878
   551.5000      8.0644      2.2591     -0.4997     23.6895     92.5498     39.0059
   551.6000      8.0644      2.2778     -0.4265     22.5599     90.7652     39.1888
   551.7000      8.0644      2.2851     -0.4057     22.1122     89.4926     39.4566
   551.8000      8.0642      2.2643     -0.3853     23.3739     91.7121     39.6225
   551.9000      8.0642      2.2322     -0.4794     25.3195     95.3260     39.7120
   552.0000      8.0651      2.2060     -0.4330     26.9108     99.1269     39.8503
   552.1000      8.0651      2.1832     -0.4377     28.2933    104.1297     40.0442
   552.2000      8.0651      2.1664     -0.5033     29.3073    108.4193     40.1789
   552.3000      8.0641      2.1576     -0.4420     29.8444    108.4886     40.2669
   552.4000      8.0641      2.1428     -0.4462     30.7379    104.2656     40.4740
   552.5000      8.0625      2.1265     -0.5500     31.7283     99.5955     40.7211
   552.6000      8.0625      2.1301     -0.4996     31.5088     97.0390     40.8685
   552.7000      8.0625      2.1505     -0.4847     30.2705     97.1954     41.0756
   552.8000      8.0602      2.1639     -0.4786     29.4631    100.8083     41.4390
   552.9000      8.0602      2.1594     -0.4864     29.7342    105.0554     41.7151
   553.0000      8.0666      2.1492     -0.4950     30.3504    104.2821     41.6949
   553.1000      8.0666      2.1457     -0.4756     30.5648     99.4751     41.4571
   553.2000      8.0666      2.1477     -0.4720     30.4449     96.0177     41.2076
   553.3000      8.0649      2.1477     -0.4555     30.4416     95.6477     41.1746
   553.4000      8.0649      2.1453     -0.4776     30.5894     97.4048     41.4162
   553.5000      8.0665      2.1462     -0.4361     30.5322     99.1940     41.6508
   553.6000      8.0665      2.1518     -0.4867     30.1914    100.2164     41.6690
   553.7000      8.0665      2.1597     -0.4585     29.7180    101.9773     41.5859
   553.8000      8.0579      2.1676     -0.4660     29.2391    103.6061     41.5674
   553.9000      8.0579      2.1827     -0.5177     28.3229    103.2497     41.6598
   554.0000      8.0516      2.2036     -0.4591     27.0554    102.7534     41.8687
   554.1000      8.0516      2.2060     -0.4320     26.9100    101.8702     42.1961
   554.2000      8.0516      2.1766     -0.4761     28.6923     98.2734     42.4108
   554.3000      8.0508      2.1384     -0.4842     31.0040     94.4185     42.2728
   554.4000      8.0508      2.1206     -0.5143     32.0856     93.3766     42.0877
   554.5000      8.0507      2.1199     -0.4962     32.1276     93.1430     42.1500
   554.6000      8.0507      2.1150     -0.4960     32.4213     92.2075     42.2285
   554.7000      8.0507      2.1102     -0.5390     32.7136     92.6307     42.1987
   554.8000      8.0574      2.1215     -0.5083     32.0322     94.4747     42.1754
   554.9000      8.0574      2.1360     -0.4170     31.1505     95.5012     42.2199
   555.0000      8.0557      2.1293     -0.4170     31.5555     95.7754     42.3527
   555.1000      8.0557      2.1092     -0.5449     32.7729     96.6857     42.4511
   555.2000      8.0557      2.1049     -0.5294     33.0334     98.0933     42.4255
   555.3000      8.0581      2.1116     -0.4240     32.6321     99.6962     42.3757
   555.4000      8.0581      2.0890     -0.4142     34.0018    102.2761     42.4163
   555.5000      8.0554      2.0174     -0.4996     38.3422    105.0124     42.4882
   555.6000      8.0554      1.9212     -0.5932     44.1718    105.6554     42.4537
   555.7000      8.0554      1.8282     -0.5828     49.8052    103.8465     42.3669
   555.8000      8.0478      1.7389     -0.6326     55.2204    101.4991     42.2733
   555.9000      8.0478      1.6488     -0.6405     60.6765     99.9673     42.1234
   556.0000      8.0535      1.5712     -0.7255     65.3825     99.0362     41.9941
   556.1000      8.0535      1.5320     -0.7455     67.7576     97.8855     41.9928
   556.2000      8.0535      1.5486     -0.7893     66.7527     95.0699     42.1523
   556.3000      8.0521      1.6098     -0.6961     63.0422     92.0580     42.4598
   556.4000      8.0521      1.6872     -0.6445     58.3486     91.7651     42.7266
   556.5000      8.0574      1.7691     -0.6533     53.3888     93.7001     42.8212
   556.6000      8.0574      1.8639     -0.6222     47.6404     95.7426     42.8425
   556.7000      8.0574      1.9692     -0.5365     41.2585     97.2175     42.8129
   556.8000      8.0622      2.0624     -0.5286     35.6099     97.9948     42.6498
   556.9000      8.0622      2.1302     -0.5152     31.5003     97.2023     42.4733
   557.0000      8.0629      2.1832     -0.5231     28.2880     95.3755     42.4022
   557.1000      8.0629      2.2292     -0.4275     25.5045     95.1787     42.2674
   557.2000      8.0629      2.2658     -0.4824     23.2825     97.1879     42.0244
   557.3000      8.0641      2.2972     -0.4909     21.3816     99.8585     41.9238
   557.4000      8.0641      2.3145     -0.4260     20.3305    102.0066     41.9666
   557.5000      8.0641      2.3080     -0.5216     20.7289    102.6375     41.9382
   557.6000      8.0641      2.2961     -0.5515     21.4459    101.5281     41.9491
   557.7000      8.0641      2.2926     -0.4726     21.6591    101.3788     42.1044
   557.8000      8.0564      2.2885     -0.4788     21.9071    103.7648     42.0782
   557.9000      8.0564      2.2836     -0.4686     22.2047    107.1086     41.7504
   558.0000      8.0578      2.2834     -0.4430     22.2201    109.7749     41.5403
   558.1000      8.0578      2.2877     -0.5019     21.9584    110.8378     41.5926
   558.2000      8.0578      2.3024     -0.4645     21.0677    110.7694     41.5314
   558.3000      8.0540      2.3229     -0.4430     19.8253    111.0196     41.2828
   558.4000      8.0540      2.3323     -0.4464     19.2528    110.3989     41.1984
   558.5000      8.0515      2.3199     -0.4492     20.0045    107.3358     41.3732
   558.6000      8.0515      2.2921     -0.5082     21.6911    103.6853     41.5568
   558.7000      8.0515      2.2735     -0.4865     22.8166    102.0328     41.5563
   558.8000      8.0463      2.2823     -0.5405     22.2861    103.6771     41.3338
   558.9000      8.0463      2.3141     -0.4918     20.3582    106.1917     40.9700
   559.0000      8.0532      2.3397     -0.4293     18.8039    106.4479     40.6410
   559.1000      8.0532      2.3309     -0.4482     19.3385    106.2161     40.4676
   559.2000      8.0532      2.2901     -0.4927     21.8116    105.7133     40.4182
   559.3000      8.0506      2.2404     -0.5197     24.8253    102.2487     40.4713
   559.4000      8.0506      2.2021     -0.5290     27.1449     98.4907     40.6804
   559.5000      8.0526      2.1781     -0.5483     28.5987     98.0070     40.9437
