~Version Information
VERS.                      2.0: CWLS Log ASCII Standard - VERSION 2.0
WRAP.                       NO: One line per depth step
~Well Information Block
STRT.FT                -6.7500: 
STOP.FT              1181.0000: 
STEP.FT                 0.2500: 
NULL.                -999.2500: 
COMP.          Pioneer Natural Resources: COMPANY
WELL.          Pacheco 33-27 Tr: WELL
FLD.           Purgatorie River: FIELD
LOC.           2251' FSL & 2342' FEL--: LOCATION
PROV.                       CO: PROVINCE
CNTY.               Las Animas: COUNTRY
SRVC.          Patterson Wireline: SERVICE COMPANY
DATE.          Wed Jun 15 10:58:02 2005: LOG DATE
UWI.           05 071 08384 00: UNIQUE WELL ID
~Curve Information Block
DEPT.FT            0 000 00 00: Depth
CCL.                          : Casing Collar Locator
TT3.usec                      : CBL 3' Travel Time
AMP3.mV                       : CBL 3' Amplitude
GR.GAPI                       : Gamma Ray
~Parameter Information Block
~A  Depth       CCL         TT3         AMP3         GR     
# ...
  1132.2500      0.0000    517.5144      4.8945     98.1631
  1132.5000      0.0000    527.3011      4.8031     97.2647
  1132.7500      0.0000    522.8914      4.6332     97.8941
  1133.0000      0.0000    522.6069      4.4488    100.1686
  1133.2500      0.0000    540.8209      4.3071    103.7364
  1133.5000      0.0000    575.9418      4.2643    108.7291
  1133.7500      0.0000    615.9238      4.3503    115.3423
  1134.0000      0.0000    650.6550      4.5348    122.4630
  1134.2500      0.0000    676.7302      4.7353    127.8928
  1134.5000      0.0000    694.5496      4.8726    130.5504
  1134.7500      0.0000    705.4395      4.9220    131.8288
  1135.0000      0.0000    711.1820      4.9170    134.2419
  1135.2500      0.0000    713.8344      4.9055    139.0147
  1135.5000      0.0000    715.0555      4.9089    145.0012
  1135.7500      0.0000    715.7132      4.9177    149.4547
  1136.0000      0.0000    716.0844      4.9118    149.8120
  1136.2500      0.0000    716.2090      4.8763    145.4435
  1136.5000      0.0000    716.1338      4.8012    138.4051
  1136.7500      0.0000    715.9592      4.6779    132.4898
  1137.0000      0.0000    715.7930      4.5142    130.8364
  1137.2500      0.0000    715.7017      4.3574    133.6882
  1137.5000      0.0000    715.6859      4.2726    138.1635
  1137.7500      0.0000    715.6987      4.2842    140.4832
  1138.0000      0.0000    715.7009      4.3609    138.9216
  1138.2500      0.0000    715.6919      4.4588    134.9854
  1138.5000      0.0000    715.6853      4.5436    131.7693
  1138.7500      0.0000    715.7226      4.5727    131.2478
  1139.0000      0.0000    716.0282      4.5015    133.0116
  1139.2500      0.0000    717.3315      4.3326    134.9767
  1139.5000      0.0000    721.0688      4.1385    134.9224
  1139.7500      0.0000    728.9827      4.0154    131.8412
  1140.0000      0.0000    741.7023      4.0090    126.3483
  1140.2500      0.0000    757.1283      4.0927    119.9763
  1140.5000      0.0000    770.5565      4.2162    114.3576
  1140.7500      0.0000    777.3333      4.3592    111.1183
  1141.0000      0.0000    775.9675      4.5315    111.5888
  1141.2500      0.0000    769.2065      4.7359    115.5897
  1141.5000      0.0000    762.7861      4.9348    120.8604
  1141.7500      0.0000    762.2977      5.0588    124.6848
  1142.0000      0.0000    768.9827      5.0612    126.1582
  1142.2500      0.0000    777.9843      4.9581    126.4102
  1142.5000      0.0000    782.2214      4.7998    126.7799
  1142.7500      0.0000    778.4352      4.6167    127.4297
  1143.0000      0.0000    768.6943      4.4230    127.7609
  1143.2500      0.0000    756.8312      4.2554    127.5321
  1143.5000      0.0000    745.2462      4.1552    127.2085
  1143.7500      0.0000    734.9740      4.1059    127.5444
  1144.0000      0.0000    726.7568      4.0416    129.1821
  1144.2500      0.0000    721.0239      3.9394    132.4209
  1144.5000      0.0000    717.3926      3.8668    136.8565
  1144.7500      0.0000    714.8109      3.9042    141.0023
  1145.0000      0.0000    712.1954      4.0400    142.6958
  1145.2500      0.0000    709.0083      4.1767    140.5424
  1145.5000      0.0000    705.4048      4.2385    135.0185
  1145.7500      0.0000    701.6865      4.2419    127.8875
  1146.0000      0.0000    697.4800      4.2467    120.8414
  1146.2500      0.0000    692.0137      4.2662    115.2658
  1146.5000      0.0000    685.7913      4.2533    112.9239
  1146.7500      0.0000    681.4358      4.1744    115.4796
  1147.0000      0.0000    681.8025      4.0637    122.6426
  1147.2500     -2.0000    687.1820      3.9822    131.5405
  1147.5000      0.0000    695.0028      3.9360    138.7529
  1147.7500      0.0000    702.2158      3.8780    142.8548
  1148.0000      0.0000    707.5218      3.7957    144.7763
  1148.2500      0.0000    711.5066      3.7492    146.1284
  1148.5000      0.0000    715.1798      3.7943    147.5443
  1148.7500      0.0000    718.4944      3.9063    148.0759
  1149.0000      0.0000    720.2006      4.0185    145.5748
  1149.2500      0.0000    719.0228      4.1022    138.0828
  1149.5000      0.0000    714.7402      4.1642    125.7163
  1149.7500      0.0000    708.2762      4.1987    111.1597
  1150.0000      0.0000    701.4382      4.1919     97.8403
  1150.2500      0.0000    696.6374      4.1594     87.7339
  1150.5000      0.0000    695.8140      4.1340     80.9804
  1150.7500      0.0000    698.9503      4.1196     76.8374
  1151.0000      0.0000    703.9807      4.0940     74.4229
  1151.2500      0.0000    708.4411      4.0704     72.9502
  1151.5000      0.0000    711.0021      4.1179     71.8834
  1151.7500      0.0000    711.5390      4.2856     71.0864
  1152.0000      0.0000    710.3043      4.5219     70.9481
  1152.2500      0.0000    707.3605      4.7057     72.4240
  1152.5000      0.0000    702.8754      4.7564     76.7276
  1152.7500      0.0000    697.9500      4.6804     84.6896
  1153.0000      0.0000    694.7672      4.5253     96.1773
  1153.2500      0.0000    695.2152      4.3387    109.8514
  1153.5000      0.0000    699.2299      4.1744    123.3959
  1153.7500      0.0000    704.9421      4.0773    134.3048
  1154.0000      0.0000    710.5049      4.0334    140.9663
  1154.2500      0.0000    715.3445      3.9752    143.3709
  1154.5000      0.0000    719.6125      3.8667    142.8941
  1154.7500      0.0000    722.9725      3.7657    141.3318
  1155.0000      0.0000    724.4493      3.7719    140.0578
  1155.2500      0.0000    723.5210      3.9142    139.7243
  1155.5000      0.0000    720.9311      4.1099    140.2039
  1155.7500      0.0000    718.1259      4.2490    140.5787
  1156.0000      0.0000    716.1052      4.3000    139.5206
  1156.2500      0.0000    714.9951      4.3122    136.2223
  1156.5000      0.0000    714.4417      4.3375    131.3058
  1156.7500      0.0000    714.1037      4.3776    126.7891
  1157.0000      0.0000    713.8367      4.4008    124.7251
  1157.2500      0.0000    713.6440      4.3946    125.4664
  1157.5000      0.0000    713.5750      4.3914    127.3708
  1157.7500      0.0000    713.6446      4.4308    128.4226
  1158.0000      0.0000    713.8041      4.5026    127.9883
  1158.2500      0.0000    713.9556      4.5505    126.9574
  1158.5000      0.0000    714.0063      4.5374    126.4665
  1158.7500      0.0000    713.9204      4.4925    126.5655
  1159.0000      0.0000    713.7309      4.4869    126.0693
  1159.2500      0.0000    713.5029      4.5645    123.7733
  1159.5000      0.0000    713.2758      4.6920    119.6605
  1159.7500      0.0000    713.0397      4.7669    114.7076
  1160.0000      0.0000    712.7715      4.6840    109.9513
  1160.2500      0.0000    712.4807      4.4245    106.1612
  1160.5000      0.0000    712.2104      4.1037    103.9822
  1160.7500      0.0000    712.0041      3.9116    103.8846
  1161.0000      0.0000    711.8840      3.9683    106.1603
  1161.2500      0.0000    711.8437      4.2134    111.0218
  1161.5000      0.0000    711.8389      4.4420    118.1420
  1161.7500      0.0000    711.7756      4.4627    125.7067
  1162.0000      0.0000    711.5190      4.2468    130.5638
  1162.2500      0.0000    710.7490      3.9560    130.3107
  1162.5000      0.0000    708.6008      3.8220    125.4922
  1162.7500      0.0000    703.2703      3.9668    119.3255
  1163.0000      0.0000    692.5770      4.3074    115.1612
  1163.2500      0.0000    676.2019      4.6274    114.2805
  1163.5000      0.0000    657.4701      4.7373    115.7162
  1163.7500      0.0000    640.4115      4.5969    117.6208
  1164.0000      0.0000    623.3696      4.3329    118.6422
  1164.2500      0.0000    598.3362      4.1547    118.2006
  1164.5000      0.0000    559.8483      4.2042    115.9831
  1164.7500      0.0000    512.9069      4.4413    111.7357
  1165.0000      0.0000    469.4527      4.6749    105.6308
  1165.2500      0.0000    438.5414      4.7150     98.3812
  1165.5000      0.0000    422.2357      4.5125     90.7028
