~Version Information
VERS.                      2.0: CWLS Log ASCII Standard - VERSION 2.0
WRAP.                       NO: One line per depth step
~Well Information Block
STRT.FT               235.0000: 
STOP.FT              1633.0000: 
STEP.FT                 0.1000: 
NULL.                -999.2500: 
COMP.          Petrogulf Corporation: COMPANY
WELL.             State 16-41R: WELL
FLD.           Purgatorie River: FIELD
LOC.           280' FNL & 907' FEL: LOCATION
PROV.                 Colorado: PROVINCE
CNTY.               Las Animas: COUNTRY
SRVC.                Patterson: SERVICE COMPANY
DATE.          Wed Oct 19 07:05:20 2005: LOG DATE
API.           05-071-08345    : API
~Curve Information Block
DEPT.FT            0 000 00 00: Depth
DCAL.in                       : CDL Caliper
RHOB.g/cc                     : CDL Bulk Density
RHOC.g/cc                     : CDL Density Correction
DPOR.pu                       : CDL Density Porosity
GR.GAPI                       : Gamma Ray
NPOR.pu                       : Neutron Porosity
~Parameter Information Block
~A  Depth       DCAL        RHOB        RHOC        DPOR         GR         NPOR    
# ...
   878.2000      8.0400      2.3601      0.0814     17.5717    147.9383     30.7406
   878.3000      8.0441      2.4101      0.1550     14.5405    144.1148     30.6094
   878.4000      8.0441      2.4452      0.1460     12.4094    134.5998     30.7775
   878.5000      8.0858      2.4705      0.1172     10.8809    125.8342     31.2042
   878.6000      8.0858      2.5045      0.1529      8.8209    126.6485     31.6616
   878.7000      8.0858      2.5336      0.2016      7.0524    133.7811     31.8011
   878.8000      8.2003      2.5351      0.1528      6.9644    139.3855     31.5123
   878.9000      8.2003      2.5115      0.1636      8.3950    140.7091     31.1470
   879.0000      8.0419      2.4830      0.1143     10.1226    138.7809     31.0807
   879.1000      8.0419      2.4764      0.0769     10.5206    137.0415     31.1309
   879.2000      8.0419      2.5031      0.0617      8.9048    136.3902     30.9155
   879.3000      8.0318      2.5447      0.0807      6.3814    134.2505     30.3968
   879.4000      8.0318      2.5798      0.1006      4.2537    129.9766     29.9796
   879.5000      8.0142      2.6026      0.0805      2.8722    125.1190     29.9091
   879.6000      8.0142      2.6210      0.0950      1.7594    122.0991     29.9100
   879.7000      8.0142      2.6476      0.1247      0.1425    121.3174     29.8255
   879.8000      8.0088      2.6811      0.1641     -1.8860    119.4756     29.8152
   879.9000      8.0088      2.7045      0.1861     -3.3010    116.9574     29.9232
   880.0000      8.0539      2.7063      0.1977     -3.4093    116.5924     30.0600
   880.1000      8.0539      2.6954      0.1070     -2.7520    115.9237     30.1987
   880.2000      8.0539      2.6885      0.0781     -2.3351    113.9333     30.2871
   880.3000      8.1128      2.6778      0.0885     -1.6841    112.9345     30.1636
   880.4000      8.1128      2.6446      0.0536      0.3271    111.7466     29.9270
   880.5000      8.1349      2.6040     -0.0184      2.7852    110.5761     29.8732
   880.6000      8.1349      2.5873      0.0124      3.8016    111.1793     29.9373
   880.7000      8.1349      2.5938      0.0579      3.4044    112.7380     29.9632
   880.8000      8.1492      2.6025      0.0311      2.8811    111.6721     29.8973
   880.9000      8.1492      2.6009      0.0380      2.9772    107.8707     29.7242
   881.0000      8.1415      2.5813      0.0516      4.1609    107.6054     29.7468
   881.1000      8.1415      2.5520     -0.0209      5.9372    113.0726     30.0019
   881.2000      8.1415      2.5411      0.0319      6.6013    120.1724     30.1885
   881.3000      8.0736      2.5563      0.0526      5.6803    125.9556     30.2175
   881.4000      8.0736      2.5764      0.1062      4.4621    129.1303     30.1985
   881.5000      8.0755      2.5829      0.1031      4.0688    129.5950     30.2734
   881.6000      8.0755      2.5766      0.0894      4.4500    128.2543     30.4725
   881.7000      8.0755      2.5631      0.0937      5.2695    125.3065     30.5813
   881.8000      8.0910      2.5376      0.0940      6.8126    123.0120     30.3959
   881.9000      8.0910      2.4970      0.0467      9.2703    123.9907     30.0828
   882.0000      8.1307      2.4575     -0.0141     11.6660    127.2415     29.9566
   882.1000      8.1307      2.4402      0.0159     12.7142    130.2537     30.0237
   882.2000      8.1307      2.4434      0.0516     12.5185    131.9756     30.0491
   882.3000      8.0463      2.4559      0.0392     11.7651    133.0949     30.0371
   882.4000      8.0463      2.4819      0.0388     10.1870    132.7148     30.1433
   882.5000      8.0071      2.5317      0.0829      7.1668    129.7002     30.3675
   882.6000      8.0071      2.5959      0.1601      3.2805    127.6538     30.5684
   882.7000      8.0071      2.6507      0.1735     -0.0398    128.6915     30.5655
   882.8000      7.9830      2.6857      0.1746     -2.1645    130.1977     30.2647
   882.9000      7.9830      2.7028      0.1804     -3.2023    130.8974     29.8088
   883.0000      7.9652      2.7017      0.1900     -3.1358    130.6981     29.4775
   883.1000      7.9652      2.6821      0.1601     -1.9482    130.7897     29.2500
   883.2000      7.9652      2.6455      0.1399      0.2704    131.9816     28.9012
   883.3000      7.9659      2.5997      0.0895      3.0456    132.1038     28.6525
   883.4000      7.9659      2.5643      0.0268      5.1940    130.2131     28.8202
   883.5000      7.9733      2.5539      0.0345      5.8217    130.0964     29.0476
   883.6000      7.9733      2.5637      0.0651      5.2322    133.4142     28.9869
   883.7000      7.9733      2.5753      0.1041      4.5243    135.4249     28.9032
   883.8000      7.9890      2.5712      0.0922      4.7735    135.0625     28.9977
   883.9000      7.9890      2.5531      0.0615      5.8710    137.7481     29.0242
   884.0000      7.9991      2.5412      0.0350      6.5916    144.3664     28.9206
   884.1000      7.9991      2.5466      0.0336      6.2651    147.3275     28.9616
   884.2000      7.9991      2.5550      0.0439      5.7606    142.5246     29.2773
   884.3000      8.0298      2.5479      0.0607      6.1860    135.9379     29.6717
   884.4000      8.0298      2.5275      0.0610      7.4239    134.3997     29.7794
   884.5000      8.0418      2.5052      0.0581      8.7771    138.7999     29.5563
   884.6000      8.0418      2.4882      0.0242      9.8045    144.1614     29.4349
   884.7000      8.0418      2.4814      0.0132     10.2201    145.8958     29.6217
   884.8000      8.0324      2.4826      0.0316     10.1439    143.7541     29.7752
   884.9000      8.0324      2.4880     -0.0247      9.8187    140.5827     29.6596
   885.0000      8.0173      2.4963      0.0626      9.3178    140.6351     29.5127
   885.1000      8.0173      2.4990      0.0376      9.1539    144.3566     29.5010
   885.2000      8.0173      2.4921      0.0405      9.5680    148.4112     29.3034
   885.3000      7.9887      2.4807      0.0614     10.2593    150.6543     28.7876
   885.4000      7.9887      2.4752     -0.0000     10.5943    150.9360     28.3757
   885.5000      7.9749      2.4836     -0.0002     10.0831    149.4311     28.3248
   885.6000      7.9749      2.4892      0.0828      9.7459    145.6672     28.2974
   885.7000      7.9749      2.4782     -0.0161     10.4120    142.0000     28.0533
   885.8000      7.9662      2.4712     -0.0017     10.8360    142.2389     27.8433
   885.9000      7.9662      2.4804      0.0130     10.2776    146.1739     27.7755
   886.0000      7.9641      2.4925      0.0410      9.5474    153.0451     27.8792
   886.1000      7.9641      2.4983      0.0367      9.1929    159.0280     28.1973
   886.2000      7.9641      2.5059      0.0362      8.7349    158.9916     28.5124
   886.3000      7.9712      2.5185      0.0650      7.9707    155.1146     28.6857
   886.4000      7.9712      2.5193      0.0981      7.9203    151.7134     28.8170
   886.5000      7.9742      2.5034      0.0467      8.8850    148.4508     29.0021
   886.6000      7.9742      2.4974      0.0197      9.2478    144.6700     29.2191
   886.7000      7.9742      2.5133      0.0661      8.2829    144.1482     29.4006
   886.8000      7.9803      2.5294      0.0668      7.3061    148.8116     29.4039
   886.9000      7.9803      2.5353      0.0479      6.9505    153.2697     29.1168
   887.0000      7.9713      2.5397      0.1011      6.6851    153.6712     28.6819
   887.1000      7.9713      2.5473      0.0995      6.2227    153.9782     28.3724
   887.2000      7.9713      2.5577      0.0860      5.5959    155.8157     28.2526
   887.3000      7.9644      2.5626      0.0764      5.2991    156.0146     28.2240
   887.4000      7.9644      2.5516      0.0927      5.9666    154.1198     28.2522
   887.5000      7.9607      2.5322     -0.0008      7.1404    150.5824     28.2051
   887.6000      7.9607      2.5229      0.0409      7.7055    146.1445     28.1073
   887.7000      7.9607      2.5274      0.0589      7.4290    144.9932     28.1985
