~Version Information
 VERS.                                  2.0 : CWLS LAS VERSION
 WRAP.                                   NO : WRAPING MODE
 SWARE .                 MController 2.5.0N : SOFTWARE VERSION
~Well Information
 WELL.                           Zink 44-10 : WELL
 COMP.    Pioneer Natural Resources USA Inc : COMPANY
 FLD.                      Purgatoire River : FIELD
 LOC.                SE/SE Sec 10 T32S R66W : LOCATION
 DATE.                              5/29/05 : DATE(S) LOGGED
 SRVC.       Blanco Geological Services LLC : SERVICE COMPANY
 STAT.                                   CO : STATE
 CNTY.                           Las Animas : COUNTY
 CTRY.                                  USA : COUNTRY
 API.                       05-071-08380-00 : API NUMBER
 STRT.FT                             620.00 : START DEPTH
 STOP.FT                            2635.00 : STOP DEPTH
 STEP.FT                               1.00 : DEPTH INCREMENT
 NULL.                                -9999 : NULL VALUE
~Curve information
 DEPTH.FT                                   :
 ROP.MIN/FT                                 :
 GAS.UNITS                                  :
~ASCII Log data
# ...
      1620.0         0.30        483.7 
      1621.0         0.27        467.3 
      1622.0         0.27        453.9 
      1623.0         0.32        440.0 
      1624.0         0.30        212.1 
      1625.0         0.23        196.0 
      1626.0         0.17        187.9 
      1627.0         0.10        184.4 
      1628.0         0.13        184.9 
      1629.0         0.13        188.0 
      1630.0         0.17        191.2 
      1631.0         0.10        192.8 
      1632.0         0.17        194.1 
      1633.0         0.13        195.0 
      1634.0         0.17        200.2 
      1635.0         0.23        223.4 
      1636.0         0.20        227.6 
      1637.0         0.13        222.6 
      1638.0         0.23        210.7 
      1639.0         0.20        189.4 
      1640.0         0.23        176.8 
      1641.0         0.18        165.8 
      1642.0         0.20        155.5 
      1643.0         0.23        142.9 
      1644.0         0.20        128.2 
      1645.0         0.17        125.4 
      1646.0         2.37        473.7 
      1647.0         0.42        408.5 
      1648.0         0.20        338.6 
      1649.0         0.27        308.0 
      1650.0         0.37        278.2 
      1651.0         0.30        249.8 
      1652.0         0.30        235.7 
      1653.0         0.30        223.8 
      1654.0         0.27        213.8 
      1655.0         0.27        206.6 
      1656.0         0.33        200.7 
      1657.0         0.30        193.5 
      1658.0         0.35        190.8 
      1659.0         0.33        187.4 
      1660.0         0.30        184.6 
      1661.0         0.33        181.7 
      1662.0         0.20        175.4 
      1663.0         0.20        173.4 
      1664.0         0.27        171.4 
      1665.0         0.23        169.8 
      1666.0         0.27        168.5 
      1667.0         0.30        190.0 
      1668.0         0.30        198.2 
      1669.0         0.30        193.7 
      1670.0         0.32        172.3 
      1671.0         0.30        154.1 
      1672.0         0.27        138.7 
      1673.0         0.23        123.7 
      1674.0         0.27        117.2 
      1675.0         0.23        136.5 
      1676.0         3.38       1372.2 
      1677.0         0.33        627.3 
      1678.0         0.30        514.4 
      1679.0         0.33        510.8 
      1680.0         0.30        498.1 
      1681.0         0.33        473.2 
      1682.0         0.32        440.0 
      1683.0         0.30        210.8 
      1684.0         0.27        198.8 
      1685.0         0.33        187.8 
      1686.0         0.23        178.0 
      1687.0         0.20        175.0 
      1688.0         0.20        174.0 
      1689.0         0.23        175.0 
      1690.0         0.27        178.3 
      1691.0         0.20        180.1 
      1692.0         0.27        182.4 
      1693.0         0.33        182.9 
      1694.0         0.30        180.4 
      1695.0         0.28        177.0 
      1696.0         0.23        199.2 
      1697.0         0.20        206.3 
      1698.0         0.20        205.6 
      1699.0         0.23        199.0 
      1700.0         0.20        185.3 
      1701.0         0.23        171.8 
      1702.0         0.23        156.2 
      1703.0         0.23        138.7 
      1704.0         0.27        121.2 
      1705.0         0.23        113.9 
      1706.0         1.92        339.7 
      1707.0         0.37        337.2 
      1708.0         0.27        311.1 
      1709.0         0.27        287.2 
      1710.0         0.30        266.3 
      1711.0         0.27        245.5 
      1712.0         0.30        235.9 
      1713.0         0.30        236.8 
      1714.0         0.32        237.4 
      1715.0         0.27        235.0 
      1716.0         0.37        227.8 
      1717.0         0.27        216.4 
      1718.0         0.20        209.9 
      1719.0         0.17        206.7 
      1720.0         0.27        204.2 
      1721.0         0.30        201.3 
      1722.0         0.27        199.3 
      1723.0         0.27        197.2 
      1724.0         0.27        194.4 
      1725.0         0.27        191.2 
      1726.0         0.27        210.1 
      1727.0         0.25        218.9 
      1728.0         0.23        216.4 
      1729.0         0.27        202.6 
      1730.0         0.20        184.9 
      1731.0         0.20        173.8 
      1732.0         0.20        158.4 
      1733.0         0.23        142.9 
      1734.0         0.23        126.2 
      1735.0         0.23        124.8 
      1736.0         2.02        382.5 
      1737.0         0.27        374.1 
      1738.0         0.27        376.7 
      1739.0         0.20        379.2 
      1740.0         0.10        379.2 
      1741.0         0.40        378.8 
      1742.0         0.23        369.8 
      1743.0         0.30        366.5 
      1744.0         0.27        364.6 
      1745.0         0.33        359.0 
      1746.0         0.37        346.8 
      1747.0         0.28        327.3 
      1748.0         0.27        313.9 
      1749.0         0.30        307.2 
      1750.0         0.27        303.1 
      1751.0         0.30        300.9 
      1752.0         0.27        299.7 
      1753.0         0.33        299.5 
      1754.0         0.33        293.4 
      1755.0         0.30        298.5 
      1756.0         0.23        320.2 
      1757.0         0.30        320.2 
      1758.0         0.25        301.1 
      1759.0         0.23        273.7 
      1760.0         0.23        248.7 
      1761.0         0.23        221.5 
      1762.0         0.30        197.8 
      1763.0         0.20        173.9 
      1764.0         0.13        179.2 
      1765.0         0.27        210.8 
      1766.0         2.28        961.0 
      1767.0         0.43        795.5 
      1768.0         0.30        710.4 
      1769.0         0.23        653.8 
      1770.0         0.20        638.1 
      1771.0         0.27        623.7 
      1772.0         0.30        613.9 
      1773.0         0.33        595.6 
      1774.0         0.33        575.0 
      1775.0         0.30        561.9 
      1776.0         0.18        552.4 
      1777.0         0.30        546.5 
      1778.0         0.30        530.8 
      1779.0         0.30        524.6 
      1780.0         0.30        521.0 
      1781.0         0.30        520.3 
      1782.0         0.30        518.0 
      1783.0         0.27        516.4 
      1784.0         0.27        561.5 
      1785.0         0.23        504.6 
      1786.0         0.23        555.0 
      1787.0         0.20        558.9 
      1788.0         0.25        546.8 
      1789.0         0.30        507.9 
      1790.0         0.23        493.2 
      1791.0         0.27        480.4 
      1792.0         0.27        442.8 
      1793.0         0.27        202.5 
      1794.0         0.27        188.0 
      1795.0         0.43        241.6 
      1796.0         1.35       1005.8 
      1797.0         0.37        996.0 
      1798.0         0.33        914.2 
      1799.0         0.40        848.5 
      1800.0         0.33        740.8 
      1801.0         0.37        680.0 
      1802.0         0.30        630.6 
      1803.0         0.23        599.2 
      1804.0         0.27        575.9 
      1805.0         0.13        575.0 
      1806.0         0.13        574.6 
      1807.0         0.13        570.0 
      1808.0         0.28        566.8 
      1809.0         0.33        556.6 
      1810.0         0.30        542.9 
      1811.0         0.27        530.1 
      1812.0         0.30        522.9 
      1813.0         0.30        513.5 
      1814.0         0.30        510.5 
      1815.0         0.27        506.9 
      1816.0         0.27        499.1 
      1817.0         0.27        551.1 
      1818.0         0.27        577.9 
      1819.0         0.20        574.6 
