~Version Information
 VERS.                                  2.0 : CWLS LAS VERSION
 WRAP.                                   NO : WRAPING MODE
 SWARE .                 MController 2.5.0J : SOFTWARE VERSION
~Well Information
 WELL.                         Culver 14-12 : WELL
 COMP.    Pioneer Natural Resources USA Inc : COMPANY
 FLD.                      Purgatoire River : FIELD
 LOC.                SW/SW Sec 12 T32S R66W : LOCATION
 DATE.                              6/06/05 : DATE(S) LOGGED
 SRVC.       Blanco Geological Services LLC : SERVICE COMPANY
 STAT.                                   CO : STATE
 CNTY.                           Las Animas : COUNTY
 CTRY.                                  USA : COUNTRY
 API.                       05 071 08386 00 : API NUMBER
 STRT.FT                             442.00 : START DEPTH
 STOP.FT                            2305.00 : STOP DEPTH
 STEP.FT                               1.00 : DEPTH INCREMENT
 NULL.                                -9999 : NULL VALUE
~Curve information
 DEPTH.FT                                   :
 ROP.MIN/FT                                 :
 GAS.UNITS                                  :
~ASCII Log data
# ...
      1242.0         0.20         26.6 
      1243.0         0.23         25.8 
      1244.0         0.23         25.0 
      1245.0         0.20         24.5 
      1246.0         0.23         26.0 
      1247.0         0.23         27.7 
      1248.0         0.23         35.8 
      1249.0         0.20         36.1 
      1250.0         0.17         33.2 
      1251.0         0.13         31.5 
      1252.0         0.17         30.9 
      1253.0         0.13         30.0 
      1254.0         0.10         27.1 
      1255.0         0.20         25.1 
      1256.0         2.15         98.0 
      1257.0         0.30        127.6 
      1258.0         0.43        132.9 
      1259.0         0.30        124.8 
      1260.0         0.22        101.6 
      1261.0         0.30         86.3 
      1262.0         0.23         71.3 
      1263.0         0.17         64.7 
      1264.0         0.20         62.1 
      1265.0         0.23         59.8 
      1266.0         0.23         57.7 
      1267.0         0.23         53.4 
      1268.0         0.23         49.0 
      1269.0         0.20         46.9 
      1270.0         0.17         45.4 
      1271.0         0.20         44.2 
      1272.0         0.13         43.5 
      1273.0         0.13         42.0 
      1274.0         0.17         41.0 
      1275.0         0.20         38.6 
      1276.0         0.20         36.9 
      1277.0         0.22         35.8 
      1278.0         0.20         39.3 
      1279.0         0.17         42.6 
      1280.0         0.20         41.0 
      1281.0         0.17         35.5 
      1282.0         0.20         33.7 
      1283.0         0.17         31.1 
      1284.0         0.23         28.6 
      1285.0         0.20         26.7 
      1286.0         3.18        281.3 
      1287.0         0.23        254.4 
      1288.0         0.30        216.4 
      1289.0         0.17        160.1 
      1290.0         0.23        129.9 
      1291.0         0.20         97.7 
      1292.0         0.20         80.6 
      1293.0         0.20         71.9 
      1294.0         0.13         66.4 
      1295.0         0.17         61.9 
      1296.0         0.18         57.4 
      1297.0         0.20         57.0 
      1298.0         0.23         56.8 
      1299.0         0.23         56.0 
      1300.0         0.27         52.0 
      1301.0         0.30         48.2 
      1302.0         0.27         44.8 
      1303.0         0.20         42.6 
      1304.0         0.17         41.5 
      1305.0         0.23         40.0 
      1306.0         0.23         37.5 
      1307.0         0.20         35.9 
      1308.0         0.17         37.1 
      1309.0         0.17         39.9 
      1310.0         0.23         38.4 
      1311.0         0.22         32.9 
      1312.0         0.17         32.2 
      1313.0         0.23         30.1 
      1314.0         0.23         27.7 
      1315.0         0.37         25.9 
      1316.0         2.00        112.1 
      1317.0         0.52        137.5 
      1318.0         0.33        122.6 
      1319.0         0.27         93.5 
      1320.0         0.23         77.6 
      1321.0         0.20         64.8 
      1322.0         0.13         60.6 
      1323.0         0.13         60.4 
      1324.0         0.13         61.0 
      1325.0         0.27         62.3 
      1326.0         0.27         62.2 
      1327.0         0.20         60.1 
      1328.0         0.17         58.4 
      1329.0         0.23         56.1 
      1330.0         0.20         53.0 
      1331.0         0.20         49.9 
      1332.0         0.22         48.3 
      1333.0         0.20         46.1 
      1334.0         0.20         43.9 
      1335.0         0.20         41.5 
      1336.0         0.17         40.7 
      1337.0         0.17         40.8 
      1338.0         0.20         43.0 
      1339.0         0.20         43.0 
      1340.0         0.20         38.6 
      1341.0         0.17         36.0 
      1342.0         0.20         34.9 
      1343.0         0.20         33.3 
      1344.0         0.20         31.0 
      1345.0         0.20         28.5 
      1346.0         2.35        104.2 
      1347.0         0.33        103.7 
      1348.0         0.33         92.0 
      1349.0         0.27         76.7 
      1350.0         0.27         66.1 
      1351.0         0.23         55.8 
      1352.0         0.20         51.6 
      1353.0         0.28         49.3 
      1354.0         0.23         45.8 
      1355.0         0.23         44.3 
      1356.0         0.20         42.6 
      1357.0         0.20         41.9 
      1358.0         0.20         41.4 
      1359.0         0.20         41.1 
      1360.0         0.23         40.4 
      1361.0         0.23         38.6 
      1362.0         0.20         38.0 
      1363.0         0.30         36.7 
      1364.0         0.40         34.4 
      1365.0         0.37         29.8 
      1366.0         0.25         27.5 
      1367.0         0.20         28.9 
      1368.0         0.23         30.4 
      1369.0         0.20         29.1 
      1370.0         0.20         28.9 
      1371.0         0.20         29.4 
      1372.0         0.23         29.3 
      1373.0         0.17         27.4 
      1374.0         0.17         25.7 
      1375.0         0.27         22.4 
      1376.0         2.32        122.2 
      1377.0         0.47        122.5 
      1378.0         0.43        102.9 
      1379.0         0.27         78.4 
      1380.0         0.27         65.8 
      1381.0         0.23         57.6 
      1382.0         0.20         53.3 
      1383.0         0.23         52.1 
      1384.0         0.28         51.7 
      1385.0         0.23         52.0 
      1386.0         0.20         51.6 
      1387.0         0.13         47.4 
      1388.0         0.13         44.1 
      1389.0         0.13         42.9 
      1390.0         0.20         42.2 
      1391.0         0.23         39.1 
      1392.0         0.20         35.1 
      1393.0         0.13         34.6 
      1394.0         0.13         34.9 
      1395.0         0.23         34.3 
      1396.0         0.17         34.2 
      1397.0         0.20         37.5 
      1398.0         0.17         39.2 
      1399.0         0.20         37.8 
      1400.0         0.20         34.8 
      1401.0         0.20         33.1 
      1402.0         0.22         33.1 
      1403.0         0.20         29.8 
      1404.0         0.20         26.8 
      1405.0         0.17         22.9 
      1406.0         2.27        112.7 
      1407.0         0.23        118.5 
      1408.0         0.13        117.1 
      1409.0         0.12        113.4 
      1410.0         0.23        106.6 
      1411.0         0.23         93.7 
      1412.0         0.23         83.6 
      1413.0         0.27         73.3 
      1414.0         0.27         63.1 
      1415.0         0.27         58.8 
      1416.0         0.23         55.8 
      1417.0         0.17         53.0 
      1418.0         0.13         50.9 
      1419.0         0.13         49.8 
      1420.0         0.17         48.9 
      1421.0         0.17         47.9 
      1422.0         0.17         46.0 
      1423.0         0.17         44.7 
      1424.0         0.17         43.7 
      1425.0         0.23         42.9 
      1426.0         0.25         41.1 
      1427.0         0.23         40.4 
      1428.0         0.23         42.3 
      1429.0         0.23         40.2 
      1430.0         0.20         35.3 
      1431.0         0.20         32.6 
      1432.0         0.17         32.3 
      1433.0         0.20         30.2 
      1434.0         0.20         27.0 
      1435.0         0.20         23.8 
      1436.0         2.92         78.2 
      1437.0         0.30         66.3 
      1438.0         0.33         59.5 
      1439.0         0.30         49.8 
      1440.0         0.23         43.5 
      1441.0         0.23         44.8 
