~Version Information
 VERS.                                  2.0 : CWLS LAS VERSION
 WRAP.                                   NO : WRAPING MODE
 SWARE .                 MController 2.5.0J : SOFTWARE VERSION
~Well Information
 WELL.                        Montoya 6-14R : WELL
 COMP.                       Petrogulf Corp : COMPANY
 FLD.                      Purgatoire River : FIELD
 LOC.                 SW/SW Sec 6 T33S R67W : LOCATION
 DATE.                             11/13/04 : DATE(S) LOGGED
 SRVC.       Blanco Geological Services LLC : SERVICE COMPANY
 STAT.                                   CO : STATE
 CNTY.                           Las Animas : COUNTY
 CTRY.                                  USA : COUNTRY
 API.                       05-071-08242-00 : API NUMBER
 STRT.FT                             484.00 : START DEPTH
 STOP.FT                            2180.00 : STOP DEPTH
 STEP.FT                               1.00 : DEPTH INCREMENT
 NULL.                                -9999 : NULL VALUE
~Curve information
 DEPTH.FT                                   :
 ROP.MIN/FT                                 :
 GAS.UNITS                                  :
~ASCII Log data
# ...
      1684.0         0.82         17.3 
      1685.0         1.07         17.9 
      1686.0         0.83         18.7 
      1687.0         0.50         18.2 
      1688.0         0.92         18.7 
      1689.0         0.80         18.7 
      1690.0         0.63         18.6 
      1691.0         0.67         19.0 
      1692.0         0.47         18.3 
      1693.0         0.55         18.2 
      1694.0         0.47         17.4 
      1695.0         0.37         17.9 
      1696.0         0.63         17.6 
      1697.0         0.47         17.9 
      1698.0         0.40         17.5 
      1699.0         0.30         18.1 
      1700.0         0.65         18.2 
      1701.0         0.43         18.5 
      1702.0         0.33         18.3 
      1703.0         0.27         18.2 
      1704.0         0.33         17.6 
      1705.0         0.40        147.1 
      1706.0         0.30         23.3 
      1707.0         0.80         22.6 
      1708.0         0.63         19.7 
      1709.0         0.58         17.9 
      1710.0         0.70         17.5 
      1711.0         0.97         17.1 
      1712.0         0.77         18.6 
      1713.0         0.52         18.2 
      1714.0         0.40         17.9 
      1715.0         0.33         17.7 
      1716.0         0.47         17.7 
      1717.0         0.43         17.8 
      1718.0         0.37         17.4 
      1719.0         0.33         17.9 
      1720.0         0.30         18.1 
      1721.0         0.33         18.4 
      1722.0         0.33         18.2 
      1723.0         0.22         17.8 
      1724.0         0.20         16.9 
      1725.0         0.33         18.1 
      1726.0         0.33         18.3 
      1727.0         0.30         19.3 
      1728.0         0.40         18.5 
      1729.0         0.37         19.7 
      1730.0         0.40         19.3 
      1731.0         0.57         19.3 
      1732.0         0.58         20.1 
      1733.0         0.43         20.5 
      1734.0         0.53         20.3 
      1735.0         0.53        256.4 
      1736.0         0.27         45.5 
      1737.0         0.73         35.9 
      1738.0         0.60         22.9 
      1739.0         0.73         24.2 
      1740.0         0.93         23.2 
      1741.0         0.78         20.4 
      1742.0         0.47         19.9 
      1743.0         0.53         19.4 
      1744.0         0.47         17.2 
      1745.0         0.40         18.2 
      1746.0         0.37         17.6 
      1747.0         0.48         18.2 
      1748.0         0.33         18.2 
      1749.0         0.33         17.2 
      1750.0         0.40         18.2 
      1751.0         0.33         18.7 
      1752.0         0.37         19.0 
      1753.0         0.53         17.9 
      1754.0         0.40         18.5 
      1755.0         0.43         17.7 
      1756.0         0.45         18.5 
      1757.0         0.53         18.7 
      1758.0         0.57         18.7 
      1759.0         0.80         19.1 
      1760.0         0.83         18.9 
      1761.0         0.55         18.5 
      1762.0         0.50         18.1 
      1763.0         0.53         17.7 
      1764.0         0.47         17.9 
      1765.0         0.43         16.4 
      1766.0         0.53        156.7 
      1767.0         0.27         27.8 
      1768.0         0.38         25.8 
      1769.0         0.63         20.0 
      1770.0         0.70         22.6 
      1771.0         0.73         25.1 
      1772.0         0.60         22.6 
      1773.0         0.75         20.8 
      1774.0         0.53         19.6 
      1775.0         0.50         18.5 
      1776.0         0.53         18.1 
      1777.0         0.53         17.8 
      1778.0         0.43         18.4 
      1779.0         0.43         17.5 
      1780.0         0.48         17.3 
      1781.0         0.43         16.8 
      1782.0         0.47         17.5 
      1783.0         0.50         17.9 
      1784.0         0.43         18.0 
      1785.0         0.50         18.6 
      1786.0         0.50         17.8 
      1787.0         0.48         17.3 
      1788.0         0.47         17.0 
      1789.0         0.50         17.5 
      1790.0         0.53         17.4 
      1791.0         0.50         18.0 
      1792.0         0.53         17.7 
      1793.0         0.47         17.1 
      1794.0         0.45         17.6 
      1795.0         0.43         18.3 
      1796.0         0.50         17.3 
      1797.0         0.80        247.4 
      1798.0         0.37         21.4 
      1799.0         0.57         21.0 
      1800.0         0.40         19.7 
      1801.0         0.30         18.0 
      1802.0         0.33         17.2 
      1803.0         0.40         17.2 
      1804.0         0.35         17.0 
      1805.0         0.37         16.4 
      1806.0         0.37         16.7 
      1807.0         0.40         16.7 
      1808.0         0.40         16.7 
      1809.0         0.63         17.2 
      1810.0         0.47         17.8 
      1811.0         0.55         18.8 
      1812.0         0.40         17.7 
      1813.0         0.53         17.9 
      1814.0         0.57         17.9 
      1815.0         0.43         17.1 
      1816.0         0.30         16.4 
      1817.0         0.43         16.1 
      1818.0         0.37         16.0 
      1819.0         0.45         16.1 
      1820.0         0.30         15.8 
      1821.0         0.47         16.3 
      1822.0         0.53         16.5 
      1823.0         0.57         17.5 
      1824.0         0.53         16.8 
      1825.0         0.53         17.6 
      1826.0         0.58         17.5 
      1827.0         0.53        288.7 
      1828.0         0.30         18.9 
      1829.0         0.37         18.5 
      1830.0         0.30         17.9 
      1831.0         0.30         17.2 
      1832.0         0.30         17.7 
      1833.0         0.33         18.0 
      1834.0         0.33         17.9 
      1835.0         0.37         17.8 
      1836.0         0.38         17.7 
      1837.0         0.40         16.7 
      1838.0         0.37         17.3 
      1839.0         0.37         17.5 
      1840.0         0.47         17.7 
      1841.0         0.53         17.3 
      1842.0         0.70         17.9 
      1843.0         0.82         18.0 
      1844.0         0.77         18.7 
      1845.0         0.50         18.1 
      1846.0         0.47         17.5 
      1847.0         0.50         17.1 
      1848.0         0.27         17.1 
      1849.0         0.30         17.0 
      1850.0         0.35         15.8 
      1851.0         0.27         15.1 
      1852.0         0.27         15.4 
      1853.0         0.30         16.1 
      1854.0         0.33         16.3 
      1855.0         0.30         16.7 
      1856.0         0.27         16.8 
      1857.0         0.27        278.0 
      1858.0         0.27         19.1 
      1859.0         0.28         17.0 
      1860.0         0.53         17.3 
      1861.0         0.53         17.1 
      1862.0         0.43         17.9 
      1863.0         0.30         17.6 
      1864.0         0.50         17.3 
      1865.0         0.43         17.9 
      1866.0         0.58         18.2 
      1867.0         0.33         17.2 
      1868.0         0.30         16.5 
      1869.0         0.30         16.0 
      1870.0         0.57         17.8 
      1871.0         0.40         18.2 
      1872.0         0.43         17.4 
      1873.0         0.53         15.8 
      1874.0         0.38         16.9 
      1875.0         0.30         17.3 
      1876.0         0.47         15.5 
      1877.0         0.37         16.2 
      1878.0         0.50         17.4 
      1879.0         0.50         16.6 
      1880.0         0.60         18.1 
      1881.0         0.47         18.0 
      1882.0         0.55         16.9 
      1883.0         0.53         16.4 
