~Version Information
VERS.                      2.0: CWLS Log ASCII Standard - VERSION 2.0
WRAP.                       NO: One line per depth step
~Well Information Block
STRT.FT               -14.0000: 
STOP.FT              2565.5000: 
STEP.FT                 0.5000: 
NULL.                -999.2500: 
COMP.          Pioneer Natural Resources: COMPANY
WELL.             Carbon 34-21: WELL
FLD.           Purgatorie River: FIELD
LOC.           56' FSL & 2304' FEL: LOCATION
PROV.                 Colorado: PROVINCE
CNTY.               Las Animas: COUNTRY
SRVC.          Patterson Wireline: SERVICE COMPANY
DATE.          Mon Nov 08 08:55:10 2004: LOG DATE
UWI.           05-071-08117-00: UNIQUE WELL ID
~Curve Information Block
DEPT.FT            0 000 00 00: Depth
TT3.usec                      : CBL 3' Travel Time
AMP3.mV                       : CBL 3' Amplitude
GR.GAPI                       : Gamma Ray
CCL.                          : Casing Collar Locator
~Parameter Information Block
~A  Depth       TT3         AMP3         GR         CCL     
# ...
   991.0000    282.5039     77.4675    177.1937      0.0000
   991.5000    282.4999     77.7367    175.2830      0.0000
   992.0000    282.6054     76.9305    176.2723      0.0000
   992.5000    282.7601     75.1947    177.2101      0.0000
   993.0000    282.7180     74.8445    174.4534      0.0000
   993.5000    282.5175     75.6827    172.6391      0.0000
   994.0000    282.3396     76.0055    168.9416      0.0000
   994.5000    282.3212     75.2960    160.3118      0.0000
   995.0000    282.4137     73.8569    144.5871      0.0000
   995.5000    282.4633     72.5510    133.9348      0.0000
   996.0000    282.3476     72.7118    135.7338      0.0000
   996.5000    282.1775     73.5253    143.9059      0.0000
   997.0000    282.0948     73.2783    153.3786      0.0000
   997.5000    282.0756     72.4442    157.7856      0.0000
   998.0000    282.0560     72.1359    156.6450      0.0000
   998.5000    282.0253     71.9828    159.7778      0.0000
   999.0000    281.9715     71.6896    163.9748      0.0000
   999.5000    281.8943     71.5239    160.1466      0.0000
  1000.0000    281.8315     71.4492    154.2494      0.0000
  1000.5000    281.7979     71.2869    150.4588      0.0000
  1001.0000    281.7770     71.1017    145.0542      0.0000
  1001.5000    281.7669     70.9061    135.0413      0.0000
  1002.0000    281.7740     70.6452    122.6265      0.0000
  1002.5000    281.7742     70.5464    106.9370      0.0000
  1003.0000    281.7418     70.5421     90.1647      0.0000
  1003.5000    281.7024     70.3012     78.9588      0.0000
  1004.0000    281.7005     70.2671     74.2234      0.0000
  1004.5000    281.7079     70.4664     70.7850      0.0000
  1005.0000    281.6902     70.3680     64.0184      0.0000
  1005.5000    281.6807     70.2989     57.7092      0.0000
  1006.0000    281.7016     70.2384     55.5493      0.0000
  1006.5000    281.7195     70.0634     55.9287      0.0000
  1007.0000    281.7409     69.8889     59.5477      0.0000
  1007.5000    281.7246     69.4277     61.2557      0.0000
  1008.0000    281.6438     68.9013     59.0784      0.0000
  1008.5000    281.5763     68.4711     58.6094      0.0000
  1009.0000    281.5630     67.9768     60.0409      0.0000
  1009.5000    281.5606     67.2584     64.6253      0.0000
  1010.0000    281.5434     66.3295     77.6855      0.0000
  1010.5000    281.7242     64.3411     97.7185      0.0000
  1011.0000    282.9726     58.8647    117.4539      0.0000
  1011.5000    286.0258     51.4476    126.4376      0.0000
  1012.0000    289.1451     46.2846    119.5883      0.0000
  1012.5000    290.2382     44.3446    105.4857      0.0000
  1013.0000    290.5478     44.1261    109.5774     -3.9789
  1013.5000    292.7018     43.7696    131.5874      0.0000
  1014.0000    296.4854     44.3073    145.0594      0.0000
  1014.5000    293.7774     49.1957    150.5621      0.0000
  1015.0000    285.7660     56.9520    160.0326      0.0000
  1015.5000    281.7920     62.0742    169.1975      0.0000
  1016.0000    281.2043     63.2983    177.9199      0.0000
  1016.5000    281.2316     63.5084    186.4660      0.0000
  1017.0000    281.2505     64.0847    182.3631      0.0000
  1017.5000    281.2832     64.5991    166.8905      0.0000
  1018.0000    281.3460     64.8908    156.9701      0.0000
  1018.5000    281.4343     65.1015    152.6271      0.0000
  1019.0000    281.5609     65.1109    147.2620      0.0000
  1019.5000    281.6823     65.1502    131.3056      0.0000
  1020.0000    281.7080     66.3105    107.8959      0.0000
  1020.5000    281.6418     68.3917     91.9222      0.0000
  1021.0000    281.6776     69.5235     95.7726      0.0000
  1021.5000    281.8288     69.6033    121.5989      0.0000
  1022.0000    282.0321     69.2339    153.8711      0.0000
  1022.5000    282.2624     68.8632    172.9534      0.0000
  1023.0000    282.2996     69.6713    172.1465      0.0000
  1023.5000    282.1206     71.2803    161.7003      0.0000
  1024.0000    282.0161     72.3752    151.6518      0.0000
  1024.5000    282.0286     73.1007    139.8505      0.0000
  1025.0000    282.0671     73.7225    129.7084      0.0000
  1025.5000    282.1225     74.0518    119.1735      0.0000
  1026.0000    282.1532     74.1417    108.9012      0.0000
  1026.5000    282.1618     74.3802    103.9675      0.0000
  1027.0000    282.1501     74.8817    104.4933      0.0000
  1027.5000    282.0915     75.4250    112.7756      0.0000
  1028.0000    282.0710     75.7913    117.8034      0.0000
  1028.5000    282.1268     75.7339    117.0166      0.0000
  1029.0000    282.1660     75.5064    121.4956      0.0000
  1029.5000    282.1599     75.6469    123.7959      0.0000
  1030.0000    282.1703     76.0041    119.0686      0.0000
  1030.5000    282.2061     76.2565    119.0713      0.0000
  1031.0000    282.2137     76.3117    125.5364      0.0000
  1031.5000    282.2020     76.2962    127.6952      0.0000
  1032.0000    282.2122     76.5355    132.0650      0.0000
  1032.5000    282.2399     76.8375    138.8250      0.0000
  1033.0000    282.2467     76.8626    141.0000      0.0000
  1033.5000    282.2544     76.8670    135.0034      0.0000
  1034.0000    282.2735     77.1049    124.5543      0.0000
  1034.5000    282.3003     77.2903    118.5129      0.0000
  1035.0000    282.3207     77.4217    114.9078      0.0000
  1035.5000    282.3366     77.5678    113.4205      0.0000
  1036.0000    282.3432     77.8898    119.4089      0.0000
  1036.5000    282.3438     78.2663    122.6365      0.0000
  1037.0000    282.3758     78.4625    120.3433      0.0000
  1037.5000    282.4273     78.5860    113.9467      0.0000
  1038.0000    282.4645     78.6452    105.5605      0.0000
  1038.5000    282.4594     78.9536    104.9051      0.0000
  1039.0000    282.4541     79.3485    106.6757      0.0000
  1039.5000    282.4720     79.6238    105.6824      0.0000
  1040.0000    282.4757     79.7243     98.1390      0.0000
  1040.5000    282.4763     79.7383     85.5961      0.0000
  1041.0000    282.4966     79.7925     88.0198      0.0000
  1041.5000    282.5231     79.8946    109.9974      0.0000
  1042.0000    282.5649     79.9752    128.9712      0.0000
  1042.5000    282.6335     80.0331    133.2886      0.0000
  1043.0000    282.6877     80.3253    144.4278      0.0000
  1043.5000    282.7347     80.6847    166.1291      0.0000
  1044.0000    282.7596     81.2326    176.0492      0.0000
  1044.5000    282.7595     82.0134    173.6527      0.0000
  1045.0000    282.7673     82.6591    169.8240      0.0000
  1045.5000    282.7888     82.8551    171.4260      0.0000
  1046.0000    282.8194     82.8005    177.5934      0.0000
  1046.5000    282.8416     83.0337    181.0180      0.0000
  1047.0000    282.8684     83.3999    186.6067      0.0000
  1047.5000    282.9203     83.5051    196.9980      0.0000
  1048.0000    282.9789     83.6160    198.7029      0.0000
  1048.5000    282.9813     83.9520    188.1558      0.0000
  1049.0000    282.9531     84.0130    179.1941      0.0000
  1049.5000    282.9550     84.1444    181.1921      0.0000
  1050.0000    282.9682     84.7359    186.1324      0.0000
  1050.5000    282.9799     85.0821    180.8368      0.0000
  1051.0000    283.0000     85.2650    168.0733      0.0000
  1051.5000    283.0251     85.4514    158.1629      0.0000
  1052.0000    283.0626     84.9280    146.9841      0.0000
  1052.5000    283.0825     84.5462    132.0772      0.0000
  1053.0000    283.0630     84.6281    115.1382      0.0000
  1053.5000    283.1069     84.5150    109.6475      0.0000
  1054.0000    283.5064     84.3139    117.9263      0.0000
  1054.5000    285.0350     82.6296    124.8051      0.0000
  1055.0000    287.6285     77.5592    126.5658      0.0000
  1055.5000    289.6157     71.1021    127.5262      0.0000
  1056.0000    290.3806     68.0364    130.7390      0.0000
  1056.5000    290.5473     67.6827    143.0579      0.0000
  1057.0000    290.5355     68.0615    161.8271      0.0000
  1057.5000    290.0294     70.5469    176.7241      0.0000
