~Version Information
VERS.                      2.0: CWLS Log ASCII Standard - VERSION 2.0
WRAP.                       NO: One line per depth step
~Well Information Block
STRT.FT               620.0000: 
STOP.FT              2660.0000: 
STEP.FT                 0.1000: 
NULL.                -999.2500: 
COMP.          Evergreen Operating Corporation: COMPANY
WELL.             Carbon 34-21: WELL
FLD.           Purgatoire River: FIELD
LOC.           56' FSL & 2304' FEL: LOCATION
PROV.                 Colorado: PROVINCE
CNTY.               Las Animas: COUNTRY
SRVC.                Patterson: SERVICE COMPANY
DATE.          Mon Sep 13 14:13:15 2004: LOG DATE
UWI.           05 071 08117 00: UNIQUE WELL ID
~Curve Information Block
DEPT.FT            0 000 00 00: Depth
DCAL.in                       : CDL Caliper
DPOR.pu                       : CDL Density Porosity
NPOR.pu                       : Neutron Porosity
RHOB.g/cc                     : CDL Bulk Density
RHOC.g/cc                     : CDL Density Correction
GR.GAPI                       : Gamma Ray
~Parameter Information Block
~A  Depth       DCAL        DPOR        NPOR        RHOB        RHOC         GR     
# ...
  2655.2000      7.8471     14.8744   -999.2500      2.4046      0.0009   -999.2500
  2655.3000      7.8479     14.1330   -999.2500      2.4168      0.0313   -999.2500
  2655.4000      7.8479     13.7932   -999.2500      2.4224      0.0247   -999.2500
  2655.5000      7.8513     13.8119   -999.2500      2.4221      0.0491   -999.2500
  2655.6000      7.8513     14.1100   -999.2500      2.4172      0.0481   -999.2500
  2655.7000      7.8513     14.4636   -999.2500      2.4114      0.0219   -999.2500
  2655.8000      7.8525     14.0044   -999.2500      2.4189     -0.0001   -999.2500
  2655.9000      7.8525     12.6280   -999.2500      2.4416      0.0790   -999.2500
  2656.0000      7.8524     11.4283   -999.2500      2.4614      0.0600   -999.2500
  2656.1000      7.8524     11.4035   -999.2500      2.4618      0.0918   -999.2500
  2656.2000      7.8524     12.5976   -999.2500      2.4421      0.0424   -999.2500
  2656.3000      7.8520     13.6475   -999.2500      2.4248      0.0246   -999.2500
  2656.4000      7.8520     13.4443   -999.2500      2.4282      0.0285   -999.2500
  2656.5000      7.8519     12.3856   -999.2500      2.4456      0.0483   -999.2500
  2656.6000      7.8519     11.1835   -999.2500      2.4655      0.0336   -999.2500
  2656.7000      7.8519     10.1315   -999.2500      2.4828      0.0759   -999.2500
  2656.8000      7.8531      9.4992   -999.2500      2.4933      0.0632   -999.2500
  2656.9000      7.8531      9.5262   -999.2500      2.4928      0.0712   -999.2500
  2657.0000      7.8544     10.4559   -999.2500      2.4775      0.0918   -999.2500
  2657.1000      7.8544     11.8647   -999.2500      2.4542      0.0232   -999.2500
  2657.2000      7.8544     12.2381   -999.2500      2.4481      0.0090   -999.2500
  2657.3000      7.8549     11.1285   -999.2500      2.4664      0.0480   -999.2500
  2657.4000      7.8549     10.3507   -999.2500      2.4792      0.0710   -999.2500
  2657.5000      7.8544     11.1703   -999.2500      2.4657      0.0558   -999.2500
  2657.6000      7.8544     12.3179   -999.2500      2.4468      0.0276   -999.2500
  2657.7000      7.8544     12.4743   -999.2500      2.4442      0.0652   -999.2500
  2657.8000      7.8531     12.2560   -999.2500      2.4478      0.0663   -999.2500
  2657.9000      7.8531     12.3537   -999.2500      2.4462      0.0246   -999.2500
  2658.0000      7.8519     12.5520   -999.2500      2.4429      0.0467   -999.2500
  2658.1000      7.8519     12.7727   -999.2500      2.4393      0.0467   -999.2500
  2658.2000      7.8519     13.0276   -999.2500      2.4350      0.0163   -999.2500
  2658.3000      7.8506     13.3134   -999.2500      2.4303      0.0291   -999.2500
  2658.4000      7.8506     13.7516   -999.2500      2.4231      0.0375   -999.2500
  2658.5000      7.8196     13.9110   -999.2500      2.4205     -0.0050   -999.2500
  2658.6000      7.8196     11.9232   -999.2500      2.4533      0.0342   -999.2500
  2658.7000      7.8196      5.7198   -999.2500      2.5556      0.0635   -999.2500
  2658.8000      7.4646      3.1008   -999.2500      2.5988      0.1112   -999.2500
  2658.9000      7.4646     28.8419   -999.2500      2.1741      0.6001   -999.2500
  2659.0000      5.9182     85.9390   -999.2500      1.2320      0.0400   -999.2500
  2659.1000      5.9182    135.3335   -999.2500      0.4170      0.0400   -999.2500
  2659.2000      5.9182    155.8128   -999.2500      0.0791   -999.2500   -999.2500
  2659.3000      3.3944    160.1123   -999.2500      0.0081   -999.2500   -999.2500
  2659.4000      3.3944    160.5793   -999.2500      0.0004   -999.2500   -999.2500
  2659.5000      1.8691    160.6061   -999.2500      0.0000   -999.2500   -999.2500
  2659.6000      1.8691    160.6061   -999.2500      0.0000   -999.2500   -999.2500
  2659.7000      1.8691   -999.2500   -999.2500   -999.2500   -999.2500   -999.2500
  2659.8000      1.5292   -999.2500   -999.2500   -999.2500   -999.2500   -999.2500
  2659.9000      1.5292   -999.2500   -999.2500   -999.2500   -999.2500   -999.2500
  2660.0000      1.5013   -999.2500   -999.2500   -999.2500   -999.2500   -999.2500
