~Version Information
VERS.                      2.0: CWLS Log ASCII Standard - VERSION 2.0
WRAP.                       NO: One line per depth step
~Well Information Block
STRT.FT               -10.8000: 
STOP.FT              2238.7000: 
STEP.FT                 0.1000: 
NULL.                -999.2500: 
COMP.          Petrogulf Corporation: COMPANY
WELL.             McLeod 9-42V: WELL
FLD.           Purgatorie River: FIELD
LOC.           1658' FNL & 415' FEL----: LOCATION
CNTY.               Las Animas: COUNTY
SRVC.                         : SERVICE COMPANY
DATE.          Wed Nov 17 12:01:16 2004: LOG DATE
UWI.                          : UNIQUE WELL ID
STAT.                       CO: STATE
~Curve Information Block
DEPT.FT            0 000 00 00: Depth
GR.GAPI                       : Gamma Ray
CCL.                          : Casing Collar Locator
TT3.usec                      : CBL 3' Travel Time
AMP3.mV                       : CBL 3' Amplitude
~Parameter Information Block
~A  Depth        GR         CCL         TT3         AMP3    
# ...
   136.6000     86.6988      0.0000    725.1109     20.2675
   136.7000     86.6988      0.0000    725.1109     20.2675
   136.8000     80.1183      0.0000    727.5528     19.9697
   136.9000     80.1183      0.0000    727.5528     19.9697
   137.0000     77.6526      0.0000    726.4768     19.7637
   137.1000     77.6526      0.0000    726.4768     19.7637
   137.2000     77.6526      0.0000    726.4768     19.7637
   137.3000     79.6468      0.0000    724.2478     19.6392
   137.4000     79.6468      0.0000    724.2478     19.6392
   137.5000     84.3487      0.0000    721.7647     19.5717
   137.6000     84.3487      0.0000    721.7647     19.5717
   137.7000     84.3487      0.0000    721.7647     19.5717
   137.8000     89.2194      0.0000    718.7169     19.5028
   137.9000     89.2194      0.0000    718.7169     19.5028
   138.0000     92.4872      0.0000    714.7440     19.3693
   138.1000     92.4872      0.0000    714.7440     19.3693
   138.2000     92.4872      0.0000    714.7440     19.3693
   138.3000     93.4813      0.0000    712.0911     19.1556
   138.4000     93.4813      0.0000    712.0911     19.1556
   138.5000     91.9608      0.0000    716.4621     18.9107
   138.6000     91.9608      0.0000    716.4621     18.9107
   138.7000     91.9608      0.0000    716.4621     18.9107
   138.8000     87.8243      0.0000    732.3766     18.7078
   138.9000     87.8243      0.0000    732.3766     18.7078
   139.0000     81.7323      0.0000    756.2258     18.5907
   139.1000     81.7323      0.0000    756.2258     18.5907
   139.2000     81.7323      0.0000    756.2258     18.5907
   139.3000     75.4437      0.0000    775.9156     18.5592
   139.4000     75.4437      0.0000    775.9156     18.5592
   139.5000     70.8648      0.0000    780.0290     18.5900
   139.6000     70.8648      0.0000    780.0290     18.5900
   139.7000     70.8648      0.0000    780.0290     18.5900
   139.8000     68.9028      0.0000    767.2380     18.6449
   139.9000     68.9028      0.0000    767.2380     18.6449
   140.0000     69.4150      0.0000    745.9532     18.6496
   140.1000     69.4150      0.0000    745.9532     18.6496
   140.2000     69.4150      0.0000    745.9532     18.6496
   140.3000     71.6951      0.0000    727.1465     18.4760
   140.4000     71.6951      0.0000    727.1465     18.4760
   140.5000     74.7180      0.0000    719.8318     17.9778
   140.6000     74.7180      0.0000    719.8318     17.9778
   140.7000     74.7180      0.0000    719.8318     17.9778
   140.8000     77.5140      0.0000    730.1987     17.0970
   140.9000     77.5140      0.0000    730.1987     17.0970
   141.0000     79.7193      0.0000    759.0860     15.9835
   141.1000     79.7193      0.0000    759.0860     15.9835
   141.2000     79.7193      0.0000    759.0860     15.9835
   141.3000     81.7054      0.0000    798.8896     14.9866
   141.4000     81.7054      0.0000    798.8896     14.9866
   141.5000     84.1700      0.0000    836.2977     14.4513
   141.6000     84.1700      0.0000    836.2977     14.4513
   141.7000     84.1700      0.0000    836.2977     14.4513
   141.8000     87.5382      0.0000    860.5077     14.4848
   141.9000     87.5382      0.0000    860.5077     14.4848
   142.0000     91.3801      0.0000    869.2024     14.9319
   142.1000     91.3801      0.0000    869.2024     14.9319
   142.2000     91.3801      0.0000    869.2024     14.9319
   142.3000     94.4046      0.0000    867.7740     15.5638
   142.4000     94.4046      0.0000    867.7740     15.5638
   142.5000     95.4094      0.0000    864.2103     16.2487
   142.6000     95.4094     -2.0000    864.2103     16.2487
   142.7000     95.4094      2.0000    864.2103     16.2487
   142.8000     94.2271      2.0000    863.9079     16.9538
   142.9000     94.2271     -2.0000    863.9079     16.9538
   143.0000     91.6187      1.5125    866.8792     17.6632
   143.1000     91.6187      0.0000    866.8792     17.6632
   143.2000     91.6187      0.0000    866.8792     17.6632
   143.3000     88.7528      0.0000    867.9096     18.3566
   143.4000     88.7528      0.0000    867.9096     18.3566
   143.5000     87.0642      0.0000    858.2520     19.0572
   143.6000     87.0642      0.0000    858.2520     19.0572
   143.7000     87.0642      0.0000    858.2520     19.0572
   143.8000     87.8090      0.0000    829.0916     19.8372
   143.9000     87.8090      0.0000    829.0916     19.8372
   144.0000     90.8565      0.0000    777.5552     20.7181
   144.1000     90.8565      0.0000    777.5552     20.7181
   144.2000     90.8565      0.0000    777.5552     20.7181
   144.3000     94.1343      0.0000    711.8384     21.5759
   144.4000     94.1343      0.0000    711.8384     21.5759
   144.5000     94.9822      0.0000    649.0488     22.2058
   144.6000     94.9822      0.0000    649.0488     22.2058
   144.7000     94.9822      0.0000    649.0488     22.2058
   144.8000     92.3845      0.0000    605.7951     22.4832
   144.9000     92.3845      0.0000    605.7951     22.4832
   145.0000     88.0305      0.0000    589.6216     22.4300
   145.1000     88.0305      0.0000    589.6216     22.4300
   145.2000     88.0305      0.0000    589.6216     22.4300
   145.3000     85.1130      0.0000    597.3041     22.1713
   145.4000     85.1130      0.0000    597.3041     22.1713
   145.5000     85.6065      0.0000    619.3411     21.8850
   145.6000     85.6065      0.0000    619.3411     21.8850
   145.7000     85.6065      0.0000    619.3411     21.8850
   145.8000     88.4198      0.0000    646.7773     21.7451
   145.9000     88.4198      0.0000    646.7773     21.7451
   146.0000     90.3151      0.0000    674.7565     21.8482
   146.1000     90.3151      0.0000    674.7565     21.8482
   146.2000     90.3151      0.0000    674.7565     21.8482
   146.3000     88.8563      0.0000    699.6678     22.1754
   146.4000     88.8563      0.0000    699.6678     22.1754
   146.5000     84.6519      0.0000    715.5610     22.6275
   146.6000     84.6519      0.0000    715.5610     22.6275
   146.7000     84.6519      0.0000    715.5610     22.6275
   146.8000     80.9738      0.0000    717.2472     23.1004
   146.9000     80.9738      0.0000    717.2472     23.1004
   147.0000     81.1328      0.0000    706.9033     23.5372
   147.1000     81.1328      0.0000    706.9033     23.5372
   147.2000     81.1328      0.0000    706.9033     23.5372
   147.3000     85.7840      0.0000    694.1375     23.9242
   147.4000     85.7840      0.0000    694.1375     23.9242
   147.5000     92.5055      0.0000    687.5622     24.2601
   147.6000     92.5055      0.0000    687.5622     24.2601
   147.7000     92.5055      0.0000    687.5622     24.2601
   147.8000     97.9683      0.0000    687.4921     24.5570
   147.9000     97.9683      0.0000    687.4921     24.5570
   148.0000    100.3600      0.0000    687.5625     24.8677
   148.1000    100.3600      0.0000    687.5625     24.8677
   148.2000    100.3600      0.0000    687.5625     24.8677
   148.3000     99.8213      0.0000    682.6996     25.2772
   148.4000     99.8213      0.0000    682.6996     25.2772
   148.5000     97.4160      0.0000    674.3113     25.8390
   148.6000     97.4160      0.0000    674.3113     25.8390
   148.7000     97.4160      0.0000    674.3113     25.8390
   148.8000     94.5682      0.0000    668.1035     26.5158
   148.9000     94.5682      0.0000    668.1035     26.5158
   149.0000     93.1948      0.0000    668.1260     27.1915
   149.1000     93.1948      0.0000    668.1260     27.1915
   149.2000     93.1948      0.0000    668.1260     27.1915
   149.3000     95.0530      0.0000    671.6234     27.7546
   149.4000     95.0530      0.0000    671.6234     27.7546
   149.5000    100.0936      0.0000    666.8780     28.1741
   149.6000    100.0936      0.0000    666.8780     28.1741
   149.7000    100.0936      0.0000    666.8780     28.1741
   149.8000    105.7920      0.0000    637.7331     28.4903
   149.9000    105.7920      0.0000    637.7331     28.4903
