~Version Information
VERS.                      2.0: CWLS Log ASCII Standard - VERSION 2.0
WRAP.                       NO: One line per depth step
~Well Information Block
STRT.FT               748.2500: 
STOP.FT              2498.5000: 
STEP.FT                 0.2500: 
NULL.                -999.2500: 
COMP.          Petrogulf Corporation: COMPANY
WELL.           Montoya 13-41V: WELL
FLD.           Purgatorie River: FIELD
LOC.           449' FNL & 891' FEL: LOCATION
CNTY.               Las Animas: COUNTY
SRVC.                         : SERVICE COMPANY
DATE.          Tue Aug 17 13:22:31 2004: LOG DATE
UWI.           05 071 08021 00: UNIQUE WELL ID
STAT.                 Colorado: STATE
~Curve Information Block
DEPT.FT            0 000 00 00: Depth
SP.mV                         : DIL Spontaneous Potential
RILD.Ohm-m                    : DIL Deep Resistivity
RILM.Ohm-m                    : DIL Medium Resistivity
RLL3.Ohm-m                    : DIL Shallow Resistivity
GR.GAPI                       : Gamma Ray
~Parameter Information Block
~A  Depth        SP         RILD        RILM        RLL3         GR     
# ...
   888.2500   2000.0000     55.6903     46.4519   1998.0000     66.4442
   888.5000   2000.0000     53.1104     44.7740   1998.0000     63.0088
   888.7500   2000.0000     50.3828     42.8732   1998.0000     62.3799
   889.0000   2000.0000     47.5039     40.8040   1998.0000     64.7599
   889.2500   2000.0000     44.5561     38.6498   1998.0000     68.2662
   889.5000   2000.0000     41.6826     36.4977   1998.0000     75.1432
   889.7500   2000.0000     39.0263     34.4222   1998.0000     80.2631
   890.0000   2000.0000     36.6771     32.4729   1998.0000     88.5133
   890.2500   2000.0000     34.6466     30.6700   1998.0000     94.2839
   890.5000   2000.0000     32.8759     29.0108   1998.0000    102.7812
   890.7500   2000.0000     31.2580     27.4779   1998.0000    108.0483
   891.0000   2000.0000     29.6738     26.0489   1998.0000    115.2171
   891.2500   2000.0000     28.0280     24.7044   1998.0000    119.4371
   891.5000   2000.0000     26.2795     23.4330   1998.0000    124.5684
   891.7500   2000.0000     24.4549     22.2325   1998.0000    127.0167
   892.0000   2000.0000     22.6374     21.1072   1998.0000    129.4452
   892.2500   2000.0000     20.9349     20.0643   1998.0000    130.7393
   892.5000   2000.0000     19.4451     19.1099   1998.0000    133.3184
   892.7500   2000.0000     18.2311     18.2477   1998.0000    135.7753
   893.0000   2000.0000     17.3155     17.4775   1998.0000    140.0336
   893.2500   2000.0000     16.6872     16.7969   1998.0000    142.6440
   893.5000   2000.0000     16.3155     16.2028   1998.0000    145.5925
   893.7500   2000.0000     16.1613     15.6935   1998.0000    146.8904
   894.0000   2000.0000     16.1849     15.2697   1998.0000    147.9741
   894.2500   2000.0000     16.3459     14.9349   1998.0000    148.2327
   894.5000   2000.0000     16.6009     14.6946   1998.0000    148.4153
   894.7500   2000.0000     16.9027     14.5547   1998.0000    148.8757
   895.0000   2000.0000     17.2056     14.5211   1998.0000    150.5818
   895.2500   2000.0000     17.4759     14.5976   1998.0000    152.1002
   895.5000   2000.0000     17.6997     14.7861   1998.0000    153.5601
   895.7500   2000.0000     17.8839     15.0851   1998.0000    153.2518
   896.0000   2000.0000     18.0482     15.4898   1998.0000    150.6704
   896.2500   2000.0000     18.2158     15.9908   1998.0000    148.0725
   896.5000   2000.0000     18.4071     16.5741   1998.0000    144.2481
   896.7500   2000.0000     18.6362     17.2205   1998.0000    142.3572
   897.0000   2000.0000     18.9129     17.9060   1998.0000    140.5874
   897.2500   2000.0000     19.2450     18.6033   1998.0000    139.6710
   897.5000   2000.0000     19.6427     19.2838   1998.0000    137.8388
   897.7500   2000.0000     20.1200     19.9215   1998.0000    136.1278
   898.0000   2000.0000     20.6883     20.4954   1998.0000    133.2833
   898.2500   2000.0000     21.3414     20.9923   1998.0000    131.7769
   898.5000   2000.0000     22.0356     21.4080   1998.0000    130.8278
   898.7500   2000.0000     22.6771     21.7450   1998.0000    130.8103
   899.0000   2000.0000     23.1357     22.0098   1998.0000    130.0841
   899.2500   2000.0000     23.2885     22.2087   1998.0000    128.2486
   899.5000   2000.0000     23.0741     22.3445   1998.0000    123.7274
   899.7500   2000.0000     22.5167     22.4153   1998.0000    120.8085
   900.0000   2000.0000     21.7034     22.4152   1998.0000    118.8454
   900.2500   2000.0000     20.7411     22.3365   1998.0000    119.4029
   900.5000   2000.0000     19.7276     22.1734   1998.0000    121.5629
   900.7500   2000.0000     18.7439     21.9239   1998.0000    122.8093
   901.0000   2000.0000     17.8531     21.5912   1998.0000    123.6358
   901.2500   2000.0000     17.0986     21.1834   1998.0000    123.8168
   901.5000   2000.0000     16.4984     20.7118   1998.0000    124.8368
   901.7500   2000.0000     16.0416     20.1888   1998.0000    126.7306
   902.0000   2000.0000     15.6917     19.6264   1998.0000    131.6211
   902.2500   2000.0000     15.3939     19.0341   1998.0000    135.6249
   902.5000   2000.0000     15.0892     18.4189   1998.0000    141.0510
   902.7500   2000.0000     14.7298     17.7861   1998.0000    143.5624
   903.0000   2000.0000     14.2918     17.1408   1998.0000    145.4333
   903.2500   2000.0000     13.7808     16.4900   1998.0000    145.6227
   903.5000   2000.0000     13.2278     15.8437   1998.0000    144.7245
   903.7500   2000.0000     12.6778     15.2150   1998.0000    143.6700
   904.0000   2000.0000     12.1754     14.6193   1998.0000    142.4698
   904.2500   2000.0000     11.7539     14.0723   1998.0000    142.6116
   904.5000   2000.0000     11.4307     13.5883   1998.0000    144.5647
   904.7500   2000.0000     11.2097     13.1794   1998.0000    146.5372
   905.0000   2000.0000     11.0854     12.8544   1998.0000    149.2032
   905.2500   2000.0000     11.0464     12.6190   1998.0000    150.3135
   905.5000   2000.0000     11.0773     12.4765   1998.0000    151.0296
   905.7500   2000.0000     11.1589     12.4277   1998.0000    151.1124
   906.0000   2000.0000     11.2701     12.4724   1998.0000    150.6108
   906.2500   2000.0000     11.3947     12.6095   1998.0000    149.5073
   906.5000   2000.0000     11.5295     12.8379   1998.0000    146.1813
   906.7500   2000.0000     11.6869     13.1567   1998.0000    142.9146
   907.0000   2000.0000     11.8906     13.5652   1998.0000    137.0353
   907.2500   2000.0000     12.1642     14.0616   1998.0000    132.8662
   907.5000   2000.0000     12.5217     14.6414   1998.0000    126.9805
   907.7500   2000.0000     12.9655     15.2956   1998.0000    123.8559
   908.0000   2000.0000     13.4920     16.0073   1998.0000    121.1497
   908.2500   2000.0000     14.0983     16.7524   1998.0000    120.5043
   908.5000   2000.0000     14.7855     17.5002   1998.0000    119.6763
   908.7500   2000.0000     15.5508     18.2188   1998.0000    118.2104
   909.0000   2000.0000     16.3742     18.8825   1998.0000    114.5099
   909.2500   2000.0000     17.2090     19.4788   1998.0000    112.0006
   909.5000   2000.0000     17.9894     20.0121   1998.0000    109.9623
   909.7500   2000.0000     18.6536     20.5031   1998.0000    110.0454
   910.0000   2000.0000     19.1726     20.9839   1998.0000    111.7742
   910.2500   2000.0000     19.5579     21.4913   1998.0000    113.6623
   910.5000   2000.0000     19.8475     22.0603   1998.0000    117.0408
   910.7500   2000.0000     20.0819     22.7206   1998.0000    118.8377
   911.0000   2000.0000     20.2885     23.4940   1998.0000    118.8120
   911.2500   2000.0000     20.4846     24.3945   1998.0000    116.3863
   911.5000   2000.0000     20.6884     25.4310   1998.0000    110.4437
   911.7500   2000.0000     20.9279     26.6087   1998.0000    106.6779
   912.0000   2000.0000     21.2436     27.9338   1998.0000    103.7961
   912.2500   2000.0000     21.6827     29.4158   1998.0000    103.9706
   912.5000   2000.0000     22.2911     31.0676   1998.0000    105.9683
   912.7500   2000.0000     23.1042     32.9055   1998.0000    107.3961
   913.0000   2000.0000     24.1349     34.9468   1998.0000    108.4978
   913.2500   2000.0000     25.3581     37.2058   1998.0000    108.1052
   913.5000   2000.0000     26.6965     39.6908   1998.0000    105.2114
   913.7500   2000.0000     28.0191     42.3991   1998.0000    101.6960
   914.0000   2000.0000     29.1601     45.3105   1998.0000     95.0018
   914.2500   2000.0000     29.9626     48.3793   1998.0000     90.5785
   914.5000   2000.0000     30.3273     51.5186   1998.0000     85.4718
   914.7500   2000.0000     30.2419     54.5937   1998.0000     83.3999
   915.0000   2000.0000     29.7791     57.4138   1998.0000     81.7034
   915.2500   2000.0000     29.0680     59.7301   1998.0000     80.7324
   915.5000   2000.0000     28.2514     61.2567   1998.0000     78.3542
   915.7500   2000.0000     27.4441     61.6973   1998.0000     76.1072
   916.0000   2000.0000     26.7069     60.8159   1998.0000     72.8979
