~Version Information
VERS.                      2.0: CWLS Log ASCII Standard - VERSION 2.0
WRAP.                       NO: One line per depth step
~Well Information Block
STRT.FT               -14.5000: 
STOP.FT              2676.5000: 
STEP.FT                 0.1000: 
NULL.                -999.2500: 
COMP.          Petrogulf Corporation: COMPANY
WELL.          Latiluppe 8-13V: WELL
FLD.           Purgatorie River: FIELD
LOC.           1069' FWL & 1647' FSL: LOCATION
CNTY.               Las Animas: COUNTY
SRVC.                         : SERVICE COMPANY
DATE.          Tue Nov 18 16:12:50 2003: LOG DATE
UWI.                          : UNIQUE WELL ID
STAT.                 Colorado: STATE
~Curve Information Block
DEPT.FT            0 000 00 00: Depth
CCL.                          : Casing Collar Locator
TT3.usec                      : CBL 3' Travel Time
AMP3.mV                       : CBL 3' Amplitude
GR.GAPI                       : Gamma Ray
~Parameter Information Block
~A  Depth       CCL         TT3         AMP3         GR     
# ...
   869.9000      0.0000    909.8079      3.9449     88.1329
   870.0000      0.0000    911.8539      3.9247     91.6002
   870.1000      0.0000    911.8539      3.9247     91.6002
   870.2000      0.0000    911.8539      3.9247     91.6002
   870.3000      0.0000    911.7675      3.9639     94.9295
   870.4000      0.0000    911.7675      3.9639     94.9295
   870.5000      0.0000    909.2167      3.9828     96.8400
   870.6000      0.0000    909.2167      3.9828     96.8400
   870.7000      0.0000    909.2167      3.9828     96.8400
   870.8000      0.0000    905.3824      3.8880     96.9635
   870.9000      0.0000    905.3824      3.8880     96.9635
   871.0000      0.0000    901.6198      3.6896     96.0602
   871.1000      0.0000    901.6198      3.6896     96.0602
   871.2000      0.0000    901.6198      3.6896     96.0602
   871.3000      0.0000    898.3854      3.4870     95.1960
   871.4000      0.0000    898.3854      3.4870     95.1960
   871.5000      0.0000    895.3251      3.3551     94.7637
   871.6000      0.0000    895.3251      3.3551     94.7637
   871.7000      0.0000    895.3251      3.3551     94.7637
   871.8000      0.0000    891.6662      3.2799     94.5410
   871.9000      0.0000    891.6662      3.2799     94.5410
   872.0000      0.0000    886.3068      3.2038     94.3973
   872.1000      0.0000    886.3068      3.2038     94.3973
   872.2000      0.0000    886.3068      3.2038     94.3973
   872.3000      0.0000    878.2778      3.1031     94.4522
   872.4000      0.0000    878.2778      3.1031     94.4522
   872.5000      0.0000    868.1255      3.0040     94.6664
   872.6000      0.0000    868.1255      3.0040     94.6664
   872.7000      0.0000    868.1255      3.0040     94.6664
   872.8000      0.0000    858.9523      2.9417     94.8053
   872.9000      0.0000    858.9523      2.9417     94.8053
   873.0000      0.0000    855.0209      2.9204     94.9552
   873.1000      0.0000    855.0209      2.9204     94.9552
   873.2000      0.0000    855.0209      2.9204     94.9552
   873.3000      0.0000    858.2469      2.9139     95.7496
   873.4000      0.0000    858.2469      2.9139     95.7496
   873.5000      0.0000    866.1243      2.8928     97.8557
   873.6000      0.0000    866.1243      2.8928     97.8557
   873.7000      0.0000    866.1243      2.8928     97.8557
   873.8000      0.0000    873.4480      2.8408    101.2597
   873.9000      0.0000    873.4480      2.8408    101.2597
   874.0000      0.0000    876.1035      2.7600    105.0688
   874.1000      0.0000    876.1035      2.7600    105.0688
   874.2000      0.0000    876.1035      2.7600    105.0688
   874.3000      0.0000    873.7880      2.6745    107.8449
   874.4000      0.0000    873.7880      2.6745    107.8449
   874.5000      0.0000    870.0839      2.6265    108.2169
   874.6000      0.0000    870.0839      2.6265    108.2169
   874.7000      0.0000    870.0839      2.6265    108.2169
   874.8000      0.0000    869.5670      2.6475    105.6329
   874.9000      0.0000    869.5670      2.6475    105.6329
   875.0000      0.0000    873.5385      2.7255    100.8376
   875.1000      0.0000    873.5385      2.7255    100.8376
   875.2000      0.0000    873.5385      2.7255    100.8376
   875.3000      0.0000    878.3539      2.8070     95.5450
   875.4000      0.0000    878.3539      2.8070     95.5450
   875.5000      0.0000    878.1978      2.8434     91.4364
   875.6000      0.0000    878.1978      2.8434     91.4364
   875.7000      0.0000    878.1978      2.8434     91.4364
   875.8000      0.0000    869.1580      2.8317     89.2659
   875.9000      0.0000    869.1580      2.8317     89.2659
   876.0000      0.0000    850.9518      2.7992     88.6981
   876.1000      0.0000    850.9518      2.7992     88.6981
   876.2000      0.0000    850.9518      2.7992     88.6981
   876.3000      0.0000    826.0273      2.7638     88.9018
   876.4000      0.0000    826.0273      2.7638     88.9018
   876.5000      0.0000    797.4683      2.7212     89.4129
   876.6000      0.0000    797.4683      2.7212     89.4129
   876.7000      0.0000    797.4683      2.7212     89.4129
   876.8000      0.0000    767.5735      2.6460     90.5154
   876.9000      0.0000    767.5735      2.6460     90.5154
   877.0000      0.0000    738.8691      2.4962     92.6287
   877.1000      0.0000    738.8691      2.4962     92.6287
   877.2000      0.0000    738.8691      2.4962     92.6287
   877.3000      0.0000    716.4450      2.2480     95.3779
   877.4000      0.0000    716.4450      2.2480     95.3779
   877.5000      0.0000    707.4036      1.9442     97.4805
   877.6000      0.0000    707.4036      1.9442     97.4805
   877.7000      0.0000    707.4036      1.9442     97.4805
   877.8000      0.0000    715.5015      1.6880     97.4839
   877.9000      0.0000    715.5015      1.6880     97.4839
   878.0000      0.0000    736.0526      1.5690     94.7356
   878.1000      0.0000    736.0526      1.5690     94.7356
   878.2000      0.0000    736.0526      1.5690     94.7356
   878.3000      0.0000    758.1888      1.5992     90.0310
   878.4000      0.0000    758.1888      1.5992     90.0310
   878.5000      0.0000    773.1435      1.7241     85.3072
   878.6000      0.0000    773.1435      1.7241     85.3072
   878.7000      0.0000    773.1435      1.7241     85.3072
   878.8000      0.0000    779.3967      1.8823     82.3476
   878.9000      2.0000    779.3967      1.8823     82.3476
   879.0000     -2.0000    780.3262      2.0413     81.6577
   879.1000      0.0000    780.3262      2.0413     81.6577
   879.2000      2.0000    780.3262      2.0413     81.6577
   879.3000     -2.0000    779.2136      2.1890     82.5600
   879.4000      0.0000    779.2136      2.1890     82.5600
   879.5000      0.0000    776.4808      2.3214     84.0921
   879.6000      0.0000    776.4808      2.3214     84.0921
   879.7000      0.0000    776.4808      2.3214     84.0921
   879.8000      0.0000    769.9557      2.4406     85.5762
   879.9000      0.0000    769.9557      2.4406     85.5762
   880.0000      0.0000    757.6195      2.5455     86.5839
   880.1000      0.0000    757.6195      2.5455     86.5839
   880.2000      0.0000    757.6195      2.5455     86.5839
   880.3000      0.0000    740.9927      2.6175     86.8564
   880.4000      0.0000    740.9927      2.6175     86.8564
   880.5000      0.0000    725.7759      2.6268     86.4199
   880.6000      0.0000    725.7759      2.6268     86.4199
   880.7000      0.0000    725.7759      2.6268     86.4199
   880.8000      0.0000    717.9508      2.5602     85.6815
   880.9000      0.0000    717.9508      2.5602     85.6815
   881.0000      0.0000    718.6108      2.4342     85.3404
   881.1000      0.0000    718.6108      2.4342     85.3404
   881.2000      0.0000    718.6108      2.4342     85.3404
   881.3000      0.0000    723.6973      2.2833     86.0935
   881.4000      0.0000    723.6973      2.2833     86.0935
   881.5000      0.0000    729.3751      2.1391     88.1229
   881.6000      0.0000    729.3751      2.1391     88.1229
   881.7000      0.0000    729.3751      2.1391     88.1229
   881.8000      0.0000    736.1174      2.0168     90.6603
   881.9000      0.0000    736.1174      2.0168     90.6603
   882.0000      0.0000    746.5392      1.9162     92.1918
   882.1000      0.0000    746.5392      1.9162     92.1918
   882.2000      0.0000    746.5392      1.9162     92.1918
   882.3000      0.0000    760.7793      1.8373     91.3484
   882.4000      0.0000    760.7793      1.8373     91.3484
   882.5000      0.0000    775.7662      1.7920     87.7409
   882.6000      0.0000    775.7662      1.7920     87.7409
   882.7000      0.0000    775.7662      1.7920     87.7409
   882.8000      0.0000    788.5524      1.7997     82.1722
   882.9000      0.0000    788.5524      1.7997     82.1722
   883.0000      0.0000    797.7095      1.8757     76.2859
   883.1000      0.0000    797.7095      1.8757     76.2859
   883.2000      0.0000    797.7095      1.8757     76.2859
