~Version Information
VERS.                      2.0: CWLS Log ASCII Standard - VERSION 2.0
WRAP.                       NO: One line per depth step
~Well Information Block
STRT.FT               577.8000: 
STOP.FT              2445.8000: 
STEP.FT                 0.1000: 
NULL.                -999.2500: 
COMP.          Petrogulf Corporation: COMPANY
WELL.             State 16-32V: WELL
FLD.           Purgatorie River: FIELD
LOC.           1599' FNL & 1783' FEL: LOCATION
CNTY.               Las Animas: COUNTY
SRVC.                         : SERVICE COMPANY
DATE.          Thu Jun 05 16:36:04 2003: LOG DATE
UWI.           05 071 07726 00: UNIQUE WELL ID
STAT.                 Colorado: STATE
~Curve Information Block
DEPT.FT            0 000 00 00: Depth
DCAL.in                       : Caliper from Density Tool
RHOB.g/cc                     : Bulk Density
RHOC.g/cc                     : Density Correction
DPOR.pu                       : Density Porosity
GR.GAPI                       : Gamma Ray
NPOR.pu                       : Neutron Porosity
~Parameter Information Block
~A  Depth       DCAL        RHOB        RHOC        DPOR         GR         NPOR    
# ...
  2430.6000      7.6729      2.5463      0.0933      6.2873     95.4780   -999.2500
  2430.7000      7.6729      2.5463      0.0933      6.2873     95.8525   -999.2500
  2430.8000      7.7594      2.5439      0.0893      6.4291     96.2432   -999.2500
  2430.9000      7.7594      2.5439      0.0893      6.4291     96.6374   -999.2500
  2431.0000      7.8348      2.5450      0.0879      6.3630     97.0182   -999.2500
  2431.1000      7.8348      2.5450      0.0879      6.3630     97.3647   -999.2500
  2431.2000      7.8348      2.5450      0.0879      6.3630     97.6559   -999.2500
  2431.3000      7.8857      2.5481      0.0866      6.1747     97.8728   -999.2500
  2431.4000      7.8857      2.5481      0.0866      6.1747     98.0028   -999.2500
  2431.5000      7.9179      2.5495      0.0848      6.0900     98.0454   -999.2500
  2431.6000      7.9179      2.5495      0.0848      6.0900     98.0109   -999.2500
  2431.7000      7.9179      2.5495      0.0848      6.0900     97.9187   -999.2500
  2431.8000      7.9285      2.5492      0.0794      6.1063     97.7933   -999.2500
  2431.9000      7.9285      2.5492      0.0794      6.1063     97.6556   -999.2500
  2432.0000      7.9114      2.5480      0.0743      6.1845     97.5160   -999.2500
  2432.1000      7.9114      2.5480      0.0743      6.1845     97.3696   -999.2500
  2432.2000      7.9114      2.5480      0.0743      6.1845     97.1962   -999.2500
  2432.3000      7.9285      2.5465      0.0663      6.2719     96.9625   -999.2500
  2432.4000      7.9285      2.5465      0.0663      6.2719     96.6322   -999.2500
  2432.5000      7.9244      2.5470      0.0622      6.2439     96.1715   -999.2500
  2432.6000      7.9244      2.5470      0.0622      6.2439     95.5618   -999.2500
  2432.7000      7.9244      2.5470      0.0622      6.2439     94.8039   -999.2500
  2432.8000      7.8176      2.5498      0.0593      6.0716     93.9171   -999.2500
  2432.9000      7.8176      2.5498      0.0593      6.0716     92.9343   -999.2500
  2433.0000      7.7542      2.5520      0.0593      5.9388     91.8933   -999.2500
  2433.1000      7.7542      2.5520      0.0593      5.9388     90.8256   -999.2500
  2433.2000      7.7542      2.5520      0.0593      5.9388     89.7442   -999.2500
  2433.3000      7.8025      2.5534      0.0610      5.8550     88.6338   -999.2500
  2433.4000      7.8025      2.5534      0.0610      5.8550     87.4445   -999.2500
  2433.5000      7.8564      2.5525      0.0625      5.9107     86.0897   -999.2500
  2433.6000      7.8564      2.5525      0.0625      5.9107     84.4499   -999.2500
  2433.7000      7.8564      2.5525      0.0625      5.9107     82.3836   -999.2500
  2433.8000      7.8553      2.5494      0.0648      6.0988     79.7430   -999.2500
  2433.9000      7.8553      2.5494      0.0648      6.0988     76.3954   -999.2500
  2434.0000      7.7943      2.5474      0.0663      6.2200     72.2479   -999.2500
  2434.1000      7.7943      2.5474      0.0663      6.2200     67.2701   -999.2500
  2434.2000      7.7943      2.5474      0.0663      6.2200     61.5100   -999.2500
  2434.3000      7.7606      2.5462      0.0680      6.2917     55.0984   -999.2500
  2434.4000      7.7606      2.5462      0.0680      6.2917     48.2431   -999.2500
  2434.5000      7.7754      2.5470      0.0685      6.2441     41.2055   -999.2500
  2434.6000      7.7754      2.5470      0.0685      6.2441     34.2701   -999.2500
  2434.7000      7.7754      2.5470      0.0685      6.2441     27.7089   -999.2500
  2434.8000      7.7364      2.5500      0.0686      6.0613     21.7503   -999.2500
  2434.9000      7.7364      2.5500      0.0686      6.0613     16.5546   -999.2500
  2435.0000      7.7010      2.5524      0.0683      5.9147     12.2046   -999.2500
  2435.1000      7.7010      2.5524      0.0683      5.9147      8.7071   -999.2500
  2435.2000      7.7010      2.5524      0.0683      5.9147      6.0065   -999.2500
  2435.3000      7.7236      2.5550      0.0678      5.7582      4.0035   -999.2500
  2435.4000      7.7236      2.5550      0.0678      5.7582      2.5768   -999.2500
  2435.5000      7.7094      2.5554      0.0675      5.7332      1.6006   -999.2500
  2435.6000      7.7094      2.5554      0.0675      5.7332      0.9587   -999.2500
  2435.7000      7.7094      2.5554      0.0675      5.7332      0.5536   -999.2500
  2435.8000      7.6685      2.5544      0.0669      5.7950      0.3079   -999.2500
  2435.9000      7.6685      2.5544      0.0669      5.7950      0.1647   -999.2500
  2436.0000      7.6749      2.5535      0.0665      5.8464      0.0843   -999.2500
  2436.1000      7.6749      2.5535      0.0665      5.8464      0.0410   -999.2500
  2436.2000      7.6749      2.5535      0.0665      5.8464      0.0189   -999.2500
  2436.3000      7.7194      2.5539      0.0660      5.8252      0.0077   -999.2500
  2436.4000      7.7194      2.5539      0.0660      5.8252      0.0024   -999.2500
  2436.5000      7.7614      2.5558      0.0662      5.7074      0.0000   -999.2500
  2436.6000      7.7614      2.5558      0.0662      5.7074   -999.2500   -999.2500
  2436.7000      7.7614      2.5558      0.0662      5.7074   -999.2500   -999.2500
  2436.8000      7.7615      2.5611      0.0682      5.3892   -999.2500   -999.2500
  2436.9000      7.7615      2.5611      0.0682      5.3892   -999.2500   -999.2500
  2437.0000      7.7612      2.5654      0.0707      5.1283   -999.2500   -999.2500
  2437.1000      7.7612      2.5654      0.0707      5.1283   -999.2500   -999.2500
  2437.2000      7.7612      2.5654      0.0707      5.1283   -999.2500   -999.2500
  2437.3000      7.7893      2.5715      0.0765      4.7590   -999.2500   -999.2500
  2437.4000      7.7893      2.5715      0.0765      4.7590   -999.2500   -999.2500
  2437.5000      7.7808      2.5746      0.0814      4.5686   -999.2500   -999.2500
  2437.6000      7.7808      2.5746      0.0814      4.5686   -999.2500   -999.2500
  2437.7000      7.7808      2.5746      0.0814      4.5686   -999.2500   -999.2500
  2437.8000      7.7554      2.5775      0.0897      4.3957   -999.2500   -999.2500
  2437.9000      7.7554      2.5775      0.0897      4.3957   -999.2500   -999.2500
  2438.0000      7.7354      2.5781      0.0950      4.3563   -999.2500   -999.2500
  2438.1000      7.7354      2.5781      0.0950      4.3563   -999.2500   -999.2500
  2438.2000      7.7354      2.5781      0.0950      4.3563   -999.2500   -999.2500
  2438.3000      7.7270      2.5772      0.1012      4.4118   -999.2500   -999.2500
  2438.4000      7.7270      2.5772      0.1012      4.4118   -999.2500   -999.2500
  2438.5000      7.7295      2.5751      0.1032      4.5364   -999.2500   -999.2500
  2438.6000      7.7295      2.5751      0.1032      4.5364   -999.2500   -999.2500
  2438.7000      7.7295      2.5751      0.1032      4.5364   -999.2500   -999.2500
  2438.8000      7.6873      2.5693      0.1020      4.8919   -999.2500   -999.2500
  2438.9000      7.6873      2.5693      0.1020      4.8919   -999.2500   -999.2500
  2439.0000      7.6039      2.5633      0.0981      5.2552   -999.2500   -999.2500
  2439.1000      7.6039      2.5633      0.0981      5.2552   -999.2500   -999.2500
  2439.2000      7.6039      2.5633      0.0981      5.2552   -999.2500   -999.2500
  2439.3000      7.5801      2.5517      0.0882      5.9549   -999.2500   -999.2500
  2439.4000      7.5801      2.5517      0.0882      5.9549   -999.2500   -999.2500
  2439.5000      7.6537      2.5434      0.0799      6.4622   -999.2500   -999.2500
  2439.6000      7.6537      2.5434      0.0799      6.4622   -999.2500   -999.2500
  2439.7000      7.6537      2.5434      0.0799      6.4622   -999.2500   -999.2500
  2439.8000      7.7555      2.5322      0.0677      7.1384   -999.2500   -999.2500
  2439.9000      7.7555      2.5322      0.0677      7.1384   -999.2500   -999.2500
  2440.0000      7.8138      2.5270      0.0609      7.4570   -999.2500   -999.2500
  2440.1000      7.8138      2.5270      0.0609      7.4570   -999.2500   -999.2500
