~Version Information
VERS.                      2.0: CWLS Log ASCII Standard - VERSION 2.0
WRAP.                       NO: One line per depth step
~Well Information Block
STRT.FT               221.2000: 
STOP.FT              2260.4000: 
STEP.FT                 0.1000: 
NULL.                -999.2500: 
COMP.          Petrogulf Corporation: COMPANY
WELL.          Anderson 18-43V: WELL
FLD.           Purgatorie River: FIELD
LOC.           1782' FSL & 887' FEL--: LOCATION
CNTY.               Las Animas: COUNTY
SRVC.                         : SERVICE COMPANY
DATE.          Mon Sep 13 14:11:09 2004: LOG DATE
UWI.                          : UNIQUE WELL ID
STAT.                       CO: STATE
~Curve Information Block
DEPT.FT            0 000 00 00: Depth
TT3.usec                      : CBL 3' Travel Time
AMP3.mV                       : CBL 3' Amplitude
GR.GAPI                       : Gamma Ray
CCL.                          : Casing Collar Locator
~Parameter Information Block
~A  Depth       TT3         AMP3         GR         CCL     
# ...
   770.6000    663.1930      1.9266     73.9767      0.0000
   770.7000    663.1930      1.9266     73.9767      0.0000
   770.8000    662.9436      1.9619     68.8101      0.0000
   770.9000    662.9436      1.9619     68.8101      0.0000
   771.0000    662.4595      2.0532     65.1597      0.0000
   771.1000    662.4595      2.0532     65.1597      0.0000
   771.2000    662.4595      2.0532     65.1597      0.0000
   771.3000    661.2492      2.1695     65.1861      0.0000
   771.4000    661.2492      2.1695     65.1861      0.0000
   771.5000    658.5163      2.2688     68.3765      0.0000
   771.6000    658.5163      2.2688     68.3765      0.0000
   771.7000    658.5163      2.2688     68.3765      0.0000
   771.8000    653.6688      2.3252     72.3209      0.0000
   771.9000    653.6688      2.3252     72.3209      0.0000
   772.0000    647.2180      2.3391     74.9740      0.0000
   772.1000    647.2180      2.3391     74.9740      0.0000
   772.2000    647.2180      2.3391     74.9740      0.0000
   772.3000    641.2057      2.3289     75.8372      0.0000
   772.4000    641.2057      2.3289     75.8372      0.0000
   772.5000    638.1392      2.3187     75.2206      0.0000
   772.6000    638.1392      2.3187     75.2206      0.0000
   772.7000    638.1392      2.3187     75.2206      0.0000
   772.8000    639.0395      2.3319     73.1923      0.0000
   772.9000    639.0395      2.3319     73.1923      0.0000
   773.0000    642.7770      2.3864     69.6922      0.0000
   773.1000    642.7770      2.3864     69.6922      0.0000
   773.2000    642.7770      2.3864     69.6922      0.0000
   773.3000    647.7192      2.4859     65.3380      0.0000
   773.4000    647.7192      2.4859     65.3380      0.0000
   773.5000    653.6443      2.6040     61.5457      0.0000
   773.6000    653.6443      2.6040     61.5457      0.0000
   773.7000    653.6443      2.6040     61.5457      0.0000
   773.8000    661.0938      2.6848     59.5732      0.0000
   773.9000    661.0938      2.6848     59.5732      0.0000
   774.0000    668.6216      2.6786     59.4779      0.0000
   774.1000    668.6216      2.6786     59.4779      0.0000
   774.2000    668.6216      2.6786     59.4779      0.0000
   774.3000    671.9385      2.5903     60.1995      0.0000
   774.4000    671.9385      2.5903     60.1995      0.0000
   774.5000    667.5691      2.4877     60.6180      0.0000
   774.6000    667.5691      2.4877     60.6180      0.0000
   774.7000    667.5691      2.4877     60.6180      0.0000
   774.8000    657.5286      2.4525     60.3880      0.0000
   774.9000    657.5286      2.4525     60.3880      0.0000
   775.0000    648.7249      2.5187     59.9893      0.0000
   775.1000    648.7249      2.5187     59.9893      0.0000
   775.2000    648.7249      2.5187     59.9893      0.0000
   775.3000    646.9014      2.6537     60.2737      0.0000
   775.4000    646.9014      2.6537     60.2737      0.0000
   775.5000    652.1048      2.7869     61.7119      0.0000
   775.6000    652.1048      2.7869     61.7119      0.0000
   775.7000    652.1048      2.7869     61.7119      0.0000
   775.8000    660.1514      2.8524     63.8277      0.0000
   775.9000    660.1514      2.8524     63.8277      0.0000
   776.0000    666.7834      2.8165     65.5859      0.0000
   776.1000    666.7834      2.8165     65.5859      0.0000
   776.2000    666.7834      2.8165     65.5859      0.0000
   776.3000    669.7318      2.6875     66.4042      0.0000
   776.4000    669.7318      2.6875     66.4042      0.0000
   776.5000    668.6229      2.5097     66.4756      0.0000
   776.6000    668.6229      2.5097     66.4756      0.0000
   776.7000    668.6229      2.5097     66.4756      0.0000
   776.8000    664.8112      2.3400     66.1620      0.0000
   776.9000    664.8112      2.3400     66.1620      0.0000
   777.0000    660.8746      2.2136     65.5195      0.0000
   777.1000    660.8746      2.2136     65.5195      0.0000
   777.2000    660.8746      2.2136     65.5195      0.0000
   777.3000    658.9204      2.1286     64.5525      0.0000
   777.4000    658.9204      2.1286     64.5525      0.0000
   777.5000    659.1492      2.0639     63.5742      0.0000
   777.6000    659.1492      2.0639     63.5742      0.0000
   777.7000    659.1492      2.0639     63.5742      0.0000
   777.8000    660.3448      2.0069     62.9125      0.0000
   777.9000    660.3448      2.0069     62.9125      0.0000
   778.0000    661.3774      1.9641     62.3839      0.0000
   778.1000    661.3774      1.9641     62.3839      0.0000
   778.2000    661.3774      1.9641     62.3839      0.0000
   778.3000    661.9056      1.9508     61.5256      0.0000
   778.4000    661.9056      1.9508     61.5256      0.0000
   778.5000    662.0810      1.9734     60.3933      0.0000
   778.6000    662.0810      1.9734     60.3933      0.0000
   778.7000    662.0810      1.9734     60.3933      0.0000
   778.8000    662.1180      2.0182     59.7416      0.0000
   778.9000    662.1180      2.0182     59.7416      0.0000
   779.0000    662.1549      2.0562     60.3039      0.0000
   779.1000    662.1549      2.0562     60.3039      0.0000
   779.2000    662.1549      2.0562     60.3039      0.0000
   779.3000    662.2643      2.0634     62.0899      0.0000
   779.4000    662.2643      2.0634     62.0899      0.0000
   779.5000    662.4622      2.0391     64.5020      0.0000
   779.6000    662.4622      2.0391     64.5020      0.0000
   779.7000    662.4622      2.0391     64.5020      0.0000
   779.8000    662.7128      2.0029     67.0014      0.0000
   779.9000    662.7128      2.0029     67.0014      0.0000
   780.0000    662.9604      1.9750     69.4166      0.0000
   780.1000    662.9604      1.9750     69.4166      0.0000
   780.2000    662.9604      1.9750     69.4166      0.0000
   780.3000    663.1865      1.9613     71.5850      0.0000
   780.4000    663.1865      1.9613     71.5850      0.0000
   780.5000    663.4440      1.9565     72.9906      0.0000
   780.6000    663.4440      1.9565     72.9906      0.0000
   780.7000    663.4440      1.9565     72.9906      0.0000
   780.8000    663.8301      1.9573     73.0570      0.0000
   780.9000    663.8301      1.9573     73.0570      0.0000
   781.0000    664.4172      1.9692     71.7128      0.0000
   781.1000    664.4172      1.9692     71.7128      0.0000
   781.2000    664.4172      1.9692     71.7128      0.0000
   781.3000    665.2037      1.9984     69.4381      0.0000
   781.4000    665.2037      1.9984     69.4381      0.0000
   781.5000    666.1382      2.0404     66.8515      0.0000
   781.6000    666.1382      2.0404     66.8515      0.0000
   781.7000    666.1382      2.0404     66.8515      0.0000
   781.8000    667.1758      2.0844     64.5219      0.0000
   781.9000    667.1758      2.0844     64.5219      0.0000
   782.0000    668.3024      2.1299     63.0675      0.0000
   782.1000    668.3024      2.1299     63.0675      0.0000
   782.2000    668.3024      2.1299     63.0675      0.0000
   782.3000    669.5727      2.1881     63.0472      0.0000
   782.4000    669.5727      2.1881     63.0472      0.0000
   782.5000    671.3026      2.2663     64.7025      0.0000
   782.6000    671.3026      2.2663     64.7025      0.0000
   782.7000    671.3026      2.2663     64.7025      0.0000
   782.8000    674.3063      2.3595     67.9744      0.0000
   782.9000    674.3063      2.3595     67.9744      0.0000
   783.0000    679.5368      2.4642     72.5830      0.0000
   783.1000    679.5368      2.4642     72.5830      0.0000
   783.2000    679.5368      2.4642     72.5830      0.0000
   783.3000    686.7696      2.5921     77.6378      0.0000
   783.4000    686.7696      2.5921     77.6378      0.0000
   783.5000    693.1977      2.7590     81.4667      0.0000
   783.6000    693.1977      2.7590     81.4667      0.0000
   783.7000    693.1977      2.7590     81.4667      0.0000
   783.8000    693.8879      2.9620     82.7249      0.0000
   783.9000    693.8879      2.9620     82.7249      0.0000
