~Version Information
 VERS.                      2.0: CWLS Log ASCII Standard - VERSION 2.0
 WRAP.                       NO: One line per depth step
 ~Well Information Block
 STRT.FT               462.4000: 
 STOP.FT              2260.5000: 
 STEP.FT                 0.1000: 
 NULL.                -999.2500: 
 COMP.          Petrogulf Corporation: COMPANY
 WELL.             McLeod 9-42V: WELL
 FLD.           Purgatorie River: FIELD
 LOC.           1658' FNL & 415' FEL: LOCATION
 CNTY.               Las Animas: COUNTY
 SRVC.                         : SERVICE COMPANY
 DATE.          Fri Nov 12 10:12:24 2004: LOG DATE
 UWI.           05 071 08071 00: UNIQUE WELL ID
 STAT.                 Colorado: STATE
 PROV.                         :Province
 ~Curve Information Block
 DEPT.FT            0 000 00 00: Depth
 DCAL.in                       : CDL Caliper
 RHOB.g/cc                     : CDL Bulk Density
 RHOC.g/cc                     : CDL Density Correction
 DPOR.pu                       : CDL Density Porosity
 GR.GAPI                       : Gamma Ray
 NPOR.pu                       : Neutron Porosity
 ~Parameter Information Block
 ~A  Depth       DCAL        RHOB        RHOC        DPOR         GR         NPOR    
# ...
  1182.4000      8.1813      2.4985      0.0192      9.1826    159.7130     30.3450
  1182.5000      8.1100      2.5180      0.0406      7.9995    160.0966     29.9525
  1182.6000      8.1100      2.5045      0.0163      8.8197    160.5106     29.4855
  1182.7000      8.1100      2.4798     -0.0522     10.3180    157.2135     28.8626
  1182.8000      8.0394      2.4666     -0.0072     11.1145    153.8099     28.1746
  1182.9000      8.0394      2.4634      0.0108     11.3090    152.8571     27.6914
  1183.0000      8.0391      2.4621      0.0219     11.3856    151.2142     27.6281
  1183.1000      8.0391      2.4575      0.0680     11.6649    148.0195     27.6178
  1183.2000      8.0391      2.4339      0.0905     13.0980    146.9833     27.0731
  1183.3000      8.0944      2.3746      0.1177     16.6903    149.3689     25.9119
  1183.4000      8.0944      2.2968      0.0751     21.4071    152.4621     24.4274
  1183.5000      8.1176      2.2400      0.0071     24.8514    157.7617     23.1341
  1183.6000      8.1176      2.2190      0.0076     26.1229    164.8623     22.3079
  1183.7000      8.1176      2.2204      0.0426     26.0342    168.2229     21.6323
  1183.8000      8.1310      2.2321      0.0159     25.3278    166.7812     21.0238
  1183.9000      8.1310      2.2449      0.0967     24.5498    161.3811     20.7740
  1184.0000      8.1572      2.2442      0.1227     24.5928    153.9128     20.8746
  1184.1000      8.1572      2.2245      0.1403     25.7893    150.8888     20.8771
  1184.2000      8.1572      2.1913      0.1121     27.7990    152.7085     20.6653
  1184.3000      8.1871      2.1433      0.1463     30.7094    152.0893     20.5449
  1184.4000      8.1871      2.0763      0.0167     34.7724    147.1228     20.4202
  1184.5000      8.1858      1.9994     -0.0470     39.4321    142.0394     19.9097
  1184.6000      8.1858      1.9250     -0.0485     43.9419    139.7659     19.0187
  1184.7000      8.1858      1.8522     -0.0418     48.3492    139.8585     18.0037
  1184.8000      8.1768      1.7779     -0.1297     52.8525    140.5670     17.1378
  1184.9000      8.1768      1.7181     -0.1402     56.4817    140.6671     16.6936
  1185.0000      8.1608      1.6948     -0.1196     57.8938    141.3731     16.6762
  1185.1000      8.1608      1.7108     -0.0257     56.9201    142.5008     16.8215
  1185.2000      8.1608      1.7533     -0.0018     54.3480    139.3069     16.8157
  1185.3000      8.1577      1.8139      0.0390     50.6756    130.4565     16.7554
  1185.4000      8.1577      1.8888      0.1130     46.1308    121.1453     17.3306
  1185.5000      8.1761      1.9759      0.1394     40.8551    115.3577     19.0341
  1185.6000      8.1761      2.0780      0.1766     34.6664    111.2698     21.1301
  1185.7000      8.1761      2.1852      0.2378     28.1684    107.0907     22.5845
  1185.8000      8.2473      2.2745      0.2047     22.7553    104.8787     23.5919
  1185.9000      8.2473      2.3353      0.1259     19.0730    106.6735     24.8173
  1186.0000      8.1555      2.3706      0.1229     16.9328    110.0398     26.1755
  1186.1000      8.1555      2.3907      0.1001     15.7139    112.1923     27.2660
  1186.2000      8.1555      2.4147      0.0460     14.2611    114.5517     27.8561
  1186.3000      8.1343      2.4539      0.0750     11.8822    118.1875     27.9500
  1186.4000      8.1343      2.4897      0.1305      9.7157    122.1949     27.8371
  1186.5000      8.1368      2.5025      0.0672      8.9402    125.9175     27.7925
  1186.6000      8.1368      2.5023      0.0309      8.9542    126.9842     27.8155
  1186.7000      8.1368      2.5015      0.0237      8.9984    124.2475     27.7822
  1186.8000      8.0990      2.5047      0.0232      8.8052    120.6902     27.5062
  1186.9000      8.0990      2.5159      0.0427      8.1251    118.1532     26.8102
  1187.0000      8.0738      2.5286      0.0337      7.3599    115.8239     25.9674
  1187.1000      8.0738      2.5308      0.0287      7.2247    114.3021     25.3622
  1187.2000      8.0738      2.5254      0.0054      7.5545    115.9780     24.9658
  1187.3000      8.0689      2.5244      0.0186      7.6128    119.4542     24.7554
  1187.4000      8.0689      2.5324      0.0047      7.1256    121.5402     24.8662
  1187.5000      8.0602      2.5468      0.0272      6.2547    122.3589     24.9328
  1187.6000      8.0602      2.5578      0.0698      5.5890    121.7768     24.4566
  1187.7000      8.0602      2.5525      0.0451      5.9070    119.1617     23.9059
  1187.8000      8.0580      2.5373      0.0038      6.8327    118.0252     23.8748
  1187.9000      8.0580      2.5313     -0.0240      7.1920    119.9690     24.0257
  1188.0000      8.0492      2.5316      0.0268      7.1758    120.4649     23.9802
  1188.1000      8.0492      2.5246     -0.0421      7.5979    118.5837     24.0183
  1188.2000      8.0492      2.5185     -0.0009      7.9711    117.7376     24.4391
  1188.3000      8.0371      2.5213     -0.0016      7.7991    117.5664     25.0194
  1188.4000      8.0371      2.5284     -0.0082      7.3718    115.1588     25.5111
  1188.5000      8.0316      2.5325      0.0310      7.1210    111.1832     25.9233
  1188.6000      8.0316      2.5316     -0.0052      7.1755    109.9636     26.0896
  1188.7000      8.0316      2.5268      0.0056      7.4676    112.0770     25.9039
  1188.8000      8.0241      2.5206      0.0332      7.8454    114.8538     25.7500
  1188.9000      8.0241      2.5192      0.0349      7.9273    117.3817     26.0179
  1189.0000      8.0167      2.5244      0.0091      7.6100    119.5815     26.5489
  1189.1000      8.0167      2.5275      0.0384      7.4218    121.3527     26.9339
  1189.2000      8.0167      2.5241     -0.0417      7.6315    121.5715     27.0075
  1189.3000      8.0104      2.5265     -0.0214      7.4865    119.1012     27.0531
  1189.4000      8.0104      2.5464     -0.0304      6.2779    115.5648     27.4866
  1189.5000      8.0279      2.5722      0.0447      4.7173    114.2382     28.3661
  1189.6000      8.0279      2.5817      0.0483      4.1424    114.6737     29.2561
  1189.7000      8.0279      2.5795     -0.0146      4.2752    113.7328     29.4517
  1189.8000      8.0106      2.5796      0.0037      4.2676    111.3007     28.7321
  1189.9000      8.0106      2.5718      0.0198      4.7385    109.0201     27.7979
  1190.0000      7.9982      2.5506     -0.0351      6.0242    106.4344     27.3750
  1190.1000      7.9982      2.5346     -0.0406      6.9944    102.9267     27.2719
  1190.2000      7.9982      2.5401     -0.0330      6.6622    101.6239     27.2842
  1190.3000      7.9798      2.5584      0.0559      5.5486    103.6262     27.4214
  1190.4000      7.9798      2.5682      0.0049      4.9568    105.3521     27.2930
  1190.5000      7.9825      2.5625      0.0405      5.3024    106.7315     26.8503
  1190.6000      7.9825      2.5490     -0.0510      6.1197    109.0886     26.3948
  1190.7000      7.9825      2.5370     -0.0119      6.8505    110.4298     26.1129
  1190.8000      7.9855      2.5261      0.0021      7.5102    110.7667     26.2003
  1190.9000      7.9855      2.5165      0.0084      8.0915    112.4765     26.4931
  1191.0000      8.0068      2.5163     -0.0493      8.1003    114.2704     26.5758
  1191.1000      8.0068      2.5293      0.0301      7.3156    114.2451     26.6919
  1191.2000      8.0068      2.5515     -0.0249      5.9677    114.2568     27.1997
  1191.3000      7.9878      2.5781      0.0191      4.3595    114.5392     27.6493
  1191.4000      7.9878      2.5965      0.0258      3.2398    113.6440     27.5212
  1191.5000      7.9868      2.6008      0.0500      2.9830    112.0251     27.0298
  1191.6000      7.9868      2.5996     -0.0057      3.0560    111.6354     26.8803
  1191.7000      7.9868      2.6013     -0.0020      2.9490    113.7403     27.3337
  1191.8000      8.0037      2.6022      0.0125      2.8964    114.9999     27.8027
  1191.9000      8.0037      2.5984     -0.0184      3.1287    112.7323     27.7031
