~Version Information
VERS.                      2.0: CWLS Log ASCII Standard - VERSION 2.0
WRAP.                       NO: One line per depth step
~Well Information Block
STRT.FT               -12.2500: 
STOP.FT              2595.7500: 
STEP.FT                 0.2500: 
NULL.                -999.2500: 
COMP.          Petrogulf Corporation: COMPANY
WELL.            Montoya 1-44V: WELL
FLD.           Purgatoire River: FIELD
LOC.           753' FSL & 990' FEL--: LOCATION
PROV.                       CO: PROVINCE
CNTY.               Las Aniams: COUNTRY
SRVC.          Patterson Wireline: SERVICE COMPANY
DATE.          Mon Jun 13 11:58:10 2005: LOG DATE
UWI.           05 071 08142 00: UNIQUE WELL ID
~Curve Information Block
DEPT.FT            0 000 00 00: Depth
CCL.                          : Casing Collar Locator
TT3.usec                      : CBL 3' Travel Time
AMP3.mV                       : CBL 3' Amplitude
GR.GAPI                       : Gamma Ray
~Parameter Information Block
~A  Depth       CCL         TT3         AMP3         GR     
# ...
  1528.7500      0.0000    338.0673     14.8958    121.3265
  1529.0000      0.0000    327.7779     16.1492    119.1624
  1529.2500      0.0000    319.2083     17.5508    116.2749
  1529.5000      0.0000    313.3768     19.0529    114.3831
  1529.7500      0.0000    310.1267     20.5255    114.4065
  1530.0000      0.0000    308.6296     21.8045    115.4995
  1530.2500      0.0000    308.0447     22.7754    115.9331
  1530.5000      0.0000    307.8351     23.3976    114.3845
  1530.7500      0.0000    307.7532     23.6545    110.6283
  1531.0000      0.0000    307.7523     23.5124    105.6637
  1531.2500      0.0000    307.9560     22.9383    101.4046
  1531.5000      0.0000    308.8320     21.9502     99.8997
  1531.7500      0.0000    311.6599     20.6513    102.2651
  1532.0000      0.0000    319.2459     19.2154    108.0343
  1532.2500      0.0000    336.1680     17.8292    115.4460
  1532.5000      0.0000    367.5941     16.6252    122.3222
  1532.7500      0.0000    416.2693     15.6522    126.9073
  1533.0000      0.0000    478.7585     14.9039    128.5203
  1533.2500      0.0000    542.7162     14.3693    127.7654
  1533.5000      0.0000    587.9092     14.0519    126.0064
  1533.7500      0.0000    594.3083     13.9529    124.6390
  1534.0000      0.0000    555.5309     14.0444    124.8349
  1534.2500      0.0000    486.4099     14.2516    127.4515
  1534.5000      0.0000    414.4307     14.4555    132.4858
  1534.7500      0.0000    361.5830     14.5340    138.4670
  1535.0000      0.0000    334.0811     14.4237    142.9007
  1535.2500      0.0000    326.2763     14.1417    143.9806
  1535.5000      0.0000    329.5150     13.7458    142.0039
  1535.7500      0.0000    336.9570     13.2854    138.7932
  1536.0000      0.0000    344.3109     12.8022    135.6413
  1536.2500      0.0000    349.5168     12.3560    132.1881
  1536.5000      0.0000    352.3145     12.0189    127.4718
  1536.7500      0.0000    353.4070     11.8330    121.4922
  1537.0000      0.0000    353.6423     11.7773    115.3573
  1537.2500      0.0000    353.5781     11.7839    110.2108
  1537.5000      0.0000    353.4551     11.7847    106.4895
  1537.7500      0.0000    353.3189     11.7501    104.2991
  1538.0000      0.0000    353.1093     11.7015    104.1092
  1538.2500      0.0000    352.6368     11.7022    106.4278
  1538.5000      0.0000    351.4508     11.8279    110.7292
  1538.7500      0.0000    348.7935     12.1255    115.2743
  1539.0000      0.0000    343.9389     12.5839    118.3206
  1539.2500      0.0000    336.9080     13.1430    119.2003
  1539.5000      0.0000    328.8881     13.7350    118.0413
  1539.7500      0.0000    321.6650     14.3196    115.0557
  1540.0000      0.0000    316.4680     14.8873    110.8845
  1540.2500      0.0000    313.3849     15.4335    107.2326
  1540.5000      0.0000    311.7566     15.9308    105.9318
  1540.7500      0.0000    310.8806     16.3207    107.1771
  1541.0000      0.0000    310.3611     16.5399    109.6104
  1541.2500      0.0000    310.0741     16.5699    112.1542
  1541.5000      0.0000    310.0469     16.4640    114.9320
  1541.7500      0.0000    310.4533     16.3118    118.4263
  1542.0000      0.0000    311.7357     16.1634    122.5530
  1542.2500      0.0000    314.6848     15.9857    126.6985
  1542.5000      0.0000    320.1676     15.6916    130.0748
  1542.7500      0.0000    328.7741     15.2093    131.8684
  1543.0000      0.0000    341.4099     14.5388    131.5766
  1543.2500      0.0000    361.5746     13.7639    129.2958
  1543.5000      0.0000    397.0536     13.0155    125.3028
  1543.7500      0.0000    456.2326     12.3937    119.5090
  1544.0000      0.0000    538.3649     11.9015    111.9394
  1544.2500      0.0000    627.0374     11.4569    103.6752
  1544.5000      0.0000    697.6212     10.9743     96.5637
  1544.7500      0.0000    734.8824     10.4318     91.7280
  1545.0000      0.0000    743.1647      9.8769     88.8706
  1545.2500      0.0000    738.9992      9.3870     87.2420
  1545.5000      0.0000    735.4860      9.0139     86.6766
  1545.7500      0.0000    734.7778      8.7403     87.3386
  1546.0000      0.0000    733.2949      8.4914     89.1464
  1546.2500      0.0000    730.1015      8.2010     91.8781
  1546.5000      0.0000    728.6646      7.8593     95.3015
  1546.7500      0.0000    732.7963      7.4963     98.8536
  1547.0000      0.0000    743.1981      7.1366    101.5526
  1547.2500      0.0000    757.5493      6.7769    102.6322
  1547.5000      0.0000    772.4023      6.4048    102.4335
  1547.7500      0.0000    784.7335      6.0334    102.5599
  1548.0000      0.0000    792.4901      5.7060    104.7032
  1548.2500      0.0000    794.5676      5.4614    108.7987
  1548.5000      0.0000    791.0732      5.3087    112.5145
  1548.7500      0.0000    784.1453      5.2403    113.1704
  1549.0000      0.0000    777.8922      5.2428    110.2618
  1549.2500      0.0000    775.9494      5.2890    105.8304
  1549.5000      0.0000    777.9462      5.3446    102.5986
  1549.7500      0.0000    778.8408      5.3896    102.0346
  1550.0000      0.0000    773.1422      5.4210    103.9495
  1550.2500      0.0000    760.3890      5.4358    107.4641
  1550.5000      0.0000    745.7984      5.4306    112.0918
  1550.7500      0.0000    735.1068      5.4169    117.6930
  1551.0000      0.0000    729.2875      5.4221    123.5963
  1551.2500      0.0000    724.7094      5.4685    128.3712
  1551.5000      0.0000    718.0016      5.5616    130.5412
  1551.7500      0.0000    710.1600      5.7027    129.2606
  1552.0000      0.0000    706.1290      5.9099    124.5035
  1552.2500      0.0000    710.9130      6.2200    116.9363
  1552.5000      0.0000    725.6229      6.6646    107.6911
  1552.7500      0.0000    745.7773      7.2409     98.2269
  1553.0000      0.0000    762.8561      7.9005     90.2752
  1553.2500      0.0000    769.0126      8.5612     85.4485
  1553.5000      0.0000    762.3616      9.1255     84.5903
  1553.7500      0.0000    748.5249      9.5018     87.5366
  1554.0000      0.0000    736.6021      9.6250     93.3249
  1554.2500      0.0000    732.6767      9.4759    100.3141
  1554.5000      0.0000    736.0562      9.0984    106.3912
  1554.7500      0.0000    741.3699      8.5989    109.7761
  1555.0000      0.0000    744.2828      8.1045    109.8986
  1555.2500      0.0000    744.8928      7.7088    107.3578
  1555.5000      0.0000    745.8745      7.4589    103.2190
  1555.7500      2.0000    748.4915      7.3651     98.6891
  1556.0000      0.0000    750.7599      7.3890     95.1359
  1556.2500      0.0000    749.2665      7.4396     93.8300
  1556.5000      0.0000    743.4582      7.4363     95.3821
  1556.7500      0.0000    737.8232      7.3980     99.3179
  1557.0000      0.0000    738.1152      7.4320    104.4332
  1557.2500      0.0000    745.1945      7.5997    109.7799
  1557.5000      0.0000    753.8813      7.8267    114.9826
  1557.7500      0.0000    758.0851      7.9822    119.4735
  1558.0000      0.0000    756.2297      8.0067    122.1956
  1558.2500      0.0000    751.5177      7.9283    122.6039
  1558.5000      0.0000    747.6715      7.8066    121.3489
  1558.7500      0.0000    745.3231      7.7124    119.4271
  1559.0000      0.0000    742.7037      7.7262    117.1573
  1559.2500      0.0000    739.0858      7.9036    114.4247
  1559.5000      0.0000    736.5622      8.2364    111.4836
  1559.7500      0.0000    738.5906      8.6621    109.0384
  1560.0000      0.0000    747.5067      9.1117    107.7613
  1560.2500      0.0000    763.2508      9.5417    108.1040
  1560.5000      0.0000    783.4889      9.9277    110.4321
  1560.7500      0.0000    804.3931     10.2436    114.8729
  1561.0000      0.0000    821.9374     10.4622    120.8985
  1561.2500      0.0000    833.5478     10.5835    127.4932
  1561.5000      0.0000    838.9600     10.6552    134.0862
  1561.7500      0.0000    839.2150     10.7493    140.9820
  1562.0000      0.0000    834.8763     10.9098    148.4267
