~Version Information
VERS.                      2.0: CWLS Log ASCII Standard - VERSION 2.0
WRAP.                       NO: One line per depth step
~Well Information Block
STRT.FT               964.0000: 
STOP.FT              2440.0000: 
STEP.FT                 0.2500: 
NULL.                -999.2500: 
COMP.          Petrogulf Corporation: COMPANY
WELL.              Hand 8-44 V: WELL
FLD.           Purgatorie River: FIELD
LOC.           1076' FEL & 820' FSL: LOCATION
CNTY.               Las Animas: COUNTY
SRVC.                         : SERVICE COMPANY
DATE.          Fri Nov 21 11:54:17 2003: LOG DATE
UWI.                          : UNIQUE WELL ID
STAT.                 Colorado: STATE
~Curve Information Block
DEPT.FT            0 000 00 00: Depth
SP.mV                         : IEL Spontaneous Potential
DIR.Ohm-m                     : IEL Induction Resistivity
GR.GAPI                       : Gamma Ray
~Parameter Information Block
~A  Depth        SP         DIR          GR     
# ...
  2007.7500   -240.0155     21.0122     63.7194
  2008.0000   -239.8804     21.2228     66.6527
  2008.2500   -239.9249     21.5110     69.4099
  2008.5000   -240.0463     21.8837     74.2488
  2008.7500   -240.1741     22.3206     77.2341
  2009.0000   -240.2817     22.7805     79.8940
  2009.2500   -240.3834     23.2117     79.7928
  2009.5000   -240.5218     23.5648     76.4043
  2009.7500   -240.7404     23.8065     72.2005
  2010.0000   -241.0477     23.9309     64.0593
  2010.2500   -241.4084     23.9561     58.3499
  2010.5000   -241.7825     23.9061     50.9677
  2010.7500   -242.1741     23.7950     47.4012
  2011.0000   -242.6420     23.6328     44.2488
  2011.2500   -243.2637     23.4381     43.4956
  2011.5000   -244.0795     23.2359     44.3012
  2011.7500   -245.0524     23.0346     46.1945
  2012.0000   -246.0722     22.8095     51.3355
  2012.2500   -246.9965     22.5133     56.4655
  2012.5000   -247.6971     22.1090     66.6877
  2012.7500   -248.0909     21.5958     74.8771
  2013.0000   -248.1664     21.0092     88.2431
  2013.2500   -248.0069     20.3992     97.0552
  2013.5000   -247.7762     19.8089    108.4348
  2013.7500   -247.6383     19.2655    114.1141
  2014.0000   -247.6528     18.7833    120.0057
  2014.2500   -247.7451     18.3696    122.8686
  2014.5000   -247.7861     18.0275    126.2637
  2014.7500   -247.7058     17.7526    127.8012
  2015.0000   -247.5401     17.5318    128.7466
  2015.2500   -247.3942     17.3459    128.6949
  2015.5000   -247.3844     17.1766    128.6104
  2015.7500   -247.6135     17.0137    129.2621
  2016.0000   -248.1717     16.8582    131.9841
  2016.2500   -249.1247     16.7193    134.5718
  2016.5000   -250.4724     16.6072    137.5623
  2016.7500   -252.1116     16.5281    137.6944
  2017.0000   -253.8513     16.4833    134.4116
  2017.2500   -255.4874     16.4718    130.4908
  2017.5000   -256.8692     16.4892    123.7442
  2017.7500   -257.9063     16.5253    119.6082
  2018.0000   -258.5479     16.5613    115.2101
  2018.2500   -258.7982     16.5729    114.0192
  2018.5000   -258.7386     16.5379    115.0431
  2018.7500   -258.4968     16.4467    117.0462
  2019.0000   -258.1839     16.3058    120.1082
  2019.2500   -257.8672     16.1325    121.0382
  2019.5000   -257.5996     15.9399    119.7396
  2019.7500   -257.4604     15.7251    117.2240
  2020.0000   -257.5398     15.4732    112.2271
  2020.2500   -257.8610     15.1734    108.9651
  2020.5000   -258.3212     14.8314    104.9662
  2020.7500   -258.7360     14.4679    102.7179
  2021.0000   -258.9500     14.1055     99.2996
  2021.2500   -258.9140     13.7591     96.9502
  2021.5000   -258.6849     13.4340     94.0985
  2021.7500   -258.3784     13.1300     93.4164
  2022.0000   -258.1100     12.8460     95.8577
  2022.2500   -257.9506     12.5808    100.6991
  2022.5000   -257.9090     12.3319    113.1376
  2022.7500   -257.9404     12.0944    123.9381
  2023.0000   -257.9715     11.8620    140.9531
  2023.2500   -257.9258     11.6308    151.2051
  2023.5000   -257.7369     11.4026    163.0835
  2023.7500   -257.3538     11.1865    167.9231
  2024.0000   -256.7585     10.9965    169.7169
  2024.2500   -255.9956     10.8469    167.4823
  2024.5000   -255.1812     10.7474    161.0897
  2024.7500   -254.4606     10.7016    156.5674
  2025.0000   -253.9358     10.7075    151.7207
  2025.2500   -253.6104     10.7585    150.2499
  2025.5000   -253.3938     10.8441    150.2384
  2025.7500   -253.1653     10.9503    151.0962
  2026.0000   -252.8587     11.0621    152.5771
  2026.2500   -252.5012     11.1675    153.0782
  2026.5000   -252.1754     11.2602    152.2214
  2026.7500   -251.9446     11.3402    150.4162
  2027.0000   -251.8064     11.4098    146.5740
  2027.2500   -251.7010     11.4717    144.0320
  2027.5000   -251.5580     11.5292    141.3883
  2027.7500   -251.3454     11.5896    140.7340
  2028.0000   -251.0929     11.6639    141.2878
  2028.2500   -250.8721     11.7629    142.1158
  2028.5000   -250.7474     11.8910    142.8154
  2028.7500   -250.7271     12.0445    142.7207
  2029.0000   -250.7473     12.2139    142.5816
  2029.2500   -250.7005     12.3893    143.0496
  2029.5000   -250.4836     12.5617    144.6351
  2029.7500   -250.0326     12.7194    145.8472
  2030.0000   -249.3356     12.8430    147.0670
  2030.2500   -248.4373     12.9049    147.2021
  2030.5000   -247.4328     12.8823    146.2715
  2030.7500   -246.4373     12.7741    144.9604
  2031.0000   -245.5353     12.6075    142.4380
  2031.2500   -244.7385     12.4237    140.9476
  2031.5000   -243.9824     12.2565    139.9326
  2031.7500   -243.1619     12.1200    140.1872
  2032.0000   -242.1807     12.0110    141.2691
  2032.2500   -240.9843     11.9204    141.8427
  2032.5000   -239.5701     11.8427    141.8848
  2032.7500   -237.9842     11.7811    141.5431
  2033.0000   -236.3108     11.7459    141.4034
  2033.2500   -234.6548     11.7501    142.0259
  2033.5000   -233.1074     11.8053    144.2460
  2033.7500   -231.7104     11.9193    146.4097
  2034.0000   -230.4517     12.0963    150.2842
  2034.2500   -229.3107     12.3382    153.2177
  2034.5000   -228.3114     12.6448    158.1048
  2034.7500   -227.5278     13.0130    161.1950
  2035.0000   -227.0402     13.4362    163.5924
  2035.2500   -226.8945     13.9052    162.5392
  2035.5000   -227.0981     14.4108    156.4660
  2035.7500   -227.6438     14.9474    149.9700
  2036.0000   -228.5292     15.5131    137.8028
  2036.2500   -229.7624     16.1094    128.5735
  2036.5000   -231.3442     16.7412    113.7982
  2036.7500   -233.2325     17.4147    104.2028
  2037.0000   -235.3205     18.1259     92.9484
  2037.2500   -237.4603     18.8391     89.3338
  2037.5000   -239.5099     19.4696     90.6596
  2037.7500   -241.3565     19.8972     94.4009
  2038.0000   -242.9058     20.0173     99.2653
  2038.2500   -244.0792     19.7970     99.8084
  2038.5000   -244.8462     19.2888     96.4151
  2038.7500   -245.2572     18.5946     92.8587
  2039.0000   -245.4308     17.8198     88.3200
  2039.2500   -245.4990     17.0485     86.6573
  2039.5000   -245.5549     16.3366     86.5651
  2039.7500   -245.6341     15.7133     88.1666
  2040.0000   -245.7213     15.1855     93.1339
  2040.2500   -245.7671     14.7460     97.8967
  2040.5000   -245.7060     14.3854    105.8966
  2040.7500   -245.4773     14.1017    110.7696
  2041.0000   -245.0459     13.8997    116.2409
  2041.2500   -244.4198     13.7807    118.6157
  2041.5000   -243.6638     13.7316    120.6525
  2041.7500   -242.8985     13.7208    121.1123
  2042.0000   -242.2702     13.7057    120.6739
  2042.2500   -241.8956     13.6495    120.0395
  2042.5000   -241.8134     13.5364    119.4826
  2042.7500   -241.9732     13.3755    119.5496
  2043.0000   -242.2643     13.1894    119.6908
  2043.2500   -242.5707     13.0008    119.2738
  2043.5000   -242.8180     12.8257    117.5174
  2043.7500   -242.9852     12.6715    115.8030
  2044.0000   -243.0809     12.5372    113.0222
  2044.2500   -243.1172     12.4133    111.3433
  2044.5000   -243.1068     12.2838    109.7676
  2044.7500   -243.0703     12.1313    109.9669
  2045.0000   -243.0333     11.9442    113.1690
  2045.2500   -243.0163     11.7225    117.3702
  2045.5000   -243.0357     11.4782    125.8175
  2045.7500   -243.1132     11.2311    131.8752
  2046.0000   -243.2722     11.0009    139.9927
  2046.2500   -243.5087     10.8026    144.1900
  2046.5000   -243.7646     10.6453    148.3586
  2046.7500   -243.9364     10.5344    149.8816
  2047.0000   -243.9234     10.4733    151.1295
  2047.2500   -243.6806     10.4630    151.8682
  2047.5000   -243.2400     10.5026    153.2111
  2047.7500   -242.6919     10.5907    153.8607
  2048.0000   -242.1419     10.7274    153.2892
  2048.2500   -241.6689     10.9147    151.4746
  2048.5000   -241.2985     11.1537    146.7364
  2048.7500   -240.9940     11.4407    142.4902
  2049.0000   -240.6701     11.7628    134.9694
  2049.2500   -240.2300     12.0962    129.8257
