~Version Information
VERS.                      2.0: CWLS Log ASCII Standard - VERSION 2.0
WRAP.                       NO: One line per depth step
~Well Information Block
STRT.FT               236.5000: 
STOP.FT              2818.2500: 
STEP.FT                 0.2500: 
NULL.                -999.2500: 
COMP.          Pioneer Natural Resources: COMPANY
WELL.            Sebring 42-29: WELL
FLD.           Purgatorie River: FIELD
LOC.           1751' FNL & 584' FEL--: LOCATION
PROV.                       CO: PROVINCE
CNTY.               Las Animas: COUNTRY
SRVC.          Patterson Wireline: SERVICE COMPANY
DATE.          Fri Aug 26 09:14:13 2005: LOG DATE
UWI.           05 071 08293 00: UNIQUE WELL ID
~Curve Information Block
DEPT.FT            0 000 00 00: Depth
CCL.                          : Casing Collar Locator
TT3.usec                      : CBL 3' Travel Time
AMP3.mV                       : CBL 3' Amplitude
GR.GAPI                       : Gamma Ray
~Parameter Information Block
~A  Depth       CCL         TT3         AMP3         GR     
# ...
  1610.0000      0.0000    652.1732      6.7361    110.4833
  1610.2500      0.0000    671.8090      6.3251    116.6579
  1610.5000      0.0000    698.3976      5.9867    121.6564
  1610.7500      0.0000    727.7343      5.7297    123.4785
  1611.0000      0.0000    753.1207      5.5529    121.8512
  1611.2500      0.0000    769.2571      5.4469    118.2533
  1611.5000      0.0000    774.5453      5.4010    114.9460
  1611.7500      0.0000    770.0317      5.4133    113.7227
  1612.0000      0.0000    757.7173      5.4963    115.0261
  1612.2500      0.0000    740.2371      5.6739    118.1710
  1612.5000      0.0000    720.8596      5.9663    122.4145
  1612.7500      0.0000    702.7745      6.3712    127.3416
  1613.0000      0.0000    688.2444      6.8538    132.1012
  1613.2500      0.0000    678.2374      7.3526    135.1719
  1613.5000      0.0000    672.4419      7.8011    135.7370
  1613.7500      0.0000    669.5973      8.1503    134.9075
  1614.0000      0.0000    668.0308      8.3821    134.8511
  1614.2500      0.0000    665.8491      8.5102    136.6261
  1614.5000      0.0000    660.4823      8.5651    139.1383
  1614.7500      0.0000    648.0938      8.5787    140.0854
  1615.0000      0.0000    624.1960      8.5795    137.7957
  1615.2500      0.0000    586.5839      8.5919    132.4725
  1615.5000      0.0000    539.5739      8.6275    126.0601
  1615.7500      0.0000    495.2403      8.6778    121.0449
  1616.0000      0.0000    467.7502      8.7242    119.1593
  1616.2500      0.0000    463.8052      8.7560    120.4784
  1616.5000      0.0000    477.9505      8.7751    123.1089
  1616.7500      0.0000    496.7952      8.7867    124.1556
  1617.0000      0.0000    507.0014      8.7923    121.6606
  1617.2500      0.0000    500.7786      8.7923    115.9604
  1617.5000      0.0000    478.1067      8.7900    109.6148
  1617.7500      0.0000    446.3242      8.7915    106.1635
  1618.0000      0.0000    415.9444      8.8020    108.1338
  1618.2500      0.0000    394.3713      8.8226    115.3459
  1618.5000      0.0000    382.8246      8.8527    125.0597
  1618.7500      0.0000    378.5530      8.8943    133.9312
  1619.0000      0.0000    379.0404      8.9525    139.9947
  1619.2500      0.0000    384.7070      9.0297    143.1509
  1619.5000      0.0000    399.1603      9.1197    144.1067
  1619.7500      0.0000    426.8051      9.2096    142.9397
  1620.0000      0.0000    468.4751      9.2859    138.8010
  1620.2500      0.0000    518.5533      9.3379    130.8786
  1620.5000      0.0000    567.3050      9.3593    119.3525
  1620.7500      0.0000    606.7127      9.3493    105.5672
  1621.0000      0.0000    634.0697      9.3141     91.6025
  1621.2500      0.0000    650.9391      9.2647     79.5375
  1621.5000      0.0000    660.3058      9.2137     70.7331
  1621.7500      0.0000    664.8752      9.1713     65.6410
  1622.0000      0.0000    666.7020      9.1427     64.1109
  1622.2500      0.0000    667.2043      9.1273     65.5496
  1622.5000      0.0000    667.1548      9.1191     68.8088
  1622.7500      0.0000    666.6987      9.1093     72.3215
  1623.0000      0.0000    665.3854      9.0905     74.5470
  1623.2500      0.0000    662.3550      9.0591     74.3336
  1623.5000      0.0000    656.9551      9.0153     71.2127
  1623.7500      0.0000    649.8146      8.9626     65.8469
  1624.0000      0.0000    643.3896      8.9077     60.1500
  1624.2500      0.0000    640.7952      8.8584     56.2900
  1624.5000      0.0000    643.4511      8.8181     55.1445
  1624.7500      0.0000    649.8624      8.7813     55.8706
  1625.0000      0.0000    656.8881      8.7363     57.1309
  1625.2500      0.0000    662.0953      8.6724     58.4074
  1625.5000      0.0000    664.9001      8.5872     59.9434
  1625.7500      0.0000    665.9921      8.4882     62.0161
  1626.0000      0.0000    666.2553      8.3893     64.9019
  1626.2500      0.0000    666.2191      8.3031     69.0643
  1626.5000      0.0000    666.0756      8.2335     74.5641
  1626.7500      0.0000    665.8573      8.1759     80.3877
  1627.0000      0.0000    665.5006      8.1230     85.0053
  1627.2500      0.0000    664.7318      8.0698     87.7658
  1627.5000      0.0000    662.9370      8.0130     89.6398
  1627.7500      0.0000    659.3804      7.9490     92.7056
  1628.0000      0.0000    654.0168      7.8749     98.7580
  1628.2500      0.0000    648.4304      7.7922    107.9504
  1628.5000      0.0000    645.4913      7.7102    118.5939
  1628.7500      0.0000    646.8232      7.6437    128.3091
  1629.0000      0.0000    649.6848      7.6050    135.2441
  1629.2500      0.0000    647.0166      7.5961    138.2082
  1629.5000      0.0000    632.4050      7.6079    136.4307
  1629.7500      0.0000    606.6069      7.6255    130.1981
  1630.0000      0.0000    579.4464      7.6359    121.8046
  1630.2500      0.0000    563.6754      7.6365    115.1122
  1630.5000      0.0000    564.7840      7.6364    113.3823
  1630.7500      0.0000    576.4180      7.6485    117.0996
  1631.0000      0.0000    586.5585      7.6796    123.8691
  1631.2500      0.0000    587.6187      7.7263    130.4161
  1631.5000      0.0000    579.9432      7.7826    134.7052
  1631.7500      0.0000    567.8989      7.8463    136.5143
  1632.0000      0.0000    555.5634      7.9169    136.5487
  1632.2500      0.0000    545.4814      7.9855    135.2235
  1632.5000      0.0000    538.7413      8.0356    132.1795
  1632.7500      0.0000    535.1086      8.0550    127.0185
  1633.0000      0.0000    533.5796      8.0462    120.6317
  1633.2500      0.0000    533.2806      8.0229    115.4332
  1633.5000      0.0000    534.0078      8.0001    113.6125
  1633.7500      0.0000    536.0140      7.9882    115.0618
  1634.0000      0.0000    539.1709      7.9921    117.4126
  1634.2500      0.0000    542.2817      8.0103    118.0430
  1634.5000      0.0000    543.5928      8.0353    115.7926
  1634.7500      0.0000    542.3794      8.0563    111.1439
  1635.0000      0.0000    539.9391      8.0652    105.5255
  1635.2500      0.0000    538.9550      8.0601    100.6215
  1635.5000      0.0000    542.1969      8.0432     97.9305
  1635.7500      0.0000    551.6414      8.0156     98.3366
  1636.0000      0.0000    567.6976      7.9712    101.5677
  1636.2500      0.0000    588.4717      7.8912    106.0084
  1636.5000      0.0000    610.2722      7.7429    109.4720
  1636.7500      0.0000    629.7202      7.4925    110.4221
  1637.0000      0.0000    645.6505      7.1308    108.5621
  1637.2500      0.0000    659.0990      6.6942    104.5959
  1637.5000      0.0000    672.0945      6.2614     99.6488
  1637.7500      0.0000    686.7507      5.9190     94.7612
  1638.0000      0.0000    704.6097      5.7161     90.8176
  1638.2500      0.0000    725.4609      5.6412     88.7331
  1638.5000      0.0000    746.4867      5.6414     89.1573
  1638.7500      0.0000    763.4310      5.6653     91.7056
  1639.0000      0.0000    773.2817      5.6914     94.9834
  1639.2500      0.0000    775.8827      5.7293     97.7526
  1639.5000      0.0000    773.0803      5.8042     99.7507
  1639.7500      0.0000    766.4188      5.9434    101.2613
  1640.0000      0.0000    755.6199      6.1723    102.4292
  1640.2500      0.0000    739.6843      6.5088    103.1262
  1640.5000      0.0000    719.6306      6.9451    103.0995
  1640.7500      0.0000    699.2198      7.4289    102.3030
  1641.0000      0.0000    682.1802      7.8744    101.3324
  1641.2500      0.0000    669.1929      8.1981    101.3594
  1641.5000      0.0000    658.1559      8.3416    103.3120
  1641.7500      0.0000    647.1217      8.2690    107.0562
  1642.0000      0.0000    636.6371      7.9785    111.4541
  1642.2500      0.0000    629.0630      7.5444    115.1471
  1642.5000      0.0000    625.5634      7.1230    117.2889
  1642.7500      0.0000    624.3270      6.8522    117.8106
  1643.0000      0.0000    622.9204      6.7413    117.3161
  1643.2500      0.0000    622.2393      6.7011    116.6826
