~Version Information
VERS.                      2.0: CWLS Log ASCII Standard - VERSION 2.0
WRAP.                       NO: One line per depth step
~Well Information Block
STRT.FT               -12.5000: 
STOP.FT              2200.2500: 
STEP.FT                 0.2500: 
NULL.                -999.2500: 
COMP.          Pioneer Natural Resources: COMPANY
WELL.           Ogallela 44-12: WELL
FLD.           Purgatorie River: FIELD
LOC.           610' FSL & 671' FEL------: LOCATION
PROV.                       CO: PROVINCE
CNTY.               Las Animas: COUNTRY
SRVC.          Patterson Wireline: SERVICE COMPANY
DATE.          Tue Mar 22 17:18:22 2005: LOG DATE
UWI.           05 071 08283 00: UNIQUE WELL ID
~Curve Information Block
DEPT.FT            0 000 00 00: Depth
CCL.                          : Casing Collar Locator
TT3.usec                      : CBL 3' Travel Time
AMP3.mV                       : CBL 3' Amplitude
GR.GAPI                       : Gamma Ray
~Parameter Information Block
~A  Depth       CCL         TT3         AMP3         GR     
# ...
  1428.0000      0.0000    820.7875      5.7465    130.3519
  1428.2500      0.0000    816.3719      5.3285    131.2545
  1428.5000      0.0000    811.2569      5.0449    131.3392
  1428.7500      0.0000    809.4247      4.8911    131.4356
  1429.0000      0.0000    814.0115      4.8437    132.3043
  1429.2500      0.0000    824.3683      4.8703    134.1335
  1429.5000      0.0000    836.7184      4.9341    135.8172
  1429.7500      0.0000    847.2772      4.9977    135.5920
  1430.0000      0.0000    854.3723      5.0332    133.1178
  1430.2500      0.0000    858.3041      5.0331    130.2731
  1430.5000      0.0000    860.1644      5.0101    129.2858
  1430.7500      0.0000    860.9531      4.9862    130.5548
  1431.0000      0.0000    861.3002      4.9803    132.6802
  1431.2500      0.0000    861.5137      4.9989    134.1943
  1431.5000      0.0000    861.6641      5.0374    134.7868
  1431.7500      0.0000    861.5727      5.0898    134.8530
  1432.0000      0.0000    860.7464      5.1563    134.2480
  1432.2500      0.0000    858.4363      5.2373    131.9960
  1432.5000      0.0000    854.0666      5.3218    127.4767
  1432.7500      0.0000    847.9480      5.3870    121.6241
  1433.0000      0.0000    841.5457      5.4100    116.6833
  1433.2500      0.0000    836.5795      5.3848    114.8661
  1433.5000      0.0000    833.5541      5.3234    117.1659
  1433.7500      0.0000    831.4136      5.2409    123.0685
  1434.0000      0.0000    828.8229      5.1423    131.0151
  1434.2500      0.0000    825.5007      5.0266    139.0747
  1434.5000      0.0000    822.1116      4.8937    145.4997
  1434.7500      0.0000    819.1813      4.7455    149.1862
  1435.0000      0.0000    816.3216      4.5866    149.9863
  1435.2500      0.0000    812.5200      4.4301    148.6063
  1435.5000      0.0000    807.4991      4.3012    146.0872
  1435.7500      0.0000    803.1098      4.2297    143.3240
  1436.0000      0.0000    802.8047      4.2408    140.8194
  1436.2500      0.0000    808.7903      4.3479    138.4991
  1436.5000      0.0000    819.5596      4.5535    135.7762
  1436.7500      0.0000    830.6359      4.8501    132.2648
  1437.0000      0.0000    837.8554      5.2150    128.6452
  1437.2500      0.0000    840.1385      5.6010    126.5454
  1437.5000      0.0000    839.5298      5.9411    127.0823
  1437.7500      0.0000    838.7936      6.1737    129.2212
  1438.0000      0.0000    838.9048      6.2704    129.7404
  1438.2500      0.0000    838.4877      6.2429    125.3276
  1438.5000      0.0000    834.4668      6.1253    115.0724
  1438.7500      0.0000    822.4974      5.9471    101.0787
  1439.0000      0.0000    798.1268      5.7205     86.9889
  1439.2500      0.0000    760.4393      5.4541     76.0873
  1439.5000      0.0000    716.2744      5.1801     70.2597
  1439.7500      0.0000    679.9194      4.9567     69.8407
  1440.0000      0.0000    665.4445      4.8244     73.8204
  1440.2500      0.0000    676.7599      4.7674     80.2280
  1440.5000      0.0000    705.7186      4.7372     86.9059
  1440.7500      2.0000    740.8867      4.7085     92.6551
  1441.0000      2.0000    776.2414      4.6968     97.8019
  1441.2500      0.0000    810.3732      4.7294    103.2843
  1441.5000      0.0000    840.6743      4.8211    109.0444
  1441.7500      0.0000    861.9279      4.9656    113.7266
  1442.0000      0.0000    870.6341      5.1281    116.1373
  1442.2500      0.0000    868.9703      5.2590    116.5117
  1442.5000      0.0000    863.2648      5.3414    116.0034
  1442.7500      0.0000    858.7385      5.4069    115.4381
  1443.0000      0.0000    856.4191      5.4790    115.1404
  1443.2500      0.0000    854.7329      5.5264    115.5721
  1443.5000      0.0000    852.4399      5.4958    117.3864
  1443.7500      0.0000    849.1685      5.3661    120.8560
  1444.0000      0.0000    843.6487      5.1519    125.6565
  1444.2500      0.0000    832.5464      4.8769    131.1792
  1444.5000      0.0000    812.1071      4.5628    136.7184
  1444.7500      0.0000    781.8387      4.2311    141.5706
  1445.0000      0.0000    746.7563      3.9015    145.4197
  1445.2500      0.0000    715.4006      3.5901    148.6401
  1445.5000      0.0000    694.9309      3.3151    151.9374
  1445.7500      0.0000    687.7313      3.0975    155.5959
  1446.0000      0.0000    691.8296      2.9488    159.0272
  1446.2500      0.0000    703.1367      2.8628    160.7961
  1446.5000      0.0000    716.6799      2.8201    158.9979
  1446.7500      0.0000    727.1558      2.7998    151.9475
  1447.0000      0.0000    730.5975      2.7872    139.1258
  1447.2500      0.0000    726.5341      2.7751    121.8888
  1447.5000      0.0000    718.0667      2.7590    103.1020
  1447.7500      0.0000    709.4323      2.7328     85.7606
  1448.0000      0.0000    703.3824      2.6929     71.9352
  1448.2500      0.0000    700.4847      2.6465     62.8541
  1448.5000      0.0000    700.1579      2.6115     59.2262
  1448.7500      0.0000    701.9346      2.6060     60.8369
  1449.0000      0.0000    705.7691      2.6384     65.9515
  1449.2500      0.0000    711.2935      2.7082     71.7681
  1449.5000      0.0000    717.1234      2.8137     75.9273
  1449.7500      0.0000    721.5735      2.9604     77.6796
  1450.0000      0.0000    724.1025      3.1603     77.6179
  1450.2500      0.0000    725.4115      3.4219     76.5613
  1450.5000      0.0000    726.0988      3.7383     75.1422
  1450.7500      0.0000    726.2476      4.0809     74.2575
  1451.0000      0.0000    726.2354      4.4063     74.9722
  1451.2500      0.0000    726.5107      4.6732     77.5486
  1451.5000      0.0000    726.3517      4.8623     81.1815
  1451.7500      0.0000    724.3018      4.9829     85.0870
  1452.0000      0.0000    720.1326      5.0580     89.4166
  1452.2500      0.0000    715.4278      5.1010     94.7104
  1452.5000      0.0000    712.3330      5.1086    100.7894
  1452.7500      0.0000    712.3796      5.0784    106.6983
  1453.0000      0.0000    715.4237      5.0249    111.7045
  1453.2500      0.0000    718.3513      4.9766    115.8964
  1453.5000      0.0000    715.3311      4.9578    119.7639
  1453.7500      0.0000    701.2796      4.9766    123.6044
  1454.0000      0.0000    676.0679      5.0273    127.3404
  1454.2500      0.0000    645.6338      5.0942    130.4152
  1454.5000      0.0000    618.8452      5.1543    131.7322
  1454.7500      0.0000    602.0608      5.1869    130.3177
  1455.0000      0.0000    595.4921      5.1884    126.6656
  1455.2500      0.0000    594.9818      5.1757    123.1672
  1455.5000      0.0000    597.8094      5.1696    122.4974
  1455.7500      0.0000    605.7104      5.1752    125.3281
  1456.0000      0.0000    620.9786      5.1803    129.8193
  1456.2500      0.0000    641.3546      5.1728    133.3462
  1456.5000      0.0000    661.1921      5.1537    134.6383
  1456.7500      0.0000    676.4141      5.1298    134.4038
  1457.0000      0.0000    686.1470      5.1017    134.1496
  1457.2500      0.0000    690.7743      5.0621    134.5536
  1457.5000      0.0000    690.7478      5.0034    135.1047
  1457.7500      0.0000    687.3347      4.9268    135.2062
  1458.0000      0.0000    682.8146      4.8448    135.0697
  1458.2500      0.0000    679.3712      4.7725    134.9700
  1458.5000      0.0000    678.2243      4.7193    133.9509
  1458.7500      0.0000    679.8522      4.6886    130.2319
  1459.0000      0.0000    684.3958      4.6836    123.1876
  1459.2500      0.0000    691.3503      4.7047    114.4332
  1459.5000      0.0000    699.1815      4.7401    106.8336
  1459.7500      0.0000    705.8947      4.7651    102.6737
  1460.0000      0.0000    710.2010      4.7602    102.6578
  1460.2500      0.0000    711.9692      4.7324    106.2423
  1460.5000      0.0000    711.5612      4.7148    112.6654
  1460.7500      0.0000    709.0082      4.7349    121.5487
  1461.0000      0.0000    704.0364      4.7834    132.5070
  1461.2500      0.0000    696.8887      4.8204    144.4332
