~Version Information
VERS.                      2.0: CWLS Log ASCII Standard - VERSION 2.0
WRAP.                       NO: One line per depth step
~Well Information Block
STRT.FT                -3.2500: 
STOP.FT              2202.2500: 
STEP.FT                 0.2500: 
NULL.                -999.2500: 
COMP.          Pioneer Natural Resources: COMPANY
WELL.           Parklane 43-34: WELL
FLD.           Purgatorie River: FIELD
LOC.           1704' FSL & 1119' FEL--: LOCATION
PROV.                       CO: PROVINCE
CNTY.               Las Animas: COUNTRY
SRVC.                         : SERVICE COMPANY
DATE.          Thu Oct 14 14:49:09 2004: LOG DATE
UWI.           005 071 08162  : UNIQUE WELL ID
~Curve Information Block
DEPT.FT            0 000 00 00: Depth
GR.GAPI                       : Gamma Ray
CCL.                          : Casing Collar Locator
TT3.usec                      : CBL 3' Travel Time
AMP3.mV                       : CBL 3' Amplitude
~Parameter Information Block
~A  Depth        GR         CCL         TT3         AMP3    
# ...
  1303.2500    106.0656      0.0000    729.9634      4.8351
  1303.5000    110.4307      0.0000    732.6393      4.7326
  1303.7500    116.3300      0.0000    736.2814      4.5914
  1304.0000    122.7833      0.0000    739.1577      4.4273
  1304.2500    128.7634      0.0000    740.6839      4.2838
  1304.5000    133.6023      0.0000    741.1727      4.1807
  1304.7500    137.7703      0.0000    741.0995      4.0792
  1305.0000    142.8301      0.0000    740.8069      3.9045
  1305.2500    150.0968      0.0000    740.7729      3.6065
  1305.5000    159.0529      0.0000    742.1373      3.2059
  1305.7500    167.0082      0.0000    747.1481      2.7865
  1306.0000    170.4648      0.0000    758.9174      2.4440
  1306.2500    167.1558      0.0000    779.7613      2.2354
  1306.5000    157.2016      0.0000    808.5637      2.1634
  1306.7500    142.6897      0.0000    839.6334      2.1918
  1307.0000    126.4270      0.0000    865.3964      2.2656
  1307.2500    110.9671      0.0000    881.4006      2.3303
  1307.5000     98.1707      0.0000    888.6046      2.3531
  1307.7500     89.0499      0.0000    890.3511      2.3375
  1308.0000     84.0130      0.0000    887.6843      2.3195
  1308.2500     83.3442      0.0000    878.4427      2.3457
  1308.5000     87.0866      0.0000    860.4777      2.4453
  1308.7500     94.2641      0.0000    834.8269      2.6065
  1309.0000    102.8027      0.0000    805.7746      2.7790
  1309.2500    110.6986      0.0000    778.0452      2.9066
  1309.5000    117.0353      0.0000    753.0822      2.9654
  1309.7500    121.8154      0.0000    727.2830      2.9760
  1310.0000    125.2949      0.0000    694.6958      2.9816
  1310.2500    127.7123      0.0000    653.2986      3.0196
  1310.5000    129.3803      0.0000    609.4373      3.1066
  1310.7500    130.5933      0.0000    575.6176      3.2361
  1311.0000    131.2153      0.0000    563.4945      3.3832
  1311.2500    130.7058      0.0000    577.8343      3.5136
  1311.5000    129.1691      0.0000    614.1343      3.5984
  1311.7500    128.2804      0.0000    660.0710      3.6238
  1312.0000    130.5506      0.0000    701.3905      3.5920
  1312.2500    137.2252      0.0000    729.5858      3.5195
  1312.5000    146.7975      0.0000    744.8209      3.4383
  1312.7500    155.6828      0.0000    752.0912      3.3859
  1313.0000    160.5390      0.0000    756.0402      3.3860
  1313.2500    160.1953      0.0000    758.9595      3.4358
  1313.5000    155.8966      0.0000    760.6897      3.5118
  1313.7500    150.2962      0.0000    758.2526      3.5860
  1314.0000    146.0127      0.0000    746.8639      3.6429
  1314.2500    144.0562      0.0000    724.4041      3.6844
  1314.5000    142.9695      0.0000    696.1609      3.7193
  1314.7500    140.1132      0.0000    673.2790      3.7472
  1315.0000    134.3337      0.0000    663.7260      3.7549
  1315.2500    126.8565      0.0000    664.7172      3.7276
  1315.5000    119.4424      0.0000    665.5533      3.6579
  1315.7500    112.6320      0.0000    657.7776      3.5477
  1316.0000    106.1748      0.0000    641.8323      3.4093
  1316.2500    100.3364      0.0000    625.2196      3.2627
  1316.5000     96.2780      0.0000    615.7047      3.1307
  1316.7500     95.4571      0.0000    614.5337      3.0340
  1317.0000     98.7354      0.0000    614.3578      2.9889
  1317.2500    105.7432      0.0000    605.8554      3.0021
  1317.5000    114.8909      0.0000    588.4479      3.0653
  1317.7500    123.8438      0.0000    572.8862      3.1591
  1318.0000    130.1053      0.0000    572.3669      3.2647
  1318.2500    131.8312      0.0000    592.1373      3.3668
  1318.5000    128.7605      0.0000    626.4962      3.4473
  1318.7500    122.5887      0.0000    663.3577      3.4901
  1319.0000    116.3644      0.0000    692.3214      3.5029
  1319.2500    113.1917      0.0000    711.0298      3.5268
  1319.5000    114.7932      0.0000    723.8846      3.6087
  1319.7500    120.6980      0.0000    733.2406      3.7574
  1320.0000    128.7990      0.0000    733.1935      3.9308
  1320.2500    137.0362      0.0000    714.6264      4.0707
  1320.5000    144.6305      0.0000    676.4836      4.1549
  1320.7500    151.5680      0.0000    630.2485      4.2125
  1321.0000    157.1620      0.0000    591.8337      4.2867
  1321.2500    159.8433      0.0000    568.9971      4.3897
  1321.5000    158.5679      0.0000    557.8350      4.5011
  1321.7500    153.7742      0.0000    551.1276      4.6022
  1322.0000    146.6366      0.0000    547.7111      4.6941
  1322.2500    137.9577      0.0000    553.1982      4.7829
  1322.5000    128.0015      0.0000    573.4966      4.8613
  1322.7500    116.9217      0.0000    608.2562      4.9112
  1323.0000    105.2571      0.0000    649.4501      4.9238
  1323.2500     94.3191      0.0000    686.3177      4.9100
  1323.5000     85.9928      0.0000    712.3102      4.8857
  1323.7500     81.7832      0.0000    727.3958      4.8487
  1324.0000     81.8154      0.0000    734.7524      4.7806
  1324.2500     84.7636      0.0000    736.5565      4.6705
  1324.5000     89.0842      0.0000    732.1763      4.5300
  1324.7500     94.5823      0.0000    718.7150      4.3823
  1325.0000    102.4726      0.0000    694.0474      4.2410
  1325.2500    113.5197      0.0000    661.6435      4.1034
  1325.5000    126.3371      0.0000    632.2361      3.9634
  1325.7500    137.8909      0.0000    617.7087      3.8272
  1326.0000    145.4769      0.0000    621.9749      3.7173
  1326.2500    147.9455      0.0000    639.5220      3.6588
  1326.5000    145.4323      0.0000    662.6462      3.6606
  1326.7500    138.8644      0.0000    687.3017      3.6999
  1327.0000    130.0450      0.0000    711.6954      3.7332
  1327.2500    121.3316      0.0000    733.0580      3.7292
  1327.5000    114.4124      0.0000    748.6477      3.6870
  1327.7500    109.6189      0.0000    758.8244      3.6172
  1328.0000    106.7969      0.0000    766.9999      3.5141
  1328.2500    106.4878      0.0000    776.3265      3.3624
  1328.5000    109.7518      0.0000    787.4619      3.1656
  1328.7500    116.8929      0.0000    799.4916      2.9557
  1329.0000    126.6542      0.0000    811.1502      2.7757
  1329.2500    136.5882      0.0000    820.1841      2.6573
  1329.5000    144.0790      0.0000    823.5008      2.6042
  1329.7500    147.5759      0.0000    819.6689      2.5902
  1330.0000    147.7632      0.0000    810.3748      2.5813
  1330.2500    147.5685     -2.0000    799.0419      2.5672
  1330.5000    150.1074      0.0000    789.5827      2.5737
  1330.7500    156.1052      0.0000    786.5601      2.6548
  1331.0000    163.5631      0.0000    793.3491      2.8529
  1331.2500    169.8062      0.0000    807.7962      3.1293
  1331.5000    173.1916      0.0000    821.1383      3.3395
  1331.7500    172.9488      0.0000    824.2491      3.3339
  1332.0000    168.4917      0.0000    815.6807      3.1016
  1332.2500    159.6449      0.0000    802.2051      2.7802
  1332.5000    147.3271      0.0000    791.6711      2.5199
  1332.7500    133.5325      0.0000    786.9651      2.3759
  1333.0000    120.4629      0.0000    786.4049      2.3193
  1333.2500    109.8033      0.0000    787.3538      2.3008
  1333.5000    102.8153      0.0000    788.3328      2.2969
  1333.7500    100.6369      0.0000    788.9506      2.3221
  1334.0000    103.7692      0.0000    789.2429      2.4106
  1334.2500    111.0804      0.0000    789.2582      2.5777
  1334.5000    119.8443      0.0000    788.8472      2.8038
  1334.7500    127.2336      0.0000    787.5667      3.0604
  1335.0000    131.8053      0.0000    784.8381      3.3414
  1335.2500    133.8389      0.0000    780.4942      3.6568
  1335.5000    134.7548      0.0000    775.4264      3.9974
  1335.7500    136.1052      0.0000    771.4432      4.3183
  1336.0000    138.6317      0.0000    769.9621      4.5630
  1336.2500    142.3340      0.0000    770.8439      4.7068
  1336.5000    147.5208      0.0000    772.8542      4.7730
