~Version Information
 VERS.                                  2.0 : CWLS LAS VERSION
 WRAP.                                   NO : WRAPING MODE
 SWARE .                 MController 2.5.0E : SOFTWARE VERSION
~Well Information
 WELL.                          Nomad 32-10 : WELL
 COMP.            EVERGREEN OPERATING CORP. : COMPANY
 FLD.                      PURGATOIRE RIVER : FIELD
 LOC.                    SW/NE 26 T32S R66W : LOCATION
 DATE.                              6/11/04 : DATE(S) LOGGED
 SRVC.       BLANCO GEOLOGICAL SERVICES LLC : SERVICE COMPANY
 STAT.                             COLORADO : STATE
 CNTY.                           LAS ANIMAS : COUNTY
 CTRY.                                  USA : COUNTRY
 API.                       05-071-08127-00 : API NUMBER
 STRT.FT                             446.00 : START DEPTH
 STOP.FT                            2455.00 : STOP DEPTH
 STEP.FT                               1.00 : DEPTH INCREMENT
 NULL.                                -9999 : NULL VALUE
~Curve information
 DEPTH.FT                                   :
 ROP.MIN/FT                                 :
 GAS.UNITS                                  :
~ASCII Log data
# ...
      646.00        0.267         74.0 
      647.00        0.267         67.7 
      648.00        0.267         64.5 
      649.00        0.267         66.2 
      650.00        0.267         64.0 
      651.00        0.267         63.4 
      652.00        0.267         61.3 
      653.00        0.233         58.5 
      654.00        0.300         59.2 
      655.00        0.267         66.0 
      656.00        8.183        292.0 
      657.00        0.133         50.7 
      658.00        0.267         48.5 
      659.00        0.333         38.1 
      660.00        0.333         48.1 
      661.00        0.300         48.5 
      662.00        0.300         42.9 
      663.00        0.233         47.7 
      664.00        0.267         58.9 
      665.00        0.283         61.7 
      666.00        0.267         59.1 
      667.00        0.300         53.6 
      668.00        0.233         47.5 
      669.00        0.167         45.1 
      670.00        0.167         45.1 
      671.00        0.267         45.8 
      672.00        0.167         52.8 
      673.00        0.200         47.0 
      674.00        0.167         26.4 
      675.00        0.200         26.4 
      676.00        0.167         24.0 
      677.00        0.200         29.1 
      678.00        0.200         29.1 
      679.00        0.200         35.0 
      680.00        0.200         48.0 
      681.00        0.250         64.6 
      682.00        0.200         78.8 
      683.00        0.200         81.4 
      684.00        0.233        105.4 
      685.00        0.233        147.2 
      686.00        3.617        198.4 
      687.00        0.333         19.6 
      688.00        0.400         41.9 
      689.00        0.367         42.4 
      690.00        0.300         39.5 
      691.00        0.300         58.2 
      692.00        0.267         69.7 
      693.00        0.283         65.7 
      694.00        0.267         54.4 
      695.00        0.200         54.0 
      696.00        0.200         51.3 
      697.00        0.200         44.5 
      698.00        0.200         39.8 
      699.00        0.267         48.1 
      700.00        0.200         48.1 
      701.00        0.200         54.1 
      702.00        0.233         37.7 
      703.00        0.233         23.9 
      704.00        0.233         22.7 
      705.00        0.200         22.7 
      706.00        0.167         24.9 
      707.00        0.200         27.0 
      708.00        0.167         40.0 
      709.00        0.183         54.7 
      710.00        0.167         54.7 
      711.00        0.167         70.1 
      712.00        0.200         87.2 
      713.00        0.200        107.3 
      714.00        0.200        107.3 
      715.00        0.233        138.6 
      716.00        4.417        195.1 
      717.00        0.333         29.5 
      718.00        0.300         32.9 
      719.00        0.200         33.5 
      720.00        0.217         29.5 
      721.00        0.233         27.0 
      722.00        0.200         29.9 
      723.00        0.233         34.7 
      724.00        0.233         51.0 
      725.00        0.300         42.9 
      726.00        0.233         40.3 
      727.00        0.233         39.6 
      728.00        0.233         49.3 
      729.00        0.233         49.3 
      730.00        0.233         55.1 
      731.00        0.233         32.1 
      732.00        0.200         22.7 
      733.00        0.233         28.0 
      734.00        0.200         28.0 
      735.00        0.217         28.6 
      736.00        0.200         26.3 
      737.00        0.200         25.1 
      738.00        0.233         25.9 
      739.00        0.167         37.5 
      740.00        0.233         37.5 
      741.00        0.200         49.2 
      742.00        0.200         60.9 
      743.00        0.200         73.6 
      744.00        0.233         88.7 
      745.00        0.233         88.7 
      746.00        4.283        199.5 
      747.00        0.183         28.2 
      748.00        0.367         29.7 
      749.00        0.333         30.7 
      750.00        0.267         26.0 
      751.00        0.267         24.7 
      752.00        0.233         19.3 
      753.00        0.200         21.1 
      754.00        0.267         22.9 
      755.00        0.300         25.4 
      756.00        0.300         28.0 
      757.00        0.233         35.7 
      758.00        0.233         39.4 
      759.00        0.267         41.0 
      760.00        0.250         46.3 
      761.00        0.200         47.8 
      762.00        0.233         41.6 
      763.00        0.233         23.5 
      764.00        0.233         19.9 
      765.00        0.200         22.8 
      766.00        0.200         22.8 
      767.00        0.200         22.3 
      768.00        0.233         22.1 
      769.00        0.233         23.6 
      770.00        0.233         26.3 
      771.00        0.233         36.5 
      772.00        0.200         48.2 
      773.00        0.200         61.8 
      774.00        0.233         75.1 
      775.00        0.217         75.1 
      776.00        4.617        364.8 
      777.00        0.367         28.8 
      778.00        0.200         29.3 
      779.00        0.200         27.7 
      780.00        0.233         26.4 
      781.00        0.233         28.5 
      782.00        0.333         35.6 
      783.00        0.383         45.0 
      784.00        0.333         40.3 
      785.00        0.300         34.0 
      786.00        0.267         57.1 
      787.00        0.267         62.6 
      788.00        0.233         54.4 
      789.00        0.233         51.2 
      790.00        0.200         31.8 
      791.00        0.233         31.8 
      792.00        0.233         42.1 
      793.00        0.233         53.7 
      794.00        0.267         44.8 
      795.00        0.200         31.2 
      796.00        0.200         27.1 
      797.00        0.217         27.1 
      798.00        0.333         37.4 
      799.00        0.333         33.1 
      800.00        0.300         28.0 
      801.00        0.200         25.2 
      802.00        0.267         30.6 
      803.00        0.367         42.3 
      804.00        0.333         58.6 
      805.00        0.267         78.4 
      806.00        3.783        203.4 
      807.00        0.267         37.1 
      808.00        0.250         38.1 
      809.00        0.300         35.2 
      810.00        0.333         43.6 
      811.00        0.300         47.4 
      812.00        0.267         48.5 
      813.00        0.267         43.6 
      814.00        0.267         42.4 
      815.00        0.233         45.0 
      816.00        0.233         40.6 
      817.00        0.233         47.3 
      818.00        0.267         48.6 
      819.00        0.167         41.1 
      820.00        0.133         27.0 
      821.00        0.167         27.0 
      822.00        0.183         25.8 
      823.00        0.233         28.2 
      824.00        0.200         26.5 
      825.00        0.167         26.5 
      826.00        0.167         25.9 
      827.00        0.100         25.9 
      828.00        0.100         26.6 
      829.00        0.100         26.6 
      830.00        0.167         29.8 
      831.00        0.167         42.3 
      832.00        0.133         42.3 
      833.00        0.133         58.8 
      834.00        0.233         74.1 
      835.00        0.200         74.1 
      836.00        6.367        398.4 
      837.00        0.300         40.6 
      838.00        0.300         39.1 
      839.00        0.233         38.5 
      840.00        0.300         37.6 
      841.00        0.233         36.9 
      842.00        0.250         38.8 
      843.00        0.167         38.8 
      844.00        0.200         38.1 
      845.00        0.200         39.8 
