~Version Information
VERS.                      2.0: CWLS Log ASCII Standard - VERSION 2.0
WRAP.                       NO: One line per depth step
~Well Information Block
STRT.FT               -14.0000: 
STOP.FT              2565.5000: 
STEP.FT                 0.5000: 
NULL.                -999.2500: 
COMP.          Pioneer Natural Resources: COMPANY
WELL.             Carbon 34-21: WELL
FLD.           Purgatorie River: FIELD
LOC.           56' FSL & 2304' FEL: LOCATION
PROV.                 Colorado: PROVINCE
CNTY.               Las Animas: COUNTRY
SRVC.          Patterson Wireline: SERVICE COMPANY
DATE.          Mon Nov 08 08:55:10 2004: LOG DATE
UWI.           05-071-08117-00: UNIQUE WELL ID
~Curve Information Block
DEPT.FT            0 000 00 00: Depth
TT3.usec                      : CBL 3' Travel Time
AMP3.mV                       : CBL 3' Amplitude
GR.GAPI                       : Gamma Ray
CCL.                          : Casing Collar Locator
~Parameter Information Block
~A  Depth       TT3         AMP3         GR         CCL     
# ...
   522.0000    289.5365     43.8193     82.3618      0.0000
   522.5000    290.1435     43.0935     77.5490      2.2961
   523.0000    291.4658     42.6437     81.9736     -5.0000
   523.5000    295.6626     42.6008     95.6619      0.0000
   524.0000    297.5849     45.1002    105.1530      0.0000
   524.5000    290.3353     51.6463    100.3486      0.0000
   525.0000    283.1503     59.1615     88.3220      0.0000
   525.5000    281.0640     63.8023     82.8387      0.0000
   526.0000    280.8415     65.5655     83.9498      0.0000
   526.5000    280.9066     66.3510     87.6397      0.0000
   527.0000    281.0570     66.6593     96.0677      0.0000
   527.5000    281.1679     66.9536    105.9745      0.0000
   528.0000    281.1874     67.5976    112.5643      0.0000
   528.5000    281.2559     68.0602    110.2781      0.0000
   529.0000    281.3713     68.2607    100.7382      0.0000
   529.5000    281.4294     69.0201     95.0924      0.0000
   530.0000    281.4729     70.6898     91.2397      0.0000
   530.5000    281.5295     72.1747     89.4196      0.0000
   531.0000    281.6324     72.4572     92.9071      0.0000
   531.5000    281.7383     73.0016     99.4129      0.0000
   532.0000    281.7550     74.5785    104.3383      0.0000
   532.5000    281.7951     75.3242    104.4313      0.0000
   533.0000    281.8868     75.4621     98.8201      0.0000
   533.5000    281.9506     75.9545     91.7811      0.0000
   534.0000    281.9965     76.6529     84.9150      0.0000
   534.5000    282.0539     77.0797     76.0230      0.0000
   535.0000    282.1546     77.3151     67.8713      0.0000
   535.5000    282.2660     78.1824     62.6965      0.0000
   536.0000    282.3226     79.4647     60.6339      0.0000
   536.5000    282.3745     80.1478     61.9728      0.0000
   537.0000    282.4112     80.8176     61.6108      0.0000
   537.5000    282.4147     82.2032     58.0226      0.0000
   538.0000    282.4519     83.3674     54.8597      0.0000
   538.5000    282.4776     83.7635     54.7199      0.0000
   539.0000    282.4640     83.5594     54.7589      0.0000
   539.5000    282.4960     83.4265     50.1564      0.0000
   540.0000    282.5842     83.6276     45.4928      0.0000
   540.5000    282.6298     83.8230     44.7073      0.0000
   541.0000    282.5987     84.3306     43.5086      0.0000
   541.5000    282.5859     84.7490     41.9442      0.0000
   542.0000    282.6307     84.7552     42.8269      0.0000
   542.5000    282.6062     85.0320     44.1970      0.0000
   543.0000    282.5393     85.3450     43.5555      0.0000
   543.5000    282.5809     85.3220     42.4635      0.0000
   544.0000    282.6535     85.3893     44.2114      0.0000
   544.5000    282.6729     84.9147     46.8111      0.0000
   545.0000    282.6906     84.1753     50.2309      0.0000
   545.5000    282.6734     84.5018     53.2090      0.0000
   546.0000    282.6667     84.8555     51.8502      0.0000
   546.5000    282.6855     84.7962     53.5947      0.0000
   547.0000    282.6682     85.5611     66.1840      0.0000
   547.5000    282.6483     85.6193     80.5768      0.0000
   548.0000    282.6573     84.7681     88.2342      0.0000
   548.5000    282.6511     85.3395     90.0032      0.0000
   549.0000    282.6121     86.7109     90.2051      0.0000
   549.5000    282.5660     86.8590     92.0190      0.0000
   550.0000    282.5005     86.3481     90.9052      0.0000
   550.5000    282.4285     86.1633     85.6992      0.0000
   551.0000    282.4092     86.3478     84.1016      0.0000
   551.5000    282.4526     86.1087     89.0998      0.0000
   552.0000    282.5301     84.9385     97.4466      0.0000
   552.5000    282.5818     84.5720    102.3955      0.0000
   553.0000    282.5980     85.1488    100.6298      0.0000
   553.5000    282.6131     84.6961     97.2369      0.0000
   554.0000    282.5724     84.2584    103.2745      0.0000
   554.5000    282.4934     84.3856    113.7914      0.0000
   555.0000    282.6111     82.7673    115.2074      0.0000
   555.5000    283.5258     77.1912    116.2900      0.0000
   556.0000    285.8008     70.3701    124.9391      0.0000
   556.5000    288.4295     65.6943    132.7965      0.0000
   557.0000    289.7843     63.0427    132.0762      0.0000
   557.5000    290.1031     62.1444    123.7190     -5.0000
   558.0000    290.1058     61.3453    115.0089      0.0000
   558.5000    289.5493     60.7343    115.1599      0.0000
   559.0000    287.1637     64.8835    118.0051      0.0000
   559.5000    284.1148     72.9792    112.0694      0.0000
   560.0000    282.6714     79.1443    101.5462      0.0000
   560.5000    282.4142     81.0250     96.9961      0.0000
   561.0000    282.4543     80.6655     99.9239      0.0000
   561.5000    282.4918     80.3315    103.9282      0.0000
   562.0000    282.4980     80.2191    107.1187      0.0000
   562.5000    282.4886     79.5715    113.8916      0.0000
   563.0000    282.4922     78.3162    117.0017      0.0000
   563.5000    282.4346     77.7513    110.0283      0.0000
   564.0000    282.3670     77.9526    100.7155      0.0000
   564.5000    282.3811     77.7725     96.0745      0.0000
   565.0000    282.3640     77.9023     96.7568      0.0000
   565.5000    282.3627     77.6729     98.7159      0.0000
   566.0000    282.4012     76.2441     97.2470      0.0000
   566.5000    282.3830     75.9031     91.7693      0.0000
   567.0000    282.3265     76.8619     88.1590      0.0000
   567.5000    282.2441     77.2843     89.1398      0.0000
   568.0000    282.1738     77.4984     93.9594      0.0000
   568.5000    282.1682     77.6033    103.7562      0.0000
   569.0000    282.1696     76.8231    112.9827      0.0000
   569.5000    282.1416     76.0937    116.1493      0.0000
   570.0000    282.1346     75.7494    115.0735      0.0000
   570.5000    282.0850     75.6292    115.9905      0.0000
   571.0000    281.9778     76.1109    123.2817      0.0000
   571.5000    281.8873     76.8476    128.0216      0.0000
   572.0000    281.8722     76.6213    124.0056      0.0000
   572.5000    281.9189     75.7698    118.0979      0.0000
   573.0000    281.9644     74.8797    120.3795      0.0000
   573.5000    281.9590     74.4696    126.0047      0.0000
   574.0000    281.9234     74.6130    125.2901      0.0000
   574.5000    281.8933     74.5000    122.7242      0.0000
   575.0000    281.8073     74.3675    122.0627      0.0000
   575.5000    281.7765     74.3018    120.8443      0.0000
   576.0000    281.8350     73.8297    123.3857      0.0000
   576.5000    281.8198     73.6659    128.9584      0.0000
   577.0000    281.7766     73.7146    122.5626      0.0000
   577.5000    281.7454     73.7275    111.1288      0.0000
   578.0000    281.6980     73.7847    106.8228      0.0000
   578.5000    281.6776     73.9508    103.3930      0.0000
   579.0000    281.6939     73.7838     98.4482      0.0000
   579.5000    281.6972     72.8544    100.6536      0.0000
   580.0000    281.6760     71.8752    109.2919      0.0000
   580.5000    281.6806     71.1562    112.1985      0.0000
   581.0000    281.6767     70.2860    113.3425      0.0000
   581.5000    281.6755     69.7082    117.1561      0.0000
   582.0000    281.6924     69.6356    118.6731      0.0000
   582.5000    281.6894     69.4973    116.8780      0.0000
   583.0000    281.6941     69.1063    111.9977      0.0000
   583.5000    281.6339     68.9300    110.2153      0.0000
   584.0000    281.5288     68.8143    114.8455      0.0000
   584.5000    281.4517     68.4770    117.6321      0.0000
   585.0000    281.3724     68.2365    119.3810      0.0000
   585.5000    281.2935     68.2556    123.0159      0.0000
   586.0000    281.2270     68.1685    120.7006      0.0000
   586.5000    281.2444     67.3343    114.3733      0.0000
   587.0000    281.3065     66.4029    115.6527      0.0000
   587.5000    281.2440     66.4977    119.7176      0.0000
   588.0000    281.1714     66.6984    117.8956      0.0000
   588.5000    281.2323     66.1934    116.2776      0.0000
