~Version Information
VERS.                      2.0: CWLS Log ASCII Standard - VERSION 2.0
WRAP.                       NO: One line per depth step
~Well Information Block
STRT.FT               650.0000: 
STOP.FT              1999.0000: 
STEP.FT                 0.2500: 
NULL.                -999.2500: 
COMP.          Pioneer Natural Resources: COMPANY
WELL.           Firehawk 34-26: WELL
FLD.           Purgatoire River: FIELD
LOC.           1196' FSL & 1595' FEL--: LOCATION
STAT.                 Colorado: State
CNTY.               Las Animas: COUNTY
CTRY. USA : Country
SECT. 26 : Section
TOWN. 32S : Township
RANG. 66W : Range
SRVC.                Patterson: SERVICE COMPANY
DATE.          Sun Oct 16 16:57:28 2005: LOG DATE
API.           05 071 08389 00: UNIQUE WELL ID
~Curve Information Block
DEPT.FT            0 000 00 00: Depth
SN.Ohm-m                      : IEL Short Normal
SP.mV                         : IEL Spontaneous Potential
DIR.Ohm-m                     : IEL Induction Resistivity
GR.GAPI                       : Gamma Ray
~Parameter Information Block
~A  Depth        SN          SP         DIR          GR     
# ...
  1186.0000     26.0723    -39.5374     21.5981     65.8502
  1186.2500     26.0568    -39.0796     21.4074     66.3887
  1186.5000     26.0532    -38.7224     21.3057     67.9576
  1186.7500     26.0270    -38.4801     21.2772     69.3277
  1187.0000     25.9960    -38.3015     21.2998     71.4401
  1187.2500     25.9957    -38.1083     21.3517     72.6334
  1187.5000     25.9961    -37.8570     21.4142     73.8477
  1187.7500     25.9041    -37.5609     21.4703     74.2757
  1188.0000     25.6684    -37.2655     21.5040     74.5016
  1188.2500     25.3374    -37.0157     21.5017     74.4887
  1188.5000     25.0077    -36.8350     21.4581     74.4132
  1188.7500     24.7354    -36.7169     21.3802     74.4050
  1189.0000     24.4968    -36.6326     21.2849     74.5570
  1189.2500     24.2453    -36.5531     21.1920     74.9145
  1189.5000     23.9984    -36.4647     21.1167     76.2092
  1189.7500     23.8254    -36.3636     21.0675     77.5804
  1190.0000     23.7514    -36.2444     21.0467     79.7153
  1190.2500     23.7291    -36.1017     21.0512     80.6499
  1190.5000     23.7025    -35.9400     21.0755     80.7996
  1190.7500     23.6422    -35.7776     21.1145     80.0636
  1191.0000     23.5320    -35.6387     21.1653     78.0846
  1191.2500     23.3829    -35.5368     21.2246     76.6419
  1191.5000     23.2602    -35.4676     21.2844     75.2530
  1191.7500     23.2463    -35.4169     21.3312     75.1190
  1192.0000     23.3747    -35.3722     21.3515     75.6305
  1192.2500     23.6130    -35.3280     21.3377     75.8343
  1192.5000     23.8939    -35.2893     21.2896     75.1437
  1192.7500     24.1479    -35.2702     21.2099     73.9389
  1193.0000     24.3185    -35.2821     21.0979     71.4638
  1193.2500     24.3732    -35.3174     20.9464     69.8849
  1193.5000     24.3208    -35.3519     20.7410     68.6890
  1193.7500     24.2113    -35.3628     20.4668     69.1419
  1194.0000     24.0876    -35.3452     20.1176     71.7067
  1194.2500     23.9397    -35.3147     19.7029     74.1503
  1194.5000     23.7280    -35.2963     19.2446     77.6342
  1194.7500     23.4324    -35.3092     18.7646     79.3452
  1195.0000     23.0604    -35.3563     18.2749     81.1128
  1195.2500     22.6301    -35.4264     17.7771     82.2333
  1195.5000     22.1523    -35.5008     17.2697     84.6353
  1195.7500     21.6047    -35.5574     16.7555     86.8878
  1196.0000     20.9359    -35.5759     16.2413     90.9177
  1196.2500     20.1168    -35.5525     15.7327     93.6557
  1196.5000     19.1825    -35.5167     15.2315     97.2275
  1196.7500     18.2245    -35.5362     14.7388     99.0158
  1197.0000     17.3313    -35.6942     14.2596    100.6782
  1197.2500     16.5467    -36.0500     13.8046    101.2210
  1197.5000     15.8993    -36.6100     13.3883    101.6117
  1197.7500     15.4220    -37.3295     13.0255    101.8705
  1198.0000     15.0868    -38.1367     12.7289    102.7941
  1198.2500     14.7624    -38.9592     12.5091    104.0859
  1198.5000     14.3151    -39.7250     12.3749    107.1873
  1198.7500     13.7662    -40.3209     12.3341    109.6682
  1199.0000     13.3068    -40.5329     12.3927    112.8180
  1199.2500     13.1543    -40.0533     12.5538    113.8869
  1199.5000     13.4199    -38.6365     12.8164    113.4174
  1199.7500     14.0863    -36.3634     13.1764    111.6681
  1200.0000     15.0523    -33.7829     13.6273    106.6408
  1200.2500     16.2006    -31.6881     14.1620    101.3181
  1200.5000     17.4979    -30.6218     14.7720     89.9680
  1200.7500     19.0770    -30.5578     15.4476     80.5719
  1201.0000     21.2041    -31.0368     16.1794     65.8237
  1201.2500     24.1570    -31.5556     16.9635     57.0662
  1201.5000     28.1261    -31.8313     17.8065     47.2908
  1201.7500     33.1078    -31.8129     18.7244     43.2598
  1202.0000     38.6866    -31.5667     19.7294     40.5149
  1202.2500     43.9081    -31.1747     20.8066     40.4749
  1202.5000     47.6126    -30.6919     21.8947     42.3500
  1202.7500     49.1004    -30.1515     22.8872     44.5038
  1203.0000     48.4506    -29.5882     23.6645     48.7023
  1203.2500     46.2361    -29.0565     24.1374     52.0228
  1203.5000     43.1162    -28.6352     24.2675     57.4045
  1203.7500     39.6737    -28.4157     24.0553     60.8665
  1204.0000     36.3736    -28.4597     23.5251     65.1644
  1204.2500     33.5000    -28.7218     22.7255     67.2154
  1204.5000     31.1460    -28.9820     21.7335     69.2366
  1204.7500     29.2686    -28.8947     20.6404     70.2145
  1205.0000     27.7325    -28.1866     19.5267     71.7670
  1205.2500     26.3700    -26.8571     18.4473     73.1882
  1205.5000     25.0650    -25.1851     17.4340     76.4408
  1205.7500     23.7918    -23.5385     16.5077     79.5501
  1206.0000     22.5816    -22.1762     15.6856     85.3146
  1206.2500     21.4603    -21.1759     14.9812     89.3100
  1206.5000     20.4104    -20.4778     14.3994     94.4441
  1206.7500     19.3989    -19.9713     13.9359     96.9833
  1207.0000     18.4408    -19.5768     13.5819     99.5812
  1207.2500     17.6095    -19.2787     13.3299    100.6428
  1207.5000     16.9772    -19.0977     13.1769    101.0889
  1207.7500     16.5612    -19.0418     13.1204    100.4616
  1208.0000     16.3357    -19.0884     13.1543     98.3008
  1208.2500     16.2769    -19.2013     13.2683     96.3756
  1208.5000     16.3809    -19.3513     13.4523     93.1054
  1208.7500     16.6676    -19.5205     13.7027     90.5880
  1209.0000     17.1876    -19.6942     14.0252     86.0173
  1209.2500     18.0172    -19.8463     14.4344     82.3759
  1209.5000     19.2475    -19.9374     14.9475     76.0487
  1209.7500     20.9569    -19.9404     15.5794     71.2887
  1210.0000     23.1719    -19.8734     16.3389     63.5256
  1210.2500     25.8713    -19.7973     17.2301     58.1624
  1210.5000     29.0404    -19.7723     18.2591     50.3867
  1210.7500     32.6949    -19.8140     19.4370     45.7871
  1211.0000     36.8236    -19.8921     20.7758     40.4673
  1211.2500     41.2962    -19.9664     22.2742     38.1597
  1211.5000     45.7989    -20.0167     23.9028     36.2481
  1211.7500     49.8973    -20.0429     25.5990     35.6365
  1212.0000     53.2431    -20.0540     27.2703     35.2530
  1212.2500     55.7037    -20.0696     28.7972     35.2636
  1212.5000     57.2617    -20.1188     30.0345     35.6844
  1212.7500     57.8689    -20.2156     30.8300     36.2423
  1213.0000     57.4814    -20.3330     31.0784     37.4385
  1213.2500     56.1662    -20.4129     30.7805     38.4878
  1213.5000     54.0821    -20.4150     30.0519     40.8197
  1213.7500     51.4074    -20.3607     29.0684     43.2937
  1214.0000     48.3146    -20.3234     27.9966     48.8816
  1214.2500     44.9547    -20.3679     26.9575     53.7389
  1214.5000     41.4596    -20.4921     26.0248     61.9311
  1214.7500     37.9638    -20.6151     25.2353     67.4760
  1215.0000     34.6165    -20.6190     24.5955     75.1441
  1215.2500     31.6214    -20.4257     24.0820     79.2838
  1215.5000     29.2254    -20.0642     23.6452     82.8214
  1215.7500     27.5841    -19.6614     23.2219     82.8103
  1216.0000     26.6636    -19.3608     22.7555     79.1639
  1216.2500     26.2891    -19.2626     22.2149     74.8936
  1216.5000     26.2508    -19.4427     21.6002     67.3000
  1216.7500     26.4049    -19.9912     20.9351     62.3947
  1217.0000     26.7428    -20.9827     20.2522     56.5809
  1217.2500     27.3478    -22.3751     19.5827     54.1495
  1217.5000     28.2312    -23.9166     18.9510     52.8082
  1217.7500     29.1917    -25.1639     18.3733     53.4725
  1218.0000     29.8262    -25.6588     17.8551     57.1219
  1218.2500     29.6819    -25.1702     17.3890     61.4865
  1218.5000     28.5138    -23.8331     16.9557     70.5359
  1218.7500     26.5091    -22.0856     16.5293     77.5572
  1219.0000     24.2106    -20.4406     16.0848     87.9495
  1219.2500     22.1514    -19.2248     15.6062     93.7784
