~Version Information
VERS.                      2.0: CWLS Log ASCII Standard - VERSION 2.0
WRAP.                       NO: One line per depth step
~Well Information Block
STRT.FT               520.0000: 
STOP.FT              1105.5000: 
STEP.FT                 0.1000: 
NULL.                -999.2500: 
COMP.          Pioneer Natural Resources: COMPANY
WELL.            Redland 23-24: WELL
FLD.           Purgatoire River: FIELD
LOC.           2356' FSL & 1880' FWL: LOCATION
PROV.                 Colorado: PROVINCE
CNTY.               Las Animas: COUNTRY
SRVC.                Patterson: SERVICE COMPANY
DATE.          Mon Mar 21 07:08:20 2005: LOG DATE
UWI.           05 071 08221 00: UNIQUE WELL ID
~Curve Information Block
DEPT.FT            0 000 00 00: Depth
DCAL.in                       : CDL Caliper
RHOB.g/cc                     : CDL Bulk Density
RHOC.g/cc                     : CDL Density Correction
DPOR.pu                       : CDL Density Porosity
GR.GAPI                       : Gamma Ray
NPOR.pu                       : Neutron Porosity
~Parameter Information Block
~A  Depth       DCAL        RHOB        RHOC        DPOR         GR         NPOR    
# ...
   817.6000      7.8619      2.5372      0.0044      6.8351     35.4615     21.5796
   817.7000      7.8619      2.5388      0.0392      6.7399     37.9158     21.4452
   817.8000      7.8719      2.5300      0.0118      7.2709     41.6462     21.2432
   817.9000      7.8719      2.5171      0.0059      8.0567     44.9775     20.6680
   818.0000      7.8880      2.5099     -0.0374      8.4908     45.6483     19.4552
   818.1000      7.8880      2.5071     -0.0320      8.6623     44.2477     18.4070
   818.2000      7.8880      2.4961      0.0067      9.3265     44.1569     18.1809
   818.3000      7.8936      2.4703     -0.0224     10.8913     45.1956     18.5809
   818.4000      7.8936      2.4484     -0.0614     12.2211     44.8331     18.9580
   818.5000      7.8836      2.4582     -0.0217     11.6240     43.0548     18.9851
   818.6000      7.8836      2.4954      0.0514      9.3683     42.4102     19.0130
   818.7000      7.8836      2.5333      0.0564      7.0705     43.3555     19.5626
   818.8000      7.8617      2.5739      0.0320      4.6116     43.7039     20.8395
   818.9000      7.8617      2.6285      0.1236      1.3041     42.9102     22.1433
   819.0000      7.8198      2.6740      0.1933     -1.4573     41.6121     22.2237
   819.1000      7.8198      2.6861      0.1658     -2.1907     39.5901     20.8258
   819.2000      7.8198      2.6703      0.1680     -1.2311     37.8084     19.8223
   819.3000      7.7822      2.6462      0.1222      0.2277     38.6038     20.5687
   819.4000      7.7822      2.6301      0.1317      1.2072     41.1434     21.8800
   819.5000      7.7604      2.6220      0.0906      1.6966     42.9373     21.9343
   819.6000      7.7604      2.6139      0.0575      2.1877     43.7283     21.0816
   819.7000      7.7604      2.6085      0.0259      2.5122     44.2163     20.4368
   819.8000      7.7768      2.6114      0.0148      2.3370     45.2226     19.9759
   819.9000      7.7768      2.6130      0.0989      2.2415     46.3677     19.3557
   820.0000      7.8193      2.6037      0.0486      2.8065     46.5373     18.8288
   820.1000      7.8193      2.5884      0.0847      3.7338     47.2815     18.5979
   820.2000      7.8193      2.5746      0.0048      4.5699     48.7064     18.1365
   820.3000      7.8814      2.5691      0.0415      4.9001     48.5322     17.2829
   820.4000      7.8814      2.5746      0.0567      4.5681     47.1803     16.5776
   820.5000      7.8881      2.5799      0.0629      4.2500     45.6451     16.6606
   820.6000      7.8881      2.5740      0.0515      4.6048     44.6496     17.5523
   820.7000      7.8881      2.5718     -0.0114      4.7385     44.9630     18.2450
   820.8000      7.8608      2.5853      0.0867      3.9220     46.2880     18.1187
   820.9000      7.8608      2.5919      0.0766      3.5204     47.8167     17.8352
   821.0000      7.8642      2.5759      0.0703      4.4914     48.9166     17.8439
   821.1000      7.8642      2.5510     -0.0122      5.9984     50.4848     17.9464
   821.2000      7.8642      2.5300      0.0179      7.2739     53.0126     18.0293
   821.3000      7.8686      2.5183     -0.0220      7.9803     55.4066     18.1309
   821.4000      7.8686      2.5233      0.0297      7.6761     56.5032     18.3818
   821.5000      7.8552      2.5384      0.0477      6.7650     56.0280     18.6812
   821.6000      7.8552      2.5522     -0.0516      5.9283     56.3490     18.4529
   821.7000      7.8552      2.5615      0.0295      5.3622     59.2208     18.0623
   821.8000      7.8672      2.5647     -0.0024      5.1679     62.4420     18.3402
   821.9000      7.8672      2.5673      0.0155      5.0110     63.4104     18.9902
   822.0000      7.8711      2.5634      0.0589      5.2504     63.0863     19.2655
   822.1000      7.8711      2.5434      0.0188      6.4586     64.0966     18.9062
   822.2000      7.8711      2.5217      0.0294      7.7745     65.0605     18.3949
   822.3000      7.8575      2.5173     -0.0286      8.0449     62.2646     18.2595
   822.4000      7.8575      2.5326      0.0059      7.1123     57.0510     18.3636
   822.5000      7.8698      2.5548      0.0391      5.7692     53.1290     18.4724
   822.6000      7.8698      2.5641      0.0862      5.2061     51.7042     18.8388
   822.7000      7.8698      2.5553      0.0872      5.7416     53.2200     19.5856
   822.8000      7.8584      2.5503      0.0533      6.0435     56.4586     20.0934
   822.9000      7.8584      2.5637      0.0876      5.2308     57.7667     19.9834
   823.0000      7.8558      2.5785      0.0788      4.3328     54.4744     19.8419
   823.1000      7.8558      2.5777      0.0912      4.3817     49.0639     19.8208
   823.2000      7.8558      2.5688      0.0521      4.9225     45.5712     19.7147
   823.3000      7.8494      2.5664      0.0567      5.0675     43.7483     19.6478
   823.4000      7.8494      2.5698      0.0332      4.8617     42.5700     19.5741
   823.5000      7.8493      2.5719      0.0482      4.7331     43.2961     19.3663
   823.6000      7.8493      2.5762     -0.0052      4.4708     45.6845     19.1444
   823.7000      7.8493      2.5853      0.0494      3.9218     46.8057     19.4735
   823.8000      7.8950      2.5941      0.0493      3.3877     45.6982     19.9877
   823.9000      7.8950      2.6062      0.0639      2.6563     43.7517     19.7814
   824.0000      7.8967      2.6164      0.1217      2.0349     41.1572     19.3887
   824.1000      7.8967      2.6105      0.1075      2.3944     36.6587     19.2422
   824.2000      7.8967      2.6013      0.0477      2.9495     30.3243     18.9951
   824.3000      7.8344      2.6245      0.0401      1.5448     25.3306     19.1970
   824.4000      7.8344      2.7102      0.0419     -3.6510     23.7892     20.0417
   824.5000      7.8147      2.8450      0.1306    -11.8160     24.3032     20.6569
   824.6000      7.8147      2.9634      0.2369    -18.9921     25.8071     21.1015
   824.7000      7.8147      3.0362      0.1075    -23.4051     28.2321     21.7330
   824.8000      7.8281      3.0947      0.1825    -26.9509     31.2328     22.2693
   824.9000      7.8281      3.1307      0.2186    -29.1314     36.3923     22.6521
   825.0000      7.8220      3.1077      0.1954    -27.7415     44.9470     22.9919
   825.1000      7.8220      3.0359      0.0296    -23.3902     54.4237     23.3820
   825.2000      7.8220      2.9418     -0.0379    -17.6875     63.0586     23.8669
   825.3000      7.7986      2.8310     -0.1055    -10.9718     70.1265     24.6514
   825.4000      7.7986      2.7203     -0.2132     -4.2578     74.9153     25.5226
   825.5000      7.8230      2.6364     -0.1349      0.8217     79.4023     25.8504
   825.6000      7.8230      2.5835     -0.1003      4.0329     81.7385     26.1604
   825.7000      7.8230      2.5568     -0.0443      5.6475     79.2335     27.2289
   825.8000      7.8482      2.5461      0.0785      6.2949     77.4223     28.7176
   825.9000      7.8482      2.5275      0.1779      7.4236     80.4871     29.2313
   826.0000      7.8608      2.4874      0.1521      9.8550     84.7374     28.5098
   826.1000      7.8608      2.4395      0.0866     12.7570     84.4850     28.2242
   826.2000      7.8608      2.4010      0.1031     15.0887     80.9497     28.9629
   826.3000      7.7984      2.3789      0.0710     16.4290     80.4155     29.5804
   826.4000      7.7984      2.3760      0.0583     16.6060     82.6181     29.4390
   826.5000      7.8135      2.3843      0.0666     16.1019     82.4822     29.3972
   826.6000      7.8135      2.3922      0.1091     15.6267     78.0281     30.1717
   826.7000      7.8135      2.3893      0.1061     15.7996     71.6550     31.2067
   826.8000      7.8392      2.3682      0.0855     17.0766     67.1636     31.5630
   826.9000      7.8392      2.3333      0.0943     19.1949     63.8641     31.4240
   827.0000      7.8899      2.2937      0.0821     21.5910     58.3844     31.6583
   827.1000      7.8899      2.2570      0.0136     23.8212     53.0891     32.0863
