~Version Information
VERS.                      2.0: CWLS Log ASCII Standard - VERSION 2.0
WRAP.                       NO: One line per depth step
~Well Information Block
STRT.FT                -8.2500: 
STOP.FT              2209.7500: 
STEP.FT                 0.2500: 
NULL.                -999.2500: 
COMP.          Petrogulf Corporation: COMPANY
WELL.          Alexander 9-43V: WELL
FLD.           Purgatorie River: FIELD
LOC.                          : LOCATION
CNTY.               Las Animas: COUNTY
SRVC.                         : SERVICE COMPANY
DATE.          Wed May 28 09:25:28 2003: LOG DATE
UWI.           05 071 07727 00: UNIQUE WELL ID
STAT.                 Colorado: STATE
~Curve Information Block
DEPT.FT            0 000 00 00: Depth
CCL.                          : Casing Collar Locator
TT3.usec                      : CBL 3' Travel Time
AMP3.mV                       : CBL 3' Amplitude
GR.GAPI                       : Gamma Ray
~Parameter Information Block
~A  Depth       CCL         TT3         AMP3         GR     
# ...
   728.7500      0.0000    560.4208      8.5305    134.6387
   729.0000      0.0000    540.5554      8.5278    134.9813
   729.2500      0.0000    520.4609      8.4635    135.5414
   729.5000      0.0000    499.9605      8.3785    134.2297
   729.7500      0.0000    477.9334      8.2859    129.0581
   730.0000      0.0000    454.7375      8.1704    120.2194
   730.2500      0.0000    433.8059      8.0126    110.4042
   730.5000      0.0000    418.9144      7.8089    102.8397
   730.7500      0.0000    410.8104      7.5748     99.2553
   731.0000      0.0000    407.4582      7.3350     99.7578
   731.2500      0.0000    406.4516      7.1083    103.7412
   731.5000      0.0000    406.3855      6.9033    109.8693
   731.7500      0.0000    406.7077      6.7296    115.4982
   732.0000      0.0000    407.1802      6.6092    117.6716
   732.2500      0.0000    407.6034      6.5667    115.4836
   732.5000      0.0000    407.8067      6.6080    110.9612
   732.7500      0.0000    407.7588      6.7146    107.2304
   733.0000      0.0000    407.5702      6.8601    106.1410
   733.2500      0.0000    407.3839      7.0197    107.5335
   733.5000      0.0000    407.3010      7.1675    109.9412
   733.7500      0.0000    407.4510      7.2828    111.6874
   734.0000      0.0000    408.4281      7.3635    111.7601
   734.2500      0.0000    411.9326      7.4210    110.0919
   734.5000      0.0000    420.8703      7.4525    107.3797
   734.7500      0.0000    438.0886      7.4283    104.8931
   735.0000      0.0000    464.1084      7.3186    104.0033
   735.2500      0.0000    495.4889      7.1315    105.2936
   735.5000      0.0000    525.3784      6.9140    108.2205
   735.7500      0.0000    546.5467      6.7201    111.8799
   736.0000      0.0000    555.0825      6.5805    116.0143
   736.2500      0.0000    551.8928      6.4931    121.1986
   736.5000      0.0000    541.3407      6.4355    128.0824
   736.7500      0.0000    528.9904      6.3906    136.3980
   737.0000      0.0000    520.1176      6.3654    144.7014
   737.2500      0.0000    518.6094      6.3750    150.9987
   737.5000      0.0000    525.4170      6.4113    153.6962
   737.7500      0.0000    537.2958      6.4393    152.5149
   738.0000      0.0000    548.3327      6.4282    148.8349
   738.2500      0.0000    554.7250      6.3751    144.7221
   738.5000      0.0000    558.8622      6.2938    141.2872
   738.7500      0.0000    568.0726      6.1927    138.3073
   739.0000      0.0000    588.5437      6.0691    135.5302
   739.2500      0.0000    619.6331      5.9204    133.6892
   739.5000      0.0000    653.5552      5.7516    133.7190
   739.7500      0.0000    680.9425      5.5764    135.3094
   740.0000      0.0000    697.2498      5.4185    136.7949
   740.2500      0.0000    704.4670      5.3131    136.5542
   740.5000      0.0000    708.0440      5.2824    134.4526
   740.7500      0.0000    712.5822      5.2963    132.0307
   741.0000      0.0000    718.9078      5.2881    131.2218
   741.2500      0.0000    724.1564      5.2336    132.4927
   741.5000      0.0000    725.2579      5.1797    134.1702
   741.7500      0.0000    722.4993      5.1730    133.7060
   742.0000      0.0000    719.0800      5.2078    129.4774
   742.2500      0.0000    717.5966      5.2572    121.5424
   742.5000      0.0000    718.1982      5.3112    111.3968
   742.7500      0.0000    720.1989      5.3723    101.3945
   743.0000      0.0000    723.9332      5.4468     93.8452
   743.2500      0.0000    729.8486      5.5366     89.9405
   743.5000      0.0000    736.4814      5.6264     89.3930
   743.7500      0.0000    740.6240      5.6860     91.0489
   744.0000      0.0000    739.5139      5.6915     93.7097
   744.2500      0.0000    732.4453      5.6413     96.6059
   744.5000      0.0000    720.9899      5.5619     99.5022
   744.7500      0.0000    708.5334      5.4978    102.4524
   745.0000      0.0000    699.0045      5.4856    105.3842
   745.2500      0.0000    694.9580      5.5359    107.9739
   745.5000      0.0000    696.4172      5.6354    110.0450
   745.7500      0.0000    701.0840      5.7514    111.9325
   746.0000      0.0000    705.0938      5.8471    114.1983
   746.2500      0.0000    704.3048      5.9170    116.9437
   746.5000      0.0000    696.2725      5.9821    119.6388
   746.7500      0.0000    681.5381      6.0394    121.7619
   747.0000      0.0000    662.7265      6.0522    123.4227
   747.2500      0.0000    642.3369      6.0050    125.3296
   747.5000      0.0000    621.6603      5.9317    128.3241
   747.7500      0.0000    601.4151      5.8791    132.7033
   748.0000      0.0000    582.3610      5.8726    137.6630
   748.2500      0.0000    565.1179      5.9100    141.6855
   748.5000      0.0000    550.0734      5.9558    143.8176
   748.7500      0.0000    537.5485      5.9604    144.2778
   749.0000      0.0000    527.7908      5.9195    143.7948
   749.2500      0.0000    520.9890      5.8839    142.9896
   749.5000      0.0000    517.2658      5.8837    142.5878
   749.7500      0.0000    516.2740      5.8879    143.5233
   750.0000      0.0000    516.8506      5.8719    146.1307
   750.2500      0.0000    517.5043      5.8650    149.2180
   750.5000      0.0000    517.1672      5.8931    150.5762
   750.7500      0.0000    515.3965      5.9330    148.8786
   751.0000      0.0000    512.3008      5.9653    144.8113
   751.2500      0.0000    509.1986      6.0110    140.1189
   751.5000      0.0000    509.6116      6.0808    136.0883
   751.7500      0.0000    518.6622      6.1468    133.0016
   752.0000      0.0000    539.9989      6.1996    130.1156
   752.2500      0.0000    572.5167      6.2740    125.9346
   752.5000      0.0000    609.6572      6.3890    119.3303
   752.7500      0.0000    641.5131      6.5077    110.6430
   753.0000      0.0000    659.1570      6.5798    101.4412
   753.2500      0.0000    660.0826      6.5914     93.4066
   753.5000      0.0000    650.5222      6.5645     87.4542
   753.7500      0.0000    640.9589      6.5310     83.2785
   754.0000      0.0000    638.0714      6.5120     79.5315
   754.2500      0.0000    640.4124      6.5135     74.9182
   754.5000      0.0000    640.7121      6.5382     69.4663
   754.7500      0.0000    631.6644      6.5863     64.6180
   755.0000      0.0000    610.9561      6.6463     61.9156
   755.2500      0.0000    582.8867      6.6986     61.5742
   755.5000      0.0000    555.4534      6.7329     62.3508
   755.7500      0.0000    535.1108      6.7525     62.7750
   756.0000      0.0000    523.6060      6.7593     62.4648
   756.2500      0.0000    518.8668      6.7504     62.1281
   756.5000      0.0000    517.7817      6.7365     62.3883
   756.7500      0.0000    518.0349      6.7313     63.0055
   757.0000      0.0000    518.4369      6.7129     63.3299
   757.2500      0.0000    518.6008      6.6348     63.0136
   757.5000      0.0000    518.6612      6.4890     62.0697
   757.7500      0.0000    519.2432      6.3260     60.7418
   758.0000      0.0000    521.6013      6.2037     59.5182
   758.2500      0.0000    527.5054      6.1395     58.9088
   758.5000      0.0000    538.1880      6.1129     59.0398
   758.7500      0.0000    552.7224      6.0992     59.5792
   759.0000      0.0000    567.9197      6.0832     60.0192
   759.2500      0.0000    580.8643      6.0375     59.9348
   759.5000      0.0000    591.2910      5.9283     59.0595
   759.7500      0.0000    600.5729      5.7706     57.2644
   760.0000      0.0000    609.0967      5.6423     54.5134
   760.2500      0.0000    615.8958      5.6095     50.9403
   760.5000      0.0000    620.2845      5.6634     47.2001
   760.7500      0.0000    622.6450      5.7495     44.6206
   761.0000      0.0000    623.7840      5.8397     44.4681
   761.2500      0.0000    624.2657      5.9507     46.8048
   761.5000      0.0000    624.4030      6.0962     50.4013
   761.7500      0.0000    624.4859      6.2615     53.9347
   762.0000      0.0000    624.6937      6.4462     56.9476
