~Version Information
VERS.                      2.0: CWLS Log ASCII Standard - VERSION 2.0
WRAP.                       NO: One line per depth step
~Well Information Block
STRT.FT               575.0000: 
STOP.FT              2016.2500: 
STEP.FT                 0.2500: 
NULL.                -999.2500: 
COMP.          Pioneer Natural Resources: COMPANY
WELL.          Bucksnort 41-35: WELL
FLD.           Purgatoire River: FIELD
LOC.           117' FNL & 463' FEL--: LOCATION
PROV.                 Colorado: PROVINCE
CNTY.               Las Animas: COUNTRY
SRVC.                Patterson: SERVICE COMPANY
DATE.          Thu Jul 21 10:13:55 2005: LOG DATE
UWI.           05 071 08401 00: UNIQUE WELL ID
~Curve Information Block
DEPT.FT            0 000 00 00: Depth
SN.Ohm-m                      : IEL Short Normal
SP.mV                         : IEL Spontaneous Potential
DIR.Ohm-m                     : IEL Induction Resistivity
GR.GAPI                       : Gamma Ray
~Parameter Information Block
~A  Depth        SN          SP         DIR          GR     
# ...
  1781.0000     23.9461     65.2324     17.0534    124.9281
  1781.2500     23.9368     65.7465     17.0212    122.3163
  1781.5000     24.0541     66.0234     17.0295    116.7773
  1781.7500     24.3490     66.0105     17.1384    113.1036
  1782.0000     24.8439     65.6783     17.3882    109.1486
  1782.2500     25.5301     65.0264     17.7935    107.6103
  1782.5000     26.3944     64.0854     18.3472    105.6666
  1782.7500     27.4648     62.9143     19.0325    103.8098
  1783.0000     28.8515     61.5969     19.8408    100.1259
  1783.2500     30.7382     60.2368     20.7886     97.8060
  1783.5000     33.2881     58.9538     21.9200     95.6908
  1783.7500     36.4799     57.8806     23.2835     95.0562
  1784.0000     39.9754     57.1586     24.8813     93.5817
  1784.2500     43.1435     56.9340     26.6008     91.1227
  1784.5000     45.2675     57.3509     28.1615     84.5628
  1784.7500     45.8368     58.5431     29.1472     78.9047
  1785.0000     44.7645     60.6232     29.1824     70.3699
  1785.2500     42.4096     63.6710     28.1678     65.5563
  1785.5000     39.3827     67.7198     26.3512     60.7584
  1785.7500     36.2455     72.7447     24.1512     59.8434
  1786.0000     33.2929     78.6542     21.9269     62.8132
  1786.2500     30.5427     85.2879     19.8729     67.5287
  1786.5000     27.8902     92.4235     18.0446     76.9263
  1786.7500     25.2709     99.7941     16.4260     83.3971
  1787.0000     22.7220    107.1134     14.9879     92.1062
  1787.2500     20.3520    114.1063     13.7153     97.3620
  1787.5000     18.2900    120.5401     12.6110    105.0653
  1787.7500     16.6530    126.2495     11.6847    109.8888
  1788.0000     15.5175    131.1522     10.9415    115.0936
  1788.2500     14.8855    135.2524     10.3765    116.3576
  1788.5000     14.6590    138.6305      9.9740    115.3108
  1788.7500     14.6548    141.4209      9.7110    114.0576
  1789.0000     14.6645    143.7819      9.5605    113.9648
  1789.2500     14.5287    145.8616      9.4957    115.5039
  1789.5000     14.1825    147.7695      9.4938    118.4720
  1789.7500     13.6582    149.5601      9.5381    119.3234
  1790.0000     13.0608    151.2324      9.6192    117.4767
  1790.2500     12.5343    152.7473      9.7322    114.6093
  1790.5000     12.2212    154.0553      9.8729    110.0087
  1790.7500     12.2092    155.1249     10.0343    107.8638
  1791.0000     12.4810    155.9632     10.2036    106.5688
  1791.2500     12.9075    156.6198     10.3617    106.5920
  1791.5000     13.3063    157.1756     10.4849    107.2006
  1791.7500     13.5373    157.7218     10.5479    108.0592
  1792.0000     13.5610    158.3356     10.5297    110.8269
  1792.2500     13.4243    159.0622     10.4206    113.7588
  1792.5000     13.2018    159.9063     10.2272    118.2826
  1792.7500     12.9515    160.8328      9.9714    119.9438
  1793.0000     12.7101    161.7739      9.6837    119.1803
  1793.2500     12.5088    162.6396      9.3931    117.1769
  1793.5000     12.3769    163.3272      9.1212    114.2961
  1793.7500     12.3283    163.7287      8.8794    113.4374
  1794.0000     12.3488    163.7371      8.6710    113.9838
  1794.2500     12.4022    163.2523      8.4945    115.1755
  1794.5000     12.4503    162.1900      8.3468    117.4409
  1794.7500     12.4714    160.4912      8.2252    119.0878
  1795.0000     12.4642    158.1343      8.1293    121.8753
  1795.2500     12.4393    155.1462      8.0611    124.0002
  1795.5000     12.4087    151.6082      8.0248    127.5447
  1795.7500     12.3802    147.6543      8.0247    130.1553
  1796.0000     12.3554    143.4575      8.0642    134.1846
  1796.2500     12.3314    139.2068      8.1439    136.2710
  1796.5000     12.3025    135.0776      8.2609    136.6891
  1796.7500     12.2617    131.2034      8.4090    134.4752
  1797.0000     12.2013    127.6568      8.5788    127.9940
  1797.2500     12.1143    124.4441      8.7608    122.7406
  1797.5000     11.9965    121.5178      8.9471    115.5448
  1797.7500     11.8506    118.7986      9.1329    111.9017
  1798.0000     11.6937    116.2002      9.3170    108.4101
  1798.2500     11.5618    113.6454      9.5004    107.2626
  1798.5000     11.5011    111.0704      9.6853    107.1002
  1798.7500     11.5497    108.4166      9.8743    108.0641
  1799.0000     11.7209    105.6185     10.0678    111.1594
  1799.2500     11.9982    102.5980     10.2616    113.9157
  1799.5000     12.3400     99.2710     10.4457    117.3185
  1799.7500     12.6896     95.5658     10.6041    117.9526
  1800.0000     12.9911     91.4444     10.7198    115.9836
  1800.2500     13.2072     86.9176     10.7807    113.7392
  1800.5000     13.3297     82.0439     10.7863    111.5647
  1800.7500     13.3750     76.9139     10.7491    111.6296
  1801.0000     13.3687     71.6255     10.6899    112.9952
  1801.2500     13.3327     66.2618     10.6304    113.5895
  1801.5000     13.2835     60.8802     10.5862    112.7624
  1801.7500     13.2363     55.5152     10.5657    111.1476
  1802.0000     13.2063     50.1914     10.5730    108.4439
  1802.2500     13.2062     44.9391     10.6117    107.4952
  1802.5000     13.2443     39.8046     10.6889    108.3801
  1802.7500     13.3253     34.8515     10.8155    110.1290
  1803.0000     13.4482     30.1538     11.0038    112.5437
  1803.2500     13.6010     25.7852     11.2623    113.0422
  1803.5000     13.7572     21.8077     11.5918    112.0111
  1803.7500     13.8838     18.2671     11.9828    110.6773
  1804.0000     13.9560     15.1917     12.4188    108.1636
  1804.2500     13.9733     12.5967     12.8812    105.9528
  1804.5000     13.9692     10.4878     13.3533    101.8320
  1804.7500     14.0104      8.8623     13.8198     99.2453
  1805.0000     14.1781      7.7071     14.2645     97.4089
  1805.2500     14.5310      6.9934     14.6669     98.1542
  1805.5000     15.0673      6.6718     15.0034    101.7660
  1805.7500     15.7162      6.6706     15.2499    104.9877
  1806.0000     16.3724      6.8983     15.3888    109.5117
  1806.2500     16.9552      7.2530     15.4166    111.6019
  1806.5000     17.4513      7.6349     15.3516    112.5903
  1806.7500     17.9123      7.9626     15.2347    111.8770
  1807.0000     18.4146      8.1890     15.1207    109.9173
  1807.2500     19.0119      8.3148     15.0648    108.9678
  1807.5000     19.7013      8.3979     15.1109    108.9738
  1807.7500     20.4155      8.5565     15.2860    109.5735
  1808.0000     21.0425      8.9640     15.5990    109.4138
  1808.2500     21.4648      9.8356     16.0402    107.3108
  1808.5000     21.5988     11.4042     16.5796    100.2229
  1808.7500     21.4262     13.8906     17.1665     93.4692
  1809.0000     21.0179     17.4679     17.7339     82.6692
  1809.2500     20.5339     22.2286     18.2128     76.5749
  1809.5000     20.1705     28.1599     18.5512     71.2394
  1809.7500     20.0610     35.1322     18.7271     70.8988
  1810.0000     20.1952     42.9071     18.7481     74.8544
  1810.2500     20.4272     51.1639     18.6378     79.2518
  1810.5000     20.5699     59.5396     18.4222     85.4291
  1810.7500     20.5046     67.6759     18.1244     87.8289
  1811.0000     20.2348     75.2632     17.7684     88.4459
  1811.2500     19.8630     82.0725     17.3837     87.7986
  1811.5000     19.5226     87.9708     17.0039     87.2198
  1811.7500     19.3148     92.9186     16.6609     87.6737
  1812.0000     19.2803     96.9534     16.3800     89.5433
  1812.2500     19.4032    100.1646     16.1795     91.3314
  1812.5000     19.6323    102.6678     16.0729     94.2878
  1812.7500     19.9080    104.5821     16.0686     95.9473
  1813.0000     20.1841    106.0156     16.1669     97.1495
  1813.2500     20.4384    107.0579     16.3556     96.9968
  1813.5000     20.6722    107.7790     16.6068     95.9606
  1813.7500     20.9016    108.2327     16.8834     95.3073
  1814.0000     21.1453    108.4607     17.1520     95.1989
  1814.2500     21.4132    108.4969     17.3968     95.8022
