~Version Information
 VERS.                                  2.0 : CWLS LAS VERSION
 WRAP.                                   NO : WRAPING MODE
 SWARE .                 MController 2.5.0E : SOFTWARE VERSION
~Well Information
 WELL.                                  N/A : WELL
 COMP.                                  N/A : COMPANY
 FLD.                                   N/A : FIELD
 LOC.                                   N/A : LOCATION
 DATE.                                  N/A : DATE(S) LOGGED
 SRVC.                                  N/A : SERVICE COMPANY
 STAT.                                  N/A : STATE
 CNTY.                                  N/A : COUNTY
 CTRY.                                  N/A : COUNTRY
 API.                                   N/A : API NUMBER
 STRT.FT                              94.00 : START DEPTH
 STOP.FT                            1931.00 : STOP DEPTH
 STEP.FT                               1.00 : DEPTH INCREMENT
 NULL.                                -9999 : NULL VALUE
~Curve information
 DEPTH.FT                                   :
 ROP.MIN/FT                                 :
 GAS.UNITS                                  :
~ASCII Log data
# ...
      494.00        0.267          5.3 
      495.00        0.267          5.3 
      496.00        0.267          5.2 
      497.00        0.533          5.5 
      498.00        0.267          6.1 
      499.00        0.267          5.9 
      500.00        0.267          5.4 
      501.00        0.267          5.9 
      502.00        0.267          5.9 
      503.00        0.267          5.5 
      504.00        0.267          5.4 
      505.00        0.283          5.4 
      506.00        0.267          5.6 
      507.00        1.067          6.3 
      508.00        0.267          6.9 
      509.00        0.200          6.7 
      510.00        0.267          6.3 
      511.00        0.233          7.0 
      512.00        0.167          6.5 
      513.00        0.200          5.9 
      514.00        0.133          5.9 
      515.00        0.133          5.7 
      516.00        0.200          5.9 
      517.00        0.217          5.8 
      518.00        0.200          5.7 
      519.00        0.267          5.8 
      520.00        0.267          5.6 
      521.00        0.233          5.7 
      522.00        0.200          6.0 
      523.00        0.133          6.0 
      524.00        0.100          6.0 
      525.00        0.233          6.0 
      526.00        0.233          6.4 
      527.00        0.233          6.1 
      528.00        0.267          6.2 
      529.00        0.267          6.1 
      530.00        0.300          6.0 
      531.00        0.250          6.1 
      532.00        0.267          6.1 
      533.00        0.200          6.1 
      534.00        0.267          6.0 
      535.00        0.267          6.3 
      536.00        0.267          6.7 
      537.00        0.900          6.9 
      538.00        0.333          6.7 
      539.00        0.333          6.7 
      540.00        0.333          6.5 
      541.00        0.283          6.6 
      542.00        0.300          6.5 
      543.00        0.267          6.3 
      544.00        0.267          6.7 
      545.00        0.267          6.2 
      546.00        0.333          7.0 
      547.00        0.233          6.4 
      548.00        0.300          6.8 
      549.00        0.233          6.2 
      550.00        0.233          6.2 
      551.00        0.233          6.6 
      552.00        0.233          6.4 
      553.00        0.267          6.5 
      554.00        0.250          6.7 
      555.00        0.400          7.3 
      556.00        0.367          6.5 
      557.00        0.300          6.9 
      558.00        0.233          7.2 
      559.00        0.233          7.4 
      560.00        0.233          6.7 
      561.00        0.267          6.7 
      562.00        0.267          7.1 
      563.00        0.200          6.9 
      564.00        0.200          7.0 
      565.00        0.200          7.0 
      566.00        0.317          6.8 
      567.00        2.767          7.5 
      568.00        0.133          7.2 
      569.00        0.267          7.3 
      570.00        0.183          7.1 
      571.00        0.133          7.1 
      572.00        0.100          7.5 
      573.00        0.133          7.8 
      574.00        0.133          7.8 
      575.00        0.133          8.6 
      576.00        0.167          8.6 
      577.00        0.200          8.2 
      578.00        0.233          7.7 
      579.00        0.200          7.7 
      580.00        0.167          8.5 
      581.00        0.200          8.1 
      582.00        0.233          7.6 
      583.00        0.233          7.4 
      584.00        0.233          8.0 
      585.00        0.267          7.9 
      586.00        0.267          8.0 
      587.00        0.233          8.0 
      588.00        0.250          7.6 
      589.00        0.267          7.7 
      590.00        0.233          7.9 
      591.00        0.233          7.9 
      592.00        0.233          7.7 
      593.00        0.233          7.9 
      594.00        0.267          8.5 
      595.00        0.267          7.7 
      596.00        0.300          7.7 
      597.00        1.883          8.7 
      598.00        0.400          8.2 
      599.00        0.300          8.7 
      600.00        0.300          8.3 
      601.00        0.267          7.8 
      602.00        0.333         -2.6 
      603.00        0.300          5.3 
      604.00        0.267          1.4 
      605.00        0.333         14.8 
      606.00        0.283         13.8 
      607.00        0.267          0.0 
      608.00        0.300         -4.5 
      609.00        0.333         -0.6 
      610.00        0.267          6.7 
      611.00        0.233         -0.7 
      612.00        0.233         20.6 
      613.00        0.233          3.0 
      614.00        0.233         13.3 
      615.00        0.200          8.2 
      616.00        0.267          8.3 
      617.00        0.233          8.4 
      618.00        0.233          8.2 
      619.00        0.217          8.5 
      620.00        0.200          8.1 
      621.00        0.167          8.9 
      622.00        0.200          8.9 
      623.00        0.233          8.8 
      624.00        0.167          8.5 
      625.00        0.167          8.5 
      626.00        0.233          8.5 
      627.00        3.383         20.6 
      628.00        0.467         17.2 
      629.00        0.233         14.3 
      630.00        0.400         13.0 
      631.00        0.433         11.5 
      632.00        0.517         11.4 
      633.00        0.200         10.6 
      634.00        0.133         10.3 
      635.00        0.167         10.3 
      636.00        0.200         10.0 
      637.00        0.167         10.2 
      638.00        0.167         10.1 
      639.00        0.233         10.6 
      640.00        0.133         10.9 
      641.00        0.100         10.9 
      642.00        0.133         13.0 
      643.00        0.233         16.7 
      644.00        0.233         19.5 
      645.00        0.167         22.1 
      646.00        0.200         25.2 
      647.00        0.233         28.2 
      648.00        0.167         28.2 
      649.00        0.250         30.8 
      650.00        0.200         32.1 
      651.00        0.233         31.8 
      652.00        0.233         31.8 
      653.00        0.200         32.6 
      654.00        0.233         33.5 
      655.00        0.167         33.4 
      656.00        0.133         33.4 
      657.00        2.450        119.5 
      658.00        0.267         97.3 
      659.00        0.267         86.8 
      660.00        0.233         74.9 
      661.00        0.133         67.2 
      662.00        0.133         63.7 
      663.00        0.133         57.1 
      664.00        0.133         55.2 
      665.00        0.133         51.1 
      666.00        0.167         48.6 
      667.00        0.200         43.0 
      668.00        0.233         41.2 
      669.00        0.233         39.9 
      670.00        0.300         39.1 
      671.00        0.250         38.8 
      672.00        0.200         38.4 
      673.00        0.200         37.9 
      674.00        0.167         36.2 
      675.00        0.133         36.2 
      676.00        0.133         34.6 
      677.00        0.133         34.6 
      678.00        0.200         32.9 
      679.00        0.233         33.7 
      680.00        0.200         34.2 
      681.00        0.233         34.2 
      682.00        0.267         33.8 
      683.00        0.267         34.4 
      684.00        0.300         36.3 
      685.00        0.300         38.0 
      686.00        0.267         37.6 
      687.00        2.350        256.7 
      688.00        0.400        256.8 
      689.00        0.233        228.5 
      690.00        0.233        183.7 
      691.00        0.250        145.1 
      692.00        0.267        111.5 
      693.00        0.200         89.4 
