~Version Information
 VERS.                                  2.0 : CWLS LAS VERSION
 WRAP.                                   NO : WRAPING MODE
 SWARE .                 MController 2.5.0N : SOFTWARE VERSION
~Well Information
 WELL.                        Paradise 13-8 : WELL
 COMP.        Pioneer Natural Resources Inc : COMPANY
 FLD.                      Purgatoire River : FIELD
 LOC.                 NW/SW Sec 8 T32S R66W : LOCATION
 DATE.                           1/21-22/05 : DATE(S) LOGGED
 SRVC.       Blanco Geological Services LLC : SERVICE COMPANY
 STAT.                                   CO : STATE
 CNTY.                           Las Animas : COUNTY
 CTRY.                                  USA : COUNTRY
 API.                       05-071-07946-00 : API NUMBER
 STRT.FT                             855.00 : START DEPTH
 STOP.FT                            3151.00 : STOP DEPTH
 STEP.FT                               1.00 : DEPTH INCREMENT
 NULL.                                -9999 : NULL VALUE
~Curve information
 DEPTH.FT                                   :
 ROP.MIN/FT                                 :
 GAS.UNITS                                  :
~ASCII Log data
# ...
      2255.0         0.82          8.5 
      2256.0         0.47         10.1 
      2257.0         0.43         14.9 
      2258.0         0.47         20.3 
      2259.0         0.43         24.3 
      2260.0         0.63         26.0 
      2261.0         0.75         25.5 
      2262.0         0.50         17.8 
      2263.0         0.47         16.2 
      2264.0         0.43         16.3 
      2265.0         0.40         16.2 
      2266.0         0.40         14.9 
      2267.0         0.60         16.1 
      2268.0         0.55         15.4 
      2269.0         0.60         12.1 
      2270.0         0.47         10.3 
      2271.0         0.33          8.3 
      2272.0         0.43          6.2 
      2273.0         0.53          5.0 
      2274.0         0.30          4.5 
      2275.0         0.58          4.2 
      2276.0         0.77          5.8 
      2277.0         0.77         16.9 
      2278.0         0.30         18.3 
      2279.0         0.37         18.5 
      2280.0         0.37         13.5 
      2281.0         0.62         13.4 
      2282.0         0.63          9.2 
      2283.0         0.53          7.7 
      2284.0         6.10         25.8 
      2285.0         0.57         11.9 
      2286.0         0.43         15.4 
      2287.0         0.33         18.4 
      2288.0         0.60         25.3 
      2289.0         0.40         28.0 
      2290.0         0.37         30.1 
      2291.0         0.42         30.8 
      2292.0         0.30         29.7 
      2293.0         0.43         27.1 
      2294.0         0.50         23.7 
      2295.0         0.67         13.8 
      2296.0         0.63          7.1 
      2297.0         0.62          4.8 
      2298.0         0.70          5.0 
      2299.0         0.53          5.6 
      2300.0         0.40          8.1 
      2301.0         0.43         11.6 
      2302.0         0.33         11.9 
      2303.0         0.27         12.4 
      2304.0         0.55         11.7 
      2305.0         0.47         10.6 
      2306.0         0.30         11.5 
      2307.0         0.37         12.8 
      2308.0         0.33         13.6 
      2309.0         0.30         13.8 
      2310.0         0.30         12.7 
      2311.0         0.33         13.1 
      2312.0         0.50         14.2 
      2313.0         0.33         15.9 
      2314.0         6.40         53.5 
      2315.0         0.30          8.3 
      2316.0         0.52          8.1 
      2317.0         0.70         10.2 
      2318.0         0.70         12.3 
      2319.0         0.60         12.5 
      2320.0         0.87         10.0 
      2321.0         0.82          7.5 
      2322.0         0.83          9.1 
      2323.0         0.80          9.7 
      2324.0         0.63          9.9 
      2325.0         0.85          9.6 
      2326.0         0.67         10.8 
      2327.0         0.53          9.7 
      2328.0         0.70          7.9 
      2329.0         0.57          5.2 
      2330.0         0.45          5.8 
      2331.0         0.80          9.2 
      2332.0         0.77         12.7 
      2333.0         0.73         14.5 
      2334.0         0.57         14.3 
      2335.0         0.48         13.2 
      2336.0         0.67          9.3 
      2337.0         0.63          5.2 
      2338.0         0.63          4.7 
      2339.0         0.63          5.1 
      2340.0         0.60          5.2 
      2341.0         0.72          6.3 
      2342.0         0.73         10.4 
      2343.0         0.33         12.2 
      2344.0         6.27         42.8 
      2345.0         0.53          6.0 
      2346.0         0.53          5.7 
      2347.0         0.50          6.7 
      2348.0         0.58          9.0 
      2349.0         0.60         12.9 
      2350.0         0.50         13.6 
      2351.0         0.57         12.5 
      2352.0         0.63          9.5 
      2353.0         0.53          5.5 
      2354.0         0.33          5.9 
      2355.0         0.65         13.8 
      2356.0         0.53         17.4 
      2357.0         0.43         18.6 
      2358.0         0.73         18.7 
      2359.0         0.97         18.5 
      2360.0         0.92         11.0 
      2361.0         0.50          5.9 
      2362.0         0.50          5.2 
      2363.0         0.53          5.0 
      2364.0         0.53          5.0 
      2365.0         0.40          6.0 
      2366.0         0.32          7.3 
      2367.0         0.23          7.5 
      2368.0         0.63          6.8 
      2369.0         0.83          5.7 
      2370.0         0.83          4.7 
      2371.0         0.53          4.7 
      2372.0         0.75          6.1 
      2373.0         0.33          7.8 
      2374.0         6.43         38.1 
      2375.0         0.40         16.2 
      2376.0         0.33         10.9 
      2377.0         0.37          7.8 
      2378.0         0.40          4.7 
      2379.0         0.33          4.1 
      2380.0         0.43          4.1 
      2381.0         0.48          4.3 
      2382.0         0.50          4.5 
      2383.0         0.73          4.8 
      2384.0         0.53          5.3 
      2385.0         0.53          6.0 
      2386.0         0.50          5.9 
      2387.0         0.48          6.1 
      2388.0         0.57          6.0 
      2389.0         0.53          5.6 
      2390.0         0.47          5.4 
      2391.0         0.33          5.5 
      2392.0         0.33          5.1 
      2393.0         0.37          4.8 
      2394.0         0.43          4.6 
      2395.0         0.42          4.4 
      2396.0         0.30          4.5 
      2397.0         0.37          4.6 
      2398.0         0.33          4.4 
      2399.0         0.30          4.4 
      2400.0         0.30          4.5 
      2401.0         0.27          4.7 
      2402.0         0.57          5.1 
      2403.0         0.33          6.5 
      2404.0         5.77         27.5 
      2405.0         0.60          4.7 
      2406.0         0.53          4.4 
      2407.0         0.48          4.4 
      2408.0         0.33          4.8 
      2409.0         0.47          5.5 
      2410.0         0.40          6.6 
      2411.0         0.53          8.1 
      2412.0         0.67          9.4 
      2413.0         0.75         10.5 
      2414.0         0.57         11.3 
      2415.0         0.73         10.8 
      2416.0         0.47          9.7 
      2417.0         0.73          8.4 
      2418.0         0.85          5.7 
      2419.0         0.53          5.0 
      2420.0         0.53          5.7 
      2421.0         0.53          6.5 
      2422.0         0.53          7.4 
      2423.0         0.60          7.7 
      2424.0         0.65          7.7 
      2425.0         0.77          7.8 
      2426.0         0.90          7.8 
      2427.0         0.70          7.1 
      2428.0         0.47          6.0 
      2429.0         0.48          5.2 
      2430.0         0.47          4.7 
      2431.0         0.67          6.0 
      2432.0         0.33          8.2 
      2433.0         0.47         10.8 
      2434.0         3.85         28.3 
      2435.0         0.85         22.0 
      2436.0         0.77         18.4 
      2437.0         0.83          6.6 
      2438.0         0.73          4.2 
      2439.0         0.70          4.8 
      2440.0         0.65          5.6 
      2441.0         0.53          7.5 
      2442.0         0.53          8.5 
      2443.0         0.43          9.0 
      2444.0         0.50          7.7 
      2445.0         0.57          6.9 
      2446.0         0.75          6.3 
      2447.0         0.70          6.3 
      2448.0         0.67          6.4 
      2449.0         0.77          6.9 
      2450.0         0.75          8.9 
      2451.0         0.77          9.8 
      2452.0         0.87          9.8 
      2453.0         0.80          8.8 
      2454.0         0.73         11.2 
