~Version Information
VERS.                      2.0: CWLS Log ASCII Standard - VERSION 2.0
WRAP.                       NO: One line per depth step
~Well Information Block
STRT.FT              2983.0000: 
STOP.FT              3214.7500: 
STEP.FT                 0.0500: 
NULL.                -999.2500: 
COMP.          Pioner Natural Resources: COMPANY
WELL.              Vespar 43-7: WELL
FLD.           Purgatoire River: FIELD
LOC.           2338' FSL & 1141' FEL------: LOCATION
PROV.                 Colorado: PROVINCE
CNTY.               Las Animas: COUNTRY
SRVC.                         : SERVICE COMPANY
DATE.          Fri Apr 15 15:31:19 2005: LOG DATE
UWI.                          : UNIQUE WELL ID
~Curve Information Block
DEPT.FT            0 000 00 00: Depth
GR.GAPI                       : Gamma Ray
CCL.                          : Casing Collar Locator
TT3.usec                      : CBL 3' Travel Time
AMP3.mV                       : CBL 3' Amplitude
AMP5.mV                       : CBL 5' Amplitude
~Parameter Information Block
~A  Depth        GR         CCL         TT3         AMP3        AMP5    
# ...
  3100.6000    100.2813      0.0000    297.5874     35.9130     18.5168
  3100.6500    100.2813      0.0000    297.5874     35.9130     18.5168
  3100.7000    100.2813      0.0000    297.5874     35.9130     18.5168
  3100.7500     99.6485      0.0000    311.1422     30.4947     14.1229
  3100.8000     99.6485      0.0000    311.1422     30.4947     14.1229
  3100.8500     99.6485      0.0000    311.1422     30.4947     14.1229
  3100.9000     99.6485      0.0000    311.1422     30.4947     14.1229
  3100.9500     99.6485      0.0000    311.1422     30.4947     14.1229
  3101.0000     98.3142      0.0000    329.2545     25.6398     10.6915
  3101.0500     98.3142      0.0000    329.2545     25.6398     10.6915
  3101.1000     98.3142      0.0000    329.2545     25.6398     10.6915
  3101.1500     98.3142      0.0000    329.2545     25.6398     10.6915
  3101.2000     98.3142      0.0000    329.2545     25.6398     10.6915
  3101.2500     97.2447      0.0000    352.0298     21.3548      7.9638
  3101.3000     97.2447      0.0000    352.0298     21.3548      7.9638
  3101.3500     97.2447      0.0000    352.0298     21.3548      7.9638
  3101.4000     97.2447      0.0000    352.0298     21.3548      7.9638
  3101.4500     97.2447      0.0000    352.0298     21.3548      7.9638
  3101.5000     96.9763      0.0000    375.9081     17.5949      5.8326
  3101.5500     96.9763      0.0000    375.9081     17.5949      5.8326
  3101.6000     96.9763      0.0000    375.9081     17.5949      5.8326
  3101.6500     96.9763      0.0000    375.9081     17.5949      5.8326
  3101.7000     96.9763      0.0000    375.9081     17.5949      5.8326
  3101.7500     96.8189      0.0000    395.2144     14.3267      4.2381
  3101.8000     96.8189      0.0000    395.2144     14.3267      4.2381
  3101.8500     96.8189      0.0000    395.2144     14.3267      4.2381
  3101.9000     96.8189      0.0000    395.2144     14.3267      4.2381
  3101.9500     96.8189      0.0000    395.2144     14.3267      4.2381
  3102.0000     95.3404      0.0000    405.8365     11.5226      3.0844
  3102.0500     95.3404      0.0000    405.8365     11.5226      3.0844
  3102.1000     95.3404      0.0000    405.8365     11.5226      3.0844
  3102.1500     95.3404      0.0000    405.8365     11.5226      3.0844
  3102.2000     95.3404      0.0000    405.8365     11.5226      3.0844
  3102.2500     91.5948      0.0000    407.6195      9.1923      2.2509
  3102.3000     91.5948      0.0000    407.6195      9.1923      2.2509
  3102.3500     91.5948      0.0000    407.6195      9.1923      2.2509
  3102.4000     91.5948      0.0000    407.6195      9.1923      2.2509
  3102.4500     91.5948      0.0000    407.6195      9.1923      2.2509
  3102.5000     85.9918      0.0000    403.8570      7.3981      1.6426
  3102.5500     85.9918      0.0000    403.8570      7.3981      1.6426
  3102.6000     85.9918      0.0000    403.8570      7.3981      1.6426
  3102.6500     85.9918      0.0000    403.8570      7.3981      1.6426
  3102.7000     85.9918      0.0000    403.8570      7.3981      1.6426
  3102.7500     80.2129      0.0000    398.7637      6.1805      1.2028
  3102.8000     80.2129      0.0000    398.7637      6.1805      1.2028
  3102.8500     80.2129      0.0000    398.7637      6.1805      1.2028
  3102.9000     80.2129      0.0000    398.7637      6.1805      1.2028
  3102.9500     80.2129      0.0000    398.7637      6.1805      1.2028
  3103.0000     76.2677      0.0000    395.0376      5.4710      0.8903
  3103.0500     76.2677      0.0000    395.0376      5.4710      0.8903
  3103.1000     76.2677      0.0000    395.0376      5.4710      0.8903
  3103.1500     76.2677      0.0000    395.0376      5.4710      0.8903
  3103.2000     76.2677      0.0000    395.0376      5.4710      0.8903
  3103.2500     75.1456      0.0000    393.5870      5.1088      0.6653
  3103.3000     75.1456      0.0000    393.5870      5.1088      0.6653
  3103.3500     75.1456      0.0000    393.5870      5.1088      0.6653
  3103.4000     75.1456      0.0000    393.5870      5.1088      0.6653
  3103.4500     75.1456      0.0000    393.5870      5.1088      0.6653
  3103.5000     76.0469      0.0000    395.4830      4.9324      0.4953
  3103.5500     76.0469      0.0000    395.4830      4.9324      0.4953
  3103.6000     76.0469      0.0000    395.4830      4.9324      0.4953
  3103.6500     76.0469      0.0000    395.4830      4.9324      0.4953
  3103.7000     76.0469      0.0000    395.4830      4.9324      0.4953
  3103.7500     77.1794      0.0000    403.8386      4.8411      0.3639
  3103.8000     77.1794      0.0000    403.8386      4.8411      0.3639
  3103.8500     77.1794      0.0000    403.8386      4.8411      0.3639
  3103.9000     77.1794      0.0000    403.8386      4.8411      0.3639
  3103.9500     77.1794      0.0000    403.8386      4.8411      0.3639
  3104.0000     77.5510      0.0000    423.7112      4.7900      0.2700
  3104.0500     77.5510      0.0000    423.7112      4.7900      0.2700
  3104.1000     77.5510      0.0000    423.7112      4.7900      0.2700
  3104.1500     77.5510      0.0000    423.7112      4.7900      0.2700
  3104.2000     77.5510      0.0000    423.7112      4.7900      0.2700
  3104.2500     77.7577      0.0000    459.2113      4.7685      0.2212
  3104.3000     77.7577      0.0000    459.2113      4.7685      0.2212
  3104.3500     77.7577      0.0000    459.2113      4.7685      0.2212
  3104.4000     77.7577      0.0000    459.2113      4.7685      0.2212
  3104.4500     77.7577      0.0000    459.2113      4.7685      0.2212
  3104.5000     79.0241      0.0000    508.0726      4.8043      0.2221
  3104.5500     79.0241      0.0000    508.0726      4.8043      0.2221
  3104.6000     79.0241      0.0000    508.0726      4.8043      0.2221
  3104.6500     79.0241      0.0000    508.0726      4.8043      0.2221
  3104.7000     79.0241      0.0000    508.0726      4.8043      0.2221
  3104.7500     81.9577      0.0000    557.4841      4.9742      0.2655
  3104.8000     81.9577      0.0000    557.4841      4.9742      0.2655
  3104.8500     81.9577      0.0000    557.4841      4.9742      0.2655
  3104.9000     81.9577      0.0000    557.4841      4.9742      0.2655
  3104.9500     81.9577      0.0000    557.4841      4.9742      0.2655
  3105.0000     86.3221      0.0000    588.3551      5.3790      0.3374
  3105.0500     86.3221      0.0000    588.3551      5.3790      0.3374
  3105.1000     86.3221      0.0000    588.3551      5.3790      0.3374
  3105.1500     86.3221      0.0000    588.3551      5.3790      0.3374
  3105.2000     86.3221      0.0000    588.3551      5.3790      0.3374
  3105.2500     91.3770      0.0000    588.5958      6.0849      0.4321
  3105.3000     91.3770      0.0000    588.5958      6.0849      0.4321
  3105.3500     91.3770      0.0000    588.5958      6.0849      0.4321
  3105.4000     91.3770      0.0000    588.5958      6.0849      0.4321
  3105.4500     91.3770      0.0000    588.5958      6.0849      0.4321
  3105.5000     96.0263      0.0000    564.4020      7.0749      0.5577
  3105.5500     96.0263      0.0000    564.4020      7.0749      0.5577
  3105.6000     96.0263      0.0000    564.4020      7.0749      0.5577
  3105.6500     96.0263      0.0000    564.4020      7.0749      0.5577
  3105.7000     96.0263      0.0000    564.4020      7.0749      0.5577
  3105.7500     99.0080      0.0000    538.1782      8.2506      0.7248
  3105.8000     99.0080      0.0000    538.1782      8.2506      0.7248
  3105.8500     99.0080      0.0000    538.1782      8.2506      0.7248
  3105.9000     99.0080      0.0000    538.1782      8.2506      0.7248
  3105.9500     99.0080      0.0000    538.1782      8.2506      0.7248
  3106.0000     99.6345      0.0000    533.8126      9.4789      0.9387
  3106.0500     99.6345      0.0000    533.8126      9.4789      0.9387
  3106.1000     99.6345      0.0000    533.8126      9.4789      0.9387
  3106.1500     99.6345      0.0000    533.8126      9.4789      0.9387
