~Version Information
VERS.                      2.0: CWLS Log ASCII Standard - VERSION 2.0
WRAP.                       NO: One line per depth step
~Well Information Block
STRT.FT               340.0000: 
STOP.FT              1542.5000: 
STEP.FT                 0.1000: 
NULL.                -999.2500: 
COMP.          Petrogulf Corporation: COMPANY
WELL.            Montoya 7-21R: WELL
FLD.           Purgatorie River: FIELD
LOC.           445' FNL & 1942' FWL: LOCATION
PROV.                 Colorado: PROVINCE
CNTY.               Las Animas: COUNTRY
SRVC.                Patterson: SERVICE COMPANY
DATE.          Thu Sep 15 10:33:27 2005: LOG DATE
UWI.                          : UNIQUE WELL ID
~Curve Information Block
DEPT.FT            0 000 00 00: Depth
DCAL.in                       : CDL Caliper
RHOB.g/cc                     : CDL Bulk Density
RHOC.g/cc                     : CDL Density Correction
DPOR.pu                       : CDL Density Porosity
GR.GAPI                       : Gamma Ray
NPOR.pu                       : Neutron Porosity
~Parameter Information Block
~A  Depth       DCAL        RHOB        RHOC        DPOR         GR         NPOR    
# ...
   896.8000      7.9966      2.6194      0.0806      1.8517    116.7258     20.3676
   896.9000      7.9966      2.6162      0.0790      2.0488    121.0374     20.5657
   897.0000      7.9932      2.6208      0.0325      1.7693    122.2503     20.5905
   897.1000      7.9932      2.6362      0.0544      0.8336    123.2158     20.8415
   897.2000      7.9932      2.6499      0.0819      0.0083    126.8576     21.2951
   897.3000      8.0045      2.6471      0.0458      0.1728    132.2427     21.5282
   897.4000      8.0045      2.6306      0.0415      1.1737    135.4280     21.6862
   897.5000      8.0101      2.6127      0.0345      2.2631    136.4111     22.1510
   897.6000      8.0101      2.6004      0.0456      3.0083    140.7341     22.7172
   897.7000      8.0101      2.5915      0.0228      3.5456    147.2066     23.1605
   897.8000      8.0479      2.5878      0.0157      3.7718    149.0815     23.4910
   897.9000      8.0479      2.5967      0.0158      3.2327    147.4596     23.8327
   898.0000      8.0564      2.6200      0.0351      1.8209    145.6492     24.3216
   898.1000      8.0564      2.6419      0.0700      0.4938    144.2385     24.8699
   898.2000      8.0564      2.6336      0.0942      0.9954    142.8297     25.1803
   898.3000      8.0451      2.5942      0.0091      3.3846    138.1290     24.9845
   898.4000      8.0451      2.5577      0.0046      5.5952    130.4710     24.4914
   898.5000      8.0442      2.5434      0.0026      6.4624    124.2079     24.1721
   898.6000      8.0442      2.5472      0.0035      6.2288    120.1830     24.0961
   898.7000      8.0442      2.5680     -0.0085      4.9680    116.7937     23.8586
   898.8000      8.0242      2.6040      0.0228      2.7871    113.5514     23.2610
   898.9000      8.0242      2.6389      0.0396      0.6730    109.8259     22.7082
   899.0000      8.0000      2.6546      0.0751     -0.2790    105.2683     22.4476
   899.1000      8.0000      2.6554      0.0333     -0.3298    103.6664     22.1273
   899.2000      8.0000      2.6570      0.0858     -0.4252    105.2934     21.6417
   899.3000      7.9899      2.6572      0.1021     -0.4343    105.3430     21.2926
   899.4000      7.9899      2.6489      0.0551      0.0682    104.1937     20.8252
   899.5000      7.9973      2.6420      0.0373      0.4877    106.4379     19.9116
   899.6000      7.9973      2.6420      0.0654      0.4836    111.6337     19.1298
   899.7000      7.9973      2.6321      0.0634      1.0825    115.1782     19.2259
   899.8000      8.0083      2.6065      0.0051      2.6382    117.5213     20.1659
   899.9000      8.0083      2.5829      0.0319      4.0650    121.8760     21.2318
   900.0000      8.0153      2.5695     -0.0007      4.8774    128.9299     21.6911
   900.1000      8.0153      2.5632      0.0305      5.2576    137.8530     21.6899
   900.2000      8.0153      2.5621      0.0570      5.3263    147.5238     22.1430
   900.3000      8.0226      2.5634      0.0373      5.2490    154.3590     23.3503
   900.4000      8.0226      2.5658      0.0265      5.1046    154.7425     24.6157
   900.5000      8.0417      2.5691      0.0528      4.9004    151.0726     25.3656
   900.6000      8.0417      2.5727      0.0544      4.6831    148.0479     25.8390
   900.7000      8.0417      2.5781      0.0532      4.3573    148.7908     26.3295
   900.8000      8.0470      2.5869      0.0796      3.8220    151.8332     26.7428
   900.9000      8.0470      2.5959      0.1210      3.2813    151.3876     26.9613
   901.0000      8.0734      2.5997      0.0803      3.0497    148.3533     26.9256
   901.1000      8.0734      2.5986      0.1264      3.1177    148.8267     26.9774
   901.2000      8.0734      2.5922      0.0799      3.5009    150.1421     27.2327
   901.3000      8.0669      2.5779      0.1109      4.3689    146.6813     27.0103
   901.4000      8.0669      2.5599      0.0201      5.4582    141.6841     26.3466
   901.5000      8.0670      2.5528      0.0406      5.8898    140.4788     25.9134
   901.6000      8.0670      2.5587      0.0389      5.5324    143.9316     25.6882
   901.7000      8.0670      2.5666      0.0150      5.0550    147.6057     25.6853
   901.8000      8.0708      2.5727      0.0269      4.6844    145.1017     26.0159
   901.9000      8.0708      2.5793      0.0233      4.2856    137.8403     26.2854
   902.0000      8.0748      2.5853      0.0591      3.9184    133.8308     26.1994
   902.1000      8.0748      2.5860      0.0564      3.8768    136.1407     26.0760
   902.2000      8.0748      2.5808      0.0646      4.1957    139.9429     26.2345
   902.3000      8.0715      2.5744      0.0046      4.5835    140.7666     26.4016
   902.4000      8.0715      2.5682      0.0554      4.9594    139.0126     26.1253
   902.5000      8.0733      2.5527      0.0607      5.8961    137.3433     25.6331
   902.6000      8.0733      2.5334     -0.0278      7.0674    139.4109     25.5145
   902.7000      8.0733      2.5335      0.0010      7.0596    146.3773     25.8330
   902.8000      8.0754      2.5510      0.0647      6.0003    152.9199     26.2263
   902.9000      8.0754      2.5617      0.1121      5.3532    155.5533     26.3845
   903.0000      8.0738      2.5665      0.0416      5.0596    157.6257     26.3464
   903.1000      8.0738      2.5835      0.0693      4.0330    160.9809     26.1158
   903.2000      8.0738      2.6037      0.0804      2.8074    164.0947     25.8457
   903.3000      8.0741      2.6016      0.0943      2.9357    164.8949     25.8434
   903.4000      8.0741      2.5725      0.0696      4.6989    162.0671     26.1285
   903.5000      8.0696      2.5382      0.0422      6.7732    159.6341     26.8271
   903.6000      8.0696      2.5143      0.0224      8.2236    160.4550     27.7578
   903.7000      8.0696      2.4929      0.0644      9.5220    159.7845     28.2363
   903.8000      8.1196      2.4688      0.0528     10.9791    155.9416     28.2630
   903.9000      8.1196      2.4554      0.0506     11.7928    152.9589     28.3405
   904.0000      8.1534      2.4634      0.0222     11.3089    153.3930     28.5531
   904.1000      8.1534      2.4852      0.0586      9.9892    156.8953     28.8912
   904.2000      8.1534      2.5007      0.0560      9.0494    162.4251     29.5257
   904.3000      8.1965      2.4890      0.1135      9.7603    167.5328     30.2075
   904.4000      8.1965      2.4378      0.0933     12.8635    168.5424     30.3309
   904.5000      8.1993      2.3596      0.0831     17.6005    165.4562     29.9448
   904.6000      8.1993      2.2848      0.0266     22.1355    162.3046     29.7794
   904.7000      8.1993      2.2264      0.0439     25.6742    159.1757     30.1824
   904.8000      8.1768      2.1788      0.0287     28.5565    155.3585     30.7594
   904.9000      8.1768      2.1479     -0.0495     30.4315    153.6378     31.0364
   905.0000      8.1043      2.1492     -0.0361     30.3535    153.1641     30.9412
   905.1000      8.1043      2.1850      0.0376     28.1815    151.6362     30.7571
   905.2000      8.1043      2.2529      0.0495     24.0680    149.7714     30.6486
   905.3000      8.1133      2.3507      0.1838     18.1380    150.7142     30.3100
   905.4000      8.1133      2.4521      0.2655     11.9962    156.1174     29.7831
   905.5000      8.1102      2.5178      0.2325      8.0136    162.3761     29.4286
   905.6000      8.1102      2.5412      0.1365      6.5925    162.4445     29.2314
   905.7000      8.1102      2.5513      0.1272      5.9797    156.2407     29.0531
   905.8000      8.1037      2.5718      0.1021      4.7385    150.7723     28.7165
   905.9000      8.1037      2.6035      0.1042      2.8195    149.9738     28.1434
   906.0000      8.0912      2.6351      0.1505      0.9021    152.8862     27.6123
   906.1000      8.0912      2.6574      0.1416     -0.4497    155.2971     27.3315
   906.2000      8.0912      2.6696      0.1182     -1.1876    153.7879     27.2252
   906.3000      8.0936      2.6711      0.1656     -1.2766    150.6931     27.1111
