~Version Information
VERS.                      2.0: CWLS Log ASCII Standard - VERSION 2.0
WRAP.                       NO: One line per depth step
~Well Information Block
STRT.FT               423.0000: 
STOP.FT              2308.2500: 
STEP.FT                 0.2500: 
NULL.                -999.2500: 
COMP.          Pioneer Natural Resources: COMPANY
WELL.             Culver 14-12: WELL
FLD.           Purgatoire River: FIELD
LOC.           913' FSL & 1140' FWL: LOCATION
PROV.                 Colorado: PROVINCE
CNTY.               Las Animas: COUNTRY
SRVC.                Patterson: SERVICE COMPANY
DATE.          Tue Jun 07 00:21:41 2005: LOG DATE
UWI.           05 071 08386 00: UNIQUE WELL ID
~Curve Information Block
DEPT.FT            0 000 00 00: Depth
SN.Ohm-m                      : IEL Short Normal
SP.mV                         : IEL Spontaneous Potential
DIR.Ohm-m                     : IEL Induction Resistivity
GR.GAPI                       : Gamma Ray
~Parameter Information Block
~A  Depth        SN          SP         DIR          GR     
# ...
   557.0000   2000.0000   2000.0000     55.2835     82.4744
   557.2500   2000.0000   2000.0000     55.5956     82.0833
   557.5000   2000.0000   2000.0000     55.9331     81.3226
   557.7500   2000.0000   2000.0000     56.7368     80.4617
   558.0000   2000.0000   2000.0000     58.2479     78.6808
   558.2500   2000.0000   2000.0000     60.2871     77.3623
   558.5000   2000.0000   2000.0000     62.2624     75.3535
   558.7500   2000.0000   2000.0000     63.4984     73.8458
   559.0000   2000.0000   2000.0000     63.6987     71.0377
   559.2500   2000.0000   2000.0000     63.0902     68.9400
   559.5000   2000.0000   2000.0000     62.1320     66.2672
   559.7500   2000.0000   2000.0000     61.1490     65.2173
   560.0000   2000.0000   2000.0000     60.2001     64.6136
   560.2500   2000.0000   2000.0000     59.1846     64.3636
   560.5000   2000.0000   2000.0000     58.0512     63.5601
   560.7500   2000.0000   2000.0000     56.9277     62.8049
   561.0000   2000.0000   2000.0000     56.0718     61.9087
   561.2500   2000.0000   2000.0000     55.7277     61.6880
   561.5000   2000.0000   2000.0000     55.9913     61.8659
   561.7500   2000.0000   2000.0000     56.7481     62.2037
   562.0000   2000.0000   2000.0000     57.6927     63.0714
   562.2500   2000.0000   2000.0000     58.4665     64.0676
   562.5000   2000.0000   2000.0000     58.8876     66.3271
   562.7500   2000.0000   2000.0000     59.0641     68.0938
   563.0000   2000.0000   2000.0000     59.2715     70.2410
   563.2500   2000.0000   2000.0000     59.7066     70.8821
   563.5000   2000.0000   2000.0000     60.3747     70.5077
   563.7500   2000.0000   2000.0000     61.1525     69.6152
   564.0000   2000.0000   2000.0000     61.9161     67.7714
   564.2500   2000.0000   2000.0000     62.6074     66.2842
   564.5000   2000.0000   2000.0000     63.2447     63.6110
   564.7500   2000.0000   2000.0000     63.9484     61.6103
   565.0000   2000.0000   2000.0000     64.9472     58.7785
   565.2500   2000.0000   2000.0000     66.4723     57.3848
   565.5000   2000.0000   2000.0000     68.5617     56.3844
   565.7500   2000.0000   2000.0000     70.9310     56.3037
   566.0000   2000.0000   2000.0000     73.0898     56.4409
   566.2500   2000.0000   2000.0000     74.7119     56.4046
   566.5000   2000.0000   2000.0000     75.9220     56.0771
   566.7500   2000.0000   2000.0000     77.1367     55.8214
   567.0000   2000.0000   2000.0000     78.6179     55.6075
   567.2500   2000.0000   2000.0000     80.1847     55.5262
   567.5000   2000.0000   2000.0000     81.3322     55.1881
   567.7500   2000.0000   2000.0000     81.6664     54.7864
   568.0000   2000.0000   2000.0000     81.2776     54.4291
   568.2500   2000.0000   2000.0000     80.6775     54.7295
   568.5000   2000.0000   2000.0000     80.4400     55.9958
   568.7500   2000.0000   2000.0000     80.9000     56.9512
   569.0000   2000.0000   2000.0000     82.0579     57.7715
   569.2500   2000.0000   2000.0000     83.6410     57.8302
   569.5000   2000.0000   2000.0000     85.2708     57.7563
   569.7500   2000.0000   2000.0000     86.6829     58.0123
   570.0000   2000.0000   2000.0000     87.8575     58.9622
   570.2500   2000.0000   2000.0000     88.9347     59.6540
   570.5000   2000.0000   2000.0000     90.0232     60.2344
   570.7500   2000.0000   2000.0000     91.1137     60.2593
   571.0000   2000.0000   2000.0000     92.1586     59.9283
   571.2500   2000.0000   2000.0000     93.1616     59.5676
   571.5000   2000.0000   2000.0000     94.0982     58.9607
   571.7500   2000.0000   2000.0000     94.7411     58.5624
   572.0000   2000.0000   2000.0000     94.6605     58.0157
   572.2500   2000.0000   2000.0000     93.5576     57.7447
   572.5000   2000.0000   2000.0000     91.6310     57.5900
   572.7500   2000.0000   2000.0000     89.5737     57.6582
   573.0000   2000.0000   2000.0000     88.2037     58.0219
   573.2500   2000.0000   2000.0000     88.0979     58.4567
   573.5000   2000.0000   2000.0000     89.3935     59.1109
   573.7500   2000.0000   2000.0000     91.6794     59.1672
   574.0000   2000.0000   2000.0000     93.9910     58.2815
   574.2500   2000.0000   2000.0000     95.1542     57.2123
   574.5000   2000.0000   2000.0000     94.5121     55.4798
   574.7500   2000.0000   2000.0000     92.3736     54.4478
   575.0000   2000.0000   2000.0000     89.6178     53.3167
   575.2500   2000.0000   2000.0000     86.9974     53.1100
   575.5000   2000.0000   2000.0000     84.8813     54.1624
   575.7500   2000.0000   2000.0000     83.3695     55.8050
   576.0000   2000.0000   2000.0000     82.4628     58.9706
   576.2500   2000.0000   2000.0000     82.0938     60.9316
   576.5000   2000.0000   2000.0000     82.1396     63.0134
   576.7500   2000.0000   2000.0000     82.5404     63.8386
   577.0000   2000.0000   2000.0000     83.4293     64.3746
   577.2500   2000.0000   2000.0000     85.0739     64.1212
   577.5000   2000.0000   2000.0000     87.5636     62.4382
   577.7500   2000.0000   2000.0000     90.4855     60.5497
   578.0000   2000.0000   2000.0000     92.9097     57.6193
   578.2500   2000.0000   2000.0000     93.9078     56.4510
   578.5000   2000.0000   2000.0000     93.2171     56.9115
   578.7500   2000.0000   2000.0000     91.3217     58.7472
   579.0000   2000.0000   2000.0000     88.9308     62.9030
   579.2500   2000.0000   2000.0000     86.5221     65.7954
   579.5000   2000.0000   2000.0000     84.2472     69.2122
   579.7500   2000.0000   2000.0000     82.0743     70.6802
   580.0000   2000.0000   2000.0000     79.9670     71.9726
   580.2500   2000.0000   2000.0000     77.9808     72.4642
   580.5000   2000.0000   2000.0000     76.2222     72.7114
   580.7500   2000.0000   2000.0000     74.7248     72.4792
   581.0000   2000.0000   2000.0000     73.3625     71.8049
   581.2500   2000.0000   2000.0000     71.8537     71.6101
   581.5000   2000.0000   2000.0000     69.9029     72.3629
   581.7500   2000.0000   2000.0000     67.3455     73.3752
   582.0000   2000.0000   2000.0000     64.1767     74.4181
   582.2500   2000.0000   2000.0000     60.4777     74.1698
   582.5000   2000.0000   2000.0000     56.3617     72.6616
   582.7500   2000.0000   2000.0000     51.9999     71.8848
   583.0000   2000.0000   2000.0000     47.6394     73.2183
   583.2500   2000.0000   2000.0000     43.5447     76.7303
   583.5000   2000.0000   2000.0000     39.9068     86.4799
   583.7500   2000.0000   2000.0000     36.8045     95.5698
   584.0000   2000.0000   2000.0000     34.2252    111.3724
   584.2500   2000.0000   2000.0000     32.1035    122.0336
   584.5000   2000.0000   2000.0000     30.3476    136.0537
   584.7500   2000.0000   2000.0000     28.8609    143.1477
   585.0000   2000.0000   2000.0000     27.5647    149.6566
   585.2500   2000.0000   2000.0000     26.4163    151.4088
   585.5000   2000.0000   2000.0000     25.4063    151.4265
   585.7500   2000.0000   2000.0000     24.5348    150.6868
   586.0000   2000.0000   2000.0000     23.7900    149.4324
   586.2500   2000.0000   2000.0000     23.1447    148.2409
   586.5000   2000.0000   2000.0000     22.5731    144.6430
   586.7500   2000.0000   2000.0000     22.0707    140.7029
   587.0000   2000.0000   2000.0000     21.6634    133.6322
   587.2500   2000.0000   2000.0000     21.3972    129.4360
   587.5000   2000.0000   2000.0000     21.3167    125.4682
   587.7500   2000.0000   2000.0000     21.4467    124.3135
   588.0000   2000.0000   2000.0000     21.7848    123.4745
   588.2500   2000.0000   2000.0000     22.3040    122.7453
   588.5000   2000.0000   2000.0000     22.9595    121.0924
   588.7500   2000.0000   2000.0000     23.6931    119.9594
   589.0000   2000.0000   2000.0000     24.4354    118.8121
   589.2500   2000.0000   2000.0000     25.1111    118.3847
   589.5000   2000.0000   2000.0000     25.6547    117.3790
   589.7500   2000.0000   2000.0000     26.0278    115.7402
   590.0000   2000.0000   2000.0000     26.2242    111.1939
   590.2500   2000.0000   2000.0000     26.2509    107.1941
