~Version Information
VERS.                      2.0: CWLS Log ASCII Standard - VERSION 2.0
WRAP.                       NO: One line per depth step
~Well Information Block
STRT.FT               482.2000: 
STOP.FT              2349.0000: 
STEP.FT                 0.1000: 
NULL.                -999.2500: 
COMP.          Pioneer Natural Resources: COMPANY
WELL.          Hill Climb 22-2: WELL
FLD.           Purgatoire River: FIELD
LOC.           1820' FNL & 2193' FWL: LOCATION
PROV.                 Colorado: PROVINCE
CNTY.               Las Animas: COUNTRY
SRVC.                Patterson: SERVICE COMPANY
DATE.          Wed Oct 20 09:25:25 2004: LOG DATE
UWI.           05 071 08175 00: UNIQUE WELL ID
~Curve Information Block
DEPT.FT            0 000 00 00: Depth
DCAL.in                       : CDL Caliper
DPOR.pu                       : CDL Density Porosity
NPOR.pu                       : Neutron Porosity
RHOB.g/cc                     : CDL Bulk Density
RHOC.g/cc                     : CDL Density Correction
GR.GAPI                       : Gamma Ray
~Parameter Information Block
~A  Depth       DCAL        DPOR        NPOR        RHOB        RHOC         GR     
# ...
   799.0000      8.0896      5.9772     20.7646      2.5514      0.0249    137.3476
   799.1000      8.0896      7.2217     20.6977      2.5308     -0.0417    135.9536
   799.2000      8.0896      8.2825     18.8757      2.5133     -0.0341    131.1754
   799.3000      8.1217      8.2629     18.0912      2.5137     -0.0695    127.5732
   799.4000      8.1217      7.3726     19.7790      2.5284     -0.0341    126.0597
   799.5000      8.1633      6.4386     22.9040      2.5438     -0.0084    127.3850
   799.6000      8.1633      6.3766     24.7865      2.5448      0.0403    129.2716
   799.7000      8.1633      7.4141     23.9099      2.5277     -0.0162    130.7995
   799.8000      8.1809      9.1206     21.9465      2.4995     -0.0020    127.1096
   799.9000      8.1809     10.7481     21.4238      2.4727     -0.0290    110.8273
   800.0000      8.1582     11.4084     22.7624      2.4618     -0.0233     94.3854
   800.1000      8.1582     11.0535     24.2043      2.4676      0.0042     93.4596
   800.2000      8.1582     10.5111     24.0511      2.4766      0.0071    101.3542
   800.3000      8.1147     10.0744     22.1556      2.4838     -0.0383    109.2309
   800.4000      8.1147      9.5907     19.8433      2.4918      0.0093    118.6433
   800.5000      8.0777      9.5626     19.0385      2.4922      0.0217    129.5822
   800.6000      8.0777     10.2172     20.1963      2.4814     -0.0027    133.7121
   800.7000      8.0777     10.8965     21.9453      2.4702      0.0114    127.7023
   800.8000      8.0560     11.3956     23.1161      2.4620      0.0413    121.6902
   800.9000      8.0560     11.3160     23.7649      2.4633     -0.0211    117.8833
   801.0000      8.0488      9.1165     24.0864      2.4996      0.0061    111.2794
   801.1000      8.0488      4.9465     23.6486      2.5684      0.0757    107.6729
   801.2000      8.0488      1.5468     22.5152      2.6245      0.1128    109.9492
   801.3000      8.0478      0.9006     22.2384      2.6351      0.0873    114.3147
   801.4000      8.0478      2.8426     23.3635      2.6031      0.0807    118.0234
   801.5000      8.0445      6.6103     24.2723      2.5409      0.0551    121.0589
   801.6000      8.0445     11.2226     23.8254      2.4648      0.0135    123.3750
   801.7000      8.0445     14.7735     22.4856      2.4062     -0.0796    122.6890
   801.8000      8.0425     15.9746     21.0713      2.3864     -0.0082    120.8096
   801.9000      8.0425     15.4971     20.3592      2.3943     -0.0295    123.1289
   802.0000      8.0478     14.3223     20.5587      2.4137     -0.0347    128.1869
   802.1000      8.0478     12.7448     21.0711      2.4397      0.0281    129.6440
   802.2000      8.0478     11.2185     21.3800      2.4649      0.1664    126.8197
   802.3000      8.0544     10.7609     21.1917      2.4724      0.2641    121.2430
   802.4000      8.0544     11.4361     20.2281      2.4613      0.2292    110.9836
   802.5000      8.0535     11.7497     18.6098      2.4561      0.1614     99.5644
   802.6000      8.0535     10.6932     17.1938      2.4736      0.0766     97.9116
   802.7000      8.0535      9.1485     16.6022      2.4990      0.0816    104.9587
   802.8000      8.0422      8.2841     16.4832      2.5133      0.0441    104.4678
   802.9000      8.0422      7.5567     16.4348      2.5253      0.0163     93.2699
   803.0000      8.0311      6.5857     16.5461      2.5413      0.0775     84.1461
   803.1000      8.0311      6.5106     16.8418      2.5426      0.0561     82.2916
   803.2000      8.0311      7.6927     17.2968      2.5231      0.0370     82.5406
   803.3000      8.0281      8.8381     18.1170      2.5042     -0.0162     82.5574
   803.4000      8.0281      8.9650     18.9694      2.5021      0.0169     86.4580
   803.5000      8.0345      8.5756     18.7264      2.5085      0.0219     92.7272
   803.6000      8.0345      8.4395     17.6294      2.5107      0.0035     94.6419
   803.7000      8.0345      8.7259     17.5446      2.5060      0.0249     95.4535
   803.8000      8.0431      9.4248     18.8654      2.4945     -0.0075    103.5767
   803.9000      8.0431     10.1558     20.2352      2.4824     -0.0472    114.7839
   804.0000      8.0498     10.1926     20.7294      2.4818     -0.0387    123.0760
   804.1000      8.0498      9.4553     20.4584      2.4940     -0.0102    126.0922
   804.2000      8.0498      8.7491     20.1124      2.5056      0.0481    118.8374
   804.3000      8.0830      8.6939     19.9505      2.5066      0.0457    107.2222
   804.4000      8.0830      8.8064     19.5584      2.5047      0.0241    106.1342
   804.5000      8.1399      8.7268     19.2105      2.5060      0.0420    114.6100
   804.6000      8.1399      8.9519     19.5132      2.5023      0.0732    118.6158
   804.7000      8.1399      9.4226     20.0391      2.4945      0.0458    112.8573
   804.8000      8.1495      9.7401     20.2501      2.4893      0.0892    104.8928
   804.9000      8.1495     10.2391     20.2338      2.4811      0.0207    100.2000
   805.0000      8.1054     10.9345     20.3074      2.4696      0.0075     98.0839
   805.1000      8.1054     11.1345     20.7280      2.4663      0.0016     98.8490
   805.2000      8.1054     10.4558     20.9540      2.4775     -0.0041    104.0945
   805.3000      8.0733      9.2835     20.2027      2.4968      0.0104    115.8780
   805.4000      8.0733      8.4186     18.6305      2.5111      0.0326    128.1302
   805.5000      8.0652      8.3529     17.5033      2.5122      0.0479    128.6465
   805.6000      8.0652      9.0089     17.8142      2.5014      0.0496    118.1990
   805.7000      8.0652      9.7364     19.0267      2.4894     -0.0035    108.7441
   805.8000      8.0644      9.3293     20.0432      2.4961      0.0054    106.5532
   805.9000      8.0644      7.7097     20.3958      2.5228      0.0367    110.0997
   806.0000      8.0655      6.5832     20.6499      2.5414      0.0887    112.4624
   806.1000      8.0655      6.8847     21.4939      2.5364      0.0731    108.3349
   806.2000      8.0655      7.4781     22.6450      2.5266      0.0652    103.9436
   806.3000      8.0674      7.0094     23.3901      2.5343      0.0387    106.6876
   806.4000      8.0674      5.2003     23.5561      2.5642      0.0475    112.4093
   806.5000      8.0729      3.1417     23.4450      2.5982      0.0969    114.7780
   806.6000      8.0729      2.7042     23.0855      2.6054      0.1081    114.3491
   806.7000      8.0729      4.4265     22.7444      2.5770      0.0762    115.6276
   806.8000      8.0948      7.0615     22.9333      2.5335      0.0400    117.7991
   806.9000      8.0948      9.2205     23.3562      2.4979      0.0109    119.7277
   807.0000      8.1349     10.3010     23.4269      2.4800      0.0053    126.3134
   807.1000      8.1349     10.4310     22.8943      2.4779      0.0103    142.1704
   807.2000      8.1349     10.3093     22.0809      2.4799      0.0278    160.7567
   807.3000      8.1656     10.5660     22.0234      2.4757     -0.0090    168.0871
   807.4000      8.1656     10.9237     23.0077      2.4698     -0.0217    163.6493
   807.5000      8.1750     10.7994     23.8585      2.4718     -0.0202    158.2920
   807.6000      8.1750      9.9602     23.7859      2.4857     -0.0390    156.5401
   807.7000      8.1750      8.9036     23.3674      2.5031      0.0141    155.7352
   807.8000      8.1757      8.6997     23.3507      2.5065      0.0106    152.1374
   807.9000      8.1757      9.9472     23.9568      2.4859      0.0030    143.7684
   808.0000      8.1755     12.1671     24.8695      2.4492     -0.0169    132.8047
   808.1000      8.1755     13.4467     25.1681      2.4281     -0.0961    127.0991
   808.2000      8.1755     12.3944     24.5906      2.4455     -0.0116    127.6174
   808.3000      8.1760      9.9443     24.6403      2.4859      0.0002    122.8074
   808.4000      8.1760      7.3399     26.0626      2.5289      0.0375    110.0003
   808.5000      8.1775      5.6767     27.3093      2.5563      0.0750    100.8597
