~Version Information
VERS.                      2.0: CWLS Log ASCII Standard - VERSION 2.0
WRAP.                       NO: One line per depth step
~Well Information Block
STRT.FT               507.5000: 
STOP.FT              2145.0000: 
STEP.FT                 0.2500: 
NULL.                -999.2500: 
COMP.          Petrogulf Corporation: COMPANY
WELL.            Montoya 1-44R: WELL
FLD.           Purgatorie River: FIELD
LOC.           658' FSL & 1052' FWL: LOCATION
CNTY.               Las Animas: COUNTY
SRVC.                         : SERVICE COMPANY
DATE.          Tue Nov 16 02:59:24 2004: LOG DATE
UWI.           05 071 08239 00: UNIQUE WELL ID
STAT.                 Colorado: STATE
~Curve Information Block
DEPT.FT            0 000 00 00: Depth
SP.mV                         : DIL Spontaneous Potential
RILD.Ohm-m                    : DIL Deep Resistivity
RILM.Ohm-m                    : DIL Medium Resistivity
RLL3.Ohm-m                    : DIL Shallow Resistivity
GR.GAPI                       : Gamma Ray
~Parameter Information Block
~A  Depth        SP         RILD        RILM        RLL3         GR     
# ...
   955.5000   2000.0000     18.9059     18.6680   2000.0000    148.4167
   955.7500   2000.0000     19.0082     18.9179   2000.0000    147.4018
   956.0000   2000.0000     19.0861     19.1064   2000.0000    146.2316
   956.2500   2000.0000     19.1506     19.2354   2000.0000    145.8289
   956.5000   2000.0000     19.2167     19.3152   2000.0000    146.0356
   956.7500   2000.0000     19.3031     19.3637   2000.0000    147.0430
   957.0000   2000.0000     19.4301     19.4045   2000.0000    150.5959
   957.2500   2000.0000     19.6193     19.4640   2000.0000    154.4213
   957.5000   2000.0000     19.8901     19.5698   2000.0000    161.1765
   957.7500   2000.0000     20.2594     19.7478   2000.0000    165.0972
   958.0000   2000.0000     20.7393     20.0213   2000.0000    168.4155
   958.2500   2000.0000     21.3359     20.4105   2000.0000    168.8067
   958.5000   2000.0000     22.0498     20.9308   2000.0000    167.5246
   958.7500   2000.0000     22.8759     21.5944   2000.0000    165.8326
   959.0000   2000.0000     23.8059     22.4092   2000.0000    161.8671
   959.2500   2000.0000     24.8304     23.3807   2000.0000    157.9018
   959.5000   2000.0000     25.9420     24.5117   2000.0000    149.7566
   959.7500   2000.0000     27.1380     25.8031   2000.0000    143.1153
   960.0000   2000.0000     28.4189     27.2559   2000.0000    131.9394
   960.2500   2000.0000     29.7851     28.8691   2000.0000    123.9292
   960.5000   2000.0000     31.2315     30.6387   2000.0000    111.4119
   960.7500   2000.0000     32.7367     32.5546   2000.0000    102.9006
   961.0000   2000.0000     34.2542     34.5920   2000.0000     90.0601
   961.2500   2000.0000     35.7069     36.7022   2000.0000     81.5574
   961.5000   2000.0000     36.9860     38.8005   2000.0000     69.3162
   961.7500   2000.0000     37.9645     40.7563   2000.0000     61.9793
   962.0000   2000.0000     38.5188     42.3934   2000.0000     53.4767
   962.2500   2000.0000     38.5586     43.5119   2000.0000     50.3355
   962.5000   2000.0000     38.0520     43.9300   2000.0000     50.4050
   962.7500   2000.0000     37.0359     43.5424   2000.0000     53.6543
   963.0000   2000.0000     35.6039     42.3572   2000.0000     62.6147
   963.2500   2000.0000     33.8842     40.5014   2000.0000     70.7678
   963.5000   2000.0000     32.0115     38.1766   2000.0000     85.1247
   963.7500   2000.0000     30.1046     35.6045   2000.0000     95.0849
   964.0000   2000.0000     28.2531     32.9774   2000.0000    108.3579
   964.2500   2000.0000     26.5156     30.4369   2000.0000    115.1494
   964.5000   2000.0000     24.9230     28.0723   2000.0000    122.4525
   964.7500   2000.0000     23.4846     25.9307   2000.0000    126.4689
   965.0000   2000.0000     22.1951     24.0284   2000.0000    132.9832
   965.2500   2000.0000     21.0418     22.3625   2000.0000    137.7384
   965.5000   2000.0000     20.0082     20.9181   2000.0000    144.0062
   965.7500   2000.0000     19.0784     19.6733   2000.0000    146.6684
   966.0000   2000.0000     18.2390     18.6035   2000.0000    148.1630
   966.2500   2000.0000     17.4797     17.6832   2000.0000    148.0695
   966.5000   2000.0000     16.7947     16.8894   2000.0000    147.1321
   966.7500   2000.0000     16.1820     16.2020   2000.0000    145.9756
   967.0000   2000.0000     15.6423     15.6061   2000.0000    143.2768
   967.2500   2000.0000     15.1790     15.0910   2000.0000    141.1759
   967.5000   2000.0000     14.7963     14.6511   2000.0000    138.9977
   967.7500   2000.0000     14.4978     14.2837   2000.0000    138.9980
   968.0000   2000.0000     14.2853     13.9887   2000.0000    141.3494
   968.2500   2000.0000     14.1575     13.7664   2000.0000    143.7618
   968.5000   2000.0000     14.1096     13.6167   2000.0000    147.1580
   968.7500   2000.0000     14.1329     13.5385   2000.0000    148.9264
   969.0000   2000.0000     14.2157     13.5288   2000.0000    150.9092
   969.2500   2000.0000     14.3441     13.5831   2000.0000    151.6200
   969.5000   2000.0000     14.5042     13.6959   2000.0000    151.1771
   969.7500   2000.0000     14.6839     13.8608   2000.0000    150.1340
   970.0000   2000.0000     14.8746     14.0720   2000.0000    149.5012
   970.2500   2000.0000     15.0726     14.3244   2000.0000    150.8727
   970.5000   2000.0000     15.2784     14.6148   2000.0000    155.3768
   970.7500   2000.0000     15.4962     14.9416   2000.0000    158.7072
   971.0000   2000.0000     15.7311     15.3042   2000.0000    162.3613
   971.2500   2000.0000     15.9883     15.7016   2000.0000    163.7759
   971.5000   2000.0000     16.2702     16.1310   2000.0000    164.7012
   971.7500   2000.0000     16.5765     16.5860   2000.0000    164.4011
   972.0000   2000.0000     16.9034     17.0552   2000.0000    162.5315
   972.2500   2000.0000     17.2443     17.5224   2000.0000    161.0527
   972.5000   2000.0000     17.5908     17.9675   2000.0000    160.2168
   972.7500   2000.0000     17.9343     18.3696   2000.0000    160.7432
   973.0000   2000.0000     18.2679     18.7110   2000.0000    161.3985
   973.2500   2000.0000     18.5879     18.9818   2000.0000    160.5620
   973.5000   2000.0000     18.8936     19.1825   2000.0000    157.2789
   973.7500   2000.0000     19.1874     19.3248   2000.0000    154.8531
   974.0000   2000.0000     19.4733     19.4301   2000.0000    152.9545
   974.2500   2000.0000     19.7550     19.5247   2000.0000    153.1582
   974.5000   2000.0000     20.0336     19.6355   2000.0000    154.5279
   974.7500   2000.0000     20.3064     19.7858   2000.0000    155.3544
   975.0000   2000.0000     20.5652     19.9918   2000.0000    156.2256
   975.2500   2000.0000     20.7976     20.2600   2000.0000    156.8383
   975.5000   2000.0000     20.9879     20.5857   2000.0000    157.4682
   975.7500   2000.0000     21.1211     20.9530   2000.0000    156.7695
   976.0000   2000.0000     21.1865     21.3352   2000.0000    152.7983
   976.2500   2000.0000     21.1812     21.6976   2000.0000    148.6668
   976.5000   2000.0000     21.1107     22.0019   2000.0000    142.7692
   976.7500   2000.0000     20.9882     22.2125   2000.0000    140.3216
   977.0000   2000.0000     20.8303     22.3028   2000.0000    139.1772
   977.2500   2000.0000     20.6526     22.2594   2000.0000    139.4324
   977.5000   2000.0000     20.4656     22.0852   2000.0000    140.2985
   977.7500   2000.0000     20.2727     21.7967   2000.0000    141.1372
   978.0000   2000.0000     20.0705     21.4202   2000.0000    143.2565
   978.2500   2000.0000     19.8512     20.9866   2000.0000    145.3446
   978.5000   2000.0000     19.6062     20.5267   2000.0000    148.8657
   978.7500   2000.0000     19.3299     20.0658   2000.0000    150.8080
   979.0000   2000.0000     19.0218     19.6236   2000.0000    152.2174
   979.2500   2000.0000     18.6871     19.2118   2000.0000    152.0377
   979.5000   2000.0000     18.3364     18.8354   2000.0000    150.3783
   979.7500   2000.0000     17.9822     18.4947   2000.0000    148.5882
   980.0000   2000.0000     17.6373     18.1866   2000.0000    145.2492
   980.2500   2000.0000     17.3129     17.9065   2000.0000    142.6829
   980.5000   2000.0000     17.0171     17.6500   2000.0000    138.1068
   980.7500   2000.0000     16.7554     17.4137   2000.0000    134.4626
   981.0000   2000.0000     16.5306     17.1954   2000.0000    128.6882
   981.2500   2000.0000     16.3435     16.9945   2000.0000    125.3846
   981.5000   2000.0000     16.1939     16.8119   2000.0000    122.4624
   981.7500   2000.0000     16.0809     16.6505   2000.0000    122.2008
   982.0000   2000.0000     16.0039     16.5147   2000.0000    123.9521
   982.2500   2000.0000     15.9627     16.4101   2000.0000    125.7515
   982.5000   2000.0000     15.9574     16.3437   2000.0000    127.8382
   982.7500   2000.0000     15.9890     16.3220   2000.0000    128.4257
   983.0000   2000.0000     16.0584     16.3505   2000.0000    128.3704
   983.2500   2000.0000     16.1660     16.4333   2000.0000    127.8562
