~Version Information
VERS.                      2.0: CWLS Log ASCII Standard - VERSION 2.0
WRAP.                       NO: One line per depth step
~Well Information Block
STRT.FT                -8.2500: 
STOP.FT               871.5000: 
STEP.FT                 0.2500: 
NULL.                -999.2500: 
COMP.          Pioneer Natural Resources: COMPANY
WELL.             Tomcat 32-10: WELL
FLD.           Purgatorie River: FIELD
LOC.           2286' FNL & 2463' FEL------: LOCATION
PROV.                       CO: PROVINCE
CNTY.               Las Animas: COUNTRY
SRVC.          Patterson Wireline: SERVICE COMPANY
DATE.          Mon Mar 28 09:03:25 2005: LOG DATE
UWI.           05 071 08301 00: UNIQUE WELL ID
~Curve Information Block
DEPT.FT            0 000 00 00: Depth
CCL.                          : Casing Collar Locator
TT3.usec                      : CBL 3' Travel Time
AMP3.mV                       : CBL 3' Amplitude
GR.GAPI                       : Gamma Ray
~Parameter Information Block
~A  Depth       CCL         TT3         AMP3         GR     
# ...
   829.2500      0.0000    786.1359      8.3178    106.1490
   829.5000      0.0000    785.8683      8.3120    102.6124
   829.7500      0.0000    785.5587      8.2871     99.7892
   830.0000      0.0000    785.1777      8.2447     97.9809
   830.2500      0.0000    784.6970      8.2083     96.3596
   830.5000      0.0000    784.1174      8.1940     93.9304
   830.7500      0.0000    783.4709      8.1878     90.3300
   831.0000      0.0000    782.7015      8.1688     86.0907
   831.2500      0.0000    781.4434      8.1446     82.2516
   831.5000      0.0000    778.9951      8.1409     79.5051
   831.7500      0.0000    774.9877      8.1560     77.7230
   832.0000      0.0000    770.6033      8.1479     76.4812
   832.2500      0.0000    768.8082      8.0726     75.9300
   832.5000      0.0000    772.0240      7.9228     76.7952
   832.7500      0.0000    778.6936      7.7308     79.5324
   833.0000      0.0000    783.1094      7.5542     83.8301
   833.2500      0.0000    780.2086      7.4546     89.0170
   833.5000      0.0000    770.5897      7.4645     94.5234
   833.7500     -2.0000    759.8802      7.5593     99.5900
   834.0000     -2.0000    753.5903      7.6739    102.8016
   834.2500     -2.0000    753.7516      7.7636    102.6189
   834.5000      0.0000    759.6264      7.8651     98.8477
   834.7500      0.0000    769.2643      8.0904     93.3243
   835.0000      0.0000    779.9208      8.5257     88.5587
   835.2500      0.0000    788.5562      9.1111     85.6719
   835.5000      0.0000    793.1315      9.6443     84.0591
   835.7500      0.0000    793.6504      9.9344     82.8329
   836.0000      0.0000    791.8437      9.9372     81.8071
   836.2500      0.0000    789.7246      9.7351     81.1149
   836.5000      0.0000    788.3430      9.4364     80.6754
   836.7500      0.0000    787.7023      9.1232     80.2857
   837.0000      0.0000    787.4551      8.8528     79.8021
   837.2500      0.0000    787.4059      8.6527     79.1566
   837.5000      0.0000    787.4917      8.5105     78.4713
   837.7500      0.0000    787.6100      8.3890     78.1363
   838.0000      0.0000    787.6378      8.2654     78.5995
   838.2500      0.0000    787.5578      8.1521     80.0787
   838.5000      0.0000    787.4599      8.0768     82.5042
   838.7500      0.0000    787.4146      8.0423     85.6576
   839.0000      0.0000    787.4115      8.0111     89.2464
   839.2500      0.0000    787.4073      7.9336     92.8004
   839.5000      0.0000    787.3756      7.7918     95.6157
   839.7500      0.0000    787.3039      7.6180     97.1125
   840.0000      0.0000    787.1780      7.4707     97.4681
   840.2500      0.0000    786.9907      7.3868     97.7305
   840.5000      0.0000    786.7597      7.3523     98.9518
   840.7500      0.0000    786.5277      7.3159    101.1285
   841.0000      0.0000    786.3351      7.2356    103.1520
   841.2500      0.0000    786.1979      7.1160    103.8831
   841.5000      0.0000    786.1141      7.0069    103.1575
   841.7500      0.0000    786.0800      6.9630    101.7130
   842.0000      0.0000    786.0856      6.9975    100.4883
   842.2500      0.0000    786.1024      7.0689    100.0148
   842.5000      0.0000    786.0845      7.1103     99.8640
   842.7500      0.0000    785.9314      7.0784     98.4459
   843.0000      0.0000    785.3253      6.9781     94.1870
   843.2500      0.0000    783.4500      6.8510     87.5088
   843.5000      0.0000    778.9125      6.7470     80.9934
   843.7500      0.0000    770.3941      6.7028     76.8913
   844.0000      0.0000    757.9786      6.7322     74.9666
   844.2500      0.0000    743.9182      6.8192     73.4317
   844.5000      0.0000    731.6630      6.9189     71.5386
   844.7500      0.0000    723.9788      6.9736     70.5537
   845.0000      0.0000    722.2553      6.9442     72.2677
   845.2500      0.0000    727.2809      6.8316     76.9374
   845.5000      0.0000    739.4305      6.6736     82.6367
   845.7500      0.0000    757.2217      6.5242     86.3305
   846.0000      0.0000    776.4029      6.4317     85.7763
   846.2500      0.0000    791.9348      6.4240     80.9961
   846.5000      0.0000    801.1432      6.4999     74.2041
   846.7500      0.0000    804.2631      6.6268     68.2337
   847.0000      0.0000    802.5580      6.7516     64.9196
   847.2500      0.0000    797.3580      6.8215     64.6812
   847.5000      0.0000    790.4449      6.8065     67.0530
   847.7500      0.0000    783.3758      6.7076     71.2180
   848.0000      0.0000    776.0046      6.5510     76.1310
   848.2500      0.0000    766.7748      6.3772     80.4923
   848.5000      0.0000    754.4894      6.2278     83.0470
   848.7500      0.0000    739.0640      6.1320     83.2860
   849.0000      0.0000    720.9940      6.1016     81.9281
   849.2500      0.0000    701.2943      6.1345     80.6072
   849.5000      0.0000    682.5678      6.2189     81.1452
   849.7500      0.0000    669.6437      6.3318     84.9824
   850.0000      0.0000    667.8113      6.4407     92.3944
   850.2500      0.0000    679.1253      6.5148    101.3892
   850.5000      0.0000    700.3664      6.5384    107.9076
   850.7500      0.0000    724.8658      6.5159    108.4724
   851.0000      0.0000    745.6552      6.4654    103.0247
   851.2500      0.0000    756.6216      6.4081     94.6726
   851.5000      0.0000    752.6788      6.3597     86.7357
   851.7500      0.0000    731.5386      6.3276     80.5630
   852.0000      0.0000    695.7060      6.3126     75.9273
   852.2500      0.0000    651.4417      6.3127     72.5095
   852.5000      0.0000    605.7618      6.3252     70.3893
   852.7500      0.0000    564.8342      6.3480     69.3577
   853.0000      0.0000    533.3609      6.3802     68.4924
   853.2500      0.0000    513.2482      6.4208     66.8413
   853.5000      0.0000    502.9172      6.4671     64.3929
   853.7500      0.0000    498.7842      6.5154     62.0856
   854.0000      0.0000    497.5733      6.5642     60.9156
   854.2500      0.0000    497.5033      6.6162     61.1632
   854.5000      0.0000    498.3863      6.6782     62.3014
   854.7500      0.0000    501.3751      6.7572     63.5255
   855.0000      0.0000    508.5848      6.8563     64.5643
   855.2500      0.0000    522.2398      6.9727     66.0028
   855.5000      0.0000    543.5217      7.0974     68.5103
   855.7500      0.0000    572.1181      7.2149     71.6823
   856.0000      0.0000    606.9632      7.3066     73.9881
   856.2500      0.0000    646.5653      7.3601     74.1575
   856.5000      0.0000    687.5145      7.3777     72.4989
   856.7500      0.0000    723.4573      7.3727     70.4550
   857.0000      0.0000    747.6618      7.3566     68.6146
   857.2500      0.0000    757.4607      7.3286     65.3984
   857.5000      0.0000    756.1992      7.2808     58.2085
   857.7500      0.0000    751.3514      7.2115     46.1207
   858.0000      0.0000    750.4030      7.1322     31.3364
   858.2500      0.0000    756.7257      7.0580     17.7746
   858.5000      0.0000    768.0583      6.9933      8.2574
   858.7500      0.0000    779.0163      6.9286      3.0990
   859.0000      0.0000    785.4654      6.8499      0.9302
   859.2500      0.0000    786.4142      6.7476      0.2213
   859.5000      0.0000    782.0407      6.6206      0.0411
   859.7500      0.0000    770.8727      6.4774      0.0056
   860.0000      0.0000    750.0514      6.3401      0.0000
   860.2500      0.0000    719.0867      6.2450   -999.2500
   860.5000      0.0000    682.7559      6.2334   -999.2500
   860.7500      0.0000    648.4805      6.3318   -999.2500
   861.0000      0.0000    620.3209      6.5343   -999.2500
   861.2500      0.0000    597.0777      6.7987   -999.2500
   861.5000      0.0000    576.3992      7.0591   -999.2500
   861.7500      0.0000    557.9650      7.2442   -999.2500
   862.0000      0.0000    541.0089      7.2896   -999.2500
   862.2500      0.0000    519.6045      7.1385   -999.2500
   862.5000      0.0000    481.8084      6.7417   -999.2500
