~Version Information
VERS.                      2.0: CWLS Log ASCII Standard - VERSION 2.0
WRAP.                       NO: One line per depth step
~Well Information Block
STRT.FT               250.0000: 
STOP.FT              1017.5000: 
STEP.FT                 0.1000: 
NULL.                -999.2500: 
COMP.          Pioneer Natural Resources: COMPANY
WELL.              Oscar 41-31: WELL
FLD.           Purgatoire River: FIELD
LOC.           412' FNL & 1216' FEL: LOCATION
PROV.                 Colorado: PROVINCE
CNTY.               Las Animas: COUNTRY
SRVC.                Patterson: SERVICE COMPANY
DATE.          Thu Feb 24 15:11:09 2005: LOG DATE
UWI.           05 071 08290 00: UNIQUE WELL ID
~Curve Information Block
DEPT.FT            0 000 00 00: Depth
DCAL.in                       : CDL Caliper
RHOB.g/cc                     : CDL Bulk Density
RHOC.g/cc                     : CDL Density Correction
DPOR.pu                       : CDL Density Porosity
GR.GAPI                       : Gamma Ray
NPOR.pu                       : Neutron Porosity
~Parameter Information Block
~A  Depth       DCAL        RHOB        RHOC        DPOR         GR         NPOR    
# ...
   902.8000      7.8419      2.5588      0.0453      5.5280     61.4916     19.7448
   902.9000      7.8419      2.5565      0.0168      5.6653     59.5926     19.4270
   903.0000      7.8405      2.5449     -0.0002      6.3719     62.8611     19.1066
   903.1000      7.8405      2.5372      0.0014      6.8380     69.2353     18.7637
   903.2000      7.8405      2.5504      0.0332      6.0339     73.0398     18.6141
   903.3000      7.8423      2.5776      0.0579      4.3888     73.7003     18.5449
   903.4000      7.8423      2.5943      0.0836      3.3736     70.8578     18.3860
   903.5000      7.8468      2.5954      0.0501      3.3094     66.6982     18.4173
   903.6000      7.8468      2.5954      0.0741      3.3109     69.6856     18.9647
   903.7000      7.8468      2.5977      0.0455      3.1718     78.6378     19.8549
   903.8000      7.8501      2.5909      0.0958      3.5847     83.2872     20.3792
   903.9000      7.8501      2.5702      0.0391      4.8389     80.9990     20.4358
   904.0000      7.8477      2.5508      0.0003      6.0109     76.0545     20.6749
   904.1000      7.8477      2.5466     -0.0043      6.2664     72.2320     21.1792
   904.2000      7.8477      2.5555      0.0231      5.7243     70.0901     21.5354
   904.3000      7.8451      2.5774      0.0276      4.3988     68.1986     21.6648
   904.4000      7.8451      2.6153      0.0770      2.1055     67.3600     21.9657
   904.5000      7.8443      2.6538      0.1066     -0.2283     67.2713     22.8087
   904.6000      7.8443      2.6647      0.1099     -0.8898     64.5137     23.6363
   904.7000      7.8443      2.6419      0.0662      0.4910     60.3312     23.5367
   904.8000      7.8426      2.6096      0.0550      2.4512     59.8210     22.8334
   904.9000      7.8426      2.5902      0.0405      3.6250     61.4699     22.2763
   905.0000      7.8415      2.5828      0.0359      4.0702     60.5865     22.0640
   905.1000      7.8415      2.5683      0.0557      4.9535     61.3489     21.9353
   905.2000      7.8415      2.5377     -0.0003      6.8087     68.7917     21.6199
   905.3000      7.8423      2.5099     -0.0357      8.4887     77.8559     21.3861
   905.4000      7.8423      2.5024      0.0053      8.9480     83.1133     21.6493
   905.5000      7.8440      2.5127     -0.0198      8.3222     84.4982     22.4207
   905.6000      7.8440      2.5356     -0.0127      6.9322     81.4315     23.3558
   905.7000      7.8440      2.5648      0.0163      5.1621     74.8285     23.6314
   905.8000      7.8455      2.5907      0.0055      3.5966     69.2637     22.8081
   905.9000      7.8455      2.6073      0.0639      2.5860     68.4584     21.6801
   906.0000      7.8449      2.6164      0.0539      2.0384     70.4334     20.7991
   906.1000      7.8449      2.6188      0.0701      1.8896     71.4481     20.2990
   906.2000      7.8449      2.6068      0.0350      2.6186     72.7409     20.4147
   906.3000      7.8435      2.5774      0.0450      4.4007     75.8879     20.6468
   906.4000      7.8435      2.5436     -0.0155      6.4471     79.8141     20.2496
   906.5000      7.8431      2.5245     -0.0328      7.6075     82.8940     19.4437
   906.6000      7.8431      2.5261     -0.0286      7.5071     84.1566     18.9287
   906.7000      7.8431      2.5382     -0.0354      6.7741     83.6669     18.9855
   906.8000      7.8433      2.5498     -0.0000      6.0719     80.6373     19.4306
   906.9000      7.8433      2.5629      0.0040      5.2799     76.9725     20.3038
   907.0000      7.8431      2.5814      0.0244      4.1592     76.3654     22.0152
   907.1000      7.8431      2.5954      0.0704      3.3095     78.4495     23.9662
   907.2000      7.8431      2.6014      0.0314      2.9449     80.8613     24.8093
   907.3000      7.8424      2.6191      0.0501      1.8727     82.3360     24.4220
   907.4000      7.8424      2.6492      0.1194      0.0512     81.9200     23.5044
   907.5000      7.8414      2.6540      0.1148     -0.2398     79.8186     22.6057
   907.6000      7.8414      2.6133      0.0217      2.2225     79.1168     21.9266
   907.7000      7.8414      2.5495     -0.0057      6.0934     81.0269     21.6139
   907.8000      7.8405      2.4904     -0.0123      9.6749     81.9299     21.5841
   907.9000      7.8405      2.4559     -0.1124     11.7616     79.3827     21.4547
   908.0000      7.8401      2.4546     -0.0623     11.8407     74.7558     21.2656
   908.1000      7.8401      2.4683     -0.0120     11.0125     70.5512     21.0548
   908.2000      7.8401      2.4796     -0.0161     10.3249     69.2621     20.6246
   908.3000      7.8415      2.4952      0.0207      9.3800     71.2072     20.0951
   908.4000      7.8415      2.5128      0.0356      8.3164     71.5417     19.4971
   908.5000      7.8428      2.5180      0.0194      7.9985     68.5386     19.0261
   908.6000      7.8428      2.5170      0.0183      8.0626     65.5609     18.9583
   908.7000      7.8428      2.5241      0.0783      7.6303     64.0546     19.1976
   908.8000      7.8429      2.5374      0.0590      6.8251     64.7180     19.5032
   908.9000      7.8429      2.5525      0.0630      5.9077     66.3827     19.3298
   909.0000      7.8425      2.5671      0.0935      5.0253     67.4068     18.5944
   909.1000      7.8425      2.5759      0.0980      4.4888     69.1392     17.7386
   909.2000      7.8425      2.5793      0.1158      4.2843     71.5462     17.0029
   909.3000      7.8422      2.5791      0.1093      4.2983     71.4251     16.6940
   909.4000      7.8422      2.5735      0.0891      4.6369     68.3864     16.8178
   909.5000      7.8425      2.5612      0.0761      5.3829     68.4877     16.8073
   909.6000      7.8425      2.5455      0.0703      6.3333     72.6848     16.6367
   909.7000      7.8425      2.5307      0.0484      7.2323     73.1493     16.7767
   909.8000      7.8430      2.5231      0.0037      7.6889     69.6856     17.1725
   909.9000      7.8430      2.5244      0.0386      7.6148     70.5957     17.4689
   910.0000      7.8432      2.5273      0.0113      7.4378     77.0484     17.7023
   910.1000      7.8432      2.5326      0.0196      7.1152     82.1771     17.9228
   910.2000      7.8432      2.5396      0.0687      6.6898     83.4188     17.7648
   910.3000      7.8430      2.5396      0.0437      6.6888     84.3176     17.3563
   910.4000      7.8430      2.5339      0.0367      7.0377     88.9238     17.3837
   910.5000      7.8428      2.5331      0.0009      7.0859     96.9955     17.8216
   910.6000      7.8428      2.5367      0.0475      6.8650    103.9343     18.0929
   910.7000      7.8428      2.5310      0.0405      7.2117    105.8377     18.3282
   910.8000      7.8433      2.5124      0.0164      8.3376    103.2304     18.6201
   910.9000      7.8433      2.4884      0.0466      9.7956    101.9321     18.7507
   911.0000      7.8441      2.4728     -0.0307     10.7394    107.0279     19.1873
   911.1000      7.8441      2.4816      0.0107     10.2052    116.1225     20.1450
   911.2000      7.8441      2.5077     -0.0088      8.6220    124.8638     20.8056
   911.3000      7.8446      2.5195      0.0780      7.9111    132.4046     20.9770
   911.4000      7.8446      2.5029      0.0108      8.9131    136.8618     20.9991
   911.5000      7.8446      2.4859      0.0028      9.9452    136.5101     20.8430
   911.6000      7.8446      2.4894      0.0217      9.7340    135.5706     20.9372
   911.7000      7.8446      2.4989      0.0424      9.1577    136.2748     21.4800
   911.8000      7.8439      2.4946      0.0287      9.4211    134.3444     21.8486
   911.9000      7.8439      2.4775      0.0301     10.4561    129.6466     21.8058
   912.0000      7.8430      2.4632     -0.0258     11.3211    128.6212     21.3713
   912.1000      7.8430      2.4601      0.0208     11.5121    129.5262     20.7408
   912.2000      7.8430      2.4657      0.0032     11.1722    123.1391     20.5854
   912.3000      7.8424      2.4772      0.0395     10.4741    111.4630     20.8249
