~Version Information
VERS.                      2.0: CWLS Log ASCII Standard - VERSION 2.0
WRAP.                       NO: One line per depth step
~Well Information Block
STRT.FT               275.0000: 
STOP.FT              1682.2000: 
STEP.FT                 0.1000: 
NULL.                -999.2500: 
COMP.          Pioneer Natural Resources: COMPANY
WELL.               Elmo 14-21: WELL
FLD.           Purgatoire River: FIELD
LOC.           623' FSL & 450' FWL----: LOCATION
PROV.                 Colorado: PROVINCE
CNTY.               Las Animas: COUNTRY
SRVC.                Patterson: SERVICE COMPANY
DATE.          Wed May 18 08:17:30 2005: LOG DATE
UWI.           05 071 08360 00: UNIQUE WELL ID
~Curve Information Block
DEPT.FT            0 000 00 00: Depth
DCAL.in                       : CDL Caliper
RHOB.g/cc                     : CDL Bulk Density
RHOC.g/cc                     : CDL Density Correction
DPOR.pu                       : CDL Density Porosity
NPOR.pu                       : Neutron Porosity
GR.GAPI                       : Gamma Ray
~Parameter Information Block
~A  Depth       DCAL        RHOB        RHOC        DPOR        NPOR         GR     
# ...
  1647.8000      7.7899      2.5491      0.1498      6.1170     17.3549     86.0929
  1647.9000      7.7899      2.5351      0.1075      6.9615     16.5160     90.3359
  1648.0000      7.7904      2.5288      0.0487      7.3480     15.7470     93.0546
  1648.1000      7.7904      2.5354      0.0750      6.9460     15.4936     93.1095
  1648.2000      7.7904      2.5495      0.0341      6.0924     16.0639     91.1788
  1648.3000      7.7909      2.5659      0.0480      5.0946     17.5214     86.8139
  1648.4000      7.7909      2.5693      0.0726      4.8935     18.9869     83.4886
  1648.5000      7.7915      2.5496      0.0199      6.0850     19.4469     84.0163
  1648.6000      7.7915      2.5254     -0.0274      7.5543     19.1017     86.5185
  1648.7000      7.7915      2.5159     -0.0178      8.1280     18.2768     90.7356
  1648.8000      7.7914      2.5237     -0.0151      7.6536     17.2467     93.5683
  1648.9000      7.7914      2.5431      0.0195      6.4798     16.6570     90.9961
  1649.0000      7.7910      2.5668      0.0339      5.0423     16.8131     85.7953
  1649.1000      7.7910      2.5939      0.0346      3.3987     17.3476     81.5737
  1649.2000      7.7910      2.6232      0.0366      1.6229     17.4628     81.3029
  1649.3000      7.7915      2.6417      0.0690      0.5018     16.9310     86.6563
  1649.4000      7.7915      2.6355      0.0678      0.8797     16.3652     95.3185
  1649.5000      7.7921      2.6096      0.0422      2.4484     16.1230    103.5131
  1649.6000      7.7921      2.5835      0.0453      4.0277     15.9665    106.0042
  1649.7000      7.7921      2.5698      0.0423      4.8628     15.6809     98.8794
  1649.8000      7.7919      2.5658      0.0499      5.1002     15.4265     87.0624
  1649.9000      7.7919      2.5567      0.0402      5.6523     15.7729     75.1362
  1650.0000      7.7910      2.5313      0.0041      7.1921     17.0106     56.1066
  1650.1000      7.7910      2.5002      0.0026      9.0788     18.1528     29.5871
  1650.2000      7.7910      2.4799      0.0043     10.3071     18.1512      9.5828
  1650.3000      7.7894      2.4743      0.0097     10.6507     17.5564      1.7712
  1650.4000      7.7894      2.4802      0.0314     10.2887     17.3097      0.1798
  1650.5000      7.7881      2.4962      0.0183      9.3186     17.5350      0.0096
  1650.6000      7.7881      2.5140      0.0739      8.2406     17.8958      0.0000
  1650.7000      7.7881      2.5171      0.0796      8.0525     18.3583   -999.2500
  1650.8000      7.7885      2.5044      0.0291      8.8263     18.6991   -999.2500
  1650.9000      7.7885      2.4965      0.0053      9.3053     18.3464   -999.2500
  1651.0000      7.7913      2.5072      0.0250      8.6570     17.4593   -999.2500
  1651.1000      7.7913      2.5301      0.0331      7.2683     16.9216   -999.2500
  1651.2000      7.7913      2.5509      0.0609      6.0035     17.1915   -999.2500
  1651.3000      7.7927      2.5508      0.0954      6.0136     17.6764   -999.2500
  1651.4000      7.7927      2.5201      0.0562      7.8699     17.6753   -999.2500
  1651.5000      7.7907      2.4826      0.0079     10.1479     17.4868   -999.2500
  1651.6000      7.7907      2.4708     -0.0045     10.8592     17.3974   -999.2500
  1651.7000      7.7907      2.4886     -0.0098      9.7806     17.3083   -999.2500
  1651.8000      7.7889      2.5144      0.0319      8.2191     17.5379   -999.2500
  1651.9000      7.7889      2.5242      0.0181      7.6270     18.0354   -999.2500
  1652.0000      7.7895      2.5143     -0.0010      8.2259     18.2337   -999.2500
  1652.1000      7.7895      2.4980      0.0136      9.2106     17.9092   -999.2500
  1652.2000      7.7895      2.4840     -0.0008     10.0633     17.6272   -999.2500
  1652.3000      7.7912      2.4755      0.0000     10.5758     18.1065   -999.2500
  1652.4000      7.7912      2.4726     -0.0077     10.7516     19.0078   -999.2500
  1652.5000      7.7912      2.4668      0.0017     11.1011     19.4998   -999.2500
  1652.6000      7.7912      2.4529      0.0101     11.9428     19.6576   -999.2500
  1652.7000      7.7912      2.4393      0.0056     12.7692     19.8928   -999.2500
  1652.8000      7.7882      2.4371      0.0030     12.9018     19.9116   -999.2500
  1652.9000      7.7882      2.4479     -0.0052     12.2480     19.6518   -999.2500
  1653.0000      7.7791      2.4612      0.0328     11.4424     19.7197   -999.2500
  1653.1000      7.7791      2.4625      0.0608     11.3620     19.9268   -999.2500
  1653.2000      7.7791      2.4523      0.0336     11.9836     19.6603   -999.2500
  1653.3000      7.7608      2.4467      0.0069     12.3204     19.3124   -999.2500
  1653.4000      7.7608      2.4514      0.0370     12.0389     19.1954   -999.2500
  1653.5000      7.7438      2.4524      0.0428     11.9756     18.9674   -999.2500
  1653.6000      7.7438      2.4386      0.0486     12.8115     18.6710   -999.2500
  1653.7000      7.7438      2.4146      0.0413     14.2675     18.6861   -999.2500
  1653.8000      7.7379      2.3970      0.0250     15.3358     18.9588   -999.2500
  1653.9000      7.7379      2.3965      0.0319     15.3607     18.9516   -999.2500
  1654.0000      7.7369      2.4093      0.0072     14.5875     18.5454   -999.2500
  1654.1000      7.7369      2.4264      0.0765     13.5495     18.3042   -999.2500
  1654.2000      7.7369      2.4406      0.0642     12.6889     18.5225   -999.2500
  1654.3000      7.7357      2.4530      0.0586     11.9411     19.1024   -999.2500
  1654.4000      7.7357      2.4641      0.0868     11.2690     19.7031   -999.2500
  1654.5000      7.7347      2.4697      0.0765     10.9246     19.8201   -999.2500
  1654.6000      7.7347      2.4674      0.1154     11.0673     19.5618   -999.2500
  1654.7000      7.7347      2.4574      0.0891     11.6721     19.5427   -999.2500
  1654.8000      7.7344      2.4511      0.1061     12.0555     20.0825   -999.2500
  1654.9000      7.7344      2.4577      0.1093     11.6568     21.1207   -999.2500
  1655.0000      7.7351      2.4666      0.1015     11.1167     22.2946   -999.2500
  1655.1000      7.7351      2.4645      0.0425     11.2430     23.2972   -999.2500
  1655.2000      7.7351      2.4582      0.0364     11.6255     24.0816   -999.2500
  1655.3000      7.7349      2.4607      0.0263     11.4706     24.9449   -999.2500
  1655.4000      7.7349      2.4747     -0.0002     10.6246     27.4214   -999.2500
  1655.5000      7.7345      2.4933      0.0224      9.4970     33.8314   -999.2500
  1655.6000      7.7345      2.5036      0.0405      8.8721     42.7888   -999.2500
  1655.7000      7.7345      2.5003      0.0393      9.0727     49.0145   -999.2500
  1655.8000      7.7348      2.4943      0.0388      9.4362     51.2657   -999.2500
  1655.9000      7.7348      2.4950      0.0338      9.3922     51.7091   -999.2500
  1656.0000      7.7355      2.4960      0.0496      9.3334     51.7561   -999.2500
  1656.1000      7.7355      2.4897      0.0244      9.7164     51.7587   -999.2500
  1656.2000      7.7355      2.4838     -0.0144     10.0740   -999.2500   -999.2500
  1656.3000      7.7350      2.4833      0.0707     10.1046   -999.2500   -999.2500
  1656.4000      7.7350      2.4849      0.0024     10.0034   -999.2500   -999.2500
  1656.5000      7.7334      2.4965      0.0178      9.3036   -999.2500   -999.2500
  1656.6000      7.7334      2.5162      0.0423      8.1075   -999.2500   -999.2500
  1656.7000      7.7334      2.5220      0.0644      7.7562   -999.2500   -999.2500
  1656.8000      7.7331      2.5094      0.0338      8.5187   -999.2500   -999.2500
  1656.9000      7.7331      2.5027      0.0201      8.9279   -999.2500   -999.2500
  1657.0000      7.7356      2.5113      0.0408      8.4081   -999.2500   -999.2500
  1657.1000      7.7356      2.5194      0.0525      7.9168   -999.2500   -999.2500
  1657.2000      7.7356      2.5211      0.0134      7.8111   -999.2500   -999.2500
  1657.3000      7.7380      2.5204      0.0429      7.8546   -999.2500   -999.2500
