~Version Information
 VERS.                                  2.0 : CWLS LAS VERSION
 WRAP.                                   NO : WRAPING MODE
 SWARE .                 MController 2.5.0J : SOFTWARE VERSION
~Well Information
 WELL.                       Beacon 11-18TR : WELL
 COMP.        Pioneer Natural Resources Inc : COMPANY
 FLD.                      Purgatoire River : FIELD
 LOC.                NW/NW Sec 18 T32S R66W : LOCATION
 DATE.                           1/15-16/05 : DATE(S) LOGGED
 SRVC.       Blanco Geological Services LLC : SERVICE COMPANY
 STAT.                                   CO : STATE
 CNTY.                           Las Animas : COUNTY
 CTRY.                                  USA : COUNTRY
 API.                          05-071-08251 : API NUMBER
 STRT.FT                             283.00 : START DEPTH
 STOP.FT                            2753.00 : STOP DEPTH
 STEP.FT                               1.00 : DEPTH INCREMENT
 NULL.                                -9999 : NULL VALUE
~Curve information
 DEPTH.FT                                   :
 ROP.MIN/FT                                 :
 GAS.UNITS                                  :
~ASCII Log data
# ...
      2483.0         0.25        123.6 
      2484.0         0.20        140.3 
      2485.0         0.20        159.2 
      2486.0         0.23        181.1 
      2487.0         0.20        200.7 
      2488.0         0.22        224.7 
      2489.0         0.43        252.0 
      2490.0         0.40        254.1 
      2491.0         0.30        253.8 
      2492.0         0.30        249.2 
      2493.0         0.53        240.1 
      2494.0         0.47        214.2 
      2495.0         0.37        183.7 
      2496.0         0.28        164.2 
      2497.0         0.37        169.3 
      2498.0         0.33        193.7 
      2499.0         0.33        209.7 
      2500.0         0.30        215.9 
      2501.0         0.30        216.1 
      2502.0         0.27        213.3 
      2503.0         0.27        207.1 
      2504.0         0.17        198.7 
      2505.0         0.27        193.6 
      2506.0         0.23        186.4 
      2507.0         0.22        114.2 
      2508.0         0.23        108.1 
      2509.0         0.20        112.4 
      2510.0         0.17        119.5 
      2511.0         0.23        133.6 
      2512.0         0.27        151.9 
      2513.0         0.20        163.6 
      2514.0         0.17        175.7 
      2515.0         0.27        201.0 
      2516.0         0.17        219.4 
      2517.0         0.43        259.5 
      2518.0         0.33        275.4 
      2519.0         0.33        278.3 
      2520.0         0.37        277.1 
      2521.0         0.38        260.6 
      2522.0         0.33        235.7 
      2523.0         0.47        215.1 
      2524.0         0.33        184.6 
      2525.0         0.33        177.6 
      2526.0         0.53        183.0 
      2527.0         0.43        183.0 
      2528.0         0.43        177.4 
      2529.0         0.48        169.7 
      2530.0         0.43        161.2 
      2531.0         0.33        154.0 
      2532.0         0.40        150.6 
      2533.0         0.40        147.1 
      2534.0         0.40        144.2 
      2535.0         0.37        142.1 
      2536.0         0.37        140.3 
      2537.0         0.38        138.7 
      2538.0         0.30        157.9 
      2539.0         0.30        118.1 
      2540.0         0.33        140.8 
      2541.0         0.30        165.3 
      2542.0         0.23        186.7 
      2543.0         0.30        216.9 
      2544.0         0.27        243.7 
      2545.0         0.30        267.1 
      2546.0         0.13        274.1 
      2547.0         0.37        280.4 
      2548.0         0.37        279.0 
      2549.0         0.28        264.0 
      2550.0         0.30        246.9 
      2551.0         0.27        229.7 
      2552.0         0.23        214.0 
      2553.0         0.20        202.7 
      2554.0         0.23        192.1 
      2555.0         0.23        180.7 
      2556.0         0.23        171.1 
      2557.0         0.27        164.4 
      2558.0         0.30        168.9 
      2559.0         0.37        172.1 
      2560.0         0.28        172.6 
      2561.0         0.30        172.1 
      2562.0         0.27        169.1 
      2563.0         0.33        163.4 
      2564.0         0.27        157.0 
      2565.0         0.27        152.4 
      2566.0         0.23        148.7 
      2567.0         0.23        146.9 
      2568.0         0.23         98.4 
      2569.0         0.20         92.6 
      2570.0         0.20         93.7 
      2571.0         0.17         98.9 
      2572.0         0.20        108.3 
      2573.0         0.22        120.6 
      2574.0         0.33        142.8 
      2575.0         0.30        158.7 
      2576.0         0.43        187.4 
      2577.0         0.33        214.8 
      2578.0         0.28        234.7 
      2579.0         0.37        242.6 
      2580.0         0.27        242.2 
      2581.0         0.20        237.3 
      2582.0         0.20        230.4 
      2583.0         0.27        221.6 
      2584.0         0.27        208.4 
      2585.0         0.33        195.4 
      2586.0         0.30        180.6 
      2587.0         0.33        170.8 
      2588.0         0.42        166.1 
      2589.0         0.30        163.4 
      2590.0         0.33        161.2 
      2591.0         0.30        157.8 
      2592.0         0.27        152.5 
      2593.0         0.23        146.8 
      2594.0         0.23        142.1 
      2595.0         0.23        137.2 
      2596.0         0.23        132.4 
      2597.0         0.17        129.6 
      2598.0         0.17        132.2 
      2599.0         0.27        106.9 
      2600.0         0.28        129.7 
      2601.0         0.30        157.5 
      2602.0         0.27        183.2 
      2603.0         0.30        214.4 
      2604.0         0.27        238.9 
      2605.0         0.23        255.9 
      2606.0         0.27        268.8 
      2607.0         0.50        269.1 
      2608.0         0.47        255.1 
      2609.0         0.42        225.0 
      2610.0         0.20        199.0 
      2611.0         0.23        188.0 
      2612.0         0.20        176.5 
      2613.0         0.23        168.0 
      2614.0         0.13        157.4 
      2615.0         0.23        153.8 
      2616.0         0.20        147.9 
      2617.0         0.23        143.8 
      2618.0         0.23        142.8 
      2619.0         0.23        143.4 
      2620.0         0.30        143.6 
      2621.0         0.27        142.7 
      2622.0         0.18        140.6 
      2623.0         0.20        139.4 
      2624.0         0.23        137.4 
      2625.0         0.23        134.7 
      2626.0         0.23        133.2 
      2627.0         0.20        130.5 
      2628.0         0.20         92.2 
      2629.0         0.20         88.7 
      2630.0         0.33         86.6 
      2631.0         0.37         96.1 
      2632.0         0.20        104.4 
      2633.0         0.20        114.5 
      2634.0         0.23        127.9 
      2635.0         0.23        145.7 
      2636.0         0.25        165.1 
      2637.0         0.23        182.4 
      2638.0         0.30        198.7 
      2639.0         0.25        206.2 
      2640.0         0.23        207.4 
      2641.0         0.30        207.2 
      2642.0         0.50        202.9 
      2643.0         0.47        187.0 
      2644.0         0.37        169.7 
      2645.0         0.30        157.1 
      2646.0         0.23        147.8 
      2647.0         0.23        141.9 
      2648.0         0.27        135.7 
      2649.0         0.25        129.4 
      2650.0         0.17        126.5 
      2651.0         0.23        126.1 
      2652.0         0.23        126.9 
      2653.0         0.23        128.1 
      2654.0         0.27        128.7 
      2655.0         0.27        128.6 
      2656.0         0.23        127.9 
      2657.0         0.37        126.9 
      2658.0         0.33        124.5 
      2659.0         0.27        122.5 
      2660.0         0.30         80.7 
      2661.0         0.28         79.1 
      2662.0         0.27         81.9 
      2663.0         0.30         92.0 
      2664.0         0.27        103.5 
      2665.0         0.40        122.7 
      2666.0         0.30        138.9 
      2667.0         0.33        164.2 
      2668.0         0.23        180.1 
      2669.0         0.37        195.9 
      2670.0         0.37        198.3 
      2671.0         0.27        196.7 
      2672.0         0.30        191.2 
      2673.0         0.32        182.9 
      2674.0         0.27        170.8 
      2675.0         0.23        174.2 
      2676.0         0.13        181.3 
      2677.0         0.20        192.7 
      2678.0         0.17        199.5 
      2679.0         0.20        207.6 
      2680.0         0.23        214.2 
      2681.0         0.20        217.0 
      2682.0         0.30        220.1 
