~Version Information
VERS.                      2.0: CWLS Log ASCII Standard - VERSION 2.0
WRAP.                       NO: One line per depth step
~Well Information Block
STRT.FT                -8.0000: 
STOP.FT              1540.2500: 
STEP.FT                 0.2500: 
NULL.                -999.2500: 
COMP.          Pioneer Natural Resources: COMPANY
WELL.           Telna 24-22 Tr: WELL
FLD.           Purgatorie River: FIELD
LOC.           748' FSL & 1931' FWL--: LOCATION
PROV.                       CO: PROVINCE
CNTY.               Las Animas: COUNTRY
SRVC.          Patterson Wireline: SERVICE COMPANY
DATE.          Fri May 06 12:29:21 2005: LOG DATE
UWI.           05 071 08304 00: UNIQUE WELL ID
~Curve Information Block
DEPT.FT            0 000 00 00: Depth
CCL.                          : Casing Collar Locator
TT3.usec                      : CBL 3' Travel Time
AMP3.mV                       : CBL 3' Amplitude
GR.GAPI                       : Gamma Ray
~Parameter Information Block
~A  Depth       CCL         TT3         AMP3         GR     
# ...
  1097.5000      0.0000    636.1467      5.2007    128.8569
  1097.7500      0.0000    615.6130      4.8824    132.8033
  1098.0000      0.0000    595.8823      4.7311    135.0000
  1098.2500      0.0000    587.6602      4.7434    135.3161
  1098.5000      0.0000    597.3308      4.8580    134.0554
  1098.7500      0.0000    621.8563      4.9925    132.3347
  1099.0000      0.0000    648.2596      5.0719    131.6829
  1099.2500      0.0000    660.0204      5.0646    133.1211
  1099.5000      0.0000    649.0458      5.0003    136.5808
  1099.7500      0.0000    623.9468      4.9382    140.9376
  1100.0000      0.0000    605.7308      4.9205    144.4347
  1100.2500      0.0000    613.6269      4.9604    145.2451
  1100.5000      0.0000    652.2930      5.0610    142.2386
  1100.7500      0.0000    709.2386      5.2299    135.8862
  1101.0000      0.0000    763.6425      5.4598    128.4880
  1101.2500      0.0000    799.4878      5.7051    122.8370
  1101.5000      0.0000    813.0474      5.9023    120.1360
  1101.7500      0.0000    810.5312      6.0242    119.3038
  1102.0000      0.0000    799.8042      6.0974    118.5565
  1102.2500      0.0000    783.3488      6.1550    117.4617
  1102.5000      0.0000    758.1173      6.1851    117.0768
  1102.7500      0.0000    721.6656      6.1343    118.2710
  1103.0000      0.0000    677.4222      5.9579    120.5455
  1103.2500      0.0000    633.6813      5.6620    122.6072
  1103.5000      0.0000    598.4747      5.3023    123.5297
  1103.7500      0.0000    575.9500      4.9502    123.1514
  1104.0000      0.0000    566.7468      4.6651    121.9744
  1104.2500      0.0000    570.3877      4.4902    121.0037
  1104.5000      0.0000    586.1504      4.4505    121.1353
  1104.7500      0.0000    611.8461      4.5381    122.3551
  1105.0000      0.0000    643.5038      4.7067    123.7730
  1105.2500      0.0000    677.4465      4.8993    124.5835
  1105.5000      0.0000    711.5112      5.0850    124.8471
  1105.7500      0.0000    743.3932      5.2608    125.0542
  1106.0000      0.0000    770.0305      5.4282    124.9994
  1106.2500      0.0000    789.6109      5.5821    123.7130
  1106.5000      0.0000    802.2188      5.7164    120.7165
  1106.7500      0.0000    808.6932      5.8261    116.6241
  1107.0000      0.0000    811.2706      5.9076    112.1956
  1107.2500      0.0000    814.2087      5.9606    107.4641
  1107.5000      0.0000    820.6861      5.9852    102.2300
  1107.7500      0.0000    829.5397      5.9804     97.0873
  1108.0000      0.0000    837.0251      5.9479     93.5595
  1108.2500      0.0000    841.1596      5.8942     93.0702
  1108.5000      0.0000    843.0062      5.8229     95.6684
  1108.7500      0.0000    844.7022      5.7271     99.5656
  1109.0000      0.0000    847.9916      5.6017    101.8229
  1109.2500      0.0000    854.4008      5.4622     99.9896
  1109.5000      0.0000    864.7542      5.3320     93.9534
  1109.7500      0.0000    877.6063      5.2100     86.4862
  1110.0000      0.0000    889.5900      5.0744     81.5557
  1110.2500      0.0000    897.8221      4.9246     81.8246
  1110.5000      0.0000    900.2731      4.8000     87.6869
  1110.7500      0.0000    894.1041      4.7499     97.9821
  1111.0000      0.0000    877.4683      4.7899    110.7642
  1111.2500      0.0000    854.1640      4.8839    123.6030
  1111.5000      0.0000    832.9151      4.9675    134.2206
  1111.7500      0.0000    819.3411      4.9956    141.5118
  1112.0000      0.0000    810.6060      4.9741    145.8560
  1112.2500      0.0000    800.6937      4.9557    148.2206
  1112.5000      0.0000    789.8462      5.0078    149.1732
  1112.7500      0.0000    785.1230      5.1682    148.8538
  1113.0000      0.0000    790.4144      5.4126    147.4039
  1113.2500      0.0000    799.0602      5.6632    145.1244
  1113.5000      0.0000    799.2772      5.8416    142.3971
  1113.7500      0.0000    786.2004      5.9194    139.3293
  1114.0000      0.0000    767.2197      5.9196    135.3442
  1114.2500      0.0000    755.7457      5.8716    129.6085
  1114.5000      0.0000    759.8092      5.7744    121.9991
  1114.7500      0.0000    776.2870      5.6105    113.1624
  1115.0000      0.0000    795.5770      5.3869    103.7640
  1115.2500      0.0000    810.3762      5.1418     94.4068
  1115.5000      0.0000    818.9108      4.9116     86.2458
  1115.7500      0.0000    821.8018      4.7132     80.8492
  1116.0000      0.0000    819.7316      4.5609     78.9946
  1116.2500      0.0000    814.9339      4.4788     79.8042
  1116.5000      0.0000    811.9398      4.4851     81.3348
  1116.7500      0.0000    814.2262      4.5733     82.0059
  1117.0000      0.0000    820.7527      4.7118     81.3420
  1117.2500      0.0000    827.4089      4.8606     79.4596
  1117.5000      0.0000    831.4368      4.9942     76.4170
  1117.7500      0.0000    833.2936      5.1173     72.6136
  1118.0000      0.0000    834.7172      5.2578     69.4475
  1118.2500      0.0000    836.4293      5.4304     68.6844
  1118.5000      0.0000    837.9139      5.6062     70.9151
  1118.7500      0.0000    838.3617      5.7312     75.0218
  1119.0000      0.0000    837.2214      5.7744     79.2919
  1119.2500      0.0000    834.4568      5.7490     82.9793
  1119.5000      0.0000    831.0016      5.6940     86.8697
  1119.7500      0.0000    828.8144      5.6436     92.4084
  1120.0000      0.0000    829.6904      5.6065    100.2673
  1120.2500      0.0000    833.6941      5.5601    109.7086
  1120.5000      0.0000    839.0815      5.4633    119.1379
  1120.7500      0.0000    843.8436      5.2871    127.1908
  1121.0000      0.0000    847.0518      5.0496    133.5835
  1121.2500      0.0000    848.8428      4.8251    139.0749
  1121.5000      0.0000    849.6893      4.7081    144.3149
  1121.7500      0.0000    849.9322      4.7563    148.6829
  1122.0000      0.0000    849.5945      4.9689    150.7317
  1122.2500      0.0000    848.0127      5.3049    149.8967
  1122.5000      0.0000    843.1478      5.6971    147.0977
  1122.7500      0.0000    831.3102      6.0548    143.5239
  1123.0000      0.0000    808.6700      6.2889    139.7875
  1123.2500      0.0000    774.4807      6.3547    136.5778
  1123.5000      0.0000    733.1258      6.2663    134.9484
  1123.7500      0.0000    692.0585      6.0667    135.2152
  1124.0000      0.0000    657.3225      5.7981    136.3347
  1124.2500      0.0000    631.3203      5.5007    136.9283
  1124.5000      0.0000    614.7057      5.2210    136.3515
  1124.7500      0.0000    609.4736      5.0037    134.4973
  1125.0000      0.0000    618.9518      4.8754    131.1956
  1125.2500      0.0000    643.6891      4.8304    126.3841
  1125.5000      0.0000    678.0660      4.8210    120.7700
  1125.7500      0.0000    712.6720      4.7641    115.8210
  1126.0000      0.0000    740.4277      4.5864    112.6423
  1126.2500      0.0000    759.9370      4.2854    110.9068
  1126.5000      0.0000    773.9316      3.9524    109.3389
  1126.7500      0.0000    786.2189      3.7185    107.3658
  1127.0000      0.0000    800.1145      3.6635    105.8306
  1127.2500      0.0000    818.1940      3.7704    106.0888
  1127.5000      2.0000    842.2688      3.9588    108.8453
  1127.7500      0.0000    872.3180      4.1459    113.6037
  1128.0000     -2.0000    904.0665      4.2895    118.6758
  1128.2500      0.0000    928.0756      4.4041    122.3227
  1128.5000      0.0000    934.6966      4.5358    124.6902
  1128.7500      0.0000    922.4389      4.7057    128.1172
  1129.0000      0.0000    900.0969      4.8852    134.5708
  1129.2500      0.0000    879.1947      5.0496    142.8182
  1129.5000      0.0000    865.7241      5.2337    148.8428
  1129.7500      0.0000    859.1746      5.4960    149.3986
  1130.0000      0.0000    856.5739      5.8346    145.0427
  1130.2500      0.0000    855.6137      6.1726    139.5921
  1130.5000      0.0000    855.2216      6.4247    136.7733
  1130.7500      0.0000    854.9933      6.5594    137.3826
