~Version Information
VERS.                      2.0: CWLS Log ASCII Standard - VERSION 2.0
WRAP.                       NO: One line per depth step
~Well Information Block
STRT.FT                -4.7500: 
STOP.FT              2809.5000: 
STEP.FT                 0.2500: 
NULL.                -999.2500: 
COMP.          Pioneer Natural Resources: COMPANY
WELL.              Lynch 43-30: WELL
FLD.           Purgatorie River: FIELD
LOC.           1438' FSL & 429' FEL--: LOCATION
PROV.                       CO: PROVINCE
CNTY.               Las Animas: COUNTRY
SRVC.                         : SERVICE COMPANY
DATE.          Sat Oct 30 09:52:34 2004: LOG DATE
UWI.          005 071 08170   : UNIQUE WELL ID
~Curve Information Block
DEPT.FT            0 000 00 00: Depth
GR.GAPI                       : Gamma Ray
CCL.                          : Casing Collar Locator
TT3.usec                      : CBL 3' Travel Time
AMP3.mV                       : CBL 3' Amplitude
~Parameter Information Block
~A  Depth        GR         CCL         TT3         AMP3    
# ...
  1100.7500    108.0829      0.0000    763.2831     12.5124
  1101.0000    110.5942      0.0000    763.3054     12.4936
  1101.2500    114.8860      0.0000    763.3262     12.4287
  1101.5000    119.5260      0.0000    763.2306     12.3452
  1101.7500    123.6997      0.0000    763.0454     12.2715
  1102.0000    127.5635      0.0000    762.8834     12.2327
  1102.2500    131.8410      0.0000    762.8292     12.2419
  1102.5000    136.6343      0.0000    762.8767     12.2916
  1102.7500    140.3670      0.0000    762.9575     12.3590
  1103.0000    140.6431      0.0000    763.0073     12.4269
  1103.2500    136.8332      0.0000    762.9702     12.4978
  1103.5000    131.3235      0.0000    762.6961     12.5890
  1103.7500    127.4745      0.0000    761.7717     12.7183
  1104.0000    126.6205      0.0000    759.4902     12.8967
  1104.2500    127.7162      0.0000    755.2484     13.1305
  1104.5000    129.4993      0.0000    749.3230     13.4218
  1104.7500    131.8210      0.0000    743.2325     13.7669
  1105.0000    134.6553      0.0000    738.8965     14.1591
  1105.2500    136.8936      0.0000    737.2606     14.5911
  1105.5000    136.9328      0.0000    738.0294     15.0408
  1105.7500    134.2022      0.0000    740.6723     15.4540
  1106.0000    129.7637      0.0000    744.9838     15.7550
  1106.2500    125.4224      0.0000    750.4623     15.8956
  1106.5000    122.1619      0.0000    755.8973     15.9004
  1106.7500    119.3778      0.0000    760.0588     15.8642
  1107.0000    115.7418      0.0000    762.4664     15.8917
  1107.2500    110.6932      0.0000    763.0871     16.0257
  1107.5000    104.9329      0.0000    761.1744     16.2301
  1107.7500     99.7759      0.0000    754.1822     16.4395
  1108.0000     96.4180      0.0000    738.1677     16.6184
  1108.2500     95.6967      0.0000    711.3663     16.7752
  1108.5000     98.1226      0.0000    679.5914     16.9384
  1108.7500    103.7640      0.0000    656.3023     17.1320
  1109.0000    111.9888      0.0000    652.1023     17.3679
  1109.2500    121.4462      0.0000    661.6160     17.6509
  1109.5000    130.5546      0.0000    663.1933     17.9804
  1109.7500    138.1239      0.0000    634.9851     18.3437
  1110.0000    143.4993      0.0000    573.9202     18.7013
  1110.2500    146.1024      0.0000    501.7323     18.9827
  1110.5000    145.0595      0.0000    452.9251     19.1073
  1110.7500    139.8132      0.0000    453.1162     19.0220
  1111.0000    131.3222      0.0000    503.1407     18.7213
  1111.2500    122.1929      0.0000    579.8859     18.2376
  1111.5000    114.9674      0.0000    652.7964     17.6197
  1111.7500    110.1007      0.0000    702.8976     16.9237
  1112.0000    105.8351      0.0000    729.4352     16.2208
  1112.2500    100.1428      0.0000    742.0186     15.5999
  1112.5000     92.6869      0.0000    749.4462     15.1443
  1112.7500     85.1250      0.0000    755.1996     14.8875
  1113.0000     80.0367      0.0000    759.4321     14.7881
  1113.2500     79.5954      0.0000    761.9362     14.7508
  1113.5000     84.5944      0.0000    763.1255     14.6790
  1113.7500     94.1024      0.0000    763.6475     14.5171
  1114.0000    105.8390      0.0000    763.9253     14.2607
  1114.2500    116.9486      0.0000    764.1203     13.9439
  1114.5000    125.1240      0.0000    764.2704     13.6195
  1114.7500    130.1429      0.0000    764.4000     13.3443
  1115.0000    134.1225      0.0000    764.5352     13.1706
  1115.2500    139.0582      0.0000    764.6811     13.1318
  1115.5000    144.1763      0.0000    764.8154     13.2115
  1115.7500    146.9521      0.0000    764.8875     13.3314
  1116.0000    146.5197      0.0000    764.8312     13.3902
  1116.2500    144.6978      0.0000    764.6182     13.3273
  1116.5000    143.8145      0.0000    764.3101     13.1469
  1116.7500    144.9747      0.0000    764.0042     12.8964
  1117.0000    148.3147      0.0000    763.6734     12.6332
  1117.2500    153.4961      0.0000    763.0471     12.4053
  1117.5000    159.4958      0.0000    761.7500     12.2402
  1117.7500    164.4860      0.0000    759.7517     12.1431
  1118.0000    166.5068      0.0000    757.7435     12.1024
  1118.2500    164.7868      0.0000    756.7862     12.0995
  1118.5000    160.3829      0.0000    757.2505     12.1167
  1118.7500    154.9498      0.0000    758.1665     12.1389
  1119.0000    149.0288      0.0000    757.8294     12.1541
  1119.2500    142.5088      0.0000    755.1158     12.1526
  1119.5000    136.6858      0.0000    750.3297     12.1147
  1119.7500    134.3580      0.0000    744.9223     11.9915
  1120.0000    136.9558      0.0000    740.3314     11.7045
  1120.2500    142.3856      0.0000    737.1646     11.1958
  1120.5000    146.5157      0.0000    735.5735     10.5105
  1120.7500    146.3229      0.0000    735.8958      9.8063
  1121.0000    141.3341      0.0000    738.3956      9.2322
  1121.2500    133.1005      0.0000    742.6755      8.8118
  1121.5000    124.0450      0.0000    747.7047      8.4898
  1121.7500    116.3870      0.0000    752.1310      8.2541
  1122.0000    111.5195      0.0000    754.5455      8.1436
  1122.2500    110.0445      0.0000    754.2664      8.1723
  1122.5000    111.9015      2.0000    752.0292      8.3108
  1122.7500    116.1805      0.0000    748.8660      8.5255
  1123.0000    121.0572      0.0000    743.1391      8.8131
  1123.2500    124.4064      0.0000    729.9266      9.2110
  1123.5000    124.9738      0.0000    706.6682      9.7583
  1123.7500    123.1294      0.0000    680.4210     10.4079
  1124.0000    120.3507      0.0000    665.6258     11.0163
  1124.2500    118.1437      0.0000    671.1506     11.4876
  1124.5000    117.6003      0.0000    691.4810     11.8672
  1124.7500    119.2149      0.0000    713.0264     12.2256
  1125.0000    122.1792      0.0000    726.6069     12.5264
  1125.2500    124.3551      0.0000    731.9427     12.6857
  1125.5000    124.1924      0.0000    733.1890     12.6969
  1125.7500    122.7984      0.0000    733.4561     12.6342
  1126.0000    123.1265      0.0000    733.2390     12.5694
  1126.2500    126.7574      0.0000    732.0246     12.5263
  1126.5000    131.9757      0.0000    729.9642     12.4977
  1126.7500    135.3538      0.0000    727.9368     12.4716
  1127.0000    134.9557      0.0000    726.6420     12.4391
  1127.2500    131.8031      0.0000    726.2278     12.3908
  1127.5000    128.6596      0.0000    726.6028     12.3220
  1127.7500    127.8869      0.0000    727.8480     12.2389
  1128.0000    129.9839      0.0000    730.2879     12.1545
  1128.2500    133.4018      0.0000    734.0391     12.0772
  1128.5000    135.7411      0.0000    738.3021     12.0053
  1128.7500    135.6178      0.0000    741.2833     11.9327
  1129.0000    133.5579      0.0000    741.3585     11.8578
  1129.2500    131.2478      0.0000    738.4960     11.7837
  1129.5000    129.9916      0.0000    734.2715     11.7157
  1129.7500    129.6048      0.0000    730.5004     11.6617
  1130.0000    128.5255      0.0000    728.1750     11.6343
  1130.2500    125.1807      0.0000    727.6407     11.6430
  1130.5000    119.4889      0.0000    729.2397     11.6765
  1130.7500    113.0568      0.0000    733.3470     11.6995
  1131.0000    107.8706      0.0000    739.7185     11.6781
  1131.2500    104.6437      0.0000    747.0525     11.6110
  1131.5000    102.2752      0.0000    753.5120     11.5321
  1131.7500     99.0923      0.0000    757.7896     11.4831
  1132.0000     94.6289      0.0000    759.6044     11.4859
  1132.2500     89.9215      0.0000    759.3869     11.5354
  1132.5000     86.1892      0.0000    757.8917     11.6121
  1132.7500     83.5639      0.0000    756.0816     11.7032
  1133.0000     80.9988      0.0000    754.7195     11.8125
  1133.2500     77.4076      0.0000    753.5603     11.9446
  1133.5000     72.9042      0.0000    751.2736     12.0858
  1133.7500     68.5839      0.0000    746.7646     12.2137
  1134.0000     65.2429      0.0000    740.5433     12.3259
