~Version Information
VERS.                      2.0: CWLS Log ASCII Standard - VERSION 2.0
WRAP.                       NO: One line per depth step
~Well Information Block
STRT.FT                 8.7500: 
STOP.FT              2723.0000: 
STEP.FT                 0.2500: 
NULL.                -999.2500: 
COMP.          Pioneer Natural Resources: COMPANY
WELL.           Desoto 13-7 Tr: WELL
FLD.           Purgatoire River: FIELD
LOC.           1404' FSL & 1115' FWL: LOCATION
PROV.                 Colorado: PROVINCE
CNTY.               Las Animas: COUNTRY
SRVC.                Patterson: SERVICE COMPANY
DATE.          Wed Mar 16 18:00:51 2005: LOG DATE
UWI.           05 071 08216 00: UNIQUE WELL ID
~Curve Information Block
DEPT.FT            0 000 00 00: Depth
GR.GAPI                       : Gamma Ray
CCL.                          : Casing Collar Locator
TT3.usec                      : CBL 3' Travel Time
AMP3.mV                       : CBL 3' Amplitude
AMP5.mV                       : CBL 5' Amplitude
~Parameter Information Block
~A  Depth        GR         CCL         TT3         AMP3        AMP5    
# ...
   176.7500     60.7620      0.0000   1350.0000      9.4385      1.4234
   177.0000     60.5010      0.0000   1350.0000      9.5855      1.4393
   177.2500     59.6470      0.0000   1350.0000      9.8700      1.4535
   177.5000     58.2443      0.0000   1350.0000     10.2080      1.4717
   177.7500     56.9173      0.0000   1350.0000     10.4561      1.4933
   178.0000     56.6586      0.0000   1350.0000     10.5032      1.5081
   178.2500     58.2490      0.0000   1350.0000     10.3608      1.5046
   178.5000     61.4507      0.0000   1350.0000     10.1514      1.4802
   178.7500     64.7614      0.0000   1350.0000      9.9959      1.4412
   179.0000     66.3727      0.0000   1350.0000      9.9162      1.3979
   179.2500     65.5844      0.0000   1350.0000      9.8529      1.3584
   179.5000     63.1512      0.0000   1350.0000      9.7528      1.3270
   179.7500     60.4859      0.0000   1350.0000      9.6184      1.3057
   180.0000     58.9163      0.0000   1350.0000      9.4914      1.2983
   180.2500     59.3380      0.0000   1350.0000      9.4169      1.3089
   180.5000     61.7276      0.0000   1350.0000      9.4204      1.3372
   180.7500     64.7915      0.0000   1350.0000      9.4953      1.3767
   181.0000     66.6214      0.0000   1350.0000      9.6102      1.4223
   181.2500     66.1292      0.0000   1350.0000      9.7367      1.4767
   181.5000     63.8172      0.0000   1350.0000      9.8690      1.5469
   181.7500     61.0989      0.0000   1350.0000     10.0191      1.6330
   182.0000     59.1623      0.0000   1350.0000     10.2109      1.7242
   182.2500     58.5815      0.0000   1350.0000     10.4800      1.8056
   182.5000     59.5315      0.0000   1350.0000     10.8558      1.8675
   182.7500     61.7579      0.0000   1350.0000     11.3345      1.9080
   183.0000     64.4423      0.0000   1350.0000     11.8773      1.9320
   183.2500     66.6449      0.0000   1350.0000     12.4328      1.9476
   183.5000     68.0713      0.0000   1349.9735     12.9444      1.9612
   183.7500     69.2617      0.0000   1349.8271     13.3448      1.9742
   184.0000     70.9238      0.0000   1349.1221     13.5763      1.9856
   184.2500     73.0905      0.0000   1346.5278     13.6371      1.9964
   184.5000     74.9344      0.0000   1339.3051     13.5985      2.0094
   184.7500     75.4432      0.0000   1324.3442     13.5631      2.0242
   185.0000     74.3001      0.0000   1302.0480     13.5944      2.0369
   185.2500     72.0129      0.0000   1280.1254     13.6717      2.0450
   185.5000     69.2027      0.0000   1270.2893     13.7115      2.0544
   185.7500     66.1113      0.0000   1277.5499     13.6488      2.0772
   186.0000     62.9929      0.0000   1293.6936     13.5034      2.1211
   186.2500     60.6689      0.0000   1304.1180     13.3554      2.1795
   186.5000     60.2842      0.0000   1300.8163     13.2620      2.2326
   186.7500     62.3647      0.0000   1287.5624     13.2213      2.2626
   187.0000     66.2450      0.0000   1272.3018     13.2117      2.2672
   187.2500     70.5224      0.0000   1254.9149     13.2277      2.2561
   187.5000     74.0441      0.0000   1225.0316     13.2709      2.2368
   187.7500     76.3617      0.0000   1174.6173     13.3347      2.2068
   188.0000     77.4573      0.0000   1110.5746     13.4075      2.1613
   188.2500     77.4240      0.0000   1051.1759     13.4759      2.1041
   188.5000     76.4587      0.0000   1011.3719     13.5235      2.0489
   188.7500     74.8842      0.0000    994.9036     13.5354      2.0114
   189.0000     73.0110      0.0000    999.1486     13.5053      1.9985
   189.2500     70.8977      0.0000   1023.0736     13.4458      2.0048
   189.5000     68.2004      0.0000   1067.8279     13.4045      2.0165
   189.7500     64.4025      0.0000   1129.3988     13.4609      2.0227
   190.0000     59.5131      0.0000   1192.0453     13.6718      2.0224
   190.2500     54.6343      0.0000   1232.2462     14.0045      2.0225
   190.5000     51.5128      0.0000   1232.3833     14.3365      2.0283
   190.7500     51.2408      0.0000   1193.0984     14.5296      2.0396
   191.0000     53.3330      0.0000   1134.1216     14.5090      2.0526
   191.2500     56.0267      0.0000   1083.1920     14.2880      2.0657
   191.5000     57.5061      0.0000   1061.6788     13.9349      2.0786
   191.7500     57.1979      0.0000   1075.7692     13.5220      2.0888
   192.0000     56.1618      0.0000   1115.9600     13.1013      2.0898
   192.2500     56.0803      0.0000   1164.3115     12.7184      2.0771
   192.5000     57.6807      0.0000   1206.9044     12.4335      2.0523
   192.7500     60.1322      0.0000   1241.6700     12.2979      2.0228
   193.0000     61.8623      0.0000   1273.2057     12.2992      1.9947
   193.2500     61.7957      0.0000   1302.5465     12.3533      1.9690
   193.5000     60.0799      0.0000   1325.6825     12.3744      1.9437
   193.7500     57.9673      0.0000   1339.3402     12.3490      1.9192
   194.0000     56.8714      0.0000   1343.5619     12.3268      1.8977
   194.2500     57.1995      0.0000   1338.8047     12.3488      1.8795
   194.5000     58.2172      0.0000   1323.6338     12.4039      1.8627
   194.7500     59.1762      0.0000   1297.0746     12.4532      1.8480
   195.0000     60.1113      0.0000   1263.2067     12.4773      1.8415
   195.2500     61.2908      0.0000   1231.6339     12.4939      1.8479
   195.5000     62.4808      0.0000   1210.7379     12.5419      1.8624
   195.7500     63.2229      0.0000   1199.2233     12.6501      1.8727
   196.0000     63.5290      0.0000   1185.8319     12.8081      1.8704
   196.2500     64.0106      0.0000   1160.0942     12.9580      1.8578
   196.5000     65.3689      0.0000   1124.4392     13.0247      1.8427
   196.7500     67.7132      0.0000   1093.1376     12.9664      1.8296
   197.0000     70.1819      0.0000   1077.3970     12.7957      1.8171
   197.2500     71.3199      0.0000   1073.3649     12.5568      1.8036
   197.5000     70.1303      0.0000   1067.1406     12.2990      1.7915
   197.7500     66.9747      0.0000   1050.7970     12.0759      1.7851
   198.0000     63.4660      0.0000   1031.5371     11.9477      1.7843
   198.2500     61.2687      0.0000   1024.9790     11.9527      1.7829
   198.5000     60.8747      0.0000   1041.8398     12.0721      1.7736
   198.7500     61.5025      0.0000   1081.4103     12.2300      1.7550
   199.0000     62.0311      0.0000   1135.0670     12.3349      1.7311
   199.2500     61.8919      0.0000   1193.0590     12.3241      1.7069
   199.5000     61.2575      0.0000   1247.4934     12.1881      1.6855
   199.7500     60.7826      0.0000   1291.9504     11.9634      1.6715
   200.0000     61.2314      0.0000   1322.4232     11.7039      1.6695
   200.2500     62.9400      0.0000   1339.3000     11.4584      1.6799
   200.5000     65.3084      0.0000   1346.6521     11.2712      1.6972
   200.7500     67.0665      0.0000   1349.0209     11.1905      1.7150
   201.0000     67.3647      0.0000   1348.9886     11.2579      1.7312
   201.2500     66.4767      0.0000   1346.4015     11.4797      1.7469
   201.5000     65.3092      0.0000   1338.2089     11.8106      1.7630
   201.7500     64.5331      0.0000   1319.2614     12.1702      1.7804
   202.0000     64.3968      0.0000   1286.3694     12.4769      1.8001
   202.2500     65.0585      0.0000   1244.4274     12.6751      1.8237
   202.5000     66.7565      0.0000   1206.8391     12.7543      1.8503
   202.7500     69.6316      0.0000   1184.9275     12.7562      1.8760
   203.0000     73.4641      0.0000   1177.5098     12.7507      1.8957
   203.2500     77.4949      0.0000   1176.5940     12.7935      1.9071
   203.5000     80.4764      0.0000   1182.0022     12.9016      1.9111
   203.7500     81.1757      0.0000   1201.5311     13.0612      1.9096
   204.0000     79.2578      0.0000   1235.4158     13.2456      1.9033
   204.2500     75.7484      0.0000   1268.4523     13.4266      1.8927
   204.5000     72.3895      0.0000   1280.6288     13.5779      1.8797
