~Version Information
VERS.                      2.0: CWLS Log ASCII Standard - VERSION 2.0
WRAP.                       NO: One line per depth step
~Well Information Block
STRT.FT               546.2500: 
STOP.FT              2496.7500: 
STEP.FT                 0.2500: 
NULL.                -999.2500: 
COMP.          Petrogulf Corporation: COMPANY
WELL.               Egan 9-11V: WELL
FLD.           Purgatorie River: FIELD
LOC.           724' FNL & 1379' FWL: LOCATION
PROV.                 Colorado: PROVINCE
CNTY.               Las Animas: COUNTRY
SRVC.          Patterson Wireline: SERVICE COMPANY
DATE.          Fri Jul 11 23:32:41 2003: LOG DATE
UWI.           05 071 07875 00: UNIQUE WELL ID
~Curve Information Block
DEPT.FT            0 000 00 00: Depth
SP.mV                         : DIL Spontaneous Potential
RILD.Ohm-m                    : DIL Deep Resistivity
RILM.Ohm-m                    : DIL Medium Resistivity
RLL3.Ohm-m                    : DIL Shallow Resistivity
GR.GAPI                       : Gamma Ray
~Parameter Information Block
~A  Depth        SP         RILD        RILM        RLL3         GR     
# ...
  1582.2500   -151.9220     10.3343     11.4166     15.0307    113.6735
  1582.5000   -152.0247     10.4433     11.4003     13.8766    121.6317
  1582.7500   -151.9930     10.5292     11.3695     13.4683    126.8328
  1583.0000   -151.8426     10.5714     11.3314     13.4247    133.2381
  1583.2500   -151.5872     10.5602     11.2924     13.6375    136.0634
  1583.5000   -151.2451     10.5012     11.2576     14.1081    137.7596
  1583.7500   -150.8439     10.4128     11.2311     14.8245    137.3628
  1584.0000   -150.4205     10.3190     11.2172     15.7065    135.1707
  1584.2500   -150.0173     10.2434     11.2203     16.6028    133.0615
  1584.5000   -149.6729     10.2063     11.2462     17.3149    129.6514
  1584.7500   -149.4105     10.2250     11.3016     17.6353    127.7533
  1585.0000   -149.2307     10.3158     11.3952     17.4190    126.2472
  1585.2500   -149.1151     10.4928     11.5365     16.6824    126.1516
  1585.5000   -149.0391     10.7656     11.7365     15.6809    126.6505
  1585.7500   -148.9858     11.1346     12.0067     14.9273    126.9380
  1586.0000   -148.9522     11.5878     12.3592     15.1612    126.7883
  1586.2500   -148.9473     12.1018     12.8058     17.2493    126.0186
  1586.5000   -148.9846     12.6463     13.3575     21.8527    123.1015
  1586.7500   -149.0765     13.1933     14.0239     28.7662    119.5331
  1587.0000   -149.2294     13.7261     14.8119     36.4078    111.6587
  1587.2500   -149.4406     14.2432     15.7248     42.3819    105.3509
  1587.5000   -149.6973     14.7577     16.7602     45.1889     96.2880
  1587.7500   -149.9788     15.2919     17.9088     45.5310     91.6965
  1588.0000   -150.2622     15.8717     19.1527     45.6264     88.0326
  1588.2500   -150.5290     16.5201     20.4647     47.0622     87.5257
  1588.5000   -150.7658     17.2487     21.8083     49.3610     88.3298
  1588.7500   -150.9588     18.0482     23.1393     50.6079     89.1302
  1589.0000   -151.0873     18.8835     24.4086     49.3527     90.2544
  1589.2500   -151.1237     19.6979     25.5665     45.8828     91.1689
  1589.5000   -151.0434     20.4289     26.5672     41.8023     93.1630
  1589.7500   -150.8385     21.0263     27.3735     38.6320     94.7347
  1590.0000   -150.5284     21.4604     27.9603     36.8887     96.7035
  1590.2500   -150.1586     21.7192     28.3174     36.2004     97.5539
  1590.5000   -149.7876     21.8030     28.4499     35.8968     98.5834
  1590.7500   -149.4664     21.7263     28.3775     35.4364     99.4781
  1591.0000   -149.2191     21.5235     28.1324     34.5458    101.2336
  1591.2500   -149.0351     21.2471     27.7556     33.2024    102.4506
  1591.5000   -148.8740     20.9563     27.2926     31.5361    103.8265
  1591.7500   -148.6810     20.7010     26.7899     29.7126    104.1254
  1592.0000   -148.4049     20.5110     26.2906     27.8860    103.2168
  1592.2500   -148.0135     20.3946     25.8325     26.2457    101.8414
  1592.5000   -147.5051     20.3447     25.4461     25.0593     99.9453
  1592.7500   -146.9108     20.3480     25.1544     24.5690     99.8581
  1593.0000   -146.2840     20.3916     24.9727     24.7721    102.2884
  1593.2500   -145.6780     20.4656     24.9095     25.3444    105.0030
  1593.5000   -145.1233     20.5637     24.9662     25.9069    108.7558
  1593.7500   -144.6191     20.6815     25.1380     26.4264    110.2936
  1594.0000   -144.1416     20.8149     25.4129     27.3066    110.9314
  1594.2500   -143.6643     20.9596     25.7718     29.0224    110.1447
  1594.5000   -143.1772     21.1107     26.1875     31.6553    106.4928
  1594.7500   -142.6935     21.2612     26.6250     34.8014    102.3091
  1595.0000   -142.2407     21.3989     27.0422     37.9274     94.8743
  1595.2500   -141.8453     21.5060     27.3934     40.7642     90.6257
  1595.5000   -141.5206     21.5665     27.6337     43.2814     86.8972
  1595.7500   -141.2661     21.5749     27.7258     45.2735     85.9027
  1596.0000   -141.0745     21.5380     27.6466     46.0856     85.3184
  1596.2500   -140.9384     21.4666     27.3921     44.9412     85.3516
  1596.5000   -140.8541     21.3660     26.9784     41.6897     86.9167
  1596.7500   -140.8212     21.2362     26.4387     37.1972     89.2201
  1597.0000   -140.8422     21.0792     25.8172     32.8204     93.5067
  1597.2500   -140.9184     20.9032     25.1615     29.3998     96.1001
  1597.5000   -141.0406     20.7209     24.5163     26.8367     99.5612
  1597.7500   -141.1822     20.5416     23.9191     24.6492    102.2671
  1598.0000   -141.3010     20.3668     23.3981     22.7344    107.5109
  1598.2500   -141.3516     20.1919     22.9723     21.4933    111.2429
  1598.5000   -141.3024     20.0133     22.6526     21.4186    115.3721
  1598.7500   -141.1480     19.8352     22.4436     22.7449    116.2101
  1599.0000   -140.9106     19.6743     22.3452     25.3441    113.9300
  1599.2500   -140.6267     19.5578     22.3549     28.6405    110.4263
  1599.5000   -140.3284     19.5183     22.4693     31.5787    104.0705
  1599.7500   -140.0286     19.5868     22.6848     33.0000    100.4414
  1600.0000   -139.7189     19.7852     22.9987     32.4443     97.4096
  1600.2500   -139.3767     20.1204     23.4090     30.7016     97.0660
  1600.5000   -138.9775     20.5817     23.9139     29.4323     98.0636
  1600.7500   -138.5047     21.1435     24.5111     30.0426     98.8601
  1601.0000   -137.9552     21.7710     25.1958     32.7342     98.9378
  1601.2500   -137.3393     22.4242     25.9601     36.4418     97.9379
  1601.5000   -136.6783     23.0601     26.7921     39.5982     95.4974
  1601.7500   -135.9995     23.6407     27.6753     41.0905     94.0795
  1602.0000   -135.3340     24.1479     28.5893     40.7563     93.3408
  1602.2500   -134.7136     24.5948     29.5113     39.2179     93.7029
  1602.5000   -134.1644     25.0210     30.4174     37.3582     94.4451
  1602.7500   -133.6953     25.4672     31.2845     35.8848     94.4919
  1603.0000   -133.2946     25.9461     32.0914     35.1647     93.9357
  1603.2500   -132.9394     26.4269     32.8188     35.2712     93.6695
  1603.5000   -132.6109     26.8458     33.4507     36.1750     93.9396
  1603.7500   -132.3012     27.1411     33.9738     37.9869     94.1752
  1604.0000   -132.0088     27.2901     34.3795     40.9509     93.3624
  1604.2500   -131.7337     27.3199     34.6650     44.9785     91.6682
  1604.5000   -131.4772     27.2863     34.8356     49.1608     87.8489
  1604.7500   -131.2442     27.2430     34.9053     51.9940     85.1307
  1605.0000   -131.0409     27.2242     34.8967     52.2634     82.1311
  1605.2500   -130.8695     27.2428     34.8394     49.7304     81.5093
  1605.5000   -130.7265     27.2954     34.7655     45.1566     83.2572
  1605.7500   -130.6089     27.3705     34.7064     39.9692     86.1451
  1606.0000   -130.5215     27.4571     34.6884     35.8066     92.0975
  1606.2500   -130.4738     27.5500     34.7291     33.8556     96.1502
  1606.5000   -130.4655     27.6471     34.8362     34.2338    100.5369
  1606.7500   -130.4737     27.7407     35.0054     36.0409    101.6412
  1607.0000   -130.4532     27.8115     35.2218     38.1629    100.4037
  1607.2500   -130.3521     27.8337     35.4604     40.0445     98.0859
  1607.5000   -130.1333     27.7868     35.6892     41.6909     93.6052
  1607.7500   -129.7886     27.6654     35.8727     43.1139     90.6686
  1608.0000   -129.3414     27.4796     35.9761     44.0160     87.2046
  1608.2500   -128.8376     27.2439     35.9698     44.0505     85.7735
  1608.5000   -128.3307     26.9660     35.8332     43.2743     85.0230
  1608.7500   -127.8639     26.6463     35.5577     42.2547     85.3745
  1609.0000   -127.4545     26.2917     35.1481     41.7110     86.8866
  1609.2500   -127.0896     25.9306     34.6217     42.0229     88.1883
  1609.5000   -126.7359     25.6104     34.0070     42.9761     89.4449
  1609.7500   -126.3544     25.3764     33.3406     43.8104     89.0794
  1610.0000   -125.9156     25.2479     32.6632     43.5075     86.3494
