~Version Information
VERS.                      2.0: CWLS Log ASCII Standard - VERSION 2.0
WRAP.                       NO: One line per depth step
~Well Information Block
STRT.FT               -10.8000: 
STOP.FT              2238.7000: 
STEP.FT                 0.1000: 
NULL.                -999.2500: 
COMP.          Petrogulf Corporation: COMPANY
WELL.             McLeod 9-42V: WELL
FLD.           Purgatorie River: FIELD
LOC.           1658' FNL & 415' FEL----: LOCATION
CNTY.               Las Animas: COUNTY
SRVC.                         : SERVICE COMPANY
DATE.          Wed Nov 17 12:01:16 2004: LOG DATE
UWI.                          : UNIQUE WELL ID
STAT.                       CO: STATE
~Curve Information Block
DEPT.FT            0 000 00 00: Depth
GR.GAPI                       : Gamma Ray
CCL.                          : Casing Collar Locator
TT3.usec                      : CBL 3' Travel Time
AMP3.mV                       : CBL 3' Amplitude
~Parameter Information Block
~A  Depth        GR         CCL         TT3         AMP3    
# ...
   726.2000    127.3858      0.0000    842.3070     18.4733
   726.3000    125.7809      0.0000    847.6050     18.6808
   726.4000    125.7809      0.0000    847.6050     18.6808
   726.5000    124.2586      0.0000    851.4789     18.8423
   726.6000    124.2586      0.0000    851.4789     18.8423
   726.7000    124.2586      0.0000    851.4789     18.8423
   726.8000    123.4966      0.0000    853.2427     18.9803
   726.9000    123.4966      0.0000    853.2427     18.9803
   727.0000    124.4872      0.0000    852.2822     19.1401
   727.1000    124.4872      0.0000    852.2822     19.1401
   727.2000    124.4872      0.0000    852.2822     19.1401
   727.3000    126.7579      0.0000    848.5352     19.3608
   727.4000    126.7579      0.0000    848.5352     19.3608
   727.5000    128.2723      0.0000    842.5747     19.6708
   727.6000    128.2723      0.0000    842.5747     19.6708
   727.7000    128.2723      0.0000    842.5747     19.6708
   727.8000    127.5059      0.0000    835.1974     20.0890
   727.9000    127.5059      0.0000    835.1974     20.0890
   728.0000    124.9306      0.0000    827.4620     20.6042
   728.1000    124.9306      0.0000    827.4620     20.6042
   728.2000    124.9306      0.0000    827.4620     20.6042
   728.3000    121.9006      0.0000    820.7589     21.1467
   728.4000    121.9006      0.0000    820.7589     21.1467
   728.5000    118.6544      0.0000    816.1300     21.6028
   728.6000    118.6544      0.0000    816.1300     21.6028
   728.7000    118.6544      0.0000    816.1300     21.6028
   728.8000    114.3843      0.0000    813.5732     21.8835
   728.9000    114.3843      0.0000    813.5732     21.8835
   729.0000    109.2161      0.0000    812.3065     21.9769
   729.1000    109.2161      0.0000    812.3065     21.9769
   729.2000    109.2161      0.0000    812.3065     21.9769
   729.3000    105.0714      0.0000    811.5320     21.9222
   729.4000    105.0714      0.0000    811.5320     21.9222
   729.5000    104.0403      0.0000    810.8607     21.7412
   729.6000    104.0403      0.0000    810.8607     21.7412
   729.7000    104.0403      0.0000    810.8607     21.7412
   729.8000    106.4882      0.0000    810.2283     21.4191
   729.9000    106.4882      0.0000    810.2283     21.4191
   730.0000    111.1480      0.0000    809.6321     20.9508
   730.1000    111.1480      0.0000    809.6321     20.9508
   730.2000    111.1480      0.0000    809.6321     20.9508
   730.3000    116.5714      0.0000    808.8970     20.3810
   730.4000    116.5714      0.0000    808.8970     20.3810
   730.5000    121.8894      0.0000    807.5436     19.7880
   730.6000    121.8894      0.0000    807.5436     19.7880
   730.7000    121.8894      0.0000    807.5436     19.7880
   730.8000    126.3632      0.0000    804.8439     19.2375
   730.9000    126.3632      0.0000    804.8439     19.2375
   731.0000    128.9377      0.0000    800.2661     18.7551
   731.1000    128.9377      0.0000    800.2661     18.7551
   731.2000    128.9377      0.0000    800.2661     18.7551
   731.3000    128.8063      0.0000    794.1503     18.3303
   731.4000    128.8063      0.0000    794.1503     18.3303
   731.5000    126.3679      0.0000    787.7563     17.9380
   731.6000    126.3679      0.0000    787.7563     17.9380
   731.7000    126.3679      0.0000    787.7563     17.9380
   731.8000    123.1128      0.0000    782.2253     17.5583
   731.9000    123.1128      0.0000    782.2253     17.5583
   732.0000    120.2933      0.0000    777.6155     17.1872
   732.1000    120.2933      0.0000    777.6155     17.1872
   732.2000    120.2933      0.0000    777.6155     17.1872
   732.3000    117.9012      0.0000    773.3492     16.8395
   732.4000    117.9012      0.0000    773.3492     16.8395
   732.5000    115.1116      0.0000    769.3157     16.5441
   732.6000    115.1116      0.0000    769.3157     16.5441
   732.7000    115.1116      0.0000    769.3157     16.5441
   732.8000    111.6001      0.0000    766.0056     16.3250
   732.9000    111.6001      0.0000    766.0056     16.3250
   733.0000    108.2726      0.0000    763.7820     16.1751
   733.1000    108.2726      0.0000    763.7820     16.1751
   733.2000    108.2726      0.0000    763.7820     16.1751
   733.3000    106.6350      0.0000    762.5023     16.0505
   733.4000    106.6350      0.0000    762.5023     16.0505
   733.5000    107.4432      0.0000    761.7742     15.9024
   733.6000    107.4432      0.0000    761.7742     15.9024
   733.7000    107.4432      0.0000    761.7742     15.9024
   733.8000    110.0201      0.0000    761.2856     15.7240
   733.9000    110.0201      0.0000    761.2856     15.7240
   734.0000    112.7855      0.0000    760.8953     15.5620
   734.1000    112.7855      0.0000    760.8953     15.5620
   734.2000    112.7855      0.0000    760.8953     15.5620
   734.3000    114.2613      0.0000    760.5767     15.4834
   734.4000    114.2613      0.0000    760.5767     15.4834
   734.5000    113.6578      0.0000    760.3394     15.5338
   734.6000    113.6578      0.0000    760.3394     15.5338
   734.7000    113.6578      0.0000    760.3394     15.5338
   734.8000    111.1909      0.0000    760.1791     15.7177
   734.9000    111.1909      0.0000    760.1791     15.7177
   735.0000    108.4567      0.0000    760.0504     15.9992
   735.1000    108.4567      0.0000    760.0504     15.9992
   735.2000    108.4567      0.0000    760.0504     15.9992
   735.3000    108.1904      0.0000    759.8205     16.3189
   735.4000    108.1904      0.0000    759.8205     16.3189
   735.5000    112.5036      0.0000    759.1774     16.6249
   735.6000    112.5036      0.0000    759.1774     16.6249
   735.7000    112.5036      0.0000    759.1774     16.6249
   735.8000    120.6140      0.0000    757.6417     16.9043
   735.9000    120.6140      0.0000    757.6417     16.9043
   736.0000    128.7475      0.0000    754.6043     17.2041
   736.1000    128.7475      0.0000    754.6043     17.2041
   736.2000    128.7475      0.0000    754.6043     17.2041
   736.3000    133.0714      0.0000    748.7631     17.6354
   736.4000    133.0714      0.0000    748.7631     17.6354
   736.5000    132.7622      0.0000    736.5687     18.3366
   736.6000    132.7622      0.0000    736.5687     18.3366
   736.7000    132.7622      0.0000    736.5687     18.3366
   736.8000    129.7237      0.0000    711.4966     19.3623
   736.9000    129.7237      0.0000    711.4966     19.3623
   737.0000    125.6163      0.0000    668.5894     20.5413
   737.1000    125.6163      0.0000    668.5894     20.5413
   737.2000    125.6163      0.0000    668.5894     20.5413
   737.3000    120.2355      0.0000    613.3924     21.4868
   737.4000    120.2355      0.0000    613.3924     21.4868
   737.5000    113.0098      0.0000    564.7830     21.8796
   737.6000    113.0098      0.0000    564.7830     21.8796
   737.7000    113.0098      0.0000    564.7830     21.8796
   737.8000    105.0364      0.0000    544.0740     21.7723
   737.9000    105.0364      0.0000    544.0740     21.7723
   738.0000     98.8412      0.0000    560.6003     21.4872
   738.1000     98.8412      0.0000    560.6003     21.4872
   738.2000     98.8412      0.0000    560.6003     21.4872
   738.3000     96.3256      0.0000    608.6222     21.2033
   738.4000     96.3256      0.0000    608.6222     21.2033
   738.5000     97.3200      0.0000    673.6548     20.8193
   738.6000     97.3200      0.0000    673.6548     20.8193
   738.7000     97.3200      0.0000    673.6548     20.8193
   738.8000    100.0781      0.0000    738.5276     20.2461
   738.9000    100.0781      0.0000    738.5276     20.2461
   739.0000    102.7038      0.0000    788.6448     19.6329
   739.1000    102.7038      0.0000    788.6448     19.6329
   739.2000    102.7038      0.0000    788.6448     19.6329
   739.3000    103.9096     -2.0000    817.7731     19.2305
   739.4000    103.9096      0.0000    817.7731     19.2305
   739.5000    103.1526      2.0000    829.1926     19.1484
