~Version Information
VERS.                      2.0: CWLS Log ASCII Standard - VERSION 2.0
WRAP.                       NO: One line per depth step
~Well Information Block
STRT.FT               260.0000: 
STOP.FT              1200.5000: 
STEP.FT                 0.2500: 
NULL.                -999.2500: 
COMP.          Evergreen Operating Corporation: COMPANY
WELL.             Justin 32-10: WELL
FLD.           Purgatorie River: FIELD
LOC.           2994' FNL & 1449' FEL: LOCATION
PROV.                 Colorado: PROVINCE
CNTY.               Las Animas: COUNTRY
SRVC.                         : SERVICE COMPANY
DATE.          Sun Aug 29 20:47:20 2004: LOG DATE
UWI.           05 071 08053 00: UNIQUE WELL ID
~Curve Information Block
DEPT.FT            0 000 00 00: Depth
LTEN.lb                       : Surface Line Tension
SN.Ohm-m                      : IEL Short Normal
SP.mV                         : IEL Spontaneous Potential
DIR.Ohm-m                     : IEL Induction Resistivity
GR.GAPI                       : Gamma Ray
~Parameter Information Block
~A  Depth       LTEN         SN          SP         DIR          GR     
# ...
   372.0000    588.2451   2000.0000   2000.0000     49.0771     66.5589
   372.2500    585.3727   2000.0000   2000.0000     50.1963     64.4273
   372.5000    583.4417   2000.0000   2000.0000     52.5231     62.2792
   372.7500    582.5029   2000.0000   2000.0000     55.5498     61.9617
   373.0000    582.2970   2000.0000   2000.0000     57.8594     62.9085
   373.2500    582.8823   2000.0000   2000.0000     57.7649     63.7931
   373.5000    584.7282   2000.0000   2000.0000     54.8437     64.3024
   373.7500    588.0215   2000.0000   2000.0000     50.4138     63.9092
   374.0000    592.0190   2000.0000   2000.0000     46.1869     62.7824
   374.2500    595.3218   2000.0000   2000.0000     43.1445     62.0948
   374.5000    596.9118   2000.0000   2000.0000     41.5173     61.3960
   374.7500    596.7369   2000.0000   2000.0000     41.1423     61.0488
   375.0000    595.4621   2000.0000   2000.0000     41.7288     60.6805
   375.2500    594.2069   2000.0000   2000.0000     43.0019     60.7775
   375.5000    594.4152   2000.0000   2000.0000     44.7971     61.8894
   375.7500    596.9695   2000.0000   2000.0000     47.0699     63.2201
   376.0000    601.0925   2000.0000   2000.0000     49.7527     65.4378
   376.2500    604.7496   2000.0000   2000.0000     52.5244     66.6736
   376.5000    606.3760   2000.0000   2000.0000     54.7443     67.9860
   376.7500    605.8741   2000.0000   2000.0000     55.7828     68.6023
   377.0000    604.1212   2000.0000   2000.0000     55.5449     69.1311
   377.2500    602.0681   2000.0000   2000.0000     54.5289     69.0426
   377.5000    600.2782   2000.0000   2000.0000     53.3184     68.1769
   377.7500    598.8427   2000.0000   2000.0000     52.1327     67.3714
   378.0000    597.5665   2000.0000   2000.0000     50.8016     66.2883
   378.2500    596.1875   2000.0000   2000.0000     49.0327     65.6917
   378.5000    594.3263   2000.0000   2000.0000     46.7252     65.1049
   378.7500    591.6970   2000.0000   2000.0000     44.1186     65.3500
   379.0000    588.9859   2000.0000   2000.0000     41.6782     67.7301
   379.2500    587.9580   2000.0000   2000.0000     39.8484     70.9988
   379.5000    589.7950   2000.0000   2000.0000     38.8867     78.2626
   379.7500    593.6612   2000.0000   2000.0000     38.8265     84.3700
   380.0000    597.6096   2000.0000   2000.0000     39.5195     94.7258
   380.2500    600.5503   2000.0000   2000.0000     40.7028    101.7450
   380.5000    602.7605   2000.0000   2000.0000     42.0839    110.7094
   380.7500    604.7280   2000.0000   2000.0000     43.4306    114.5610
   381.0000    606.1131   2000.0000   2000.0000     44.6518    115.8084
   381.2500    605.9885   2000.0000   2000.0000     45.8272    113.3391
   381.5000    603.8552   2000.0000   2000.0000     47.1296    105.2601
   381.7500    600.2664   2000.0000   2000.0000     48.6854     97.9157
   382.0000    596.7000   2000.0000   2000.0000     50.5178     86.2623
   382.2500    594.9381   2000.0000   2000.0000     52.6466     79.3645
   382.5000    596.0073   2000.0000   2000.0000     55.2353     71.7016
   382.7500    599.1851   2000.0000   2000.0000     58.5861     68.5566
   383.0000    602.3685   2000.0000   2000.0000     62.9254     66.3246
   383.2500    603.9606   2000.0000   2000.0000     68.1443     66.0262
   383.5000    604.3287   2000.0000   2000.0000     73.6416     66.4397
   383.7500    605.0995   2000.0000   2000.0000     78.4414     66.7437
   384.0000    607.0458   2000.0000   2000.0000     81.5942     66.4767
   384.2500    608.8799   2000.0000   2000.0000     82.7860     65.6030
   384.5000    608.3730   2000.0000   2000.0000     82.6125     63.3704
   384.7500    604.7245   2000.0000   2000.0000     82.1662     61.5609
   385.0000    599.5374   2000.0000   2000.0000     82.2863     58.9511
   385.2500    595.3305   2000.0000   2000.0000     83.0522     57.5105
   385.5000    593.4104   2000.0000   2000.0000     83.6832     55.9104
   385.7500    593.3269   2000.0000   2000.0000     82.9052     55.1740
   386.0000    593.9670   2000.0000   2000.0000     79.8040     54.4177
   386.2500    594.6526   2000.0000   2000.0000     74.6811     54.0497
   386.5000    595.2117   2000.0000   2000.0000     68.9336     53.5684
   386.7500    595.5415   2000.0000   2000.0000     64.0670     53.2816
   387.0000    595.4943   2000.0000   2000.0000     60.9221     53.1002
   387.2500    595.1144   2000.0000   2000.0000     59.6000     53.3799
   387.5000    594.7884   2000.0000   2000.0000     59.6860     54.7325
   387.7500    595.1378   2000.0000   2000.0000     60.4727     56.2370
   388.0000    596.6524   2000.0000   2000.0000     61.1887     59.0937
   388.2500    599.2920   2000.0000   2000.0000     61.3165     61.2358
   388.5000    602.4221   2000.0000   2000.0000     60.8755     64.5496
   388.7500    605.1576   2000.0000   2000.0000     60.4268     66.5381
   389.0000    606.8586   2000.0000   2000.0000     60.7154     68.5066
   389.2500    607.5009   2000.0000   2000.0000     62.2098     68.9328
   389.5000    607.7292   2000.0000   2000.0000     64.7200     68.7055
   389.7500    608.4905   2000.0000   2000.0000     67.1987     68.5981
   390.0000    610.3175   2000.0000   2000.0000     68.0821     69.2563
   390.2500    612.8136   2000.0000   2000.0000     66.4683     70.1055
   390.5000    614.8763   2000.0000   2000.0000     63.0555     71.0088
   390.7500    615.5132   2000.0000   2000.0000     59.4853     70.8391
   391.0000    614.5082   2000.0000   2000.0000     57.0532     69.2622
   391.2500    612.4982   2000.0000   2000.0000     56.2172     67.6241
   391.5000    610.6607   2000.0000   2000.0000     56.7401     64.9558
   391.7500    610.1546   2000.0000   2000.0000     57.9725     63.3343
   392.0000    611.2983   2000.0000   2000.0000     59.1694     61.4532
   392.2500    613.2498   2000.0000   2000.0000     59.8241     60.7163
   392.5000    614.8203   2000.0000   2000.0000     59.8049     60.7366
   392.7500    615.5413   2000.0000   2000.0000     59.2540     61.6736
   393.0000    615.6710   2000.0000   2000.0000     58.4402     64.1653
   393.2500    615.5941   2000.0000   2000.0000     57.6868     65.8651
   393.5000    615.7491   2000.0000   2000.0000     57.2930     67.1639
   393.7500    616.7657   2000.0000   2000.0000     57.4192     66.9462
   394.0000    618.8950   2000.0000   2000.0000     58.0000     65.5242
   394.2500    621.3234   2000.0000   2000.0000     58.7841     64.2846
   394.5000    622.4595   2000.0000   2000.0000     59.5341     62.6040
   394.7500    621.0190   2000.0000   2000.0000     60.2344     61.9707
   395.0000    616.9611   2000.0000   2000.0000     61.1016     62.1878
   395.2500    611.6453   2000.0000   2000.0000     62.3358     62.8852
   395.5000    607.0632   2000.0000   2000.0000     63.8818     63.3349
   395.7500    604.6468   2000.0000   2000.0000     65.4193     62.3018
   396.0000    604.5646   2000.0000   2000.0000     66.5657     58.4567
   396.2500    605.9065   2000.0000   2000.0000     67.0452     55.2141
   396.5000    607.4199   2000.0000   2000.0000     66.6524     51.3586
   396.7500    608.2527   2000.0000   2000.0000     65.1923     50.0931
   397.0000    608.1812   2000.0000   2000.0000     62.5443     49.8062
   397.2500    607.2496   2000.0000   2000.0000     58.8075     50.0650
   397.5000    605.3843   2000.0000   2000.0000     54.3123     50.2982
   397.7500    602.5743   2000.0000   2000.0000     49.5307     50.2924
   398.0000    599.3933   2000.0000   2000.0000     44.9579     50.6941
   398.2500    597.0287   2000.0000   2000.0000     40.9751     51.8196
   398.5000    596.6428   2000.0000   2000.0000     37.7402     55.3527
   398.7500    598.7606   2000.0000   2000.0000     35.1873     58.6800
   399.0000    603.1045   2000.0000   2000.0000     33.1096     63.8423
   399.2500    608.6431   2000.0000   2000.0000     31.2712     66.6393
   399.5000    613.7606   2000.0000   2000.0000     29.4979     69.6124
   399.7500    616.6757   2000.0000   2000.0000     27.7247     71.4897
