~Version Information
VERS.                      2.0: CWLS Log ASCII Standard - VERSION 2.0
WRAP.                       NO: One line per depth step
~Well Information Block
STRT.FT               575.0000: 
STOP.FT              2016.2500: 
STEP.FT                 0.2500: 
NULL.                -999.2500: 
COMP.          Pioneer Natural Resources: COMPANY
WELL.          Bucksnort 41-35: WELL
FLD.           Purgatoire River: FIELD
LOC.           117' FNL & 463' FEL--: LOCATION
PROV.                 Colorado: PROVINCE
CNTY.               Las Animas: COUNTRY
SRVC.                Patterson: SERVICE COMPANY
DATE.          Thu Jul 21 10:13:55 2005: LOG DATE
UWI.           05 071 08401 00: UNIQUE WELL ID
~Curve Information Block
DEPT.FT            0 000 00 00: Depth
SN.Ohm-m                      : IEL Short Normal
SP.mV                         : IEL Spontaneous Potential
DIR.Ohm-m                     : IEL Induction Resistivity
GR.GAPI                       : Gamma Ray
~Parameter Information Block
~A  Depth        SN          SP         DIR          GR     
# ...
  1144.5000     23.1343    -46.0990     22.5339     86.2973
  1144.7500     23.1757    -47.1865     22.7368     86.5994
  1145.0000     23.1888    -47.9939     22.9257     87.7115
  1145.2500     23.1894    -48.4789     23.1163     88.8074
  1145.5000     23.1970    -48.6316     23.3152     90.7245
  1145.7500     23.2275    -48.4689     23.5182     91.8231
  1146.0000     23.2862    -48.0257     23.7129     92.1829
  1146.2500     23.3718    -47.3445     23.8826     91.1412
  1146.5000     23.4841    -46.4699     24.0090     87.9623
  1146.7500     23.6248    -45.4511     24.0743     85.3787
  1147.0000     23.7864    -44.3493     24.0672     81.7147
  1147.2500     23.9419    -43.2452     23.9885     79.6795
  1147.5000     24.0516    -42.2432     23.8539     77.4726
  1147.7500     24.0848    -41.4656     23.6904     76.6876
  1148.0000     24.0391    -41.0376     23.5287     76.6950
  1148.2500     23.9433    -41.0655     23.3956     77.4219
  1148.5000     23.8444    -41.6139     23.3086     78.9511
  1148.7500     23.7837    -42.6880     23.2719     79.7466
  1149.0000     23.7759    -44.2285     23.2766     80.2578
  1149.2500     23.8063    -46.1195     23.3061     80.3393
  1149.5000     23.8475    -48.2104     23.3426     80.3691
  1149.7500     23.8795    -50.3424     23.3717     80.2625
  1150.0000     23.8976    -52.3765     23.3823     79.8464
  1150.2500     23.9078    -54.2111     23.3699     79.5174
  1150.5000     23.9197    -55.7897     23.3441     78.8677
  1150.7500     23.9426    -57.0990     23.3326     77.9605
  1151.0000     23.9848    -58.1577     23.3710     75.5234
  1151.2500     24.0540    -59.0041     23.4828     73.5934
  1151.5000     24.1572    -59.6847     23.6632     71.4817
  1151.7500     24.2978    -60.2451     23.8826     70.8951
  1152.0000     24.4729    -60.7250     24.1056     70.6049
  1152.2500     24.6746    -61.1552     24.3134     70.2364
  1152.5000     24.8957    -61.5579     24.5127     69.0767
  1152.7500     25.1363    -61.9463     24.7270     68.1372
  1153.0000     25.4079    -62.3260     24.9842     67.1614
  1153.2500     25.7298    -62.6972     25.3066     67.0457
  1153.5000     26.1218    -63.0560     25.7072     67.4838
  1153.7500     26.5983    -63.3950     26.1872     67.7867
  1154.0000     27.1659    -63.7046     26.7378     67.6566
  1154.2500     27.8236    -63.9731     27.3441     67.1694
  1154.5000     28.5670    -64.1875     27.9906     66.3795
  1154.7500     29.3924    -64.3338     28.6633     66.1322
  1155.0000     30.2978    -64.3977     29.3534     66.1250
  1155.2500     31.2811    -64.3663     30.0644     65.9656
  1155.5000     32.3369    -64.2294     30.8166     64.8066
  1155.7500     33.4531    -63.9814     31.6383     63.3336
  1156.0000     34.6031    -63.6223     32.5426     60.4680
  1156.2500     35.7352    -63.1582     33.5073     58.4288
  1156.5000     36.7650    -62.6004     34.4718     55.4972
  1156.7500     37.5782    -61.9629     35.3443     53.6909
  1157.0000     38.0368    -61.2587     36.0021     51.3935
  1157.2500     37.9980    -60.4958     36.2886     50.4197
  1157.5000     37.3604    -59.6745     36.0369     50.3879
  1157.7500     36.1231    -58.7866     35.1383     51.4810
  1158.0000     34.4094    -57.8174     33.6167     54.7528
  1158.2500     32.4169    -56.7510     31.6344     58.1358
  1158.5000     30.3246    -55.5759     29.4126     65.7847
  1158.7500     28.2333    -54.2914     27.1372     73.0224
  1159.0000     26.1775    -52.9106     24.9200     86.6857
  1159.2500     24.1787    -51.4609     22.8163     96.7098
  1159.5000     22.2791    -49.9808     20.8616    111.3865
  1159.7500     20.5356    -48.5146     19.0921    120.4490
  1160.0000     18.9945    -47.1058     17.5424    132.8899
  1160.2500     17.6775    -45.7915     16.2343    140.3616
  1160.5000     16.5826    -44.5985     15.1705    149.8853
  1160.7500     15.6917    -43.5417     14.3368    154.8106
  1161.0000     14.9774    -42.6242     13.7074    159.8317
  1161.2500     14.4064    -41.8393     13.2509    161.6436
  1161.5000     13.9435    -41.1724     12.9338    162.1605
  1161.7500     13.5578    -40.6046     12.7231    160.9838
  1162.0000     13.2276    -40.1145     12.5884    157.0565
  1162.2500     12.9386    -39.6810     12.5023    153.5940
  1162.5000     12.6795    -39.2849     12.4387    148.9168
  1162.7500     12.4403    -38.9100     12.3718    146.8875
  1163.0000     12.2156    -38.5446     12.2773    145.2152
  1163.2500     12.0068    -38.1811     12.1376    144.3636
  1163.5000     11.8201    -37.8163     11.9477    143.1314
  1163.7500     11.6629    -37.4514     11.7176    142.8064
  1164.0000     11.5403    -37.0904     11.4672    143.7574
  1164.2500     11.4529    -36.7397     11.2177    145.0534
  1164.5000     11.3920    -36.4066     10.9840    146.7359
  1164.7500     11.3393    -36.0973     10.7741    147.3840
  1165.0000     11.2742    -35.8170     10.5912    148.7198
  1165.2500     11.1869    -35.5692     10.4374    150.7745
  1165.5000     11.0875    -35.3562     10.3156    155.6008
  1165.7500     11.0035    -35.1804     10.2292    158.8395
  1166.0000     10.9659    -35.0450     10.1812    161.6727
  1166.2500     10.9915    -34.9538     10.1734    161.9131
  1166.5000     11.0758    -34.9115     10.2056    160.6987
  1166.7500     11.1984    -34.9219     10.2751    159.5839
  1167.0000     11.3316    -34.9877     10.3758    158.3472
  1167.2500     11.4478    -35.1096     10.4966    157.8988
  1167.5000     11.5271    -35.2863     10.6223    157.1734
  1167.7500     11.5650    -35.5153     10.7354    156.2361
  1168.0000     11.5735    -35.7928     10.8201    154.1974
  1168.2500     11.5704    -36.1142     10.8659    152.8602
  1168.5000     11.5656    -36.4737     10.8702    151.4656
  1168.7500     11.5587    -36.8639     10.8372    150.8299
  1169.0000     11.5462    -37.2750     10.7775    149.7025
  1169.2500     11.5291    -37.6958     10.7046    148.7370
  1169.5000     11.5145    -38.1147     10.6316    147.6361
  1169.7500     11.5137    -38.5215     10.5696    147.6226
  1170.0000     11.5383    -38.9090     10.5270    148.7016
  1170.2500     11.5982    -39.2743     10.5106    149.6391
  1170.5000     11.7007    -39.6179     10.5281    150.4185
  1170.7500     11.8477    -39.9418     10.5883    150.4214
  1171.0000     12.0325    -40.2466     10.7006    150.4063
  1171.2500     12.2388    -40.5284     10.8729    150.8325
  1171.5000     12.4428    -40.7768     11.1089    151.5567
  1171.7500     12.6206    -40.9754     11.4077    150.9138
  1172.0000     12.7623    -41.1034     11.7651    146.4627
  1172.2500     12.8922    -41.1392     12.1793    141.3370
  1172.5000     13.0846    -41.0645     12.6564    132.8920
  1172.7500     13.4599    -40.8669     13.2135    128.3542
  1173.0000     14.1484    -40.5422     13.8743    123.9475
  1173.2500     15.2262    -40.0943     14.6577    121.7311
  1173.5000     16.6591    -39.5337     15.5628    117.2829
  1173.7500     18.3068    -38.8762     16.5568    112.9074
  1174.0000     20.0034    -38.1408     17.5768    105.0484
  1174.2500     21.6592    -37.3484     18.5531    100.2331
  1174.5000     23.2940    -36.5208     19.4450     95.6728
  1174.7500     24.9724    -35.6796     20.2626     94.7855
  1175.0000     26.6952    -34.8462     21.0503     95.8057
  1175.2500     28.3460    -34.0412     21.8453     97.0420
  1175.5000     29.7400    -33.2838     22.6422     98.2524
  1175.7500     30.7327    -32.5909     23.3897     98.4836
  1176.0000     31.2958    -31.9762     24.0204     99.0901
  1176.2500     31.5106    -31.4477     24.4924    100.4490
  1176.5000     31.5070    -31.0059     24.8125    103.8616
  1176.7500     31.4026    -30.6425     25.0271    106.1112
  1177.0000     31.2693    -30.3407     25.1988    107.8380
  1177.2500     31.1253    -30.0773     25.3859    107.7980
  1177.5000     30.9474    -29.8274     25.6328    107.2190
  1177.7500     30.7003    -29.5690     25.9620    107.3380
