~Version Information
VERS.                      2.0: CWLS Log ASCII Standard - VERSION 2.0
WRAP.                       NO: One line per depth step
~Well Information Block
STRT.FT               260.0000: 
STOP.FT              2610.0000: 
STEP.FT                 0.1000: 
NULL.                -999.2500: 
COMP.          Pioneer Natural Resources: COMPANY
WELL.           Costello 44-24: WELL
FLD.           Purgatoire River: FIELD
LOC.           327' FSL & 378' FEL: LOCATION
PROV.                 Colorado: PROVINCE
CNTY.               Las Animas: COUNTRY
SRVC.                Patterson: SERVICE COMPANY
DATE.          Mon Jul 11 10:42:19 2005: LOG DATE
UWI.           05 071 08413 00: UNIQUE WELL ID
~Curve Information Block
DEPT.FT            0 000 00 00: Depth
DCAL.in                       : CDL Caliper
RHOB.g/cc                     : CDL Bulk Density
RHOC.g/cc                     : CDL Density Correction
DPOR.pu                       : CDL Density Porosity
GR.GAPI                       : Gamma Ray
NPOR.pu                       : Neutron Porosity
~Parameter Information Block
~A  Depth       DCAL        RHOB        RHOC        DPOR         GR         NPOR    
# ...
   413.6000      8.2321      2.5629      0.0263      5.2808    111.6624     27.9771
   413.7000      8.2321      2.5554      0.0568      5.7329    111.2711     27.8254
   413.8000      8.2371      2.5477      0.0079      6.1983    111.9412     27.7877
   413.9000      8.2371      2.5436      0.0428      6.4462    112.8980     27.6920
   414.0000      8.2326      2.5489      0.0414      6.1263    116.0046     27.3354
   414.1000      8.2326      2.5632      0.0332      5.2610    122.3663     26.9526
   414.2000      8.2326      2.5753      0.0544      4.5297    124.5219     26.7596
   414.3000      8.2520      2.5674      0.0548      5.0051    119.8170     26.6348
   414.4000      8.2520      2.5326      0.0637      7.1157    116.4321     26.2944
   414.5000      8.2621      2.4886     -0.0677      9.7844    116.5479     25.9012
   414.6000      8.2621      2.4677     -0.0368     11.0506    116.1404     25.9087
   414.7000      8.2621      2.4768      0.0112     10.4963    113.9143     26.3518
   414.8000      8.2756      2.4996      0.0350      9.1160    109.4935     26.8252
   414.9000      8.2756      2.5214      0.0094      7.7910    102.1573     27.1458
   415.0000      8.3057      2.5325      0.0086      7.1230     94.7657     27.3680
   415.1000      8.3057      2.5327      0.0127      7.1076     93.4293     27.3822
   415.2000      8.3057      2.5346     -0.0226      6.9953     98.6280     27.1041
   415.3000      8.3429      2.5438      0.0616      6.4334    103.8347     26.7941
   415.4000      8.3429      2.5538      0.0021      5.8298    104.4147     26.7701
   415.5000      8.3564      2.5608      0.0434      5.4065    104.9087     26.9198
   415.6000      8.3564      2.5669      0.0067      5.0373    111.3942     26.8343
   415.7000      8.3564      2.5784      0.0064      4.3369    121.0611     26.7708
   415.8000      8.3686      2.5883      0.0965      3.7383    126.0753     27.2379
   415.9000      8.3686      2.5807      0.0641      4.1971    123.9912     27.7421
   416.0000      8.3662      2.5564      0.0317      5.6727    119.9629     27.6377
   416.1000      8.3662      2.5285      0.0257      7.3665    117.8272     27.0769
   416.2000      8.3662      2.5124      0.0341      8.3416    114.7645     26.5144
   416.3000      8.3682      2.5188      0.0141      7.9512    107.8590     26.1512
   416.4000      8.3682      2.5433      0.0354      6.4691    101.4589     25.8528
   416.5000      8.3736      2.5651      0.0733      5.1482     99.2744     25.6266
   416.6000      8.3736      2.5722      0.0660      4.7155     97.7159     25.8315
   416.7000      8.3736      2.5739      0.0622      4.6094     97.0409     26.3941
   416.8000      8.3796      2.5797      0.0884      4.2597    100.8459     26.8944
   416.9000      8.3796      2.5877      0.0511      3.7728    107.3157     27.1372
   417.0000      8.3925      2.5915      0.0686      3.5438    111.3843     27.0404
   417.1000      8.3925      2.5853      0.0779      3.9195    110.2227     26.5324
   417.2000      8.3925      2.5768      0.0690      4.4392    106.7622     25.8141
   417.3000      8.3978      2.5784      0.0416      4.3397    105.6257     25.6341
   417.4000      8.3978      2.5832      0.0834      4.0465    104.9848     26.1535
   417.5000      8.3892      2.5821      0.0026      4.1143    101.6938     26.5586
   417.6000      8.3892      2.5865      0.0280      3.8487     97.7210     26.4605
   417.7000      8.3892      2.6015      0.1014      2.9409     92.9269     26.1664
   417.8000      8.3700      2.6172      0.0741      1.9858     89.3477     26.0368
   417.9000      8.3700      2.6266      0.0679      1.4157     90.4305     26.0263
   418.0000      8.3521      2.6259      0.0825      1.4581     91.4055     25.7767
   418.1000      8.3521      2.6216      0.0464      1.7240     89.8338     25.1339
   418.2000      8.3521      2.6259      0.0570      1.4601     91.1129     24.3830
   418.3000      8.3345      2.6337      0.0224      0.9873     95.0863     23.8972
   418.4000      8.3345      2.6234      0.0537      1.6132     95.8207     23.7561
   418.5000      8.3559      2.5897     -0.0130      3.6527     94.3385     23.9293
   418.6000      8.3559      2.5534      0.0099      5.8559     96.5126     24.4119
   418.7000      8.3559      2.5368     -0.0119      6.8612    101.8814     25.0653
   418.8000      8.3748      2.5498      0.0465      6.0698    105.9711     25.5359
   418.9000      8.3748      2.5738      0.0720      4.6161    107.0422     25.7767
   419.0000      8.3667      2.5790      0.0513      4.3044    107.4277     26.2516
   419.1000      8.3667      2.5663      0.0539      5.0750    110.0896     26.8371
   419.2000      8.3667      2.5517      0.0284      5.9595    116.1163     27.1462
   419.3000      8.3679      2.5326      0.0251      7.1153    124.6483     27.3050
   419.4000      8.3679      2.5156     -0.0173      8.1450    130.7814     27.3297
   419.5000      8.3916      2.5265      0.0334      7.4842    129.8995     27.2471
   419.6000      8.3916      2.5576      0.0429      5.5982    126.3816     27.3347
   419.7000      8.3916      2.5709      0.0872      4.7936    128.0987     27.4431
   419.8000      8.4081      2.5606      0.0328      5.4192    133.1165     27.2988
   419.9000      8.4081      2.5501      0.0469      6.0549    135.3477     27.1461
   420.0000      8.4097      2.5430      0.0509      6.4862    136.9762     27.4444
   420.1000      8.4097      2.5349      0.0290      6.9760    137.8918     28.2254
   420.2000      8.4097      2.5321      0.0211      7.1440    135.1657     28.9683
   420.3000      8.3900      2.5333     -0.0033      7.0751    131.2870     29.2934
   420.4000      8.3900      2.5315      0.0119      7.1793    131.6250     29.2044
   420.5000      8.3745      2.5258      0.0386      7.5263    136.4162     28.9381
   420.6000      8.3745      2.5176      0.0242      8.0261    141.8852     28.8292
   420.7000      8.3745      2.5104      0.0413      8.4613    146.9484     28.7828
   420.8000      8.3758      2.5071      0.0252      8.6579    151.5870     28.6676
   420.9000      8.3758      2.5101      0.0205      8.4798    154.9149     28.6473
   421.0000      8.3898      2.5153      0.0383      8.1634    154.7291     28.7080
   421.1000      8.3898      2.5115      0.0321      8.3931    149.6609     28.5712
   421.2000      8.3898      2.5040      0.0073      8.8475    143.2689     28.2612
   421.3000      8.3756      2.5077      0.0127      8.6266    140.3316     28.1756
   421.4000      8.3756      2.5214      0.0336      7.7949    141.5365     28.4152
   421.5000      8.3618      2.5471      0.0103      6.2377    142.2489     28.7510
   421.6000      8.3618      2.5910      0.0681      3.5747    137.1794     28.9375
   421.7000      8.3618      2.6333      0.0966      1.0133    129.1449     28.9643
   421.8000      8.3502      2.6448      0.1172      0.3167    125.3694     28.8633
   421.9000      8.3502      2.6310      0.0431      1.1527    129.9757     28.6468
   422.0000      8.3530      2.6173      0.0815      1.9826    139.2423     28.5431
   422.1000      8.3530      2.6022      0.0613      2.8969    141.5153     28.5585
   422.2000      8.3530      2.5841      0.0538      3.9918    135.5862     28.3709
   422.3000      8.3510      2.5773      0.0621      4.4033    133.1552     27.9613
   422.4000      8.3510      2.5811      0.0449      4.1749    136.9569     27.5744
   422.5000      8.3567      2.5830      0.0880      4.0598    139.1344     27.3004
   422.6000      8.3567      2.5796      0.0637      4.2649    136.7449     27.2639
   422.7000      8.3567      2.5779      0.0734      4.3719    136.9253     27.4467
   422.8000      8.3636      2.5811      0.0565      4.1764    144.8664     27.4427
   422.9000      8.3636      2.5806      0.1022      4.2049    154.4785     27.0695
   423.0000      8.3603      2.5659      0.0157      5.0979    158.4523     26.6583
   423.1000      8.3603      2.5415      0.0527      6.5769    154.4135     26.5645
