~Version Information
 VERS.                                  2.0 : CWLS LAS VERSION
 WRAP.                                   NO : WRAPING MODE
 SWARE .                 MController 2.5.0I : SOFTWARE VERSION
~Well Information
 WELL.                       Montoya 13-41v : WELL
 COMP.                        Pertogulf Corp: COMPANY
 FLD.                      Pergatorie River : FIELD
 LOC.                NE/NE Sec 13 T33S R68W : LOCATION
 DATE.                           8/16-17/04 : DATE(S) LOGGED
 SRVC.       Blanco Geological Services LLC : SERVICE COMPANY
 STAT.                                   CO : STATE
 CNTY.                           Las Animas : COUNTY
 CTRY.                                  USA : COUNTRY
 API.                       05-071-08021-00 : API NUMBER
 STRT.FT                             767.00 : START DEPTH
 STOP.FT                            2499.00 : STOP DEPTH
 STEP.FT                               1.00 : DEPTH INCREMENT
 NULL.                                -9999 : NULL VALUE
~Curve information
 DEPTH.FT                                   :
 ROP.MIN/FT                                 :
 GAS.UNITS                                  :
~ASCII Log data
# ...
      1767.0          0.7          8.6 
      1768.0          0.5         17.3 
      1769.0          0.5         19.3 
      1770.0          4.2         39.5 
      1771.0          0.5         16.6 
      1772.0          1.9         14.2 
      1773.0          1.2         13.2 
      1774.0          0.4         10.0 
      1775.0          0.7         10.4 
      1776.0          1.0         10.3 
      1777.0          0.5          9.8 
      1778.0          0.4         10.1 
      1779.0          0.3          9.7 
      1780.0          0.3          8.6 
      1781.0          0.2          8.8 
      1782.0          0.2          8.9 
      1783.0          0.4          8.8 
      1784.0          0.4          8.6 
      1785.0          0.4          8.5 
      1786.0          0.4          8.8 
      1787.0          0.4          8.4 
      1788.0          0.3          9.3 
      1789.0          0.3          9.4 
      1790.0          0.2          9.5 
      1791.0          0.2          9.4 
      1792.0          0.4          9.7 
      1793.0          0.5          9.5 
      1794.0          0.7          9.1 
      1795.0          0.5          8.7 
      1796.0          0.5          8.3 
      1797.0          0.4          8.6 
      1798.0          0.4          8.5 
      1799.0          0.5         19.2 
      1800.0          4.7         71.1 
      1801.0          0.5         21.1 
      1802.0          0.8          7.1 
      1803.0          0.5          5.0 
      1804.0          0.8          8.5 
      1805.0          0.9         10.8 
      1806.0          0.8         10.0 
      1807.0          0.6          8.7 
      1808.0          0.7          7.6 
      1809.0          0.4          6.9 
      1810.0          0.3          6.8 
      1811.0          0.3          6.8 
      1812.0          0.3          7.0 
      1813.0          0.3          7.4 
      1814.0          0.3          7.0 
      1815.0          0.3          6.5 
      1816.0          0.4          6.2 
      1817.0          0.3          5.9 
      1818.0          0.3          5.9 
      1819.0          0.6          6.1 
      1820.0          0.4          6.1 
      1821.0          0.4          6.2 
      1822.0          0.5          6.1 
      1823.0          0.5          6.3 
      1824.0          0.5          6.3 
      1825.0          0.5          6.5 
      1826.0          0.5          6.9 
      1827.0          0.6          6.9 
      1828.0          0.5          7.7 
      1829.0          0.4         16.2 
      1830.0          0.1         16.7 
      1831.0          5.1         41.2 
      1832.0          0.5          7.9 
      1833.0          0.7          4.6 
      1834.0          1.0          5.2 
      1835.0          1.0          6.9 
      1836.0          0.8          6.8 
      1837.0          0.6          6.7 
      1838.0          0.4          6.6 
      1839.0          0.4          6.6 
      1840.0          0.4          6.6 
      1841.0          0.3          6.5 
      1842.0          0.3          6.4 
      1843.0          0.3          6.3 
      1844.0          0.3          6.3 
      1845.0          0.3          6.2 
      1846.0          0.3          6.1 
      1847.0          0.4          6.2 
      1848.0          0.4          6.4 
      1849.0          0.5          6.4 
      1850.0          0.6          6.0 
      1851.0          0.6          5.9 
      1852.0          0.6          6.2 
      1853.0          1.0          5.8 
      1854.0          1.1          6.1 
      1855.0          1.1          6.4 
      1856.0          0.6          6.2 
      1857.0          0.5          6.4 
      1858.0          0.4          7.9 
      1859.0          0.4         15.7 
      1860.0          5.9         42.7 
      1861.0          0.7         14.7 
      1862.0          0.5          6.4 
      1863.0          0.5          4.9 
      1864.0          0.7          5.7 
      1865.0          0.6          6.2 
      1866.0          0.5          6.5 
      1867.0          0.4          6.4 
      1868.0          0.5          6.3 
      1869.0          0.4          5.8 
      1870.0          0.4          5.7 
      1871.0          0.3          5.7 
      1872.0          0.3          5.3 
      1873.0          0.3          5.4 
      1874.0          0.3          5.4 
      1875.0          0.3          5.3 
      1876.0          0.3          5.3 
      1877.0          0.4          5.6 
      1878.0          0.4          5.5 
      1879.0          0.3          5.8 
      1880.0          0.4          6.0 
      1881.0          0.4          5.8 
      1882.0          0.4          5.8 
      1883.0          0.4          6.1 
      1884.0          0.4          6.3 
      1885.0          0.4          6.4 
      1886.0          0.4          6.3 
      1887.0          0.4          6.0 
      1888.0          0.4          6.3 
      1889.0          0.4          6.7 
      1890.0          4.3         15.4 
      1891.0          0.9         14.4 
      1892.0          1.1          7.3 
      1893.0          0.8          6.3 
      1894.0          0.6          6.8 
      1895.0          0.8          7.2 
      1896.0          0.5          7.3 
      1897.0          0.4          7.3 
      1898.0          0.4          7.3 
      1899.0          0.4          6.9 
      1900.0          0.4          6.1 
      1901.0          0.4          6.3 
      1902.0          0.3          6.6 
      1903.0          0.4          7.0 
      1904.0          0.4          6.4 
      1905.0          0.4          6.1 
      1906.0          0.3          5.8 
      1907.0          0.5          5.3 
      1908.0          0.7          5.2 
      1909.0          0.6          5.4 
      1910.0          0.7          6.1 
      1911.0          0.7          6.3 
      1912.0          0.7          5.8 
      1913.0          1.0          5.5 
      1914.0          0.5          4.9 
      1915.0          0.3          5.4 
      1916.0          0.3          5.5 
      1917.0          0.3          6.3 
      1918.0          0.3         12.0 
      1919.0          0.3         13.8 
      1920.0          5.9         10.6 
      1921.0          1.3          5.3 
      1922.0          0.8          7.1 
      1923.0          0.6          6.7 
      1924.0          0.5          4.7 
      1925.0          0.5          5.0 
      1926.0          0.6          6.2 
      1927.0          0.8          7.3 
      1928.0          0.7          7.2 
      1929.0          0.7          7.0 
      1930.0          0.5          6.1 
      1931.0          0.4          6.5 
      1932.0          0.5          6.9 
      1933.0          0.4          6.9 
      1934.0          0.3          7.0 
      1935.0          0.4          7.0 
      1936.0          0.4          6.8 
      1937.0          0.6          6.4 
      1938.0          0.7          6.2 
      1939.0          0.7          5.9 
      1940.0          0.5          5.6 
      1941.0          0.5          5.9 
      1942.0          0.6          6.5 
      1943.0          0.6          6.7 
      1944.0          0.4          7.0 
      1945.0          0.4          6.7 
      1946.0          0.5          6.5 
      1947.0          0.4          7.2 
      1948.0          0.3         14.7 
      1949.0          0.3         15.4 
      1950.0          8.2         23.9 
      1951.0          0.5          8.9 
      1952.0          0.4          6.0 
      1953.0          0.5          5.4 
      1954.0          0.5          5.7 
      1955.0          0.5          6.3 
      1956.0          0.3          6.6 
      1957.0          0.3          6.7 
      1958.0          0.1          6.6 
      1959.0          0.2          6.7 
      1960.0          0.3          6.8 
      1961.0          0.3          6.9 
      1962.0          0.2          7.3 
      1963.0          0.2          7.1 
      1964.0          0.2          7.3 
      1965.0          0.3          7.4 
      1966.0          0.3          7.7 
