~Version Information
VERS.                      2.0: CWLS Log ASCII Standard - VERSION 2.0
WRAP.                       NO: One line per depth step
~Well Information Block
STRT.FT               583.0000: 
STOP.FT              1700.0000: 
STEP.FT                 0.1000: 
NULL.                -999.2500: 
COMP.          Pioneer Natural Resources: COMPANY
WELL.          Scott Canyon 11-18 Tr: WELL
FLD.           Purgatoire River: FIELD
LOC.           411' FNL & 580' FWL: LOCATION
PROV.                 Colorado: PROVINCE
CNTY.               Las Animas: COUNTRY
SRVC.                Patterson: SERVICE COMPANY
DATE.          Thu Feb 17 15:41:32 2005: LOG DATE
UWI.           05 071 08286 00: UNIQUE WELL ID
~Curve Information Block
DEPT.FT            0 000 00 00: Depth
DCAL.in                       : CDL Caliper
RHOB.g/cc                     : CDL Bulk Density
RHOC.g/cc                     : CDL Density Correction
DPOR.pu                       : CDL Density Porosity
GR.GAPI                       : Gamma Ray
NPOR.pu                       : Neutron Porosity
~Parameter Information Block
~A  Depth       DCAL        RHOB        RHOC        DPOR         GR         NPOR    
# ...
  1543.0000      8.0522      2.5326      0.0743      7.1182    103.6409     25.4948
  1543.1000      8.0522      2.5347      0.0909      6.9895     99.7287     25.0523
  1543.2000      8.0522      2.5352      0.0650      6.9565     98.1117     24.7260
  1543.3000      7.9986      2.5363      0.0780      6.8909     94.2958     24.4937
  1543.4000      7.9986      2.5429      0.0205      6.4896     92.5590     24.3322
  1543.5000      7.9328      2.5492      0.0471      6.1065     93.5800     24.1284
  1543.6000      7.9328      2.5469      0.0586      6.2484     91.3215     24.0099
  1543.7000      7.9328      2.5395      0.0483      6.6980     87.2508     24.0678
  1543.8000      7.9148      2.5392      0.0546      6.7138     88.5405     24.1371
  1543.9000      7.9148      2.5527      0.0267      5.8944     93.7463     24.2313
  1544.0000      7.9218      2.5730      0.0799      4.6638     95.0292     24.6889
  1544.1000      7.9218      2.5834      0.0968      4.0345     92.4372     25.5610
  1544.2000      7.9218      2.5803      0.0825      4.2217     91.1407     26.0983
  1544.3000      7.9172      2.5781      0.0695      4.3552     92.2508     25.5366
  1544.4000      7.9172      2.5783      0.1077      4.3427     95.5982     24.5799
  1544.5000      7.9073      2.5655      0.0958      5.1192    100.4731     24.5431
  1544.6000      7.9073      2.5413      0.0704      6.5876    103.8057     25.3100
  1544.7000      7.9073      2.5286      0.0205      7.3552    104.5374     25.9726
  1544.8000      7.9194      2.5350      0.0729      6.9685    103.9881     26.0144
  1544.9000      7.9194      2.5429      0.0315      6.4926    104.6872     25.7202
  1545.0000      7.9373      2.5461      0.0333      6.3000    109.3777     25.8144
  1545.1000      7.9373      2.5545      0.0410      5.7854    113.6074     26.1238
  1545.2000      7.9373      2.5638      0.1087      5.2218    112.0939     25.9891
  1545.3000      7.9278      2.5621      0.0727      5.3253    108.4467     25.3276
  1545.4000      7.9278      2.5581      0.0723      5.5702    107.6611     24.6551
  1545.5000      7.9203      2.5588      0.0889      5.5258    109.4576     24.3665
  1545.6000      7.9203      2.5507      0.1432      6.0164    111.0614     24.3999
  1545.7000      7.9203      2.5297      0.0486      7.2924    111.4038     24.9917
  1545.8000      7.9137      2.5086      0.0974      8.5688    111.2185     26.2348
  1545.9000      7.9137      2.4963      0.0604      9.3131    113.3284     27.3721
  1546.0000      7.8973      2.4979      0.0933      9.2206    119.0897     27.6930
  1546.1000      7.8973      2.5123      0.0742      8.3459    125.6192     27.4692
  1546.2000      7.8973      2.5256      0.1266      7.5388    129.1829     27.6253
  1546.3000      7.8623      2.5169      0.1592      8.0662    128.0548     28.4576
  1546.4000      7.8623      2.4866      0.1144      9.9056    123.5248     29.1029
  1546.5000      7.8517      2.4634      0.0802     11.3112    118.6949     28.9390
  1546.6000      7.8517      2.4662      0.1512     11.1393    114.4235     28.5967
  1546.7000      7.8517      2.4840      0.1521     10.0591    111.9377     28.8246
  1546.8000      7.8836      2.5078      0.1886      8.6153    114.0275     29.2994
  1546.9000      7.8836      2.5402      0.1659      6.6561    118.6514     29.4363
  1547.0000      7.9127      2.5735      0.1680      4.6386    121.0189     29.4449
  1547.1000      7.9127      2.5821      0.1953      4.1129    119.7058     29.6651
  1547.2000      7.9127      2.5537      0.1398      5.8368    119.2101     29.8267
  1547.3000      7.9692      2.5161      0.0949      8.1152    122.7263     29.2043
  1547.4000      7.9692      2.4933      0.1173      9.4940    126.6158     28.0110
  1547.5000      7.9346      2.4796      0.1012     10.3258    127.9487     27.3578
  1547.6000      7.9346      2.4776      0.0656     10.4498    128.7742     27.1445
  1547.7000      7.9346      2.4925      0.1023      9.5436    129.9913     26.6890
  1547.8000      7.9295      2.5033      0.1280      8.8890    132.5419     26.2032
  1547.9000      7.9295      2.4953      0.0800      9.3764    137.0157     26.1212
  1548.0000      7.9071      2.4911      0.0778      9.6294    138.9572     26.4285
  1548.1000      7.9071      2.5061      0.0949      8.7235    137.3648     26.8333
  1548.2000      7.9071      2.5149      0.1094      8.1891    136.1357     27.1672
  1548.3000      7.8610      2.5020      0.0899      8.9709    136.5141     27.4773
  1548.4000      7.8610      2.4894      0.0817      9.7336    138.0421     27.6680
  1548.5000      7.8603      2.4938      0.1248      9.4654    140.9997     27.7107
  1548.6000      7.8603      2.5081      0.1435      8.6016    139.7224     27.9872
  1548.7000      7.8603      2.5223      0.1499      7.7390    131.3174     28.5550
  1548.8000      7.8833      2.5313      0.1797      7.1961    125.5559     28.9715
  1548.9000      7.8833      2.5310      0.1701      7.2130    126.2098     29.3350
  1549.0000      7.9351      2.5149      0.1434      8.1890    127.2334     29.8612
  1549.1000      7.9351      2.4838      0.0853     10.0708    125.3203     30.0704
  1549.2000      7.9351      2.4595      0.0742     11.5436    123.0860     29.7395
  1549.3000      7.9496      2.4564      0.0949     11.7339    124.7568     29.1200
  1549.4000      7.9496      2.4564      0.1192     11.7351    128.7192     28.6073
  1549.5000      7.9253      2.4374      0.1003     12.8836    129.1945     28.5968
  1549.6000      7.9253      2.4116      0.0230     14.4495    123.9013     28.8759
  1549.7000      7.9253      2.4091      0.0360     14.5970    116.7232     29.2866
  1549.8000      7.9688      2.4404      0.0831     12.7060    114.2785     29.9156
  1549.9000      7.9688      2.4991      0.0890      9.1437    117.3299     30.3144
  1550.0000      7.9350      2.5669      0.1574      5.0342    123.3141     30.1482
  1550.1000      7.9350      2.6175      0.2142      1.9701    129.3233     29.7341
  1550.2000      7.9350      2.6410      0.2443      0.5440    128.6947     29.7164
  1550.3000      7.8476      2.6406      0.2172      0.5710    122.1344     30.3848
  1550.4000      7.8476      2.6223      0.1893      1.6784    118.9911     31.0375
  1550.5000      7.8821      2.5926      0.1853      3.4817    122.3174     30.8693
  1550.6000      7.8821      2.5525      0.1744      5.9090    128.1247     30.0631
  1550.7000      7.8821      2.5093      0.0899      8.5278    131.9726     29.3256
  1550.8000      7.8877      2.4811      0.0688     10.2343    135.4156     28.7539
  1550.9000      7.8877      2.4759      0.0531     10.5506    137.7166     28.3872
  1551.0000      7.9611      2.4822      0.1192     10.1699    131.9465     28.6999
  1551.1000      7.9611      2.4881      0.1183      9.8099    123.1457     29.7842
  1551.2000      7.9611      2.4975      0.0834      9.2443    121.3641     30.5791
  1551.3000      7.9564      2.5100      0.1599      8.4854    126.1326     30.2480
  1551.4000      7.9564      2.5139      0.1026      8.2465    132.2984     29.7524
  1551.5000      7.9886      2.5150      0.0805      8.1829    134.8137     29.9948
  1551.6000      7.9886      2.5261      0.1182      7.5071    131.7194     30.1630
  1551.7000      7.9886      2.5368      0.1573      6.8626    128.2056     29.4610
  1551.8000      8.0161      2.5269      0.1771      7.4608    127.9141     28.4607
  1551.9000      8.0161      2.5000      0.0832      9.0930    127.9105     27.9767
  1552.0000      7.9036      2.4802      0.0946     10.2925    125.6534     28.0665
  1552.1000      7.9036      2.4749      0.0898     10.6104    122.7700     28.4328
  1552.2000      7.9036      2.4650      0.0797     11.2143    121.4414     28.6093
  1552.3000      7.9292      2.4466      0.0200     12.3267    119.6843     28.0323
  1552.4000      7.9292      2.4473      0.0359     12.2863    118.0450     27.0893
  1552.5000      7.8795      2.4753      0.1120     10.5857    120.1515     26.5455
