~Version Information
VERS.                      2.0: CWLS Log ASCII Standard - VERSION 2.0
WRAP.                       NO: One line per depth step
~Well Information Block
STRT.FT               456.0000: 
STOP.FT              1700.7000: 
STEP.FT                 0.1000: 
NULL.                -999.2500: 
COMP.          Pioneer Natural Resources: COMPANY
WELL.                Mead 11-9: WELL
FLD.           Purgatoire River: FIELD
LOC.           1127' FNL & 668' FWL: LOCATION
PROV.                 Colorado: PROVINCE
CNTY.               Las Animas: COUNTRY
SRVC.                Patterson: SERVICE COMPANY
DATE.          Sat Feb 19 09:18:18 2005: LOG DATE
UWI.           05 071 08160 00: UNIQUE WELL ID
~Curve Information Block
DEPT.FT            0 000 00 00: Depth
DCAL.in                       : CDL Caliper
RHOB.g/cc                     : CDL Bulk Density
RHOC.g/cc                     : CDL Density Correction
DPOR.pu                       : CDL Density Porosity
GR.GAPI                       : Gamma Ray
NPOR.pu                       : Neutron Porosity
~Parameter Information Block
~A  Depth       DCAL        RHOB        RHOC        DPOR         GR         NPOR    
# ...
  1195.2000      7.9623      2.5293      0.0838      7.3128    138.2496     28.1529
  1195.3000      7.9762      2.5458      0.0661      6.3163    133.2443     27.6134
  1195.4000      7.9762      2.5577      0.1349      5.5954    132.3097     27.5788
  1195.5000      7.9982      2.5429      0.0386      6.4910    128.4615     27.6233
  1195.6000      7.9982      2.5364     -0.0275      6.8851    119.3018     27.5001
  1195.7000      7.9982      2.5574      0.0829      5.6141    111.1200     27.5271
  1195.8000      8.0134      2.5816      0.0173      4.1445    108.1186     27.6322
  1195.9000      8.0134      2.5932      0.0866      3.4431    109.0761     27.3714
  1196.0000      7.9995      2.5940      0.0634      3.3940    109.4511     26.8016
  1196.1000      7.9995      2.5908      0.0785      3.5889    106.3880     26.6628
  1196.2000      7.9995      2.5796      0.0528      4.2656    101.1982     27.0689
  1196.3000      7.9788      2.5579      0.0057      5.5789     97.8560     27.1357
  1196.4000      7.9788      2.5312      0.0726      7.2023     99.4867     26.6659
  1196.5000      7.9688      2.5038      0.0004      8.8605    104.4546     26.4614
  1196.6000      7.9688      2.4927     -0.0233      9.5350    109.5115     26.9953
  1196.7000      7.9688      2.5089      0.0407      8.5506    111.8229     27.9471
  1196.8000      7.9638      2.5338      0.0424      7.0407    108.8840     28.8008
  1196.9000      7.9638      2.5491      0.0214      6.1179    104.7845     29.5179
  1197.0000      7.9702      2.5530      0.0393      5.8794    104.9301     30.0447
  1197.1000      7.9702      2.5482      0.0485      6.1678    107.7344     29.9590
  1197.2000      7.9702      2.5479     -0.0200      6.1888    108.5458     28.8299
  1197.3000      7.9817      2.5596      0.0627      5.4799    108.2610     27.1388
  1197.4000      7.9817      2.5624      0.0791      5.3092    111.4550     26.5296
  1197.5000      7.9704      2.5470      0.0121      6.2397    116.0478     27.4417
  1197.6000      7.9704      2.5381      0.0273      6.7836    117.8365     28.2769
  1197.7000      7.9704      2.5461      0.0119      6.2990    117.2696     28.1264
  1197.8000      7.9306      2.5539      0.0093      5.8224    114.1180     27.7903
  1197.9000      7.9306      2.5534      0.0386      5.8546    109.1318     27.8055
  1198.0000      7.9003      2.5537      0.0293      5.8392    105.6917     27.7311
  1198.1000      7.9003      2.5588      0.0259      5.5247    104.3944     27.2922
  1198.2000      7.9003      2.5618      0.0215      5.3485    105.1327     26.5267
  1198.3000      7.8904      2.5572      0.0806      5.6225    108.4723     25.9132
  1198.4000      7.8904      2.5516      0.0497      5.9610    111.8823     26.1863
  1198.5000      7.8901      2.5552      0.0126      5.7462    112.8018     26.8523
  1198.6000      7.8901      2.5608      0.0726      5.4084    111.1996     26.6845
  1198.7000      7.8901      2.5475      0.0907      6.2095    109.5383     25.8602
  1198.8000      7.8910      2.5138      0.0441      8.2516    111.2580     25.8588
  1198.9000      7.8910      2.4794      0.0267     10.3374    115.1816     27.0966
  1199.0000      7.9188      2.4563      0.0373     11.7401    115.8331     28.2142
  1199.1000      7.9188      2.4442      0.0297     12.4747    111.7012     28.6168
  1199.2000      7.9188      2.4416      0.0241     12.6289    105.5374     29.0213
  1199.3000      7.9639      2.4422      0.0787     12.5919     99.8742     29.4418
  1199.4000      7.9639      2.4389      0.0613     12.7926     99.3899     29.4760
  1199.5000      7.9764      2.4380      0.0200     12.8498    103.9310     29.2256
  1199.6000      7.9764      2.4501      0.0371     12.1134    106.5376     28.6671
  1199.7000      7.9764      2.4695      0.1280     10.9406    106.9182     27.7610
  1199.8000      7.9669      2.4801      0.1450     10.2952    108.7578     27.0071
  1199.9000      7.9669      2.4804      0.1331     10.2768    110.5049     26.8819
  1200.0000      7.9614      2.4820      0.1056     10.1848    109.0292     27.3093
  1200.1000      7.9614      2.4949      0.0481      9.3971    105.5211     27.7056
  1200.2000      7.9614      2.5133      0.0956      8.2828    103.7609     27.5877
  1200.3000      7.9288      2.5195      0.1300      7.9099    104.8904     27.0426
  1200.4000      7.9288      2.5105      0.1287      8.4522    106.5409     26.4591
  1200.5000      7.8629      2.4966      0.0856      9.2966    108.6006     26.1016
  1200.6000      7.8629      2.4861      0.1147      9.9363    113.1163     26.1059
  1200.7000      7.8629      2.4851      0.0847      9.9968    116.9379     26.3649
  1200.8000      7.8202      2.5028      0.0512      8.9207    115.0413     26.4783
  1200.9000      7.8202      2.5326      0.1215      7.1168    109.8951     26.2336
  1201.0000      7.8146      2.5493      0.1657      6.1023    107.4358     25.6764
  1201.1000      7.8146      2.5535      0.1166      5.8498    109.7472     25.4324
  1201.2000      7.8146      2.5604      0.2099      5.4294    113.5601     26.0209
  1201.3000      7.8334      2.5657      0.1507      5.1119    112.9737     26.9722
  1201.4000      7.8334      2.5693      0.1216      4.8906    108.9315     27.5533
  1201.5000      7.8743      2.5747      0.1285      4.5666    106.7655     27.3924
  1201.6000      7.8743      2.5693      0.0963      4.8926    108.3477     26.8379
  1201.7000      7.8743      2.5490      0.0784      6.1206    112.3653     26.7481
  1201.8000      7.9381      2.5276      0.0967      7.4161    115.0871     27.3647
  1201.9000      7.9381      2.5183      0.0426      7.9830    115.1588     28.0763
  1202.0000      7.9821      2.5173      0.0654      8.0413    115.1634     28.3693
  1202.1000      7.9821      2.5056      0.0382      8.7515    113.8704     28.3356
  1202.2000      7.9821      2.4802      0.0055     10.2904    106.7647     28.1091
  1202.3000      7.9693      2.4601     -0.0274     11.5083     98.1774     27.7620
  1202.4000      7.9693      2.4550      0.0232     11.8156     96.7399     27.6761
  1202.5000      7.9512      2.4632     -0.0531     11.3229    101.4204     27.8317
  1202.6000      7.9512      2.4804      0.0245     10.2782    106.1008     27.7077
  1202.7000      7.9512      2.4967      0.0253      9.2903    109.8892     27.6200
  1202.8000      7.9684      2.5116      0.0631      8.3903    114.9982     28.1876
  1202.9000      7.9684      2.5281      0.1024      7.3877    121.7370     28.8132
  1203.0000      8.0115      2.5408      0.0675      6.6174    125.7899     28.6128
  1203.1000      8.0115      2.5463      0.0907      6.2876    122.3716     27.8584
  1203.2000      8.0115      2.5493      0.0353      6.1005    113.8769     27.4646
  1203.3000      8.0412      2.5588      0.0584      5.5261    107.9546     27.5671
  1203.4000      8.0412      2.5721      0.0713      4.7197    110.0140     27.6812
  1203.5000      8.0132      2.5800      0.0702      4.2395    116.6932     27.7982
  1203.6000      8.0132      2.5787      0.0974      4.3207    120.8440     28.0833
  1203.7000      8.0132      2.5638      0.1045      5.2246    119.0309     28.5995
  1203.8000      7.9762      2.5399      0.0494      6.6735    111.7925     28.9728
  1203.9000      7.9762      2.5173      0.1090      8.0448    106.2723     28.5837
  1204.0000      7.9608      2.4967      0.0438      9.2896    107.2601     27.6787
  1204.1000      7.9608      2.4818      0.0713     10.1941    108.6384     27.0419
  1204.2000      7.9608      2.4822      0.0306     10.1678    105.4540     26.9209
  1204.3000      7.9595      2.5072      0.0447      8.6559    102.7428     27.2793
  1204.4000      7.9595      2.5503      0.0665      6.0415    105.7728     27.7992
  1204.5000      7.9795      2.5912      0.0962      3.5640    110.6859     28.0388
  1204.6000      7.9795      2.6129      0.1189      2.2464    112.7203     28.0076
  1204.7000      7.9795      2.6117      0.1274      2.3222    114.1593     27.8254
