~Version Information
 VERS.                                  2.0 : CWLS LAS VERSION
 WRAP.                                   NO : WRAPING MODE
 SWARE .                 MController 2.5.0I : SOFTWARE VERSION
~Well Information
 WELL.                        Montoya 6-14v : WELL
 COMP.                       Petrogulf Corp : COMPANY
 FLD.                      Purgatorie River : FIELD
 LOC.                 SW/SW Sec 6 T33S R67W : LOCATION
 DATE.                              8/12/04 : DATE(S) LOGGED
 SRVC.       Blanco Geological Services LLC : SERVICE COMPANY
 STAT.                                   CO : STATE
 CNTY.                           Las Animas : COUNTY
 CTRY.                                  USA : COUNTRY
 API.                       05-071-08070-00 : API NUMBER
 STRT.FT                             803.00 : START DEPTH
 STOP.FT                            2673.00 : STOP DEPTH
 STEP.FT                               1.00 : DEPTH INCREMENT
 NULL.                                -9999 : NULL VALUE
~Curve information
 DEPTH.FT                                   :
 ROP.MIN/FT                                 :
 GAS.UNITS                                  :
~ASCII Log data
# ...
      2203.0          0.3         14.1 
      2204.0          0.4         16.2 
      2205.0          0.3         16.8 
      2206.0          0.3         15.9 
      2207.0          0.3         11.6 
      2208.0          0.4          8.6 
      2209.0          0.3          6.0 
      2210.0          0.3          4.5 
      2211.0          0.2          2.5 
      2212.0          0.1          1.1 
      2213.0          0.2          1.4 
      2214.0          0.2          2.6 
      2215.0          0.2          4.0 
      2216.0          0.3          4.8 
      2217.0          0.2          3.8 
      2218.0          0.3          3.4 
      2219.0          0.3          4.4 
      2220.0          0.3          4.8 
      2221.0          0.3          5.8 
      2222.0          0.3          5.7 
      2223.0          0.3          5.4 
      2224.0          0.2          4.0 
      2225.0          0.1          3.1 
      2226.0          0.1          3.0 
      2227.0          8.8        124.7 
      2228.0          0.1          4.5 
      2229.0          0.3          3.8 
      2230.0          0.3          2.2 
      2231.0          0.4          3.9 
      2232.0          0.4          9.2 
      2233.0          0.6         12.5 
      2234.0          0.5         13.1 
      2235.0          0.5         11.9 
      2236.0          0.5          9.4 
      2237.0          0.6          6.6 
      2238.0          0.5          4.9 
      2239.0          0.4          7.3 
      2240.0          0.4          7.1 
      2241.0          0.4          4.8 
      2242.0          0.4          4.5 
      2243.0          0.4          4.3 
      2244.0          0.4          5.4 
      2245.0          0.3          4.8 
      2246.0          0.2          1.7 
      2247.0          0.2          1.4 
      2248.0          0.4          2.1 
      2249.0          0.3          1.4 
      2250.0          0.4          1.9 
      2251.0          0.3          2.4 
      2252.0          0.4          3.0 
      2253.0          0.4          3.2 
      2254.0          0.5          6.1 
      2255.0          0.4          7.3 
      2256.0          0.4          7.1 
      2257.0          9.8         75.0 
      2258.0          0.2          6.1 
      2259.0          0.3          4.8 
      2260.0          0.2          2.6 
      2261.0          0.3          2.7 
      2262.0          0.3          3.0 
      2263.0          0.3          3.9 
      2264.0          0.4          3.6 
      2265.0          0.4          2.8 
      2266.0          0.4          2.5 
      2267.0          0.4          2.4 
      2268.0          0.4          4.4 
      2269.0          0.4          7.7 
      2270.0          0.3          8.8 
      2271.0          0.4          8.6 
      2272.0          0.4          7.0 
      2273.0          0.4          3.5 
      2274.0          0.4          4.4 
      2275.0          0.4          4.1 
      2276.0          0.3          6.4 
      2277.0          0.3          6.7 
      2278.0          0.3          7.2 
      2279.0          0.3          8.0 
      2280.0          0.3          8.0 
      2281.0          0.4          6.5 
      2282.0          0.5          4.4 
      2283.0          0.5          4.4 
      2284.0          0.4          6.0 
      2285.0          0.3          6.9 
      2286.0          0.4          6.2 
      2287.0          7.3         67.9 
      2288.0          0.1          5.2 
      2289.0          0.4          4.5 
      2290.0          0.4          5.8 
      2291.0          0.3          8.3 
      2292.0          0.3         11.1 
      2293.0          0.3         10.6 
      2294.0          0.3         11.4 
      2295.0          0.3         11.5 
      2296.0          0.3         12.4 
      2297.0          0.4         11.6 
      2298.0          0.2         13.5 
      2299.0          0.3         13.4 
      2300.0          0.4         11.6 
      2301.0          0.4         10.7 
      2302.0          0.4          9.3 
      2303.0          0.4          9.3 
      2304.0          0.4          9.7 
      2305.0          0.4         10.9 
      2306.0          0.4         10.6 
      2307.0          0.4          8.6 
      2308.0          0.4          9.3 
      2309.0          0.5          9.8 
      2310.0          0.5          9.9 
      2311.0          0.4          8.3 
      2312.0          0.4          8.4 
      2313.0          0.4          5.8 
      2314.0          0.4          4.4 
      2315.0          0.4          8.1 
      2316.0          0.7         12.0 
      2317.0          7.2        103.6 
      2318.0          0.1          6.9 
      2319.0          0.5          7.5 
      2320.0          0.4          5.3 
      2321.0          0.4          2.2 
      2322.0          0.3          1.9 
      2323.0          0.3          2.0 
      2324.0          0.3          2.6 
      2325.0          0.3          3.7 
      2326.0          0.3          3.9 
      2327.0          0.4          5.9 
      2328.0          0.4          6.0 
      2329.0          0.3          5.9 
      2330.0          0.3          3.6 
      2331.0          0.3          2.9 
      2332.0          0.3          4.2 
      2333.0          0.2          4.3 
      2334.0          0.3          4.8 
      2335.0          0.5          4.8 
      2336.0          0.3          4.1 
      2337.0          0.2          4.3 
      2338.0          0.4          3.5 
      2339.0          0.4          3.0 
      2340.0          0.3          2.2 
      2341.0          0.3          1.9 
      2342.0          0.3          3.6 
      2343.0          0.3          3.4 
      2344.0          0.3          6.9 
      2345.0          0.4          8.2 
      2346.0          0.4          7.0 
      2347.0          8.4         59.2 
      2348.0          0.1         16.4 
      2349.0          0.3         10.8 
      2350.0          0.3          4.0 
      2351.0          0.3          4.0 
      2352.0          0.4          2.2 
      2353.0          0.4          1.3 
      2354.0          0.5          1.6 
      2355.0          0.7          5.3 
      2356.0          0.5          5.9 
      2357.0          0.5          4.4 
      2358.0          0.5          3.7 
      2359.0          0.5          4.4 
      2360.0          0.5          5.3 
      2361.0          0.5          7.4 
      2362.0          0.5          7.2 
      2363.0          0.5          6.5 
      2364.0          0.4          5.2 
      2365.0          0.5          5.6 
      2366.0          0.3          4.2 
      2367.0          0.3          5.1 
      2368.0          0.4          3.1 
      2369.0          0.5          6.3 
      2370.0          0.5          7.3 
      2371.0          0.5          4.4 
      2372.0          0.5          4.1 
      2373.0          0.5          3.2 
      2374.0          0.5          3.4 
      2375.0          0.5          5.0 
      2376.0          0.5          5.4 
      2377.0          7.7         51.0 
      2378.0          0.2          4.7 
      2379.0          0.5          3.4 
      2380.0          0.5          2.3 
      2381.0          0.6          2.3 
      2382.0          0.4          3.3 
      2383.0          0.4          5.5 
      2384.0          0.6          5.5 
      2385.0          0.5          6.3 
      2386.0          0.5          6.2 
      2387.0          0.6          2.8 
      2388.0          0.5          2.4 
      2389.0          0.5          4.2 
      2390.0          0.6          5.5 
      2391.0          0.6          4.5 
      2392.0          0.5          4.9 
      2393.0          0.6          3.3 
      2394.0          0.6          4.3 
      2395.0          0.5          4.3 
      2396.0          0.6          4.5 
      2397.0          0.5          4.6 
      2398.0          0.5          4.5 
      2399.0          0.5          3.1 
      2400.0          0.6          3.0 
      2401.0          0.6          3.1 
      2402.0          0.6          2.9 
