~Version Information
VERS.                      2.0: CWLS Log ASCII Standard - VERSION 2.0
WRAP.                       NO: One line per depth step
~Well Information Block
STRT.FT                15.0000: 
STOP.FT              1211.0000: 
STEP.FT                 0.2500: 
NULL.                -999.2500: 
COMP.          Pioneer Natural Resources: COMPANY
WELL.          Santa Fe 43-27 Tr: WELL
FLD.           Purgatoire River: FIELD
LOC.           2018' FSL & 534' FEL: LOCATION
PROV.                 Colorado: PROVINCE
CNTY.               Las Animas: COUNTRY
SRVC.                Patterson: SERVICE COMPANY
DATE.          Mon Mar 14 15:43:40 2005: LOG DATE
UWI.           05 071 08303 00: UNIQUE WELL ID
~Curve Information Block
DEPT.FT            0 000 00 00: Depth
GR.GAPI                       : Gamma Ray
CCL.                          : Casing Collar Locator
TT3.usec                      : CBL 3' Travel Time
AMP3.mV                       : CBL 3' Amplitude
AMP5.mV                       : CBL 5' Amplitude
~Parameter Information Block
~A  Depth        GR         CCL         TT3         AMP3        AMP5    
# ...
   715.0000     95.4314      0.0000    798.6135     13.0272      2.5722
   715.2500     95.6766      0.0000    799.0452     13.4687      2.5580
   715.5000     99.2336      0.0000    800.0934     13.9827      2.5325
   715.7500    105.7209      0.0000    802.0791     14.4952      2.5081
   716.0000    113.8138      0.0000    804.9255     14.9451      2.4947
   716.2500    121.9809      0.0000    807.7023     15.2956      2.4967
   716.5000    129.2551      0.0000    808.9879     15.5265      2.5152
   716.7500    135.2263      0.0000    808.1952     15.6200      2.5479
   717.0000    139.7061      0.0000    806.5318     15.5605      2.5883
   717.2500    142.7823      0.0000    806.5167     15.3490      2.6257
   717.5000    144.9090      0.0000    810.3708     15.0098      2.6494
   717.7500    146.4589      0.0000    818.0901     14.5840      2.6520
   718.0000    147.0368      0.0000    826.3414     14.1210      2.6298
   718.2500    145.2359      0.0000    830.0902     13.6767      2.5808
   718.5000    139.1321      0.0000    826.7490     13.3033      2.5000
   718.7500    127.5909      0.0000    818.5297     13.0264      2.3818
   719.0000    111.7787      0.0000    810.1350     12.8198      2.2309
   719.2500     95.2798      0.0000    805.2319     12.5848      2.0651
   719.5000     82.1737      0.0000    806.3463     12.1436      1.9004
   719.7500     74.7751      0.0000    817.4861     11.3122      1.7388
   720.0000     72.9427      0.0000    844.3447     10.0693      1.5845
   720.2500     74.9314      0.0000    889.0055      8.6481      1.4590
   720.5000     78.7067      0.0000    943.5208      7.3723      1.3845
   720.7500     82.9011      0.0000    992.0167      6.4051      1.3577
   721.0000     86.8713      0.0000   1023.5233      5.7340      1.3539
   721.2500     90.0081      0.0000   1042.5421      5.3330      1.3505
   721.5000     91.3612      0.0000   1063.2284      5.2070      1.3410
   721.7500     90.3045      0.0000   1092.6323      5.3103      1.3296
   722.0000     87.4955      0.0000   1123.2562      5.5471      1.3232
   722.2500     84.7960      0.0000   1143.2219      5.8749      1.3272
   722.5000     84.0683      0.0000   1148.7448      6.3909      1.3452
   722.7500     86.1934      0.0000   1143.5082      7.3122      1.3787
   723.0000     91.0510      0.0000   1130.5137      8.8037      1.4288
   723.2500     97.7863      0.0000   1109.4412     10.7293      1.5014
   723.5000    105.0130      0.0000   1079.1171     12.6096      1.6163
   723.7500    111.5763      0.0000   1038.0911     13.9497      1.8065
   724.0000    117.5460      0.0000    985.6260     14.6075      2.0892
   724.2500    124.0095      0.0000    926.5762     14.7964      2.4229
   724.5000    131.6261      0.0000    872.4023     14.8107      2.7146
   724.7500    139.7728      0.0000    833.4880     14.8296      2.8941
   725.0000    147.0553      0.0000    811.9037     14.9102      2.9699
   725.2500    152.1416      0.0000    802.6977     15.0573      2.9998
   725.5000    154.1705      0.0000    799.7066     15.2750      3.0288
   725.7500    153.0880      0.0000    799.0018     15.5778      3.0718
   726.0000    149.8140      0.0000    798.8970     15.9750      3.1334
   726.2500    145.7096      0.0000    798.9068     16.4514      3.2179
   726.5000    141.6603      0.0000    798.9761     16.9727      3.3237
   726.7500    137.5719      0.0000    799.2363     17.5071      3.4395
   727.0000    132.7142      0.0000    800.0042     18.0430      3.5494
   727.2500    126.7282      0.0000    801.6651     18.5797      3.6429
   727.5000    120.4116      0.0000    804.2374     19.1036      3.7217
   727.7500    115.3541      0.0000    806.9027     19.5870      3.7976
   728.0000    112.4851      0.0000    808.2947     20.0145      3.8848
   728.2500    110.9228      0.0000    807.6385     20.3995      3.9900
   728.5000    108.5704      0.0000    805.4894     20.7645      4.1082
   728.7500    103.9885      0.0000    803.1226     21.1077      4.2252
   729.0000     97.4955      0.0000    801.4086     21.3994      4.3269
   729.2500     90.6537      0.0000    800.4412     21.6112      4.4070
   729.5000     85.2649      0.0000    799.9231     21.7386      4.4699
   729.7500     82.8023      0.0000    799.5750     21.7919      4.5258
   730.0000     83.9552      0.0000    799.2885     21.7771      4.5812
   730.2500     88.1450      0.0000    799.4053     21.6965      4.6336
   730.5000     93.7575      0.0000    801.5991     21.5681      4.6753
   730.7500     99.2441      0.0000    810.2969     21.4326      4.6998
   731.0000    103.8575      0.0000    832.6135     21.3336      4.7085
   731.2500    107.1991      0.0000    873.6678     21.2875      4.7105
   731.5000    108.6299      0.0000    928.1445     21.2713      4.7166
   731.7500    107.9409      0.0000    976.7656     21.2432      4.7317
   732.0000    106.5022      0.0000    996.0601     21.1781      4.7515
   732.2500    106.8510      0.0000    975.9128     21.0827      4.7663
   732.5000    110.6591      0.0000    927.7877     20.9778      4.7709
   732.7500    117.3424      0.0000    874.9251     20.8714      4.7695
   733.0000    124.6806      0.0000    835.2183     20.7536      4.7716
   733.2500    130.4160      0.0000    813.1016     20.6162      4.7807
   733.5000    133.4111      0.0000    803.7365     20.4684      4.7881
   733.7500    134.0564      0.0000    800.6838     20.3284      4.7783
   734.0000    134.0046      0.0000    799.8301     20.1984      4.7400
   734.2500    135.0961      0.0000    799.4736     20.0562      4.6741
   734.5000    137.8441      0.0000    799.1966     19.8753      4.5889
   734.7500    140.9040      0.0000    799.0097     19.6521      4.4906
   735.0000    142.5141      0.0000    798.9363     19.4075      4.3797
   735.2500    142.4317      0.0000    798.9530     19.1621      4.2573
   735.5000    141.9062      0.0000    799.0302     18.9070      4.1327
   735.7500    142.0439      0.0000    799.1430     18.6091      4.0211
   736.0000    142.9863      0.0000    799.2411     18.2558      3.9346
   736.2500    144.5096      0.0000    799.2608     17.8884      3.8748
   736.5000    146.5129      0.0000    799.1671     17.5764      3.8319
   736.7500    148.6136      0.0000    798.9676     17.3569      3.7910
   737.0000    149.8484      0.0000    798.6996     17.2062      3.7383
   737.2500    149.3043      0.0000    798.4154     17.0611      3.6664
   737.5000    147.1004      0.0000    798.1645     16.8581      3.5758
   737.7500    144.7268      0.0000    797.9689     16.5621      3.4721
   738.0000    144.4086      0.0000    797.8163     16.1766      3.3618
   738.2500    147.6453      0.0000    797.6810     15.7315      3.2492
   738.5000    153.7430      0.0000    797.5502     15.2667      3.1393
   738.7500    159.9347      0.0000    797.4377     14.8225      3.0393
   739.0000    163.5003      0.0000    797.3798     14.4331      2.9579
   739.2500    163.6509      0.0000    797.4075     14.1171      2.9029
   739.5000    160.9072      0.0000    797.5090     13.8773      2.8758
   739.7500    155.1287      0.0000    797.6213     13.7073      2.8695
   740.0000    145.2529      0.0000    797.6757     13.5959      2.8712
   740.2500    131.3707      0.0000    797.6616     13.5355      2.8693
   740.5000    116.3199      0.0000    797.6414     13.5338      2.8584
   740.7500    104.3024      0.0000    797.6964     13.6119      2.8406
   741.0000     97.8517      0.0000    797.8531     13.7839      2.8228
   741.2500     96.5306      0.0000    798.0549     14.0395      2.8111
   741.5000     98.1968      0.0000    798.2046     14.3482      2.8079
   741.7500    100.6146      0.0000    798.2404     14.6761      2.8111
   742.0000    102.1746      0.0000    798.1712     14.9972      2.8176
   742.2500    102.3861      0.0000    798.0435     15.2908      2.8264
   742.5000    102.1207      0.0000    797.8950     15.5360      2.8399
   742.7500    102.7485      0.0000    797.7482     15.7152      2.8598
