~Version Information
 VERS.                                  2.0 : CWLS LAS VERSION
 WRAP.                                   NO : WRAPING MODE
 SWARE .                 MController 2.5.0E : SOFTWARE VERSION
~Well Information
 WELL.                         Burson 8-31r : WELL
 COMP.                      Petrogulf CORP. : COMPANY
 FLD.                       Purgatory River : FIELD
 LOC.                        NWNE 8 33S 67W : LOCATION
 DATE.                         4/28-4/29/04 : DATE(S) LOGGED
 SRVC.                                  BGS : SERVICE COMPANY
 STAT.                             Colorado : STATE
 CNTY.                           Las Animas : COUNTY
 CTRY.                        United States : COUNTRY
 API.                       05-071-08039-00 : API NUMBER
 STRT.FT                              41.00 : START DEPTH
 STOP.FT                            2225.00 : STOP DEPTH
 STEP.FT                               1.00 : DEPTH INCREMENT
 NULL.                                -9999 : NULL VALUE
~Curve information
 DEPTH.FT                                   :
 ROP.MIN/FT                                 :
 GAS.UNITS                                  :
~ASCII Log data
# ...
     1041.00        0.167          4.8 
     1042.00        0.167          4.6 
     1043.00        0.133          4.8 
     1044.00        0.167          4.8 
     1045.00        0.167          5.7 
     1046.00        3.183          6.6 
     1047.00        0.133          5.9 
     1048.00        0.233          5.8 
     1049.00        0.483          5.6 
     1050.00        0.167          5.9 
     1051.00        0.167          5.8 
     1052.00        0.200          5.8 
     1053.00        0.200          5.6 
     1054.00        0.133          6.0 
     1055.00        0.167          5.5 
     1056.00        0.133          5.3 
     1057.00        0.133          5.8 
     1058.00        0.133          5.7 
     1059.00        0.133          7.0 
     1060.00        0.133          7.1 
     1061.00        0.133          8.2 
     1062.00        0.133          7.9 
     1063.00        0.200          8.0 
     1064.00        0.167          8.2 
     1065.00        0.233         42.7 
     1066.00        0.167         66.8 
     1067.00        0.200         58.6 
     1068.00        0.183         38.2 
     1069.00        0.167         17.8 
     1070.00        0.200         16.1 
     1071.00        0.200          8.7 
     1072.00        0.233          7.0 
     1073.00        0.200          5.6 
     1074.00        0.200          5.2 
     1075.00        0.200          5.1 
     1076.00        2.450          5.2 
     1077.00        0.233          5.0 
     1078.00        0.333          5.2 
     1079.00        0.300          5.0 
     1080.00        0.267          5.7 
     1081.00        0.233          4.9 
     1082.00        0.233          5.2 
     1083.00        0.233          5.5 
     1084.00        0.233          4.9 
     1085.00        0.200          4.9 
     1086.00        0.233          4.9 
     1087.00        0.200          5.0 
     1088.00        0.183          4.8 
     1089.00        0.200          5.3 
     1090.00        0.267          5.4 
     1091.00        0.200          4.9 
     1092.00        0.167          4.9 
     1093.00        0.200          4.9 
     1094.00        0.133          4.8 
     1095.00        0.133          5.1 
     1096.00        0.167          5.4 
     1097.00        0.200          5.4 
     1098.00        0.167          5.2 
     1099.00        0.167          5.4 
     1100.00        0.133          5.3 
     1101.00        0.133          5.7 
     1102.00        0.133          5.6 
     1103.00        0.133          6.1 
     1104.00        0.100          6.4 
     1105.00        0.133          7.4 
     1106.00        2.450          8.9 
     1107.00        0.133          5.1 
     1108.00        0.167          5.5 
     1109.00        0.200          6.6 
     1110.00        0.167          8.4 
     1111.00        0.233         10.1 
     1112.00        0.167         10.5 
     1113.00        0.267          9.0 
     1114.00        0.483          7.6 
     1115.00        0.267          5.6 
     1116.00        0.100          5.3 
     1117.00        0.167          6.0 
     1118.00        0.200          6.2 
     1119.00        0.167          6.8 
     1120.00        0.200          6.4 
     1121.00        0.233          5.6 
     1122.00        0.267          5.0 
     1123.00        0.233          4.9 
     1124.00        0.167          4.6 
     1125.00        0.167          4.5 
     1126.00        0.167          4.3 
     1127.00        0.133          4.6 
     1128.00        0.133          4.2 
     1129.00        0.100          4.2 
     1130.00        0.200          4.4 
     1131.00        0.217          4.3 
     1132.00        0.167          4.1 
     1133.00        0.200          4.4 
     1134.00        0.200          4.2 
     1135.00        0.200          4.3 
     1136.00        1.867          4.9 
     1137.00        0.100          5.0 
     1138.00        0.333          5.1 
     1139.00        0.350          5.4 
     1140.00        0.300          4.6 
     1141.00        0.233          4.3 
     1142.00        0.233          4.2 
     1143.00        0.233          4.6 
     1144.00        0.233          4.4 
     1145.00        0.200          4.4 
     1146.00        0.200          4.2 
     1147.00        0.200          4.7 
     1148.00        0.167          4.5 
     1149.00        0.167          4.1 
     1150.00        0.167          4.1 
     1151.00        0.167          3.9 
     1152.00        0.133          4.2 
     1153.00        0.133          4.2 
     1154.00        0.167          4.1 
     1155.00        0.167          4.2 
     1156.00        0.217          4.2 
     1157.00        0.133          4.0 
     1158.00        0.167          4.0 
     1159.00        0.167          4.0 
     1160.00        0.167          3.8 
     1161.00        0.200          4.0 
     1162.00        0.167          4.2 
     1163.00        0.167          4.1 
     1164.00        0.167          4.0 
     1165.00        0.167          4.1 
     1166.00        2.417        187.3 
     1167.00        0.067         14.9 
     1168.00        0.100         13.2 
     1169.00        0.367         10.7 
     1170.00        0.300          7.0 
     1171.00        0.233          6.2 
     1172.00        0.167          4.5 
     1173.00        0.167          4.6 
     1174.00        0.167          4.8 
     1175.00        0.200          5.4 
     1176.00        0.133          5.8 
     1177.00        0.100          6.3 
     1178.00        0.167          7.2 
     1179.00        0.133          6.6 
     1180.00        0.267          6.4 
     1181.00        0.183          5.7 
     1182.00        0.100          6.0 
     1183.00        0.100          8.0 
     1184.00        0.100          9.3 
     1185.00        0.100         10.9 
     1186.00        0.100         11.8 
     1187.00        0.200         12.4 
     1188.00        0.200          9.6 
     1189.00        0.167          7.0 
     1190.00        0.200          6.4 
     1191.00        0.200          4.5 
     1192.00        0.167          4.1 
     1193.00        0.200          3.8 
     1194.00        0.200          4.0 
     1195.00        0.200          3.5 
     1196.00        2.817          4.5 
     1197.00        0.600          4.1 
     1198.00        0.500          3.6 
     1199.00        0.233          3.6 
     1200.00        0.250          3.4 
     1201.00        0.167          3.3 
     1202.00        0.167          3.3 
     1203.00        0.200          3.4 
     1204.00        0.200          3.7 
     1205.00        0.167          3.2 
     1206.00        0.167          3.6 
     1207.00        0.167          3.7 
     1208.00        0.200          3.6 
     1209.00        0.200          3.7 
     1210.00        0.167          3.8 
     1211.00        0.200          3.9 
     1212.00        0.300          3.5 
     1213.00        0.233          3.8 
     1214.00        0.167          3.7 
     1215.00        0.167          3.5 
     1216.00        0.167          3.3 
     1217.00        0.200          3.6 
     1218.00        0.183          3.3 
     1219.00        0.300          3.9 
     1220.00        0.200          3.6 
     1221.00        0.167          3.6 
     1222.00        0.200          3.3 
     1223.00        0.200          3.4 
     1224.00        0.167          3.8 
     1225.00        0.167          3.7 
     1226.00        4.017          4.7 
     1227.00        0.067          3.9 
     1228.00        0.300          4.0 
     1229.00        0.300          4.1 
     1230.00        0.300          3.6 
     1231.00        0.317          3.5 
     1232.00        0.233          3.5 
     1233.00        0.200          3.6 
     1234.00        0.200          3.7 
     1235.00        0.200          3.9 
     1236.00        0.167          3.8 
     1237.00        0.200          3.8 
     1238.00        0.200          3.7 
     1239.00        0.167          3.7 
     1240.00        0.167          3.6 
