~Version Information
VERS.                      2.0: CWLS Log ASCII Standard - VERSION 2.0
WRAP.                       NO: One line per depth step
~Well Information Block
STRT.FT               298.0000: 
STOP.FT              1302.0000: 
STEP.FT                 0.1000: 
NULL.                -999.2500: 
COMP.          Pioneer Natural Resources: COMPANY
WELL.          Bouncer 41-27 Tr: WELL
FLD.           Purgatoire River: FIELD
LOC.           292' FNL & 222' FEL: LOCATION
PROV.                 Colorado: PROVINCE
CNTY.               Las Animas: COUNTRY
SRVC.                Patterson: SERVICE COMPANY
DATE.          Mon Feb 07 12:55:19 2005: LOG DATE
UWI.           05 071 08291 00: UNIQUE WELL ID
~Curve Information Block
DEPT.FT            0 000 00 00: Depth
DCAL.in                       : CDL Caliper
RHOB.g/cc                     : CDL Bulk Density
RHOC.g/cc                     : CDL Density Correction
DPOR.pu                       : CDL Density Porosity
GR.GAPI                       : Gamma Ray
NPOR.pu                       : Neutron Porosity
~Parameter Information Block
~A  Depth       DCAL        RHOB        RHOC        DPOR         GR         NPOR    
# ...
   758.8000      7.9122      2.5768      0.0297      4.4343     76.5265     22.6914
   758.9000      7.9122      2.5538      0.0300      5.8297     79.3179     22.7366
   759.0000      7.9179      2.5550     -0.0102      5.7582     83.1873     22.7133
   759.1000      7.9179      2.5908      0.0271      3.5859     87.2428     22.4328
   759.2000      7.9179      2.6265      0.1274      1.4252     91.8573     22.4939
   759.3000      7.9204      2.6290      0.0674      1.2737     95.7351     22.9326
   759.4000      7.9204      2.6121      0.0239      2.2972     98.8919     22.9163
   759.5000      7.9254      2.5954      0.0003      3.3071    100.1619     22.3819
   759.6000      7.9254      2.5806      0.0391      4.2062     97.8026     22.3837
   759.7000      7.9254      2.5692      0.0624      4.8997     94.2626     23.3013
   759.8000      7.9387      2.5710      0.0217      4.7886     88.7760     24.2079
   759.9000      7.9387      2.5816      0.0887      4.1466     80.3739     24.2299
   760.0000      7.9472      2.5825      0.0556      4.0931     74.9188     23.6252
   760.1000      7.9472      2.5808      0.0713      4.1945     74.4975     23.4049
   760.2000      7.9472      2.5975      0.0760      3.1803     75.9039     23.8650
   760.3000      7.9332      2.6237      0.0936      1.5955     77.6265     24.4079
   760.4000      7.9332      2.6378      0.0456      0.7367     79.7493     24.7454
   760.5000      7.9216      2.6408      0.0374      0.5567     81.2982     24.9092
   760.6000      7.9216      2.6386      0.0686      0.6880     82.3757     24.8398
   760.7000      7.9216      2.6295      0.0716      1.2434     84.5848     24.6254
   760.8000      7.9170      2.6141     -0.0052      2.1749     85.9404     24.3488
   760.9000      7.9170      2.5950      0.0330      3.3343     84.1283     23.8735
   761.0000      7.9131      2.5814     -0.0115      4.1605     80.0366     23.3352
   761.1000      7.9131      2.5888     -0.0429      3.7063     74.1039     23.3583
   761.2000      7.9131      2.5985      0.0978      3.1184     70.2365     24.1679
   761.3000      7.9200      2.5843      0.0095      3.9789     73.8483     25.1240
   761.4000      7.9200      2.5686     -0.0350      4.9308     84.1185     25.5338
   761.5000      7.9392      2.5730      0.0421      4.6649     95.4521     25.3091
   761.6000      7.9392      2.5889      0.0632      3.7030    104.1378     24.8663
   761.7000      7.9392      2.6155      0.0718      2.0924    109.6574     24.7473
   761.8000      7.9398      2.6439      0.1576      0.3722    110.0098     25.1644
   761.9000      7.9398      2.6470      0.1807      0.1834    104.5247     25.8516
   762.0000      7.8640      2.6298      0.1626      1.2258     99.8284     26.3970
   762.1000      7.8640      2.6219      0.1180      1.7031    100.5381     26.6189
   762.2000      7.8640      2.6286      0.1052      1.2984    105.1983     26.3279
   762.3000      7.8840      2.6290      0.0950      1.2713    112.3362     25.6504
   762.4000      7.8840      2.6117      0.0790      2.3183    119.9760     25.2963
   762.5000      7.9050      2.5836      0.0648      4.0264    126.5892     25.5712
   762.6000      7.9050      2.5568      0.0212      5.6458    131.9858     26.2345
   762.7000      7.9050      2.5314      0.0769      7.1880    136.5712     26.8976
   762.8000      7.9233      2.5011      0.0153      9.0233    139.1017     27.1204
   762.9000      7.9233      2.4881     -0.0249      9.8091    136.6741     26.9210
   763.0000      7.9213      2.5112      0.0040      8.4149    131.3969     26.8513
   763.1000      7.9213      2.5453      0.1125      6.3460    127.1902     27.1475
   763.2000      7.9213      2.5657      0.0612      5.1117    123.8219     27.4040
   763.3000      7.9153      2.5852      0.1043      3.9281    124.0240     27.3884
   763.4000      7.9153      2.6187      0.1253      1.8972    128.9416     27.3898
   763.5000      7.9223      2.6528      0.1518     -0.1668    132.4750     27.6106
   763.6000      7.9223      2.6658      0.1904     -0.9562    131.9171     27.7821
   763.7000      7.9223      2.6529      0.1501     -0.1785    130.2574     27.7176
   763.8000      7.8766      2.6234      0.1122      1.6101    128.4305     27.4898
   763.9000      7.8766      2.5907      0.0774      3.5927    125.0990     27.1321
   764.0000      7.8525      2.5607      0.0695      5.4133    121.9010     26.6232
   764.1000      7.8525      2.5305      0.0299      7.2427    123.3971     26.3027
   764.2000      7.8525      2.5072      0.0012      8.6566    128.9292     26.5989
   764.3000      7.9061      2.5039      0.0345      8.8516    135.4285     27.4307
   764.4000      7.9061      2.5167      0.0373      8.0766    143.6802     28.1700
   764.5000      7.9541      2.5280      0.0678      7.3915    150.4162     28.1193
   764.6000      7.9541      2.5346      0.0695      6.9939    149.2530     27.4451
   764.7000      7.9541      2.5464      0.0947      6.2772    143.7608     27.0413
   764.8000      7.9684      2.5659      0.0707      5.0983    142.9820     27.1427
   764.9000      7.9684      2.5833      0.0932      4.0436    146.9155     27.4496
   765.0000      7.9539      2.5904      0.0736      3.6127    150.1417     27.8621
   765.1000      7.9539      2.5943      0.0588      3.3762    151.3041     28.2316
   765.2000      7.9539      2.5982      0.0966      3.1376    152.3717     28.4241
   765.3000      7.9571      2.5912      0.1315      3.5624    157.5034     28.4533
   765.4000      7.9571      2.5708      0.0908      4.7985    164.6474     28.2137
   765.5000      7.9573      2.5545      0.0784      5.7895    163.4886     28.0856
   765.6000      7.9573      2.5576      0.0541      5.6006    152.9181     28.5567
   765.7000      7.9573      2.5739      0.0429      4.6134    143.4857     29.0519
   765.8000      7.9598      2.5875      0.0773      3.7880    140.8953     29.0403
   765.9000      7.9598      2.5905      0.0723      3.6065    145.8514     28.8473
   766.0000      7.9635      2.5838      0.0942      4.0125    157.3104     28.7492
   766.1000      7.9635      2.5691      0.0761      4.9013    166.8425     28.5779
   766.2000      7.9635      2.5468      0.1036      6.2571    165.3349     28.1714
   766.3000      7.9667      2.5271      0.0341      7.4515    155.5981     27.7347
   766.4000      7.9667      2.5201      0.0578      7.8702    149.7047     27.4388
   766.5000      7.9604      2.5180      0.0544      8.0021    150.6257     27.3787
   766.6000      7.9604      2.5148      0.0848      8.1928    154.2733     27.5022
   766.7000      7.9604      2.5158      0.0201      8.1311    158.0711     27.5575
   766.8000      7.9548      2.5302      0.0276      7.2598    157.3763     27.7601
   766.9000      7.9548      2.5526      0.0755      5.9059    153.3635     28.3188
   767.0000      7.9629      2.5583      0.0701      5.5591    153.5962     28.8240
   767.1000      7.9629      2.5433      0.0460      6.4650    157.4878     28.8363
   767.2000      7.9629      2.5264      0.0416      7.4902    157.5924     28.5726
   767.3000      7.9564      2.5105      0.0589      8.4554    154.2092     28.5711
   767.4000      7.9564      2.4870      0.0249      9.8787    153.4094     28.8252
   767.5000      7.9487      2.4692     -0.0073     10.9560    157.6324     28.9257
   767.6000      7.9487      2.4795      0.0316     10.3348    163.1085     28.7306
   767.7000      7.9487      2.5107      0.0367      8.4406    163.6685     28.3103
   767.8000      7.9651      2.5338      0.0740      7.0449    158.0078     27.9838
   767.9000      7.9651      2.5334      0.0681      7.0677    151.7000     28.4199
   768.0000      7.9677      2.5139      0.0245      8.2456    150.0526     29.4672
   768.1000      7.9677      2.4886      0.0218      9.7837    151.5139     29.9975
   768.2000      7.9677      2.4730      0.0412     10.7279    152.6167     29.4683
   768.3000      7.9696      2.4698      0.0332     10.9231    155.7991     28.4565
