~Version Information
VERS.                      2.0: CWLS Log ASCII Standard - VERSION 2.0
WRAP.                       NO: One line per depth step
~Well Information Block
STRT.FT               819.0000: 
STOP.FT              2499.5000: 
STEP.FT                 0.2500: 
NULL.                -999.2500: 
COMP.          Petrogulf Corporation: COMPANY
WELL.             State 16-21V: WELL
FLD.           Purgatorie River: FIELD
LOC.           1738' FWL & 332' FWL: LOCATION
PROV.                 Colorado: PROVINCE
CNTY.               Las Animas: COUNTRY
SRVC.          Patterson Wireline: SERVICE COMPANY
DATE.          Sun Jul 13 13:34:36 2003: LOG DATE
UWI.           05 071 08829 00: UNIQUE WELL ID
~Curve Information Block
DEPT.FT            0 000 00 00: Depth
SP.mV                         : DIL Spontaneous Potential
RILD.Ohm-m                    : DIL Deep Resistivity
RILM.Ohm-m                    : DIL Medium Resistivity
RLL3.Ohm-m                    : DIL Shallow Resistivity
GR.GAPI                       : Gamma Ray
~Parameter Information Block
~A  Depth        SP         RILD        RILM        RLL3         GR     
# ...
  2471.0000     -2.9328     20.7330     22.5286     28.1467     65.1536
  2471.2500     -3.0686     20.2947     22.0604     28.5066     58.2198
  2471.5000     -3.1702     19.8975     21.5683     28.4075     42.4658
  2471.7500     -3.2041     19.5686     21.0790     27.4911     30.4446
  2472.0000     -3.1503     19.3088     20.6175     25.6136     14.8766
  2472.2500     -3.0120     19.0992     20.2038     23.0624      7.8734
  2472.5000     -2.8166     18.9134     19.8513     20.5322      2.3468
  2472.7500     -2.6084     18.7273     19.5654     18.8121      0.8765
  2473.0000     -2.4317     18.5219     19.3430     18.3758      0.1509
  2473.2500     -2.3117     18.2802     19.1727     19.1605      0.0379
  2473.5000     -2.2402     17.9887     19.0358     20.7014      0.0022
  2473.7500     -2.1773     17.6440     18.9078     22.5116   -999.2500
  2474.0000     -2.0688     17.2579     18.7609     24.3808   -999.2500
  2474.2500     -1.8689     16.8543     18.5679     26.3327   -999.2500
  2474.5000     -1.5579     16.4572     18.3061     28.3149   -999.2500
  2474.7500     -1.1477     16.0801     17.9619     29.9506   -999.2500
  2475.0000     -0.6774     15.7230     17.5331     30.6354   -999.2500
  2475.2500     -0.1982     15.3782     17.0295     29.9805   -999.2500
  2475.5000      0.2479     15.0371     16.4709     28.2351   -999.2500
  2475.7500      0.6432     14.6926     15.8832     26.1691   -999.2500
  2476.0000      0.9954     14.3382     15.2946     24.3795   -999.2500
  2476.2500      1.3218     13.9682     14.7316     22.7741   -999.2500
  2476.5000      1.6295     13.5835     14.2172     20.9062   -999.2500
  2476.7500      1.9050     13.1996     13.7696     18.7438   -999.2500
  2477.0000      2.1212     12.8473     13.4030     16.8580   -999.2500
  2477.2500      2.2550     12.5628     13.1281     15.8091   -999.2500
  2477.5000      2.2997     12.3741     12.9533     15.5351   -999.2500
  2477.7500      2.2627     12.2920     12.8860     15.4662   -999.2500
  2478.0000      2.1539     12.3115     12.9335     15.1782   -999.2500
  2478.2500      1.9798     12.4198     13.1037     14.8614   -999.2500
  2478.5000      1.7431     12.6089     13.4057     15.2416   -999.2500
  2478.7500      1.4472     12.8836     13.8501     17.2210   -999.2500
  2479.0000      1.1008     13.2630     14.4488     21.5952   -999.2500
  2479.2500      0.7231     13.7240     15.2144     28.8101   -999.2500
  2479.5000      0.3436     14.3298     16.1584     38.5901   -999.2500
  2479.7500     -0.0039     15.1487     17.2891     49.6796   -999.2500
  2480.0000     -0.2880     16.1368     18.6064     60.1916   -999.2500
  2480.2500     -0.4842     17.2921     20.0945     68.5600   -999.2500
  2480.5000     -0.5761     18.5989     21.7127     74.3480   -999.2500
  2480.7500     -0.5614     20.0052     23.3835     78.2332   -999.2500
  2481.0000     -0.4583     21.3922     24.9860     81.3218   -999.2500
  2481.2500     -0.3028     22.5688     26.3598     84.4508   -999.2500
  2481.5000     -0.1337     23.3327     27.3306     87.8840   -999.2500
  2481.7500      0.0224     23.5923     27.7573     91.3421   -999.2500
  2482.0000      0.1556     23.4658     27.5822     94.0882   -999.2500
  2482.2500      0.2643     23.2737     26.8580     94.8919   -999.2500
  2482.5000      0.3445     23.4529     25.7274     92.0842   -999.2500
  2482.7500      0.3851     24.4979     24.3758     84.1964   -999.2500
  2483.0000      0.3740     27.2146     22.9788     71.1546   -999.2500
  2483.2500      0.3113     32.0493     21.6715     55.0437   -999.2500
  2483.5000      0.2179     40.3924     20.5422     39.4258   -999.2500
  2483.7500      0.1259     53.8150     19.6393     27.4989   -999.2500
  2484.0000      0.0592     73.4251     18.9848     20.5917   -999.2500
  2484.2500      0.0224     97.5958     18.5865     18.1784   -999.2500
  2484.5000      0.0067    120.3773     18.4469     19.1231   -999.2500
  2484.7500      0.0016    135.5683     18.5702     22.7656   -999.2500
  2485.0000      0.0003    142.4791     18.9676     28.8003   -999.2500
  2485.2500      0.0000    144.6254     19.6613     36.3371   -999.2500
  2485.5000   -999.2500    145.6329     20.6903     43.5301   -999.2500
  2485.7500   -999.2500    147.8419     22.1160     48.4618   -999.2500
  2486.0000   -999.2500    508.6350     24.0320     50.3730   -999.2500
  2486.2500   -999.2500    602.2195     26.5766     49.9068   -999.2500
  2486.5000   -999.2500    769.2809     29.9535     48.2583   -999.2500
  2486.7500   -999.2500   1051.5908     34.4638     46.2500   -999.2500
  2487.0000   -999.2500   1495.4144     40.5574     44.1211   -999.2500
  2487.2500   -999.2500   2099.7920     48.9193     41.8837   -999.2500
  2487.5000   -999.2500   2739.4077     60.6182     39.6520   -999.2500
  2487.7500   -999.2500   3220.7173     77.3728     37.6444   -999.2500
  2488.0000   -999.2500   3475.4634    102.0543     36.0140   -999.2500
  2488.2500   -999.2500   3575.8557    139.7040     34.7741   -999.2500
  2488.5000   -999.2500   3607.3650    199.7865     33.8750   -999.2500
  2488.7500   -999.2500   3615.5767    301.8936     33.2625   -999.2500
  2489.0000   -999.2500 100000.0000    493.2063     32.7954   -999.2500
  2489.2500   -999.2500 100000.0000    921.8223     32.1493   -999.2500
  2489.5000   -999.2500 100000.0000   2534.0481     30.9518   -999.2500
  2489.7500   -999.2500 100000.0000 100000.0000     29.1176   -999.2500
  2490.0000   -999.2500 100000.0000 100000.0000     27.0302   -999.2500
  2490.2500   -999.2500 100000.0000 100000.0000     25.3193   -999.2500
  2490.5000   -999.2500 100000.0000 100000.0000     24.4238   -999.2500
  2490.7500   -999.2500 100000.0000 100000.0000     24.3426   -999.2500
  2491.0000   -999.2500 100000.0000 100000.0000     24.7201   -999.2500
  2491.2500   -999.2500 100000.0000 100000.0000     25.0678   -999.2500
  2491.5000   -999.2500 100000.0000 100000.0000     24.8537   -999.2500
  2491.7500   -999.2500 100000.0000 100000.0000     23.4677   -999.2500
  2492.0000   -999.2500 100000.0000 100000.0000     20.3731   -999.2500
  2492.2500   -999.2500 100000.0000   2493.8748     15.5860   -999.2500
  2492.5000   -999.2500   -999.2500   3122.3467     10.0063   -999.2500
  2492.7500   -999.2500   -999.2500   4051.3281      5.0069   -999.2500
  2493.0000   -999.2500   -999.2500   5486.7593      1.5404   -999.2500
  2493.2500   -999.2500   -999.2500   7847.0000     -0.3250   -999.2500
  2493.5000   -999.2500   -999.2500  12114.2900     -1.1051   -999.2500
  2493.7500   -999.2500   -999.2500  21224.8242     -1.3589   -999.2500
  2494.0000   -999.2500   -999.2500  49563.3047     -1.4232   -999.2500
  2494.2500   -999.2500   -999.2500 100000.0000     -1.4359   -999.2500
  2494.5000   -999.2500   -999.2500 100000.0000   -999.2500   -999.2500
  2494.7500   -999.2500   -999.2500 100000.0000   -999.2500   -999.2500
  2495.0000   -999.2500   -999.2500 100000.0000   -999.2500   -999.2500
  2495.2500   -999.2500   -999.2500 100000.0000   -999.2500   -999.2500
  2495.5000   -999.2500   -999.2500 100000.0000   -999.2500   -999.2500
  2495.7500   -999.2500   -999.2500 100000.0000   -999.2500   -999.2500
  2496.0000   -999.2500   -999.2500 100000.0000   -999.2500   -999.2500
  2496.2500   -999.2500   -999.2500 100000.0000   -999.2500   -999.2500
  2496.5000   -999.2500   -999.2500 100000.0000   -999.2500   -999.2500
  2496.7500   -999.2500   -999.2500 100000.0000   -999.2500   -999.2500
  2497.0000   -999.2500   -999.2500 100000.0000   -999.2500   -999.2500
  2497.2500   -999.2500   -999.2500 100000.0000   -999.2500   -999.2500
  2497.5000   -999.2500   -999.2500 100000.0000   -999.2500   -999.2500
  2497.7500   -999.2500   -999.2500 100000.0000   -999.2500   -999.2500
  2498.0000   -999.2500   -999.2500 100000.0000   -999.2500   -999.2500
  2498.2500   -999.2500   -999.2500 100000.0000   -999.2500   -999.2500
  2498.5000   -999.2500   -999.2500 100000.0000   -999.2500   -999.2500
  2498.7500   -999.2500   -999.2500 100000.0000   -999.2500   -999.2500
