~Version Information
VERS.                      2.0: CWLS Log ASCII Standard - VERSION 2.0
WRAP.                       NO: One line per depth step
~Well Information Block
STRT.FT               698.9000: 
STOP.FT              2459.5000: 
STEP.FT                 0.1000: 
NULL.                -999.2500: 
COMP.          Petrogulf Corporation: COMPANY
WELL.             State 16-23V: WELL
FLD.           Purgatorie River: FIELD
LOC.           2414' FSL & 2215' FWL: LOCATION
PROV.                 Colorado: PROVINCE
CNTY.               Las Animas: COUNTRY
SRVC.                         : SERVICE COMPANY
DATE.          Mon Jun 09 12:47:39 2003: LOG DATE
UWI.           05 071 07865 00: UNIQUE WELL ID
~Curve Information Block
DEPT.FT            0 000 00 00: Depth
SP.mV                         : DIL Spontaneous Potential
RILD.Ohm-m                    : DIL Deep Resistivity
RILM.Ohm-m                    : DIL Medium Resistivity
RLL3.Ohm-m                    : DIL Shallow Resistivity
GR.GAPI                       : Gamma Ray
~Parameter Information Block
~A  Depth        SP         RILD        RILM        RLL3         GR     
# ...
  1975.7000     13.8392     20.5417     27.7601     33.7776     57.8203
  1975.8000     13.6906     21.0690     29.0385     35.8833     57.2060
  1975.9000     13.6906     21.0690     29.0385     35.8833     56.7920
  1976.0000     13.5386     21.5510     30.0538     38.0962     56.5881
  1976.1000     13.5386     21.5510     30.0538     38.0962     56.5967
  1976.2000     13.5386     21.5510     30.0538     38.0962     56.8133
  1976.3000     13.4031     21.9650     30.7059     40.1712     57.2232
  1976.4000     13.4031     21.9650     30.7059     40.1712     57.7986
  1976.5000     13.2963     22.3191     31.0264     41.5419     58.4985
  1976.6000     13.2963     22.3191     31.0264     41.5419     59.2635
  1976.7000     13.2963     22.3191     31.0264     41.5419     60.0244
  1976.8000     13.2161     22.6597     31.2410     41.8062     60.7068
  1976.9000     13.2161     22.6597     31.2410     41.8062     61.2409
  1977.0000     13.1551     23.0130     31.6170     41.3778     61.5717
  1977.1000     13.1551     23.0130     31.6170     41.3778     61.6692
  1977.2000     13.1551     23.0130     31.6170     41.3778     61.5301
  1977.3000     13.1132     23.3302     32.2400     41.1905     61.1779
  1977.4000     13.1132     23.3302     32.2400     41.1905     60.6586
  1977.5000     13.0997     23.5192     32.9688     41.7500     60.0276
  1977.6000     13.0997     23.5192     32.9688     41.7500     59.3423
  1977.7000     13.0997     23.5192     32.9688     41.7500     58.6476
  1977.8000     13.1270     23.5444     33.5831     42.7857     57.9709
  1977.9000     13.1270     23.5444     33.5831     42.7857     57.3204
  1978.0000     13.1974     23.4779     33.9559     43.7598     56.6853
  1978.1000     13.1974     23.4779     33.9559     43.7598     56.0471
  1978.2000     13.1974     23.4779     33.9559     43.7598     55.3848
  1978.3000     13.2976     23.4490     34.0967     44.3452     54.6854
  1978.4000     13.2976     23.4490     34.0967     44.3452     53.9506
  1978.5000     13.4022     23.5522     34.0623     44.2688     53.1972
  1978.6000     13.4022     23.5522     34.0623     44.2688     52.4522
  1978.7000     13.4022     23.5522     34.0623     44.2688     51.7490
  1978.8000     13.4776     23.7891     33.8606     43.2099     51.1163
  1978.9000     13.4776     23.7891     33.8606     43.2099     50.5725
  1979.0000     13.5044     24.0857     33.4636     41.2876     50.1234
  1979.1000     13.5044     24.0857     33.4636     41.2876     49.7604
  1979.2000     13.5044     24.0857     33.4636     41.2876     49.4661
  1979.3000     13.4990     24.3637     32.9034     39.2038     49.2193
  1979.4000     13.4990     24.3637     32.9034     39.2038     49.0045
  1979.5000     13.4847     24.5821     32.3098     37.5453     48.8139
  1979.6000     13.4847     24.5821     32.3098     37.5453     48.6508
  1979.7000     13.4847     24.5821     32.3098     37.5453     48.5324
  1979.8000     13.4540     24.7271     31.8257     36.2585     48.4866
  1979.9000     13.4540     24.7271     31.8257     36.2585     48.5452
  1980.0000     13.3831     24.8113     31.5084     34.9880     48.7428
  1980.1000     13.3831     24.8113     31.5084     34.9880     49.1101
  1980.2000     13.3831     24.8113     31.5084     34.9880     49.6686
  1980.3000     13.2709     24.8828     31.3298     33.7097     50.4270
  1980.4000     13.2709     24.8828     31.3298     33.7097     51.3778
  1980.5000     13.1516     24.9825     31.2430     32.8439     52.4956
  1980.6000     13.1516     24.9825     31.2430     32.8439     53.7369
  1980.7000     13.1516     24.9825     31.2430     32.8439     55.0422
  1980.8000     13.0608     25.0898     31.2261     32.8326     56.3409
  1980.9000     13.0608     25.0898     31.2261     32.8326     57.5584
  1981.0000     13.0004     25.1546     31.2751     33.7907     58.6236
  1981.1000     13.0004     25.1546     31.2751     33.7907     59.4788
  1981.2000     13.0004     25.1546     31.2751     33.7907     60.0833
  1981.3000     12.9468     25.1898     31.3770     35.4929     60.4217
  1981.4000     12.9468     25.1898     31.3770     35.4929     60.5032
  1981.5000     12.8868     25.2879     31.4937     37.5055     60.3583
  1981.6000     12.8868     25.2879     31.4937     37.5055     60.0355
  1981.7000     12.8868     25.2879     31.4937     37.5055     59.5916
  1981.8000     12.8229     25.5267     31.5835     39.3045     59.0859
  1981.9000     12.8229     25.5267     31.5835     39.3045     58.5711
  1982.0000     12.7522     25.9034     31.6444     40.3847     58.0902
  1982.1000     12.7522     25.9034     31.6444     40.3847     57.6725
  1982.2000     12.7522     25.9034     31.6444     40.3847     57.3291
  1982.3000     12.6694     26.4006     31.7306     40.4641     57.0582
  1982.4000     12.6694     26.4006     31.7306     40.4641     56.8420
  1982.5000     12.5824     27.0911     31.9262     39.6851     56.6510
  1982.6000     12.5824     27.0911     31.9262     39.6851     56.4466
  1982.7000     12.5824     27.0911     31.9262     39.6851     56.1856
  1982.8000     12.5007     28.1100     32.3154     38.5554     55.8226
  1982.9000     12.5007     28.1100     32.3154     38.5554     55.3174
  1983.0000     12.4269     29.5186     32.9777     37.6950     54.6395
  1983.1000     12.4269     29.5186     32.9777     37.6950     53.7728
  1983.2000     12.4269     29.5186     32.9777     37.6950     52.7203
  1983.3000     12.3705     31.2276     33.9861     37.6554     51.5062
  1983.4000     12.3705     31.2276     33.9861     37.6554     50.1756
  1983.5000     12.3451     33.0579     35.3654     38.8800     48.7903
  1983.6000     12.3451     33.0579     35.3654     38.8800     47.4249
  1983.7000     12.3451     33.0579     35.3654     38.8800     46.1560
  1983.8000     12.3496     34.8592     37.0266     41.6835     45.0533
  1983.9000     12.3496     34.8592     37.0266     41.6835     44.1700
  1984.0000     12.3731     36.5496     38.7650     46.0708     43.5376
  1984.1000     12.3731     36.5496     38.7650     46.0708     43.1576
  1984.2000     12.3731     36.5496     38.7650     46.0708     43.0054
  1984.3000     12.4131     38.0504     40.3879     51.4540     43.0351
  1984.4000     12.4131     38.0504     40.3879     51.4540     43.1879
  1984.5000     12.4678     39.2367     41.8479     56.6942     43.4016
  1984.6000     12.4678     39.2367     41.8479     56.6942     43.6236
  1984.7000     12.4678     39.2367     41.8479     56.6942     43.8151
  1984.8000     12.5312     39.9665     43.2125     60.7567     43.9570
  1984.9000     12.5312     39.9665     43.2125     60.7567     44.0464
  1985.0000     12.6113     40.1160     44.5240     63.5611     44.0950
  1985.1000     12.6113     40.1160     44.5240     63.5611     44.1215
  1985.2000     12.6113     40.1160     44.5240     63.5611     44.1445
  1985.3000     12.7353     39.5871     45.7376     66.0746     44.1788
  1985.4000     12.7353     39.5871     45.7376     66.0746     44.2300
  1985.5000     12.9272     38.3375     46.7306     69.4640     44.2925
  1985.6000     12.9272     38.3375     46.7306     69.4640     44.3516
  1985.7000     12.9272     38.3375     46.7306     69.4640     44.3821
  1985.8000     13.1958     36.4325     47.2169     74.4957     44.3521
  1985.9000     13.1958     36.4325     47.2169     74.4957     44.2271
  1986.0000     13.5379     34.0701     46.6053     81.7551     43.9761
  1986.1000     13.5379     34.0701     46.6053     81.7551     43.5810
  1986.2000     13.5379     34.0701     46.6053     81.7551     43.0448
  1986.3000     13.9438     31.5330     44.2001     91.2906     42.4038
  1986.4000     13.9438     31.5330     44.2001     91.2906     41.7302
  1986.5000     14.4011     29.0807     39.9080    100.8703     41.1367
  1986.6000     14.4011     29.0807     39.9080    100.8703     40.7687
  1986.7000     14.4011     29.0807     39.9080    100.8703     40.7929
  1986.8000     14.8920     26.8552     34.5951    105.0854     41.3767
