~Version Information               
VERS.     2.0     :     CWLS LAS VERSION
WRAP.                         NO     :     WRAPING MODE
~Well Information   
API.                      :            
WELL.               Egan 9-11V     :     WELL
COMP.                    N/A     :     COMPANY
FLD.                    N/A     :     FIELD
LOC.                    N/A     :     LOCATION
CNTY.                    N/A     :     COUNTY
STATE.              N/A     :     STATE
CTRY.                    N/A     :     COUNTRY
DATE.                N/A     :     DATE (LOGGED)
UWI.                    N/A     :     UNIQUE WELL ID
SRVC.                N/A     :     SERVICE COMPANY
STAT.                           :
STRT.FT              612.00     :     START DEPTH
STOP.FT             2500.00     :     STOP DEPTH
STEP.FT                1.00     :     DEPTH INCREMENT
NULL.             -9999           :     NULL VALUE
~Curve information               
 DEPTH.FT                                   :
 ROP.MIN/FT                                 :
 GAS.UNITS                                  :     
C1.PPM          :     
C2.PPM          :
~ASCII Log data               
# ...
1204.00        0.23     3         10.0          -49995
1205.00        0.23     3         10.0          -49995
1206.00        0.26     7         10.2          -49995
1207.00        0.26     7         11.7          -49995
1208.00        0.23     3         11.7          -49995
1209.00        0.26     7         14.0          -49995
1210.00        0.26     7         13.7          -49995
1211.00        0.26     7         13.7          -49995
1212.00        0.23     3         13.1          -49995
1213.00        0.30     0         12.7          -49995
1214.00        0.28     3         12.0          -49995
1215.00        0.26     7         11.1          -49995
1216.00        0.23     3         11.3          -49995
1217.00        0.26     7         10.7          -49995
1218.00        0.26     7         11.2          -49995
1219.00        0.23     3         11.2          -49995
1220.00        0.20     0         10.6          -49995
1221.00        0.20     0         11.1          -49995
1222.00        0.56     7         11.1          -49995
1223.00        0.30     0         10.8          -49995
1224.00        0.20     0         12.1          -49995
1225.00        0.13     3         12.0          -49995
1226.00        0.20     0         13.3          -49995
1227.00        0.10     0         14.8          -49995
1228.00        0.10     0         14.5          -49995
1229.00        0.13     3         17.0          -49995
1230.00        0.16     7         17.4          -49995
1231.00        0.20     0         16.1          -49995
1232.00        0.23     3         15.7          -49995
1233.00        0.20     0         15.7          -49995
1234.00        0.16     7         17.3          -49995
1235.00        0.20     0         18.1          -49995
1236.00        0.23     3         19.0          -49995
1237.00        0.21     7         19.3          -49995
1238.00        0.23     3         16.5          -49995
1239.00        0.20     0         16.4          -49995
1240.00        0.26     7         15.3          -49995
1241.00        0.26     7         15.5          -49995
1242.00        0.16     7         16.0          -49995
1243.00        0.13     3         16.0          -49995
1244.00        0.13     3         15.8          -49995
1245.00        0.20     0         15.9          -49995
1246.00        0.10     0         15.6          -49995
1247.00        0.13     3         15.6          -49995
1248.00        0.13     3         16.0          -49995
1249.00        0.20     0         15.0          -49995
1250.00        0.20     0         14.3          -49995
1251.00        0.20     0         16.0          -49995
1252.00        0.26     7         14.1          -49995
1253.00        0.36     7         16.2          -49995
1254.00        0.30     0         21.1          -49995
1255.00        0.23     3         20.6          -49995
1256.00        0.25     0         17.8          -49995
1257.00        0.26     7         18.6          -49995
1258.00        0.30     0         18.5          -49995
1259.00        0.26     7         15.7          -49995
1260.00        0.23     3         15.5          -49995
1261.00        0.23     3         14.7          -49995
1262.00        0.23     3         14.1          -49995
1263.00        0.26     7         14.4          -49995
1264.00        0.23     3         14.0          -49995
1265.00        0.26     7         12.8          -49995
1266.00        0.20     0         13.5          -49995
1267.00        0.26     7         13.2          -49995
1268.00        0.23     3         12.3          -49995
1269.00        0.21     7         12.6          -49995
1270.00        0.20     0         11.7          -49995
1271.00        0.20     0         12.0          -49995
1272.00        0.13     3         12.2          -49995
1273.00        0.10     0         12.2          -49995
1274.00        0.16     7         12.0          -49995
1275.00        0.16     7         11.5          -49995
1276.00        0.10     0         11.6          -49995
1277.00        0.10     0         11.1          -49995
1278.00        0.10     0         11.2          -49995
1279.00        0.06     7         11.2          -49995
1280.00        0.10     0         27.6          -49995
1281.00        0.06     7         18.8          -49995
1282.00        0.26     7         18.2          -49995
1283.00        0.13     3         18.6          -49995
1284.00        0.20     0         19.9          -49995
1285.00        0.26     7         20.7          -49995
1286.00        0.20     0         23.7          -49995
1287.00        0.20     0         27.5          -49995
1288.00        0.23     3         27.7          -49995
1289.00        0.26     7         28.5          -49995
1290.00        0.30     0         28.5          -49995
1291.00        0.26     7         28.2          -49995
1292.00        0.30     0         24.1          -49995
1293.00        0.33     3         21.8          -49995
1294.00        0.31     7         18.8          -49995
1295.00        0.30     0         17.6          -49995
1296.00        0.30     0         17.0          -49995
1297.00        0.26     7         16.1          -49995
1298.00        0.23     3         15.6          -49995
1299.00        0.26     7         16.1          -49995
1300.00        0.23     3         15.4          -49995
1301.00        0.23     3         13.9          -49995
1302.00        0.06     7         14.0          -49995
1303.00        0.13     3         14.0          -49995
1304.00        0.13     3         14.3          -49995
1305.00        0.06     7         14.3          -49995
1306.00        0.16     7         14.1          -49995
1307.00        0.23     3         13.4          -49995
1308.00        0.23     3         14.9          -49995
1309.00        0.30     0         14.8          -49995
1310.00        0.31     7         19.8          -49995
1311.00        0.23     3         20.9          -49995
1312.00        0.13     3         15.4          -49995
1313.00        0.51     7         17.5          -49995
1314.00        0.33     3         23.1          -49995
1315.00        0.46     7         25.6          -49995
1316.00        0.46     7         23.3          -49995
1317.00        0.36     7         20.1          -49995
1318.00        0.43     3         17.2          -49995
1319.00        0.46     7         15.0          -49995
1320.00        0.33     3         14.1          -49995
1321.00        0.38     3         14.3          -49995
1322.00        0.23     3         13.1          -49995
1323.00        0.20     0         13.2          -49995
1324.00        0.16     7         12.8          -49995
1325.00        0.20     0         13.4          -49995
1326.00        0.20     0         12.3          -49995
1327.00        0.16     7         12.9          -49995
1328.00        0.20     0         12.5          -49995
1329.00        0.26     7         14.2          -49995
1330.00        0.26     7         15.1          -49995
1331.00        0.26     7         14.4          -49995
1332.00        0.23     3         15.4          -49995
1333.00        0.16     7         14.5          -49995
1334.00        0.20     0         14.3          -49995
1335.00        0.23     3         14.4          -49995
1336.00        0.18     3         14.4          -49995
1337.00        0.20     0         14.0          -49995
1338.00        0.20     0         13.7          -49995
1339.00        0.20     0         14.3          -49995
1340.00        0.13     3         14.1          -49995
1341.00        0.20     0         14.2          -49995
1342.00        0.26     7         13.5          -49995
1343.00        0.41     7         15.8          -49995
1344.00        0.33     3         19.1          -49995
1345.00        0.30     0         23.9          -49995
1346.00        0.23     3         26.8          -49995
1347.00        0.20     0         26.0          -49995
1348.00        0.43     3         23.9          -49995
1349.00        0.26     7         21.6          -49995
