~Version Information
VERS.                      2.0: CWLS Log ASCII Standard - VERSION 2.0
WRAP.                       NO: One line per depth step
~Well Information Block
STRT.FT               -11.0000: 
STOP.FT              2634.5000: 
STEP.FT                 0.2500: 
NULL.                -999.2500: 
COMP.          Evergreen Operating Corporation: COMPANY
WELL.          Sand PebbleS 13-33: WELL
FLD.           Purgatorie River: FIELD
LOC.           1883' FSL & 63' FWL--: LOCATION
PROV.                 Colorado: PROVINCE
CNTY.               Las Animas: COUNTRY
SRVC.          Patterson Wireline: SERVICE COMPANY
DATE.          Fri Mar 18 09:37:20 2005: LOG DATE
UWI.          005 071 08224 : UNIQUE WELL ID
~Curve Information Block
DEPT.FT            0 000 00 00: Depth
CCL.                          : Casing Collar Locator
TT3.usec                      : CBL 3' Travel Time
AMP3.mV                       : CBL 3' Amplitude
GR.GAPI                       : Gamma Ray
~Parameter Information Block
~A  Depth       CCL         TT3         AMP3         GR     
# ...
  1731.0000      0.0000    715.4902      5.1236    132.7289
  1731.2500      0.0000    710.3642      5.1071    138.1703
  1731.5000      0.0000    703.4985      5.1349    143.6482
  1731.7500      0.0000    695.5361      5.1554    148.6832
  1732.0000      0.0000    688.4513      5.1526    152.4860
  1732.2500      0.0000    683.7614      5.1413    155.1645
  1732.5000      0.0000    681.6348      5.1235    157.8077
  1732.7500      0.0000    681.3085      5.0724    160.9227
  1733.0000      0.0000    681.9138      4.9694    163.4103
  1733.2500      0.0000    682.9319      4.8473    163.7632
  1733.5000      0.0000    684.2365      4.7779    162.3051
  1733.7500      0.0000    685.9683      4.8058    161.7105
  1734.0000      0.0000    688.2670      4.8983    164.7975
  1734.2500      0.0000    690.9492      4.9663    171.7902
  1734.5000      0.0000    693.7073      4.9369    179.9276
  1734.7500      0.0000    697.0914      4.8076    185.7916
  1735.0000      0.0000    703.0616      4.6368    187.9122
  1735.2500      0.0000    713.4374      4.4899    187.1781
  1735.5000      0.0000    727.2457      4.3980    185.0705
  1735.7500      0.0000    740.2698      4.3638    182.0864
  1736.0000      0.0000    747.9218      4.3897    177.9995
  1736.2500      0.0000    748.6129      4.4811    172.9809
  1736.5000      0.0000    744.2495      4.6227    167.6810
  1736.7500      0.0000    737.8709      4.7656    162.2915
  1737.0000      0.0000    731.4727      4.8478    156.2567
  1737.2500      0.0000    725.8919      4.8357    149.2302
  1737.5000      0.0000    721.4954      4.7431    142.0731
  1737.7500      0.0000    718.1415      4.6106    136.8533
  1738.0000      0.0000    715.0182      4.4717    135.7646
  1738.2500      0.0000    711.3425      4.3437    139.1831
  1738.5000      0.0000    707.3434      4.2385    144.4069
  1738.7500      0.0000    704.4868      4.1707    147.1413
  1739.0000      0.0000    704.5953      4.1500    144.5765
  1739.2500      0.0000    708.2240      4.1799    136.7499
  1739.5000      0.0000    713.6392      4.2634    125.5454
  1739.7500      0.0000    717.7164      4.3996    113.5825
  1740.0000      0.0000    718.2620      4.5644    103.8405
  1740.2500      0.0000    715.7148      4.6990     98.7002
  1740.5000      0.0000    712.6749      4.7371     98.4449
  1740.7500      0.0000    711.5380      4.6563    101.3302
  1741.0000      0.0000    712.3754      4.4994    105.5201
  1741.2500      0.0000    713.2203      4.3406    110.4938
  1741.5000      0.0000    712.2927      4.2333    116.7429
  1741.7500      0.0000    709.5326      4.1929    125.0674
  1742.0000      0.0000    706.1489      4.2177    136.2741
  1742.2500      0.0000    703.2805      4.3098    150.4028
  1742.5000      0.0000    701.1133      4.4757    165.2512
  1742.7500      0.0000    698.9233      4.7033    176.1614
  1743.0000      0.0000    695.9469      4.9392    178.6626
  1743.2500      0.0000    692.2328      5.1080    171.9308
  1743.5000      0.0000    688.5300      5.1650    159.1578
  1743.7500      0.0000    685.5500      5.1226    144.6074
  1744.0000      0.0000    683.5882      5.0243    131.2389
  1744.2500      0.0000    682.6417      4.9113    121.2115
  1744.5000      0.0000    682.6141      4.8198    117.1880
  1744.7500      0.0000    683.4594      4.7877    121.5168
  1745.0000      0.0000    685.3470      4.8367    133.5338
  1745.2500      0.0000    688.6683      4.9435    148.3952
  1745.5000      0.0000    693.5447      5.0481    159.8669
  1745.7500      0.0000    699.0166      5.1047    164.7702
  1746.0000      0.0000    702.9694      5.1218    164.4943
  1746.2500      0.0000    703.5578      5.1423    162.6256
  1746.5000      0.0000    700.8917      5.1925    161.8371
  1746.7500      0.0000    696.9147      5.2669    162.4693
  1747.0000      0.0000    693.5989      5.3513    162.8302
  1747.2500      0.0000    691.6362      5.4436    160.8493
  1747.5000      0.0000    690.6964      5.5471    156.1442
  1747.7500      0.0000    690.2730      5.6531    150.7410
  1748.0000      0.0000    690.0702      5.7382    147.7814
  1748.2500      0.0000    689.9662      5.7763    149.5597
  1748.5000      0.0000    689.9539      5.7533    156.4718
  1748.7500      0.0000    690.1008      5.6791    167.0728
  1749.0000      0.0000    690.4390      5.5950    178.4531
  1749.2500      0.0000    690.8698      5.5594    187.0138
  1749.5000      0.0000    691.2162      5.6077    190.2705
  1749.7500      0.0000    691.3601      5.7192    188.4740
  1750.0000      0.0000    691.3006      5.8314    183.9965
  1750.2500      0.0000    691.1113      5.8865    179.0628
  1750.5000      0.0000    690.8935      5.8616    174.5032
  1750.7500      0.0000    690.7565      5.7674    170.4825
  1751.0000      0.0000    690.7785      5.6340    167.5382
  1751.2500      0.0000    690.9470      5.4959    166.4991
  1751.5000      0.0000    691.1401      5.3742    167.7754
  1751.7500      0.0000    691.1755      5.2633    170.9945
  1752.0000      0.0000    690.8951      5.1404    175.0909
  1752.2500      0.0000    690.2547      4.9945    178.6280
  1752.5000      0.0000    689.3837      4.8436    180.2775
  1752.7500      0.0000    688.5537      4.7175    179.3817
  1753.0000      0.0000    688.0413      4.6264    176.1481
  1753.2500      0.0000    687.9593      4.5634    171.2240
  1753.5000      0.0000    688.1693      4.5330    165.3076
  1753.7500      0.0000    688.3510      4.5525    159.2885
  1754.0000      0.0000    688.1991      4.6151    154.0043
  1754.2500      0.0000    687.6028      4.6723    149.1302
  1754.5000      0.0000    686.6646      4.6636    142.9750
  1754.7500      0.0000    685.6041      4.5558    134.3834
  1755.0000      0.0000    684.7053      4.3618    124.5854
  1755.2500      0.0000    684.3499      4.1406    116.4979
  1755.5000      0.0000    685.0413      3.9683    112.4123
  1755.7500      0.0000    687.2631      3.8908    112.8513
  1756.0000      0.0000    691.0259      3.8986    117.1589
  1756.2500      0.0000    695.2976      3.9383    124.1524
  1756.5000      0.0000    698.1129      3.9465    132.1004
  1756.7500      0.0000    697.8715      3.8933    138.8322
  1757.0000      0.0000    694.7682      3.8020    142.3935
  1757.2500      0.0000    690.6436      3.7138    141.9898
  1757.5000      0.0000    687.4180      3.6390    138.5774
  1757.7500      0.0000    685.8245      3.5692    134.0967
  1758.0000      0.0000    685.3152      3.5333    129.7566
  1758.2500      0.0000    684.7635      3.5964    125.5466
  1758.5000      0.0000    683.5075      3.7824    121.5556
  1758.7500      0.0000    682.0242      4.0238    118.9330
  1759.0000     -2.0000    681.3557      4.2125    119.1494
  1759.2500      2.0000    681.8233      4.2869    122.6411
  1759.5000      0.0000    682.7200      4.2656    128.2243
  1759.7500      0.0000    683.2463      4.2168    133.6421
  1760.0000      0.0000    683.2872      4.2011    137.0064
  1760.2500      0.0000    683.2150      4.2267    138.2988
  1760.5000      0.0000    683.2885      4.2620    139.2905
  1760.7500      0.0000    683.4404      4.2947    141.5943
  1761.0000      0.0000    683.5349      4.3510    145.2200
  1761.2500      0.0000    683.6248      4.4466    149.3523
  1761.5000      0.0000    683.9160      4.5556    153.6790
  1761.7500      0.0000    684.5479      4.6389    158.4853
  1762.0000      0.0000    685.4637      4.6774    164.2253
  1762.2500      0.0000    686.4844      4.6743    171.3342
  1762.5000      0.0000    687.5341      4.6453    179.7206
  1762.7500      0.0000    688.8427      4.6092    188.0103
  1763.0000      0.0000    690.8176      4.5788    193.8397
  1763.2500      0.0000    693.4618      4.5612    195.3585
  1763.5000      0.0000    695.8607      4.5651    192.4893
  1763.7500      0.0000    696.5976      4.6057    186.9522
  1764.0000      0.0000    695.0120      4.6996    181.2884
  1764.2500      0.0000    691.8858      4.8424    177.4123
