~Version Information
VERS.                      2.0: CWLS Log ASCII Standard - VERSION 2.0
WRAP.                       NO: One line per depth step
~Well Information Block
STRT.FT               890.0000: 
STOP.FT              1589.0000: 
STEP.FT                 0.2500: 
NULL.                -999.2500: 
COMP.          Evergreen Operating Corporation: COMPANY
WELL.            Tomahawk 44-9: WELL
FLD.           Purgatorie River: FIELD
LOC.           434' FSL & 491' FEL: LOCATION
PROV.                 Colorado: PROVINCE
CNTY.               Las Animas: COUNTRY
SRVC.                         : SERVICE COMPANY
DATE.          Sat Sep 11 23:05:26 2004: LOG DATE
UWI.           05 071 08133 00: UNIQUE WELL ID
~Curve Information Block
DEPT.FT            0 000 00 00: Depth
LTEN.lb                       : Surface Line Tension
SN.Ohm-m                      : IEL Short Normal
SP.mV                         : IEL Spontaneous Potential
DIR.Ohm-m                     : IEL Induction Resistivity
GR.GAPI                       : Gamma Ray
~Parameter Information Block
~A  Depth       LTEN         SN          SP         DIR          GR     
# ...
  1198.0000    764.4221      9.8134    -57.5142     11.0327    135.3913
  1198.2500    766.1934     10.1873    -56.7118     11.2894    131.5254
  1198.5000    767.3986     10.5818    -56.0347     11.6239    127.2827
  1198.7500    767.1754     11.0043    -55.4531     12.0869    125.6652
  1199.0000    765.9987     11.4718    -54.9709     12.7087    124.0660
  1199.2500    764.9695     12.0072    -54.6130     13.4851    122.8388
  1199.5000    765.0931     12.6274    -54.4149     14.3730    120.4159
  1199.7500    766.8268     13.3301    -54.4024     15.3015    118.7192
  1200.0000    769.5408     14.0906    -54.5811     16.1945    116.5820
  1200.2500    771.4294     14.8712    -54.9364     16.9836    115.4179
  1200.5000    770.7037     15.6366    -55.4390     17.5985    113.7926
  1200.7500    767.2494     16.3643    -56.0533     17.9655    112.7583
  1201.0000    762.8994     17.0421    -56.7433     18.0487    111.4178
  1201.2500    759.8917     17.6572    -57.4679     17.9048    110.7208
  1201.5000    759.1396     18.1876    -58.1820     17.6787    110.1002
  1201.7500    759.8378     18.6090    -58.8299     17.5289    110.1291
  1202.0000    760.3181     18.9161    -59.3507     17.5647    110.8973
  1202.2500    759.2526     19.1385    -59.6833     17.8382    111.5849
  1202.5000    756.6468     19.3327    -59.7806     18.3726    112.2404
  1202.7500    754.1599     19.5488    -59.6174     19.1734    112.4819
  1203.0000    754.2606     19.8019    -59.1982     20.2008    113.3197
  1203.2500    758.5610     20.0721    -58.5611     21.3203    114.4050
  1203.5000    766.5583     20.3351    -57.7773     22.2944    116.0425
  1203.7500    775.7988     20.5917    -56.9540     22.8685    116.3718
  1204.0000    783.3568     20.8725    -56.2169     22.9141    114.9442
  1204.2500    787.2957     21.2154    -55.6933     22.4976    112.8020
  1204.5000    787.0495     21.6403    -55.4865     21.8330    108.7744
  1204.7500    783.0274     22.1391    -55.6483     21.1860    106.4139
  1205.0000    776.3024     22.6830    -56.1614     20.8058    104.5784
  1205.2500    768.6694     23.2388    -56.9519     20.8905    104.5071
  1205.5000    762.4917     23.7879    -57.9052     21.5770    104.8193
  1205.7500    759.8350     24.3389    -58.9065     22.9283    104.2342
  1206.0000    761.5109     24.9271    -59.8775     24.8800    100.8262
  1206.2500    766.8057     25.5970    -60.7866     27.1433     96.7761
  1206.5000    773.6468     26.3740    -61.6529     29.1824     89.1658
  1206.7500    779.1456     27.2432    -62.5258     30.4641     84.0466
  1207.0000    780.9199     28.1467    -63.4530     30.8689     77.4104
  1207.2500    778.5461     29.0065    -64.4544     30.7430     73.7977
  1207.5000    773.5981     29.7609    -65.5045     30.5240     69.2902
  1207.7500    768.2424     30.3924    -66.5335     30.4365     66.7538
  1208.0000    763.9899     30.9277    -67.4421     30.4853     63.8554
  1208.2500    761.4969     31.4117    -68.1232     30.6100     62.8192
  1208.5000    760.8707     31.8756    -68.4832     30.8052     62.8000
  1208.7500    761.8367     32.3219    -68.4686     31.1050     63.5319
  1209.0000    763.5552     32.7317    -68.0743     31.4885     65.0056
  1209.2500    764.4571     33.0840    -67.3480     31.8384     66.0459
  1209.5000    762.9989     33.3716    -66.3895     32.0200     67.9452
  1209.7500    759.1547     33.6098    -65.3306     32.0075     69.6756
  1210.0000    754.8382     33.8360    -64.3166     31.9247     73.1961
  1210.2500    752.4129     34.0992    -63.4839     31.9652     76.2062
  1210.5000    752.8104     34.4408    -62.9300     32.2722     81.5604
  1210.7500    755.1196     34.8735    -62.7019     32.8561     85.2712
  1211.0000    757.7025     35.3768    -62.7945     33.5574     89.8935
  1211.2500    759.5060     35.9159    -63.1560     34.0473     91.8208
  1211.5000    760.4511     36.4767    -63.7076     33.9195     92.8602
  1211.7500    760.9370     37.0904    -64.3603     32.8877     92.5619
  1212.0000    761.1240     37.8296    -65.0275     30.9836     91.0087
  1212.2500    760.6221     38.7787    -65.6321     28.5385     89.2591
  1212.5000    758.9083     40.0004    -66.1093     25.9679     85.2424
  1212.7500    756.2271     41.5172    -66.4073     23.5877     81.4463
  1213.0000    754.0195     43.3142    -66.4914     21.5769     74.3432
  1213.2500    754.0844     45.3492    -66.3501     20.0177     69.2578
  1213.5000    757.0571     47.5583    -65.9982     18.9259     62.2858
  1213.7500    761.7499     49.8549    -65.4804     18.2693     58.5431
  1214.0000    766.1081     52.1359    -64.8673     17.9983     54.5857
  1214.2500    768.9467     54.3013    -64.2389     18.1129     53.0055
  1214.5000    770.7565     56.2789    -63.6706     18.7929     51.7800
  1214.7500    772.7700     58.0312    -63.2079     20.6532     51.2837
  1215.0000    775.3976     59.5411    -62.8559     25.5724     50.2310
  1215.2500    777.7448     60.7894    -62.5717     42.1885     49.1091
  1215.5000    778.5876     61.7480    -62.2856    487.3764     47.1070
  1215.7500    777.5208     62.3904    -61.9262 100000.0000     45.9955
  1216.0000    775.0551     62.7057    -61.4552 100000.0000     45.3543
  1216.2500    772.0838     62.7004    -60.8947 100000.0000     45.8256
  1216.5000    769.6714     62.3931    -60.3369 100000.0000     47.8100
  1216.7500    768.9767     61.8154    -59.9326 100000.0000     49.6430
  1217.0000    770.6895     61.0204    -59.8554 100000.0000     52.1792
  1217.2500    774.2727     60.0816    -60.2696 100000.0000     53.1995
  1217.5000    777.8765     59.0708    -61.2968 100000.0000     53.4969
  1217.7500    779.3501     58.0261    -62.9915 100000.0000     53.2055
  1218.0000    777.7941     56.9343    -65.3401 100000.0000     52.7510
  1218.2500    774.2757     55.7381    -68.2605 100000.0000     52.5545
  1218.5000    770.8486     54.3641    -71.6205 100000.0000     52.2751
  1218.7500    768.7846     52.7559    -75.2586 100000.0000     52.2040
  1219.0000    767.7349     50.9026    -79.0026 100000.0000     52.9524
  1219.2500    766.4993     48.8506    -82.7018 100000.0000     54.4326
  1219.5000    764.6642     46.6893    -86.2506 100000.0000     58.4268
  1219.7500    763.4734     44.5150    -89.6103 100000.0000     62.2417
  1220.0000    764.6666     42.3914    -92.8245 100000.0000     69.4116
  1220.2500    768.3589     40.3304    -96.0123 100000.0000     74.7431
  1220.5000    772.6947     38.2968    -99.3575 100000.0000     82.0201
  1220.7500    775.8356     36.2289   -103.0808 100000.0000     85.0865
  1221.0000    777.5868     34.0579   -107.4188 100000.0000     85.2743
  1221.2500    778.8101     31.7221   -112.6043 100000.0000     82.5213
  1221.5000    779.9855     29.1718   -118.8512 100000.0000     76.4207
  1221.7500    780.9096     26.3680   -126.3441     73.6872     73.1631
  1222.0000    781.4462     23.2801   -135.2276      2.1165     72.8117
  1222.2500    781.9294     19.8948   -145.5833      0.8346     76.6567
  1222.5000    782.6652     16.2443   -157.4224      0.4536     88.4201
  1222.7500    783.1544     12.4411   -170.6788      0.2931     99.2180
  1223.0000    782.1218      8.6889   -185.2201      0.2262    116.9552
  1223.2500    778.7829      5.2461   -200.8874      0.2155    127.8450
  1223.5000    774.1189      2.3486   -217.5437      0.2547    139.8076
  1223.7500    770.3843      0.1322   -235.1062      0.3609    143.6912
  1224.0000    769.2386     -1.4023   -253.5697      0.5855    142.3820
  1224.2500    770.6513     -2.3657   -272.9665      1.0812    136.7753
  1224.5000    773.2904     -2.9212   -293.3138      2.4306    122.7214
  1224.7500    775.5559     -3.2274   -314.5354      8.4555    111.2959
  1225.0000    776.6000     -3.4045   -336.4108 100000.0000     94.5499
  1225.2500    776.7076     -3.5250   -358.5589 100000.0000     85.2692
  1225.5000    776.4897     -3.6204   -380.4600 100000.0000     75.3455
  1225.7500    775.9918     -3.6954   -401.5158    595.6776     71.0892
