~Version Information
VERS.                                  2.0 : CWLS LAS VERSION
WRAP.                                   NO : WRAPING MODE
SWARE .                 MController 2.5.0J : SOFTWARE VERSION
~Well Information
WELL.                         State 16-43V : WELL
COMP.                       Petrogulf CORP : COMPANY
FLD.                NE/SE Sec 16 T33S R67W : FIELD
LOC.                      Purgatoire River : LOCATION
DATE.                            12/3-4/04 : DATE(S) LOGGED
SRVC.        Blanco Geological Service LLC : SERVICE COMPANY
STAT.                                   CO : STATE
CNTY.                            Las Animas: COUNTY
CTRY.                                  USA : COUNTRY
API.                           05-071-08015: API NUMBER
STRT.FT                             626.00 : START DEPTH
STOP.FT                            2125.00 : STOP DEPTH
STEP.FT                               1.00 : DEPTH INCREMENT
NULL.                                -9999 : NULL VALUE
~Curve information
DEPTH.FT                                   :
ROP.MIN/FT                                 :
GAS.UNITS                                  :
~ASCII Log data
# ...
      1450.0         0.23         27.8
      1451.0         0.23         26.2
      1452.0         0.20         26.6
      1453.0         0.22         25.7
      1454.0         0.17         23.7
      1455.0         0.23         20.8
      1456.0         0.20         19.9
      1457.0         0.20         19.0
      1458.0         0.20         19.8
      1459.0         0.20         18.8
      1460.0         0.20         18.1
      1461.0         0.17         17.0
      1462.0         0.27         16.5
      1463.0         0.20         16.0
      1464.0         0.20         16.2
      1465.0         0.27         17.6
      1466.0         0.27         32.0
      1467.0         0.27         42.0
      1468.0         0.32         48.2
      1469.0         0.40         42.9
      1470.0         0.40         36.5
      1471.0         0.30         37.0
      1472.0         0.30         35.6
      1473.0         0.23         33.1
      1474.0         0.27         30.6
      1475.0         0.23         29.5
      1476.0         0.27         29.0
      1477.0         0.20         27.7
      1478.0         0.23         26.5
      1479.0         0.23         25.3
      1480.0         0.22         23.5
      1481.0         0.17         22.0
      1482.0         0.20         21.5
      1483.0         0.20         22.2
      1484.0         0.20         21.7
      1485.0         0.17         20.1
      1486.0         0.20         20.2
      1487.0         0.20         19.7
      1488.0         0.20         18.7
      1489.0         0.20         19.4
      1490.0         0.23         18.4
      1491.0         0.27         16.7
      1492.0         0.27         16.2
      1493.0         0.23         16.5
      1494.0         0.30         17.2
      1495.0         0.20         16.7
      1496.0         0.22         24.5
      1497.0         0.32         33.2
      1498.0         0.30         38.3
      1499.0         0.30         37.7
      1500.0         0.37         35.0
      1501.0         0.30         33.6
      1502.0         0.27         32.9
      1503.0         0.27         32.1
      1504.0         0.23         31.6
      1505.0         0.30         29.5
      1506.0         0.23         28.5
      1507.0         0.23         27.0
      1508.0         0.23         26.6
      1509.0         0.25         24.7
      1510.0         0.17         23.0
      1511.0         0.20         22.2
      1512.0         0.17         22.5
      1513.0         0.20         21.7
      1514.0         0.20         20.0
      1515.0         0.23         20.4
      1516.0         0.20         21.9
      1517.0         0.17         25.5
      1518.0         0.20         29.1
      1519.0         0.27         31.2
      1520.0         0.20         30.9
      1521.0         0.23         29.7
      1522.0         0.20         27.4
      1523.0         0.17         25.8
      1524.0         0.23         23.6
      1525.0         0.22         21.5
      1526.0         0.13         30.4
      1527.0         0.27         38.8
      1528.0         0.30         43.2
      1529.0         0.27         41.6
      1530.0         0.30         38.0
      1531.0         0.27         36.0
      1532.0         0.23         36.2
      1533.0         0.23         35.8
      1534.0         0.20         36.8
      1535.0         0.20         34.2
      1536.0         0.30         33.2
      1537.0         0.27         31.3
      1538.0         0.32         28.7
      1539.0         0.27         27.4
      1540.0         0.20         28.0
      1541.0         0.27         27.1
      1542.0         0.40         24.9
      1543.0         0.37         23.2
      1544.0         0.30         20.3
      1545.0         0.27         19.2
      1546.0         0.27         20.4
      1547.0         0.23         19.3
      1548.0         0.27         18.3
      1549.0         0.28         16.8
      1550.0         0.23         15.7
      1551.0         0.23         15.9
      1552.0         0.23         16.1
      1553.0         0.20         15.2
      1554.0         0.23         15.0
      1555.0         0.23         14.5
      1556.0         0.27         24.4
      1557.0         0.13         28.2
      1558.0         0.27         35.6
      1559.0         0.23         39.2
      1560.0         0.27         39.9
      1561.0         0.27         34.5
      1562.0         0.30         32.9
      1563.0         0.27         33.5
      1564.0         0.25         33.6
      1565.0         0.20         31.8
      1566.0         0.17         31.6
      1567.0         0.23         30.7
      1568.0         0.23         28.6
      1569.0         0.23         29.0
      1570.0         0.20         28.1
      1571.0         0.23         26.8
      1572.0         0.17         26.4
      1573.0         0.33         23.4
      1574.0         0.27         22.0
      1575.0         0.23         23.5
      1576.0         0.30         20.9
      1577.0         0.33         20.2
      1578.0         0.32         18.9
      1579.0         0.30         17.4
      1580.0         0.30         17.7
      1581.0         0.27         16.8
      1582.0         0.30         17.2
      1583.0         0.30         18.4
      1584.0         0.30         17.6
      1585.0         0.23         16.0
      1586.0         0.27         43.3
      1587.0         0.40         39.2
      1588.0         0.40         36.5
      1589.0         0.40         32.8
      1590.0         0.35         32.7
      1591.0         0.20         30.9
      1592.0         0.23         30.2
      1593.0         0.17         29.7
      1594.0         0.20         28.9
      1595.0         0.20         27.2
      1596.0         0.23         26.5
      1597.0         0.23         25.6
      1598.0         0.23         23.6
      1599.0         0.23         22.8
      1600.0         0.23         20.9
      1601.0         0.20         22.1
      1602.0         0.20         20.6
      1603.0         0.20         18.8
      1604.0         0.20         18.3
      1605.0         0.20         16.8
      1606.0         0.18         17.4
      1607.0         0.17         16.6
      1608.0         0.13         16.2
      1609.0         0.13         15.9
      1610.0         0.13         15.4
      1611.0         0.23         15.4
      1612.0         0.23         15.1
      1613.0         0.20         14.8
      1614.0         0.20         17.4
      1615.0         0.07         26.9
      1616.0         0.13         31.0
      1617.0         0.20         38.0
      1618.0         0.20         42.9
      1619.0         0.27         44.7
      1620.0         0.20         42.4
      1621.0         0.17         39.4
      1622.0         0.17         37.5
      1623.0         0.28         35.2
      1624.0         0.23         36.3
      1625.0         0.20         37.1
      1626.0         0.27         37.7
      1627.0         0.20         35.9
      1628.0         0.23         34.8
      1629.0         0.23         34.6
      1630.0         0.13         32.5
      1631.0         0.10         31.8
      1632.0         0.17         29.4
      1633.0         0.20         28.4
      1634.0         0.23         27.4
      1635.0         0.23         26.9
      1636.0         0.23         26.0
      1637.0         0.27         25.9
      1638.0         0.28         28.8
      1639.0         0.23         32.7
      1640.0         0.30         31.4
      1641.0         0.30         28.0
      1642.0         0.23         28.3
      1643.0         0.27         27.7
      1644.0         0.23         26.2
      1645.0         0.23         26.3
      1646.0         0.33         42.2
      1647.0         0.33         42.4
      1648.0         0.33         38.3
      1649.0         0.28         35.4
      1650.0         0.17         34.6
      1651.0         0.13         33.7
      1652.0         0.13         33.2
      1653.0         0.27         32.1
      1654.0         0.27         31.5
      1655.0         0.30         31.4
