~Version Information
VERS.                      2.0: CWLS Log ASCII Standard - VERSION 2.0
WRAP.                       NO: One line per depth step
~Well Information Block
STRT.FT               946.8000: 
STOP.FT              2134.5000: 
STEP.FT                 0.1000: 
NULL.                -999.2500: 
COMP.          Petrogulf Corporation: COMPANY
WELL.             Valejo 8-12R: WELL
FLD.           Purgatorie River: FIELD
LOC.           1351'' FNL & 1562' FWL: LOCATION
CNTY.               Las Animas: COUNTY
SRVC.                         : SERVICE COMPANY
DATE.          Wed Apr 28 13:22:45 2004: LOG DATE
UWI.           05 071 08038 00: UNIQUE WELL ID
STAT.                 Colorado: STATE
~Curve Information Block
DEPT.FT            0 000 00 00: Depth
DCAL.in                       : CDL Caliper
RHOB.g/cc                     : CDL Bulk Density
RHOC.g/cc                     : CDL Density Correction
DPOR.pu                       : CDL Density Porosity
NPOR.pu                       : Neutron Porosity
GR.GAPI                       : Gamma Ray
~Parameter Information Block
~A  Depth       DCAL        RHOB        RHOC        DPOR        NPOR         GR     
# ...
   956.4000   -999.2500   -999.2500   -999.2500   -999.2500     37.6107     77.0334
   956.5000   -999.2500   -999.2500   -999.2500   -999.2500     37.5629     74.7796
   956.6000   -999.2500   -999.2500   -999.2500   -999.2500     36.7532     75.8918
   956.7000   -999.2500   -999.2500   -999.2500   -999.2500     36.3472     79.7783
   956.8000   -999.2500   -999.2500   -999.2500   -999.2500     36.7279     80.4280
   956.9000   -999.2500   -999.2500   -999.2500   -999.2500     37.1375     76.4698
   957.0000   -999.2500   -999.2500   -999.2500   -999.2500     37.0945     74.0635
   957.1000   -999.2500   -999.2500   -999.2500   -999.2500     36.9569     77.6847
   957.2000   -999.2500   -999.2500   -999.2500   -999.2500     37.1727     83.4565
   957.3000   -999.2500   -999.2500   -999.2500   -999.2500     37.6407     82.5252
   957.4000   -999.2500   -999.2500   -999.2500   -999.2500     37.8394     74.2119
   957.5000   -999.2500   -999.2500   -999.2500   -999.2500     37.7200     66.8853
   957.6000   -999.2500   -999.2500   -999.2500   -999.2500     37.7278     65.9021
   957.7000   -999.2500   -999.2500   -999.2500   -999.2500     37.9172     70.0385
   957.8000   -999.2500   -999.2500   -999.2500   -999.2500     37.9222     76.7336
   957.9000   -999.2500   -999.2500   -999.2500   -999.2500     37.5211     82.1716
   958.0000   -999.2500   -999.2500   -999.2500   -999.2500     36.9512     82.3580
   958.1000   -999.2500   -999.2500   -999.2500   -999.2500     36.6359     77.8612
   958.2000   -999.2500   -999.2500   -999.2500   -999.2500     36.7823     70.4932
   958.3000   -999.2500   -999.2500   -999.2500   -999.2500     37.3292     63.8535
   958.4000   -999.2500   -999.2500   -999.2500   -999.2500     37.7703     61.8407
   958.5000   -999.2500   -999.2500   -999.2500   -999.2500     37.7775     63.9650
   958.6000   -999.2500   -999.2500   -999.2500   -999.2500     37.6581     68.6094
   958.7000   -999.2500   -999.2500   -999.2500   -999.2500     37.4861     74.3746
   958.8000   -999.2500   -999.2500   -999.2500   -999.2500     37.1697     80.1208
   958.9000   -999.2500   -999.2500   -999.2500   -999.2500     36.8964     84.6348
   959.0000   -999.2500   -999.2500   -999.2500   -999.2500     36.6523     87.7981
   959.1000   -999.2500   -999.2500   -999.2500   -999.2500     36.2262     87.8352
   959.2000   -999.2500   -999.2500   -999.2500   -999.2500     35.9421     82.7019
   959.3000   -999.2500   -999.2500   -999.2500   -999.2500     36.1652     77.8338
   959.4000   -999.2500   -999.2500   -999.2500   -999.2500     36.7027     78.2306
   959.5000   -999.2500   -999.2500   -999.2500   -999.2500     37.2584     80.5194
   959.6000   -999.2500   -999.2500   -999.2500   -999.2500     37.7707     79.2323
   959.7000   -999.2500   -999.2500   -999.2500   -999.2500     38.0218     73.0757
   959.8000   -999.2500   -999.2500   -999.2500   -999.2500     37.7843     65.8896
   959.9000   -999.2500   -999.2500   -999.2500   -999.2500     37.5379     59.5900
   960.0000   -999.2500   -999.2500   -999.2500   -999.2500     37.5338     51.7941
   960.1000   -999.2500   -999.2500   -999.2500   -999.2500     37.2545     43.4518
   960.2000   -999.2500   -999.2500     -0.4987   -999.2500     36.7794     38.6453
   960.3000      8.1149   -999.2500     -0.5215   -999.2500     36.5646     37.7482
   960.4000      8.1149   -999.2500     -0.4382   -999.2500     36.4268     39.1971
   960.5000      8.1214   -999.2500     -0.4381   -999.2500     36.3304     41.4537
   960.6000      8.1214   -999.2500     -0.5576   -999.2500     36.5698     41.8604
   960.7000      8.1214      1.6862     -0.4786     58.4106     37.0770     39.8670
   960.8000      8.1073      1.6879     -0.4728     58.3084     37.2241     37.2836
   960.9000      8.1073      1.7006     -0.5087     57.5391     36.6477     35.8965
   961.0000      8.1011      1.7258     -0.4613     56.0143     36.2189     35.4552
   961.1000      8.1011      1.7582     -0.5182     54.0510     36.8279     35.0000
   961.2000      8.1011      1.7913     -0.4894     52.0398     37.8542     34.4876
   961.3000      8.0980      1.8150     -0.4667     50.6083     38.2071     33.2781
   961.4000      8.0980      1.8186     -0.4748     50.3851     37.9876     31.9138
   961.5000      8.0962      1.8106     -0.4851     50.8737     37.9855     31.7860
   961.6000      8.0962      1.8169     -0.5458     50.4933     38.0508     32.9863
   961.7000      8.0962      1.8568     -0.4875     48.0748     37.7368     34.5442
   961.8000      8.0906      1.9227     -0.4639     44.0783     37.4162     36.8993
   961.9000      8.0906      1.9872     -0.3985     40.1710     37.3212     41.0581
   962.0000      8.0916      2.0244     -0.3702     37.9128     37.1904     46.6838
   962.1000      8.0916      2.0439     -0.4752     36.7328     36.9394     53.0982
   962.2000      8.0916      2.0834     -0.4397     34.3403     36.7067     59.9641
   962.3000      8.0898      2.1485     -0.3071     30.3927     36.5980     65.4839
   962.4000      8.0898      2.2075     -0.2899     26.8161     36.5136     69.4782
   962.5000      8.0796      2.2373     -0.2536     25.0122     36.4219     73.5573
   962.6000      8.0796      2.2470     -0.3436     24.4225     36.4095     75.3656
   962.7000      8.0796      2.2643     -0.2752     23.3735     36.2866     75.5344
   962.8000      8.0830      2.2936     -0.2407     21.6026     35.9304     78.3071
   962.9000      8.0830      2.3183     -0.2224     20.1025     35.6324     82.1595
   963.0000      8.0786      2.3370     -0.2524     18.9716     35.5982     82.4285
   963.1000      8.0786      2.3626     -0.2562     17.4154     35.7102     80.0569
   963.2000      8.0786      2.3978     -0.1839     15.2870     35.6885     79.3262
   963.3000      8.0864      2.4307     -0.1622     13.2917     35.6764     80.2074
   963.4000      8.0864      2.4492     -0.1510     12.1716     35.9174     81.1168
   963.5000      8.0847      2.4489     -0.1772     12.1864     35.8739     83.8221
   963.6000      8.0847      2.4439     -0.2056     12.4902     35.3425     89.8229
   963.7000      8.0847      2.4544     -0.2010     11.8535     35.0615     95.2703
   963.8000      8.0811      2.4749     -0.1499     10.6146     35.1520     95.1114
   963.9000      8.0811      2.4814     -0.1641     10.2191     34.9663     92.4263
   964.0000      8.0764      2.4720     -0.1937     10.7859     34.4900     90.9370
   964.1000      8.0764      2.4660     -0.2119     11.1514     34.1370     88.2759
   964.2000      8.0764      2.4783     -0.2584     10.4068     34.1481     84.5479
   964.3000      8.0826      2.5090     -0.1694      8.5465     34.6253     82.0475
   964.4000      8.0826      2.5398     -0.1339      6.6761     35.1396     80.2269
   964.5000      8.0911      2.5507     -0.1267      6.0203     35.2756     77.9503
   964.6000      8.0911      2.5420     -0.1334      6.5479     35.2727     77.2001
   964.7000      8.0911      2.5357     -0.2260      6.9280     35.3345     77.9369
   964.8000      8.0831      2.5485     -0.1550      6.1541     35.2976     76.3977
   964.9000      8.0831      2.5693     -0.1205      4.8909     34.8563     72.2548
   965.0000      8.0845      2.5835     -0.1195      4.0289     34.0863     69.0569
   965.1000      8.0845      2.6007     -0.1894      2.9858     33.7093     69.4853
   965.2000      8.0845      2.6193     -0.1028      1.8593     34.0045     70.5762
   965.3000      8.0813      2.6092     -0.1847      2.4753     34.2895     67.5122
   965.4000      8.0813      2.5804     -0.1975      4.2207     34.3729     63.6601
   965.5000      8.0817      2.5750     -0.1967      4.5443     34.7578     65.1123
   965.6000      8.0817      2.5915     -0.1470      3.5474     35.2726     68.4712
   965.7000      8.0817      2.5893     -0.1310      3.6801     35.4421     66.2657
   965.8000      8.0796      2.5523     -0.1898      5.9227     35.3372     61.1502
   965.9000      8.0796      2.5052     -0.2074      8.7745     35.3667     62.9766
