~Version Information
VERS.                      2.0: CWLS Log ASCII Standard - VERSION 2.0
WRAP.                       NO: One line per depth step
~Well Information Block
STRT.FT               -10.0000: 
STOP.FT              2297.5000: 
STEP.FT                 0.2500: 
NULL.                -999.2500: 
COMP.          Pioneer Natural Resources: COMPANY
WELL.              Bobsy 34-11: WELL
FLD.           Purgatorie River: FIELD
LOC.           1937' FEL & 451' FSL----------: LOCATION
PROV.                       CO: PROVINCE
CNTY.               Las Animas: COUNTRY
SRVC.          Patterson Wireline: SERVICE COMPANY
DATE.          Mon Apr 18 09:37:11 2005: LOG DATE
UWI.           05 071 08330 00: UNIQUE WELL ID
~Curve Information Block
DEPT.FT            0 000 00 00: Depth
CCL.                          : Casing Collar Locator
TT3.usec                      : CBL 3' Travel Time
AMP3.mV                       : CBL 3' Amplitude
GR.GAPI                       : Gamma Ray
~Parameter Information Block
~A  Depth       CCL         TT3         AMP3         GR     
# ...
  2268.0000      0.0000    623.6747      5.0063     56.4206
  2268.2500      0.0000    620.1520      4.9497     55.4413
  2268.5000      0.0000    618.3951      4.9218     54.2865
  2268.7500      0.0000    617.9905      4.9094     53.0380
  2269.0000      0.0000    618.3693      4.8811     51.9251
  2269.2500      0.0000    619.1615      4.8242     51.2934
  2269.5000      0.0000    620.3562      4.7578     51.2388
  2269.7500      0.0000    622.1674      4.7100     51.3086
  2270.0000      0.0000    624.5660      4.6915     50.9695
  2270.2500      0.0000    626.8586      4.6917     50.4606
  2270.5000      0.0000    628.0718      4.6953     50.8016
  2270.7500      0.0000    628.1113      4.7001     52.7692
  2271.0000      0.0000    628.3900      4.7186     56.1351
  2271.2500      0.0000    630.8727      4.7612     60.0065
  2271.5000      0.0000    636.3395      4.8184     63.5281
  2271.7500      0.0000    643.6382      4.8600     66.0587
  2272.0000      0.0000    650.6526      4.8623     67.2349
  2272.2500      0.0000    655.9329      4.8403     67.3759
  2272.5000      0.0000    659.4728      4.8380     67.4274
  2272.7500      0.0000    662.1800      4.8806     67.9331
  2273.0000      0.0000    664.9146      4.9442     68.3804
  2273.2500      0.0000    668.1430      4.9801     67.9775
  2273.5000      0.0000    672.3293      4.9618     66.6941
  2273.7500      0.0000    678.0415      4.9054     65.0664
  2274.0000      0.0000    685.1248      4.8535     63.3034
  2274.2500      0.0000    692.1058      4.8393     61.1734
  2274.5000      0.0000    697.0535      4.8673     58.7790
  2274.7500      0.0000    699.0133      4.9242     56.9915
  2275.0000      0.0000    698.4965      5.0005     56.8312
  2275.2500      0.0000    696.9684      5.0887     58.4484
  2275.5000      0.0000    695.8693      5.1642     60.7800
  2275.7500      0.0000    695.6747      5.1906     62.2490
  2276.0000      0.0000    695.9196      5.1618     61.9206
  2276.2500      0.0000    696.3803      5.1208     60.1276
  2276.5000      0.0000    697.8677      5.1102     58.0507
  2276.7500      0.0000    701.5513      5.1179     56.6787
  2277.0000      0.0000    707.9274      5.1014     56.1434
  2277.2500      0.0000    716.5926      5.0505     56.0050
  2277.5000      0.0000    726.4055      4.9932     55.9640
  2277.7500      0.0000    735.4343      4.9517     55.9742
  2278.0000      0.0000    740.9083      4.9227     55.8431
  2278.2500      0.0000    739.7343      4.9003     55.2755
  2278.5000      0.0000    730.1173      4.8946     54.3685
  2278.7500      0.0000    713.4688      4.9187     53.6755
  2279.0000      0.0000    694.1091      4.9602     53.6878
  2279.2500      0.0000    675.9849      4.9763     54.3782
  2279.5000      0.0000    659.7886      4.9260     55.1591
  2279.7500      0.0000    643.8103      4.8057     55.3012
  2280.0000      0.0000    627.3019      4.6491     54.6194
  2280.2500      0.0000    612.3405      4.4970     53.7841
  2280.5000      0.0000    602.3483      4.3726     53.7256
  2280.7500      0.0000    599.1891      4.2809     54.7135
  2281.0000      0.0000    601.3522      4.2211     56.1878
  2281.2500      0.0000    604.3060      4.1931     57.3440
  2281.5000      0.0000    603.3419      4.1954     57.6437
  2281.7500      0.0000    597.4956      4.2184     56.9665
  2282.0000      0.0000    590.9670      4.2422     55.6199
  2282.2500      0.0000    589.9726      4.2460     54.2944
  2282.5000      0.0000    598.1404      4.2356     53.7383
  2282.7500      0.0000    614.9260      4.2629     54.0965
  2283.0000      0.0000    636.9948      4.3989     54.3434
  2283.2500      0.0000    659.8817      4.6631     52.4598
  2283.5000      0.0000    679.4650      4.9712     46.5910
  2283.7500      0.0000    693.5132      5.1742     36.5984
  2284.0000      0.0000    702.4274      5.1728     24.6286
  2284.2500      0.0000    708.4854      4.9982     13.8523
  2284.5000      0.0000    714.0598      4.7776      6.3922
  2284.7500      0.0000    719.3356      4.6252      2.3867
  2285.0000      0.0000    720.5959      4.5727      0.7134
  2285.2500      0.0000    712.0525      4.5902      0.1693
  2285.5000      0.0000    692.3151      4.6432      0.0313
  2285.7500      0.0000    669.1046      4.7149      0.0042
  2286.0000      0.0000    654.2719      4.7974      0.0000
  2286.2500      0.0000    652.9772      4.8885   -999.2500
  2286.5000      0.0000    659.9191      4.9916   -999.2500
  2286.7500      0.0000    666.1850      5.1039   -999.2500
  2287.0000      0.0000    667.3136      5.2109   -999.2500
  2287.2500      0.0000    664.6240      5.2987   -999.2500
  2287.5000      0.0000    661.1669      5.3627   -999.2500
  2287.7500      0.0000    657.9391      5.3920   -999.2500
  2288.0000      0.0000    653.4321      5.3600   -999.2500
  2288.2500      0.0000    644.6564      5.2428   -999.2500
  2288.5000      0.0000    625.5480      5.0315   -999.2500
  2288.7500      0.0000    584.2590      4.7131   -999.2500
  2289.0000      0.0000    507.5353      4.2558   -999.2500
  2289.2500      0.0000    394.1827      3.6499   -999.2500
  2289.5000      0.0000    264.0393      2.9680   -999.2500
  2289.7500      0.0000    148.2680      2.3509   -999.2500
  2290.0000      0.0000     68.3596      1.9127   -999.2500
  2290.2500      0.0000     25.4970      1.6707   -999.2500
  2290.5000      0.0000      7.6122      1.5670   -999.2500
  2290.7500      0.0000      1.8031      1.5326   -999.2500
  2291.0000      0.0000      0.3337      1.5238   -999.2500
  2291.2500      0.0000      0.0444      1.5220   -999.2500
  2291.5000      0.0000   -999.2500   -999.2500   -999.2500
  2291.7500      0.0000   -999.2500   -999.2500   -999.2500
  2292.0000      0.0000   -999.2500   -999.2500   -999.2500
  2292.2500      0.0000   -999.2500   -999.2500   -999.2500
  2292.5000      0.0000   -999.2500   -999.2500   -999.2500
  2292.7500      0.0000   -999.2500   -999.2500   -999.2500
  2293.0000      0.0000   -999.2500   -999.2500   -999.2500
  2293.2500      0.0000   -999.2500   -999.2500   -999.2500
  2293.5000      0.0000   -999.2500   -999.2500   -999.2500
  2293.7500      0.0000   -999.2500   -999.2500   -999.2500
  2294.0000      0.0000   -999.2500   -999.2500   -999.2500
  2294.2500      0.0000   -999.2500   -999.2500   -999.2500
  2294.5000      0.0000   -999.2500   -999.2500   -999.2500
  2294.7500      0.0000   -999.2500   -999.2500   -999.2500
  2295.0000      0.0000   -999.2500   -999.2500   -999.2500
  2295.2500      0.0000   -999.2500   -999.2500   -999.2500
  2295.5000      0.0000   -999.2500   -999.2500   -999.2500
  2295.7500      0.0000   -999.2500   -999.2500   -999.2500
  2296.0000      0.0000   -999.2500   -999.2500   -999.2500
  2296.2500      0.0000   -999.2500   -999.2500   -999.2500
  2296.5000      0.0000   -999.2500   -999.2500   -999.2500
  2296.7500      0.0000   -999.2500   -999.2500   -999.2500
  2297.0000   -999.2500   -999.2500   -999.2500   -999.2500
  2297.2500   -999.2500   -999.2500   -999.2500   -999.2500
  2297.5000   -999.2500   -999.2500   -999.2500   -999.2500
