~Version Information
VERS.                      2.0: CWLS Log ASCII Standard - VERSION 2.0
WRAP.                       NO: One line per depth step
~Well Information Block
STRT.FT               530.0000: 
STOP.FT              1825.0000: 
STEP.FT                 0.1000: 
NULL.                -999.2500: 
COMP.          Pioneer Natural Resources: COMPANY
WELL.          Vision 31-11 Tr: WELL
FLD.           Purgatoire River: FIELD
LOC.           742' FNL & 1593' FEL: LOCATION
STAT.                 Colorado: State
CNTY.               Las Animas: COUNTY
CTRY. USA : Country
SECT. 11 : Section
TOWN. 32S : Township
RANG. 66W : Range
SRVC.                Patterson: SERVICE COMPANY
DATE.          Mon Oct 10 07:17:32 2005: LOG DATE
API.           05 071 08305 00: UNIQUE WELL ID
~Curve Information Block
DEPT.FT            0 000 00 00: Depth
DCAL.in                       : CDL Caliper
RHOB.g/cc                     : CDL Bulk Density
RHOC.g/cc                     : CDL Density Correction
DPOR.pu                       : CDL Density Porosity
GR.GAPI                       : Gamma Ray
NPOR.pu                       : Neutron Porosity
~Parameter Information Block
~A  Depth       DCAL        RHOB        RHOC        DPOR         GR         NPOR    
# ...
  1634.0000      7.9933      2.6165      0.1365      2.0331    123.4626     22.7314
  1634.1000      7.9933      2.6256      0.1593      1.4767    132.8553     22.7384
  1634.2000      7.9933      2.6360      0.1425      0.8462    144.7537     22.9207
  1634.3000      8.0010      2.6465      0.1764      0.2100    153.0081     23.2050
  1634.4000      8.0010      2.6552      0.1156     -0.3160    154.5383     23.5815
  1634.5000      7.9762      2.6718      0.1126     -1.3219    149.8465     24.0419
  1634.6000      7.9762      2.6833      0.1642     -2.0187    142.0635     24.7372
  1634.7000      7.9762      2.6619      0.1155     -0.7193    136.9804     25.2977
  1634.8000      8.0004      2.6161      0.0814      2.0560    136.0699     25.3918
  1634.9000      8.0004      2.5804      0.0090      4.2211    135.1726     25.4773
  1635.0000      8.0363      2.5736      0.0211      4.6308    131.7453     25.7213
  1635.1000      8.0363      2.5864      0.0451      3.8538    127.8219     25.3593
  1635.2000      8.0363      2.5968      0.0709      3.2248    127.6110     24.4307
  1635.3000      8.0956      2.5976      0.0356      3.1744    129.3375     23.9076
  1635.4000      8.0956      2.5979      0.0332      3.1591    129.9285     23.5940
  1635.5000      8.0923      2.5919      0.0981      3.5232    131.6052     23.0400
  1635.6000      8.0923      2.5657      0.0668      5.1081    133.7915     23.0326
  1635.7000      8.0923      2.5328      0.0404      7.1001    134.0183     24.0619
  1635.8000      8.0889      2.5213     -0.0282      7.7998    135.7506     25.0673
  1635.9000      8.0889      2.5353      0.0329      6.9527    141.2962     24.8705
  1636.0000      8.1385      2.5494      0.0608      6.0959    143.9650     24.2384
  1636.1000      8.1385      2.5523      0.0240      5.9190    140.4782     24.6611
  1636.2000      8.1385      2.5578      0.0456      5.5888    137.9327     26.0737
  1636.3000      8.1516      2.5646      0.0784      5.1761    142.4947     27.1053
  1636.4000      8.1516      2.5567      0.0587      5.6552    151.4148     26.6002
  1636.5000      8.1631      2.5359      0.0718      6.9181    156.7639     25.1296
  1636.6000      8.1631      2.5172      0.0896      8.0499    156.2350     24.2749
  1636.7000      8.1631      2.5068      0.0426      8.6781    156.3959     23.9912
  1636.8000      8.1551      2.4998      0.0197      9.1016    160.4911     23.3464
  1636.9000      8.1551      2.4991      0.0110      9.1482    162.5471     22.5610
  1637.0000      8.1342      2.5210      0.0194      7.8188    158.6812     22.2230
  1637.1000      8.1342      2.5621      0.1246      5.3243    152.8797     22.2633
  1637.2000      8.1342      2.5961      0.1081      3.2663    150.0720     22.8339
  1637.3000      8.1449      2.6104      0.1297      2.3977    150.2538     24.3321
  1637.4000      8.1449      2.6075      0.0703      2.5757    150.0750     25.8053
  1637.5000      8.1365      2.5942      0.1182      3.3844    148.5386     26.1284
  1637.6000      8.1365      2.5798      0.0899      4.2542    147.9922     25.7135
  1637.7000      8.1365      2.5729      0.0446      4.6739    149.4614     25.4897
  1637.8000      8.1014      2.5754      0.0236      4.5237    150.6024     26.2216
  1637.9000      8.1014      2.5787      0.0256      4.3221    149.5110     27.1707
  1638.0000      8.0765      2.5725      0.0407      4.6957    147.0907     27.0986
  1638.1000      8.0765      2.5564      0.0418      5.6730    145.9857     26.9748
  1638.2000      8.0765      2.5372      0.0641      6.8353    147.8982     27.6026
  1638.3000      8.0784      2.5246     -0.0003      7.5981    151.1552     27.9104
  1638.4000      8.0784      2.5250      0.0371      7.5777    154.6517     27.2533
  1638.5000      8.1139      2.5292      0.0366      7.3232    156.7294     26.1308
  1638.6000      8.1139      2.5315      0.0222      7.1793    154.4001     25.3780
  1638.7000      8.1139      2.5443      0.0513      6.4075    148.2718     25.4316
  1638.8000      8.1180      2.5742      0.0538      4.5935    145.5065     26.0484
  1638.9000      8.1180      2.6105      0.0690      2.3946    150.6735     26.4781
  1639.0000      8.0730      2.6382      0.0609      0.7128    152.4377     25.5873
  1639.1000      8.0730      2.6585      0.0666     -0.5131    142.2326     23.2389
  1639.2000      8.0730      2.6796      0.1113     -1.7919    129.6678     21.2341
  1639.3000      8.0683      2.6899      0.1338     -2.4168    124.5490     21.2858
  1639.4000      8.0683      2.6702      0.1113     -1.2269    123.6588     23.0125
  1639.5000      8.0684      2.6326     -0.0082      1.0523    122.6663     24.4661
  1639.6000      8.0684      2.6116     -0.0156      2.3244    121.6342     24.4658
  1639.7000      8.0684      2.6179     -0.0048      1.9439    119.5302     23.5351
  1639.8000      8.0606      2.6276      0.0205      1.3567    114.2785     22.3194
  1639.9000      8.0606      2.6163      0.0368      2.0442    108.2238     21.4500
  1640.0000      8.0586      2.5852     -0.0362      3.9248    105.7780     21.4699
  1640.1000      8.0586      2.5512      0.0216      5.9862    106.1516     21.5350
  1640.2000      8.0586      2.5269     -0.0058      7.4636    106.0405     20.4456
  1640.3000      8.0755      2.5204     -0.0035      7.8543    104.2278     18.5798
  1640.4000      8.0755      2.5304      0.0568      7.2484    100.6218     17.2470
  1640.5000      8.0841      2.5475      0.0266      6.2128     96.4613     17.1648
  1640.6000      8.0841      2.5642      0.0935      5.2002     94.5053     18.1157
  1640.7000      8.0841      2.5775      0.0206      4.3940     95.7055     19.2223
  1640.8000      8.0964      2.5902      0.0637      3.6263     99.3099     19.8117
  1640.9000      8.0964      2.6043      0.0575      2.7725    103.8136     19.7054
  1641.0000      8.0397      2.6190      0.1481      1.8768    105.7188     19.2594
  1641.1000      8.0397      2.6314      0.1142      1.1283    103.9397     19.6080
  1641.2000      8.0397      2.6401      0.1511      0.6029    102.3518     20.2940
  1641.3000      7.9979      2.6417      0.0896      0.5048    101.8126     19.8811
  1641.4000      7.9979      2.6402      0.1078      0.5942    101.4009     19.2661
  1641.5000      7.9548      2.6442      0.0877      0.3526    102.5649     19.4888
  1641.6000      7.9548      2.6532      0.1181     -0.1944    104.3436     19.8799
  1641.7000      7.9548      2.6574      0.1554     -0.4509    105.4448     19.4508
  1641.8000      7.9478      2.6515      0.1245     -0.0897    105.6545     18.1630
  1641.9000      7.9478      2.6448      0.0657      0.3127    105.9718     17.3451
  1642.0000      7.9764      2.6442      0.1121      0.3500    108.5199     18.3429
  1642.1000      7.9764      2.6426      0.1070      0.4500    107.5549     20.4442
  1642.2000      7.9764      2.6330      0.0773      1.0284     99.5108     21.9609
  1642.3000      8.0158      2.6191      0.0559      1.8733     94.3645     22.5106
  1642.4000      8.0158      2.6102      0.0289      2.4130     99.5229     22.3937
  1642.5000      8.0416      2.6034      0.0865      2.8221    108.9006     22.0708
  1642.6000      8.0416      2.5882      0.0084      3.7429    110.6274     21.9186
  1642.7000      8.0416      2.5751      0.0313      4.5419    103.2697     22.2674
  1642.8000      8.0221      2.5801      0.0385      4.2351     98.0413     22.7180
  1642.9000      8.0221      2.5975      0.0414      3.1811    100.2492     21.7963
  1643.0000      7.9972      2.6077      0.0445      2.5618    102.3205     19.9895
  1643.1000      7.9972      2.5990      0.0350      3.0890     97.9992     19.1418
  1643.2000      7.9972      2.5819      0.0553      4.1284     89.8098     19.2918
  1643.3000      8.0238      2.5793      0.0466      4.2833     84.1355     19.8222
  1643.4000      8.0238      2.5994      0.0692      3.0689     83.1819     20.4986
  1643.5000      8.0491      2.6238      0.0887      1.5907     84.3532     20.9000
