~Version Information
VERS.                      2.0: CWLS Log ASCII Standard - VERSION 2.0
WRAP.                       NO: One line per depth step
~Well Information Block
STRT.FT                -8.2500: 
STOP.FT              2209.7500: 
STEP.FT                 0.2500: 
NULL.                -999.2500: 
COMP.          Petrogulf Corporation: COMPANY
WELL.          Alexander 9-43V: WELL
FLD.           Purgatorie River: FIELD
LOC.                          : LOCATION
CNTY.               Las Animas: COUNTY
SRVC.                         : SERVICE COMPANY
DATE.          Wed May 28 09:25:28 2003: LOG DATE
UWI.           05 071 07727 00: UNIQUE WELL ID
STAT.                 Colorado: STATE
~Curve Information Block
DEPT.FT            0 000 00 00: Depth
CCL.                          : Casing Collar Locator
TT3.usec                      : CBL 3' Travel Time
AMP3.mV                       : CBL 3' Amplitude
GR.GAPI                       : Gamma Ray
~Parameter Information Block
~A  Depth       CCL         TT3         AMP3         GR     
# ...
  1733.7500      0.0000    468.7198      3.9774     69.2868
  1734.0000      0.0000    511.0150      4.0850     69.4723
  1734.2500      0.0000    546.7915      4.1744     68.7682
  1734.5000      0.0000    566.0786      4.3485     66.8266
  1734.7500      0.0000    559.6544      4.7497     63.2160
  1735.0000      0.0000    524.6125      5.4448     58.2171
  1735.2500      0.0000    470.0968      6.3850     53.1170
  1735.5000      5.0000    414.1559      7.4457     49.5123
  1735.7500      0.0000    372.3581      8.4951     48.1156
  1736.0000      0.0000    349.4490      9.4748     48.1686
  1736.2500      0.0000    340.6966     10.4479     48.1877
  1736.5000      0.0000    338.4632     11.5320     47.3986
  1736.7500      0.0000    337.1042     12.7708     46.2664
  1737.0000      0.0000    334.3012     14.1000     45.6005
  1737.2500      0.0000    330.2240     15.3974     45.5223
  1737.5000      0.0000    326.1426     16.4900     45.5737
  1737.7500      0.0000    323.1526     17.1495     45.6102
  1738.0000      0.0000    321.5673     17.1711     46.0761
  1738.2500      0.0000    321.0879     16.4762     47.3053
  1738.5000      0.0000    321.3993     15.1344     49.0440
  1738.7500      0.0000    322.6404     13.3316     50.8394
  1739.0000      0.0000    325.4598     11.3452     52.3979
  1739.2500      0.0000    330.5432      9.4864     53.4004
  1739.5000      0.0000    337.8089      7.9717     53.5017
  1739.7500      0.0000    345.9768      6.8214     52.6952
  1740.0000      0.0000    353.1753      5.9188     51.3510
  1740.2500      0.0000    358.1256      5.1805     49.8613
  1740.5000      0.0000    360.7406      4.6326     48.3835
  1740.7500      0.0000    361.7417      4.3112     46.7872
  1741.0000      0.0000    361.9588      4.1505     44.8256
  1741.2500      0.0000    361.9860      4.0247     42.6424
  1741.5000      0.0000    362.2583      3.8814     41.1028
  1741.7500      0.0000    363.3039      3.7840     41.3013
  1742.0000      0.0000    365.8642      3.8204     43.5679
  1742.2500      0.0000    370.5674      3.9949     46.9936
  1742.5000      0.0000    377.1659      4.2062     49.9549
  1742.7500      0.0000    384.0075      4.3121     51.2343
  1743.0000      0.0000    388.5678      4.2274     50.8185
  1743.2500      0.0000    388.9764      3.9859     49.6574
  1743.5000      0.0000    385.6060      3.7231     48.6545
  1743.7500      0.0000    381.6595      3.5800     47.9976
  1744.0000      0.0000    382.3230      3.5955     47.5063
  1744.2500      0.0000    392.3678      3.6793     47.3625
  1744.5000      0.0000    412.8001      3.7002     48.1600
  1744.7500      0.0000    439.3195      3.6123     50.2253
  1745.0000      0.0000    466.1134      3.4960     53.1836
  1745.2500      0.0000    492.5636      3.4805     56.3709
  1745.5000      0.0000    523.8386      3.6266     59.6227
  1745.7500      0.0000    562.8833      3.8784     63.5906
  1746.0000      0.0000    604.2927      4.1103     69.2693
  1746.2500      0.0000    638.4185      4.2124     77.2753
  1746.5000      0.0000    659.7914      4.1425     87.6497
  1746.7500      0.0000    669.9602      3.9303     99.9440
  1747.0000      0.0000    674.0472      3.6586    112.7985
  1747.2500      0.0000    676.5854      3.4365    123.5792
  1747.5000      0.0000    679.7833      3.3537    129.5003
  1747.7500      0.0000    683.5056      3.4229    129.8120
  1748.0000      0.0000    686.0308      3.5581    126.5819
  1748.2500      0.0000    685.3973      3.6289    122.8843
  1748.5000      0.0000    680.9336      3.5619    120.3979
  1748.7500      0.0000    673.9521      3.4068    118.9718
  1749.0000      0.0000    666.9888      3.3027    118.0509
  1749.2500      0.0000    662.2242      3.3693    117.8252
  1749.5000      0.0000    660.4847      3.6087    118.9348
  1749.7500      0.0000    661.4106      3.9020    121.4561
  1750.0000      0.0000    664.1039      4.0994    124.4799
  1750.2500      0.0000    667.5527      4.1237    126.7180
  1750.5000      0.0000    670.8468      4.0099    127.5347
  1750.7500      0.0000    673.2428      3.8703    127.3669
  1751.0000      0.0000    673.9526      3.8164    127.0740
  1751.2500      0.0000    672.0306      3.8930    127.0065
  1751.5000      0.0000    667.1004      4.0656    126.9396
  1751.7500      0.0000    660.4125      4.2494    126.7425
  1752.0000      0.0000    654.2979      4.3485    126.6840
  1752.2500      0.0000    649.4944      4.2986    127.0763
  1752.5000      0.0000    642.8912      4.1126    127.8081
  1752.7500      0.0000    628.7009      3.8967    128.2189
  1753.0000      0.0000    603.4390      3.8054    127.4881
  1753.2500      0.0000    571.4383      3.9420    125.3279
  1753.5000      0.0000    544.7565      4.2694    122.3175
  1753.7500      0.0000    534.4471      4.6157    119.3483
  1754.0000      0.0000    540.1260      4.7880    116.6398
  1754.2500      0.0000    549.1423      4.7035    113.6198
  1754.5000      0.0000    546.8457      4.4370    110.0812
  1754.7500      0.0000    528.1060      4.1682    107.1695
  1755.0000      0.0000    500.5931      4.0786    106.7545
  1755.2500      0.0000    478.5891      4.2512    109.8651
  1755.5000      0.0000    473.4120      4.6271    115.9016
  1755.7500      0.0000    487.5079      5.0449    123.0853
  1756.0000      0.0000    513.8742      5.3321    129.4154
  1756.2500      0.0000    539.1652      5.3825    133.6125
  1756.5000      0.0000    550.3289      5.1899    135.7616
  1756.7500      0.0000    542.8490      4.8455    137.2174
  1757.0000      0.0000    523.8226      4.5113    139.5820
  1757.2500      0.0000    506.5311      4.3652    143.4748
  1757.5000      0.0000    502.0645      4.5103    148.2084
  1757.7500      0.0000    514.5721      4.8987    152.6046
  1758.0000      0.0000    540.5053      5.3539    155.9452
  1758.2500      0.0000    569.9595      5.7011    158.0145
  1758.5000      0.0000    590.1431      5.8791    158.5046
  1758.7500      0.0000    590.7557      5.9232    157.0072
  1759.0000      0.0000    569.1344      5.8662    153.6037
  1759.2500      0.0000    532.0380      5.6935    148.8735
  1759.5000      0.0000    491.8044      5.3961    143.1282
  1759.7500      0.0000    459.0402      5.0441    136.1233
  1760.0000      0.0000    437.8683      4.7847    127.6734
  1760.2500      0.0000    426.7285      4.7495    118.2998
  1760.5000      0.0000    421.9303      4.9423    109.3303
  1760.7500      0.0000    420.2338      5.2147    102.3855
  1761.0000      0.0000    419.5471      5.3638     98.4955
  1761.2500      0.0000    418.7557      5.2660     97.6325
  1761.5000      0.0000    417.4261      4.9373     99.0287
  1761.7500      0.0000    415.5513      4.5077    101.7647
  1762.0000      0.0000    413.3113      4.1588    105.1254
  1762.2500      0.0000    410.8942      4.0483    108.6425
  1762.5000      0.0000    408.4620      4.2300    111.8288
  1762.7500      0.0000    406.1732      4.6129    114.0933
  1763.0000      0.0000    404.1758      5.0051    115.2157
  1763.2500      0.0000    402.5891      5.2212    115.7089
  1763.5000      0.0000    401.5105      5.1749    116.3931
  1763.7500      0.0000    401.0054      4.9084    117.8471
  1764.0000      0.0000    401.0879      4.5655    120.4077
  1764.2500      0.0000    401.7776      4.3309    124.2640
  1764.5000      0.0000    403.2544      4.3370    129.0317
  1764.7500      0.0000    405.8520      4.5719    133.3023
  1765.0000      0.0000    409.6216      4.8724    135.2140
  1765.2500      0.0000    413.7872      5.0527    133.8876
  1765.5000      0.0000    416.9579      5.0633    130.2952
  1765.7500      0.0000    418.2438      5.0152    126.6536
  1766.0000      0.0000    418.0481      5.0401    124.8990
  1766.2500      0.0000    417.5540      5.1531    125.4676
  1766.5000      0.0000    417.6473      5.2666    127.1696
  1766.7500      0.0000    418.4905      5.3054    128.2394
  1767.0000      0.0000    419.7951      5.2649    127.7973
