~Version Information
VERS.                      2.0: CWLS Log ASCII Standard - VERSION 2.0
WRAP.                       NO: One line per depth step
~Well Information Block
STRT.FT                -8.0000: 
STOP.FT              2410.0000: 
STEP.FT                 0.2500: 
NULL.                -999.2500: 
COMP.          Petrogulf Corporation: COMPANY
WELL.            Torcom 17-33V: WELL
FLD.           Purgatorie River: FIELD
LOC.           1544' FSL & 1746' FEL--: LOCATION
PROV.                       CO: PROVINCE
CNTY.               Las Animas: COUNTRY
SRVC.          Patterson Wireline: SERVICE COMPANY
DATE.          Wed Dec 10 17:24:27 2003: LOG DATE
UWI.                          : UNIQUE WELL ID
~Curve Information Block
DEPT.FT            0 000 00 00: Depth
CCL.                          : Casing Collar Locator
TT3.usec                      : CBL 3' Travel Time
AMP3.mV                       : CBL 3' Amplitude
GR.GAPI                       : Gamma Ray
~Parameter Information Block
~A  Depth       CCL         TT3         AMP3         GR     
# ...
   796.0000      0.0000    710.4235      2.5515     75.4619
   796.2500      0.0000    722.2308      2.5741     77.8535
   796.5000      0.0000    736.2571      2.5975     80.8619
   796.7500      0.0000    757.1430      2.6202     82.9610
   797.0000      0.0000    786.3002      2.6520     83.5784
   797.2500      0.0000    819.2678      2.7068     83.2691
   797.5000     -2.0000    848.9218      2.8023     82.8997
   797.7500      0.0000    869.9744      2.9686     83.0562
   798.0000      0.0000    880.2748      3.2455     84.0306
   798.2500      0.0000    879.7834      3.6509     85.6340
   798.5000      0.0000    869.8206      4.1355     86.9635
   798.7500      0.0000    853.3549      4.5785     86.9037
   799.0000      0.0000    835.1326      4.8564     85.0302
   799.2500      0.0000    819.7688      4.9259     81.7975
   799.5000      0.0000    808.2539      4.8330     77.9285
   799.7500      0.0000    797.1519      4.6495     73.9138
   800.0000      0.0000    782.7515      4.4234     70.1096
   800.2500      0.0000    765.4777      4.1827     67.0196
   800.5000      0.0000    749.3874      3.9543     65.1971
   800.7500      0.0000    738.4838      3.7732     64.7947
   801.0000      0.0000    734.7191      3.6795     65.3620
   801.2500      0.0000    738.4089      3.6913     66.3388
   801.5000      0.0000    748.2087      3.7679     67.6162
   801.7500      0.0000    759.9764      3.8214     69.3296
   802.0000      0.0000    767.7195      3.7919     71.3146
   802.2500      0.0000    768.1829      3.7063     73.2576
   802.5000      0.0000    764.3312      3.6385     75.1982
   802.7500      0.0000    762.6297      3.6155     77.3512
   803.0000      0.0000    766.8748      3.5910     79.6655
   803.2500      0.0000    775.4147      3.5038     82.1805
   803.5000      0.0000    783.2649      3.3264     85.5159
   803.7500      0.0000    785.3852      3.0625     90.1208
   804.0000      0.0000    778.7104      2.7406     94.9233
   804.2500      0.0000    762.5253      2.4214     97.4948
   804.5000      0.0000    737.1365      2.1700     96.1035
   804.7500      0.0000    704.0653      2.0082     91.3481
   805.0000      0.0000    670.7515      1.9199     85.4799
   805.2500      0.0000    652.7280      1.9012     80.5298
   805.5000      0.0000    663.4284      1.9674     77.3724
   805.7500      0.0000    699.7692      2.1056     76.0626
   806.0000      0.0000    743.2917      2.2659     76.2054
   806.2500      0.0000    777.2864      2.4206     76.8340
   806.5000      0.0000    798.2262      2.5991     76.5483
   806.7500      0.0000    810.5441      2.8374     74.3875
   807.0000      0.0000    817.0776      3.1119     70.5390
   807.2500      0.0000    818.0210      3.3451     65.9918
   807.5000      0.0000    814.9941      3.4632     61.7183
   807.7500      0.0000    811.2700      3.4332     58.3357
   808.0000      0.0000    807.8333      3.2685     56.0987
   808.2500      0.0000    801.5117      3.0292     54.7749
   808.5000      0.0000    788.5272      2.8071     53.8456
   808.7500      0.0000    769.5577      2.6760     53.2107
   809.0000      0.0000    749.9575      2.6494     53.4545
   809.2500      0.0000    735.0753      2.6942     55.0760
   809.5000      0.0000    726.4991      2.7680     57.5852
   809.7500      0.0000    722.5996      2.8381     59.6416
   810.0000      0.0000    721.0704      2.8863     60.1720
   810.2500      0.0000    720.4416      2.9125     59.3157
   810.5000      0.0000    720.0792      2.9301     58.2478
   810.7500      0.0000    719.6443      2.9462     58.1413
   811.0000      0.0000    718.6345      2.9439     59.2896
   811.2500      0.0000    716.3262      2.8876     61.0318
   811.5000      0.0000    712.3295      2.7555     62.3438
   811.7500      0.0000    707.5122      2.5690     62.5256
   812.0000      0.0000    704.1580      2.3826     61.4642
   812.2500      0.0000    704.4734      2.2492     59.3956
   812.5000      0.0000    708.7314      2.2006     56.6854
   812.7500      0.0000    715.4010      2.2493     53.9694
   813.0000      0.0000    723.3557      2.3832     52.2550
   813.2500      0.0000    733.4575      2.5570     52.4232
   813.5000      0.0000    747.2733      2.7012     54.3954
   813.7500      0.0000    763.8915      2.7540     56.8863
   814.0000      0.0000    778.8399      2.6946     58.1637
   814.2500      0.0000    787.8763      2.5540     57.2269
   814.5000      0.0000    791.8898      2.3922     54.4813
   814.7500      0.0000    795.9847      2.2625     51.4298
   815.0000      0.0000    803.3047      2.1996     49.7161
   815.2500      0.0000    811.8397      2.2399     50.2219
   815.5000      0.0000    817.3201      2.4257     52.5910
   815.7500      0.0000    816.6241      2.7571     55.3869
   816.0000      0.0000    808.4291      3.1483     56.9739
   816.2500      0.0000    793.7629      3.4717     56.5855
   816.5000      0.0000    777.4933      3.6557     54.6214
   816.7500      0.0000    767.7528      3.7175     52.0085
   817.0000      0.0000    771.5707      3.7015     49.5346
   817.2500      0.0000    789.3033      3.6256     47.7931
   817.5000      0.0000    813.0948      3.5050     47.2762
   817.7500      0.0000    831.7408      3.3914     48.1014
   818.0000      0.0000    837.9067      3.3504     49.7660
   818.2500      0.0000    831.0742      3.4120     51.5516
   818.5000      0.0000    814.9870      3.5627     53.2280
   818.7500      0.0000    794.0029      3.7657     55.0999
   819.0000      0.0000    772.0952      3.9642     57.2091
   819.2500      0.0000    753.8989      4.0857     58.7708
   819.5000      0.0000    744.4118      4.0794     58.7538
   819.7500      0.0000    746.0146      3.9511     56.9850
   820.0000      0.0000    756.0681      3.7482     54.4183
   820.2500      0.0000    768.4317      3.5226     52.3259
   820.5000      0.0000    777.7669      3.3238     51.3993
   820.7500      0.0000    782.5662      3.2006     51.6181
   821.0000      0.0000    784.6281      3.1681     52.6513
   821.2500      0.0000    786.2969      3.1749     54.0207
   821.5000      0.0000    788.3723      3.1344     55.0037
   821.7500      0.0000    790.2308      3.0074     54.9267
   822.0000      0.0000    791.4464      2.8463     53.7371
   822.2500      0.0000    792.8558      2.7524     51.9937
   822.5000      0.0000    796.0262      2.7831     50.2422
   822.7500      0.0000    801.8384      2.8927     48.7341
   823.0000      0.0000    809.9139      2.9663     47.8041
   823.2500      0.0000    819.4176      2.9232     48.1430
   823.5000      0.0000    829.4890      2.7889     50.3213
   823.7500      0.0000    837.3483      2.6648     54.0319
   824.0000      0.0000    836.8165      2.6324     58.0216
   824.2500      0.0000    822.0709      2.6882     60.8848
   824.5000      0.0000    793.9926      2.7602     61.9398
   824.7500      0.0000    760.6995      2.7714     61.5875
   825.0000      0.0000    731.0832      2.6907     61.1201
   825.2500      0.0000    709.1476      2.5468     61.9457
   825.5000      0.0000    694.3525      2.4066     64.5875
   825.7500      0.0000    685.0591      2.3323     68.3874
   826.0000      0.0000    680.5771      2.3389     72.2495
   826.2500      0.0000    681.3350      2.3886     75.4679
   826.5000      0.0000    688.5371      2.4226     77.8568
   826.7500      0.0000    703.4592      2.4029     79.5010
   827.0000      0.0000    726.0670      2.3343     80.5294
   827.2500      0.0000    753.6902      2.2587     80.9036
   827.5000      0.0000    781.4608      2.2255     80.3757
   827.7500      0.0000    804.7593      2.2516     78.7046
   828.0000      0.0000    821.0753      2.3032     75.9470
   828.2500      0.0000    829.0022      2.3222     72.6743
   828.5000      0.0000    826.5656      2.2851     70.0194
   828.7500      0.0000    812.3499      2.2343     69.2392
   829.0000      0.0000    788.0541      2.2421     70.8795
   829.2500      0.0000    758.7403      2.3385     74.2798
