~Version Information
VERS.                      2.0: CWLS Log ASCII Standard - VERSION 2.0
WRAP.                       NO: One line per depth step
~Well Information Block
STRT.FT               480.0000: 
STOP.FT              1629.0000: 
STEP.FT                 0.2500: 
NULL.                -999.2500: 
COMP.          Pioneer Natural Resources: COMPANY
WELL.          Dude Canyon 22-32 Tr: WELL
FLD.           Purgatoire River: FIELD
LOC.           1741' FNL & 2331' FWL: LOCATION
PROV.                 Colorado: PROVINCE
CNTY.               Las Animas: COUNTRY
SRVC.                Patterson: SERVICE COMPANY
DATE.          Sat Jul 09 01:36:28 2005: LOG DATE
UWI.           05 071 08421 00: UNIQUE WELL ID
~Curve Information Block
DEPT.FT            0 000 00 00: Depth
SN.Ohm-m                      : IEL Short Normal
SP.mV                         : IEL Spontaneous Potential
DIR.Ohm-m                     : IEL Induction Resistivity
GR.GAPI                       : Gamma Ray
~Parameter Information Block
~A  Depth        SN          SP         DIR          GR     
# ...
  1351.0000     42.2719     32.6526     37.0227     96.7921
  1351.2500     39.5257     33.0242     34.8556    101.3343
  1351.5000     36.9216     33.2833     32.8765    104.7756
  1351.7500     34.5125     33.4206     31.2663    106.3269
  1352.0000     32.4919     33.4422     30.1087    110.0892
  1352.2500     31.0626     33.3625     29.3822    113.8500
  1352.5000     30.2164     33.1939     28.9973    119.9864
  1352.7500     29.7415     32.9419     28.8498    123.4161
  1353.0000     29.4343     32.6108     28.8621    126.7093
  1353.2500     29.2309     32.2120     28.9902    127.6084
  1353.5000     29.1895     31.7687     29.2074    126.9786
  1353.7500     29.4180     31.3137     29.4966    125.1086
  1354.0000     30.0030     30.8831     29.8634    120.1686
  1354.2500     31.0439     30.5062     30.3524    115.9277
  1354.5000     32.7147     30.1972     31.0398    109.4470
  1354.7500     35.1687     29.9523     32.0044    105.4953
  1355.0000     38.3534     29.7552     33.3025     99.5766
  1355.2500     41.9796     29.5857     34.9540     94.8312
  1355.5000     45.7320     29.4271     36.9364     85.7639
  1355.7500     49.4121     29.2700     39.1809     78.8460
  1356.0000     52.8645     29.1123     41.5830     68.7305
  1356.2500     55.9643     28.9554     44.0305     62.8265
  1356.5000     58.7013     28.8022     46.4313     55.4112
  1356.7500     61.2042     28.6556     48.7176     51.2299
  1357.0000     63.6598     28.5183     50.8380     45.7579
  1357.2500     66.1475     28.3923     52.7754     42.5320
  1357.5000     68.5750     28.2793     54.5809     38.3939
  1357.7500     70.7826     28.1812     56.3730     36.3129
  1358.0000     72.6481     28.0999     58.2584     34.4987
  1358.2500     74.0976     28.0366     60.2149     34.0117
  1358.5000     75.0864     27.9933     62.0460     33.5986
  1358.7500     75.6189     27.9769     63.4792     33.1596
  1359.0000     75.7539     27.9998     64.3595     32.3616
  1359.2500     75.5621     28.0747     64.7589     32.1849
  1359.5000     75.1402     28.2070     64.8887     33.2039
  1359.7500     74.6161     28.3905     64.9161     34.8207
  1360.0000     74.0572     28.6085     64.8485     37.9830
  1360.2500     73.4426     28.8398     64.5527     39.8954
  1360.5000     72.7435     29.0658     63.8684     41.4989
  1360.7500     71.9572     29.2776     62.7481     41.6184
  1361.0000     71.0862     29.4772     61.3349     40.9817
  1361.2500     70.1337     29.6705     59.9148     40.5248
  1361.5000     69.1061     29.8564     58.7673     40.4459
  1361.7500     68.0372     30.0210     58.0168     40.9882
  1362.0000     66.9946     30.1445     57.5645     42.7755
  1362.2500     66.0065     30.2146     57.1374     44.5040
  1362.5000     65.0384     30.2352     56.4207     47.2492
  1362.7500     64.0540     30.2279     55.1918     48.5636
  1363.0000     63.0165     30.2255     53.3550     48.9861
  1363.2500     61.8333     30.2601     50.8967     48.3604
  1363.5000     60.3633     30.3523     47.8560     47.1134
  1363.7500     58.4885     30.5038     44.3511     46.6601
  1364.0000     56.1303     30.6947     40.6073     47.0663
  1364.2500     53.1900     30.8844     36.9209     48.4698
  1364.5000     49.5361     31.0202     33.5759     53.7633
  1364.7500     45.1284     31.0525     30.7629     60.3340
  1365.0000     40.2109     30.9489     28.5390     74.8224
  1365.2500     35.3363     30.7005     26.8390     86.3554
  1365.5000     31.0865     30.3211     25.5254    103.2919
  1365.7500     27.7565     29.8410     24.4522    112.9260
  1366.0000     25.3068     29.2994     23.5151    124.3366
  1366.2500     23.5398     28.7358     22.6655    130.3100
  1366.5000     22.2622     28.1838     21.8926    137.1648
  1366.7500     21.3166     27.6652     21.2006    140.0110
  1367.0000     20.5986     27.1909     20.5966    141.1734
  1367.2500     20.1070     26.7671     20.0888    140.1560
  1367.5000     19.8915     26.4046     19.6852    137.2851
  1367.7500     19.9489     26.1246     19.3899    135.2454
  1368.0000     20.2423     25.9540     19.2005    132.6610
  1368.2500     20.7293     25.9103     19.1096    131.2526
  1368.5000     21.2690     25.9857     19.1088    129.2799
  1368.7500     21.6326     26.1470     19.1930    127.9338
  1369.0000     21.7405     26.3513     19.3647    126.0682
  1369.2500     21.7863     26.5632     19.6358    125.1948
  1369.5000     22.0074     26.7609     20.0259    124.7521
  1369.7500     22.3955     26.9372     20.5549    125.0517
  1370.0000     22.7751     27.1017     21.2316    126.2900
  1370.2500     23.1246     27.2799     22.0438    127.5872
  1370.5000     23.6060     27.5010     22.9550    130.0221
  1370.7500     24.2904     27.7813     23.9109    131.5316
  1371.0000     25.1056     28.1163     24.8519    132.0889
  1371.2500     26.0314     28.4822     25.7251    130.4136
  1371.5000     27.1407     28.8492     26.4900    124.7907
  1371.7500     28.5122     29.1968     27.1242    120.0396
  1372.0000     30.1828     29.5243     27.6321    113.4317
  1372.2500     32.1050     29.8485     28.0526    109.6748
  1372.5000     34.0997     30.1900     28.4531    104.2588
  1372.7500     35.8459     30.5551     28.8978    100.5102
  1373.0000     36.9682     30.9286     29.4044     95.4297
  1373.2500     37.2500     31.2818     29.9194     93.3423
  1373.5000     36.8186     31.5875     30.3427     93.6278
  1373.7500     36.0723     31.8307     30.5952     96.3897
  1374.0000     35.3531     32.0080     30.6696    103.5389
  1374.2500     34.6976     32.1242     30.6093    109.1646
  1374.5000     33.9240     32.1901     30.4406    116.6509
  1374.7500     32.9013     32.2220     30.1365    120.1016
  1375.0000     31.6809     32.2393     29.6481    122.8003
  1375.2500     30.4249     32.2600     28.9608    123.5333
  1375.5000     29.2946     32.2947     28.1147    124.1598
  1375.7500     28.3632     32.3400     27.1810    124.5630
  1376.0000     27.5980     32.3751     26.2324    125.2495
  1376.2500     26.9284     32.3685     25.3324    125.8118
  1376.5000     26.3176     32.2930     24.5325    126.6674
  1376.7500     25.7873     32.1387     23.8710    126.9131
  1377.0000     25.3736     31.9148     23.3740    126.5359
  1377.2500     25.0610     31.6408     23.0603    126.2794
  1377.5000     24.7904     31.3350     22.9440    127.3548
  1377.7500     24.5237     31.0061     23.0315    129.4371
  1378.0000     24.2921     30.6527     23.3168    133.6635
  1378.2500     24.2007     30.2705     23.7762    136.0102
  1378.5000     24.3734     29.8563     24.3639    136.7453
  1378.7500     24.8620     29.4038     25.0107    134.7283
  1379.0000     25.6462     28.8973     25.6363    128.5112
  1379.2500     26.7446     28.3174     26.1768    123.4838
  1379.5000     28.2194     27.6625     26.6099    116.9766
  1379.7500     30.0525     26.9683     26.9551    113.9656
  1380.0000     32.1063     26.3074     27.2505    110.7306
  1380.2500     34.1681     25.7594     27.5202    108.3640
  1380.5000     35.9524     25.3719     27.7482    103.0074
  1380.7500     37.0971     25.1359     27.8664     98.3457
  1381.0000     37.2518     24.9933     27.7794     92.0308
  1381.2500     36.3063     24.8741     27.4218     90.1722
  1381.5000     34.5911     24.7380     26.8055     92.9809
  1381.7500     32.6763     24.5907     26.0092     98.4336
  1382.0000     30.8743     24.4645     25.1233    109.8876
  1382.2500     29.1282     24.3866     24.2114    118.2100
  1382.5000     27.3479     24.3633     23.3100    129.8372
  1382.7500     25.5780     24.3847     22.4478    136.4051
  1383.0000     23.9331     24.4348     21.6560    143.7199
  1383.2500     22.5593     24.4991     20.9682    146.4461
  1383.5000     21.5619     24.5661     20.4122    147.0336
  1383.7500     20.9679     24.6312     20.0024    145.6787
  1384.0000     20.7724     24.7004     19.7338    143.1408
  1384.2500     20.9062     24.7904     19.5815    142.2263
