~Version Information
VERS.                      2.0: CWLS Log ASCII Standard - VERSION 2.0
WRAP.                       NO: One line per depth step
~Well Information Block
STRT.FT                -4.2500: 
STOP.FT              2500.7500: 
STEP.FT                 0.2500: 
NULL.                -999.2500: 
COMP.          Pioneer Natural Resources: COMPANY
WELL.          Cock-a-doodle-doo 44-27: WELL
FLD.           Purgatoire River: FIELD
LOC.           163' FSL & 54' FEL--: LOCATION
PROV.                 Colorado: PROVINCE
CNTY.               Las Animas: COUNTRY
SRVC.                Patterson: SERVICE COMPANY
DATE.          Wed Jul 06 10:56:34 2005: LOG DATE
UWI.                071 08429 : UNIQUE WELL ID
~Curve Information Block
DEPT.FT            0 000 00 00: Depth
CCL.                          : Casing Collar Locator
TT3.usec                      : CBL 3' Travel Time
AMP3.mV                       : CBL 3' Amplitude
GR.GAPI                       : Gamma Ray
~Parameter Information Block
~A  Depth       CCL         TT3         AMP3         GR     
# ...
  1168.2500      0.0000    502.5323      7.0328    142.2330
  1168.5000      0.0000    477.1544      7.0376    142.0974
  1168.7500      0.0000    456.5330      7.0898    139.7998
  1169.0000      0.0000    445.3067      7.1311    135.8175
  1169.2500      0.0000    445.4858      7.1281    131.4980
  1169.5000      0.0000    457.7348      7.0842    128.1652
  1169.7500      0.0000    480.8814      7.0291    125.7276
  1170.0000      0.0000    510.9121      6.9933    122.3791
  1170.2500      0.0000    542.5989      6.9906    116.0995
  1170.5000      0.0000    571.6558      7.0193    106.5279
  1170.7500      0.0000    593.2830      7.0778     95.4029
  1171.0000      0.0000    600.7411      7.1702     85.6883
  1171.2500      0.0000    590.6127      7.2931     80.4742
  1171.5000      0.0000    570.4828      7.4179     81.9494
  1171.7500      0.0000    557.1068      7.4969     90.3202
  1172.0000      0.0000    564.5386      7.4934    103.2516
  1172.2500      0.0000    594.1851      7.4076    116.7497
  1172.5000      0.0000    634.8441      7.2752    127.2387
  1172.7500      0.0000    671.1177      7.1464    133.0843
  1173.0000      0.0000    693.5768      7.0694    134.2161
  1173.2500      0.0000    702.7631      7.0826    130.9140
  1173.5000      0.0000    704.1173      7.2048    123.8580
  1173.7500      0.0000    700.3829      7.4201    115.1881
  1174.0000      0.0000    690.1929      7.6673    108.1643
  1174.2500      0.0000    673.3616      7.8444    104.9123
  1174.5000      0.0000    655.4124      7.8389    104.8541
  1174.7500      0.0000    645.2979      7.5892    105.7468
  1175.0000      0.0000    648.4141      7.1449    105.8509
  1175.2500      0.0000    661.6686      6.6532    104.7878
  1175.5000      0.0000    674.1803      6.2604    103.0265
  1175.7500      0.0000    672.4286      6.0239    101.3526
  1176.0000      0.0000    647.8395      5.9135    100.5738
  1176.2500      2.0000    603.0941      5.8700    101.0711
  1176.5000     -2.0000    551.8372      5.8512    102.5773
  1176.7500      0.0000    510.6929      5.8630    104.6840
  1177.0000      0.0000    489.8348      5.9738    107.5694
  1177.2500      0.0000    489.2831      6.2682    111.9484
  1177.5000      0.0000    502.4631      6.7341    118.1035
  1177.7500      0.0000    522.7914      7.2185    125.0266
  1178.0000      0.0000    547.3270      7.5471    130.5810
  1178.2500      0.0000    574.8421      7.6775    132.4778
  1178.5000      0.0000    601.3233      7.7026    129.3939
  1178.7500      0.0000    618.9054      7.7269    121.8083
  1179.0000      0.0000    621.1016      7.7747    112.2215
  1179.2500      0.0000    610.0980      7.7988    104.3226
  1179.5000      0.0000    597.7384      7.7472    101.2167
  1179.7500      0.0000    596.7601      7.6203    103.7627
  1180.0000      0.0000    609.8397      7.4811    110.2224
  1180.2500      0.0000    627.9142      7.4128    117.4422
  1180.5000      0.0000    638.8672      7.4582    122.6825
  1180.7500      0.0000    636.5963      7.5893    124.7895
  1181.0000      0.0000    622.4406      7.7376    123.9838
  1181.2500      0.0000    600.1064      7.8551    120.9084
  1181.5000      0.0000    571.3028      7.9408    116.1985
  1181.7500      0.0000    537.7545      8.0094    110.8003
  1182.0000      0.0000    505.9759      8.0514    106.1598
  1182.2500      0.0000    485.0715      8.0390    103.7603
  1182.5000      0.0000    477.1180      7.9665    104.3834
  1182.7500      0.0000    473.1474      7.8764    107.6219
  1183.0000      0.0000    462.1999      7.8365    112.0095
  1183.2500      0.0000    442.6107      7.8864    115.8969
  1183.5000      0.0000    421.9839      8.0050    118.4684
  1183.7500      0.0000    408.0220      8.1310    119.8041
  1184.0000      0.0000    402.0454      8.2142    120.1460
  1184.2500      0.0000    400.3947      8.2460    119.5499
  1184.5000      0.0000    399.1586      8.2450    118.1247
  1184.7500      0.0000    396.8207      8.2239    116.1305
  1185.0000      0.0000    394.3213      8.1787    113.7170
  1185.2500      0.0000    394.3309      8.1133    110.7539
  1185.5000      0.0000    399.6590      8.0585    107.2611
  1185.7500      0.0000    410.8654      8.0563    104.1401
  1186.0000      0.0000    425.6805      8.1285    103.0455
  1186.2500      0.0000    442.3693      8.2621    105.1711
  1186.5000      0.0000    463.6454      8.4139    110.2916
  1186.7500      0.0000    495.1255      8.5236    116.8400
  1187.0000      0.0000    538.1073      8.5386    122.5453
  1187.2500      0.0000    584.5444      8.4448    125.2775
  1187.5000      0.0000    621.0092      8.2739    124.1546
  1187.7500      0.0000    638.0801      8.0814    120.3468
  1188.0000      0.0000    635.8043      7.9173    116.6456
  1188.2500      0.0000    622.0868      7.8102    115.6322
  1188.5000      0.0000    608.0117      7.7623    117.7679
  1188.7500      0.0000    602.6854      7.7565    121.1091
  1189.0000      0.0000    608.5577      7.7742    122.9778
  1189.2500      0.0000    620.6737      7.8051    122.0627
  1189.5000      0.0000    630.7736      7.8418    119.0793
  1189.7500      0.0000    631.3295      7.8774    115.5985
  1190.0000      0.0000    617.0756      7.9155    112.5875
  1190.2500      0.0000    586.7656      7.9721    110.2330
  1190.5000      0.0000    545.4586      8.0544    108.6910
  1190.7500      0.0000    504.1288      8.1363    108.4147
  1191.0000      0.0000    475.4606      8.1646    109.8631
  1191.2500      0.0000    467.9240      8.0958    113.2899
  1191.5000      0.0000    480.7763      7.9373    118.6973
  1191.7500      0.0000    502.8629      7.7587    125.5656
  1192.0000      0.0000    518.0186      7.6541    132.6149
  1192.2500      0.0000    515.3992      7.6788    138.0865
  1192.5000      0.0000    496.5239      7.8106    140.5665
  1192.7500      0.0000    472.3270      7.9715    139.7636
  1193.0000      0.0000    453.8257      8.0898    136.7313
  1193.2500      0.0000    445.4089      8.1452    133.5102
  1193.5000      0.0000    444.7840      8.1616    132.3084
  1193.7500      0.0000    447.0595      8.1646    134.2065
  1194.0000      0.0000    448.6492      8.1558    138.1005
  1194.2500      0.0000    448.3206      8.1278    141.2029
  1194.5000      0.0000    445.9434      8.0907    141.2899
  1194.7500      0.0000    441.6758      8.0716    138.6648
  1195.0000      0.0000    436.5909      8.0844    135.6315
  1195.2500      0.0000    432.8296      8.1124    134.0182
  1195.5000      0.0000    432.2940      8.1257    133.6766
  1195.7500      0.0000    435.6708      8.1130    133.5857
  1196.0000      0.0000    443.0645      8.0904    133.7155
  1196.2500      0.0000    455.2609      8.0809    134.9449
  1196.5000      0.0000    474.0156      8.0872    137.3365
  1196.7500      0.0000    500.1246      8.0942    139.3729
  1197.0000      0.0000    529.2532      8.0954    139.2449
  1197.2500      0.0000    549.9688      8.1084    136.3503
  1197.5000      0.0000    550.1027      8.1553    131.2224
  1197.7500      0.0000    528.7540      8.2323    124.4791
  1198.0000      0.0000    500.9664      8.3097    116.5615
  1198.2500      0.0000    486.7552      8.3585    108.5322
  1198.5000      0.0000    493.5260      8.3722    102.4556
  1198.7500      0.0000    510.7524      8.3620    100.3848
  1199.0000      0.0000    523.1352      8.3400    103.0384
  1199.2500      0.0000    526.2500      8.3132    109.5506
  1199.5000      0.0000    526.6035      8.2889    118.1674
  1199.7500      0.0000    530.2558      8.2810    127.0431
  1200.0000      0.0000    536.6509      8.3072    134.8501
  1200.2500      0.0000    540.8052      8.3771    141.1263
  1200.5000      0.0000    536.2254      8.4787    145.8901
  1200.7500      0.0000    517.5957      8.5792    148.8329
  1201.0000      0.0000    485.2592      8.6485    149.3574
  1201.2500      0.0000    447.2602      8.6806    147.6047
  1201.5000      0.0000    415.0490      8.6921    144.8508
