~Version Information
VERS.                      2.0: CWLS Log ASCII Standard - VERSION 2.0
WRAP.                       NO: One line per depth step
~Well Information Block
STRT.FT                 0.0000: 
STOP.FT              2430.7500: 
STEP.FT                 0.2500: 
NULL.                -999.2500: 
COMP.          Petrogulf Corporation: COMPANY
WELL.             Leier 17-42V: WELL
FLD.           Purgatorie River: FIELD
LOC.           2309' FNL & 1062' FEL: LOCATION
PROV.                 Colorado: PROVINCE
CNTY.               Las Animas: COUNTRY
SRVC.                Patterson: SERVICE COMPANY
DATE.          Thu Oct 06 10:18:00 2005: LOG DATE
UWI.                          : UNIQUE WELL ID
~Curve Information Block
DEPT.FT            0 000 00 00: Depth
CCL.                          : Casing Collar Locator
TT3.usec                      : CBL 3' Travel Time
AMP3.mV                       : CBL 3' Amplitude
GR.GAPI                       : Gamma Ray
~Parameter Information Block
~A  Depth       CCL         TT3         AMP3         GR     
# ...
  1943.0000      0.0000    752.2586      3.2728    114.3500
  1943.2500      0.0000    763.4122      3.3134    114.8804
  1943.5000      0.0000    765.3752      3.3201    115.6242
  1943.7500      0.0000    756.1118      3.2800    118.2526
  1944.0000      0.0000    739.1785      3.2082    122.6472
  1944.2500      0.0000    719.8824      3.1309    126.7941
  1944.5000      0.0000    703.1171      3.0953    128.5374
  1944.7500      0.0000    692.7750      3.1528    127.0837
  1945.0000      0.0000    691.2217      3.2698    123.2768
  1945.2500      0.0000    698.4422      3.3187    119.0081
  1945.5000      0.0000    711.4760      3.2325    116.0879
  1945.7500      0.0000    726.6644      3.0870    114.9940
  1946.0000      0.0000    742.2429      2.9756    114.4541
  1946.2500      0.0000    754.2671      2.9121    112.5179
  1946.5000      2.0000    755.2502      2.8683    108.5183
  1946.7500     -2.0000    744.1045      2.8127    104.1107
  1947.0000      0.0000    729.0972      2.7304    101.9704
  1947.2500      0.0000    716.2711      2.6575    103.2065
  1947.5000      0.0000    704.7677      2.6506    106.3213
  1947.7500      0.0000    693.9937      2.6796    108.7293
  1948.0000      0.0000    686.3073      2.6155    108.8926
  1948.2500      0.0000    683.3062      2.4102    107.0719
  1948.5000      0.0000    685.2436      2.1860    104.6014
  1948.7500      0.0000    691.9401      2.0628    102.6977
  1949.0000      0.0000    700.8387      2.0389    101.6897
  1949.2500      0.0000    707.4857      2.0542    101.2483
  1949.5000      0.0000    709.7985      2.0599    101.3080
  1949.7500      0.0000    709.1180      2.0403    102.3790
  1950.0000      0.0000    707.4177      2.0098    104.6742
  1950.2500      0.0000    705.6152      1.9855    107.3460
  1950.5000      0.0000    703.8967      1.9662    109.0406
  1950.7500      0.0000    702.3647      1.9394    108.9679
  1951.0000      0.0000    701.2747      1.9029    107.3056
  1951.2500      0.0000    700.8630      1.8728    104.9482
  1951.5000      0.0000    701.0461      1.8625    102.9855
  1951.7500      0.0000    701.4902      1.8672    102.0585
  1952.0000      0.0000    702.2009      1.8708    102.0391
  1952.2500      0.0000    704.3738      1.8602    102.4472
  1952.5000      0.0000    710.6825      1.8495    103.0912
  1952.7500      0.0000    722.8329      1.8654    103.9832
  1953.0000      0.0000    737.4237      1.9030    104.6715
  1953.2500      0.0000    747.2493      1.9312    104.2315
  1953.5000      0.0000    748.2369      1.9407    102.1359
  1953.7500      0.0000    743.0625      1.9476     98.8375
  1954.0000      0.0000    737.9718      1.9552     95.3317
  1954.2500      0.0000    735.0494      1.9518     92.3053
  1954.5000      0.0000    729.5320      1.9429     89.7721
  1954.7500      0.0000    718.4103      1.9485     87.3875
  1955.0000      0.0000    706.5284      1.9737     84.9635
  1955.2500      0.0000    701.8579      2.0095     82.7530
  1955.5000      0.0000    709.6678      2.0488     81.5262
  1955.7500      0.0000    731.8132      2.0864     82.2976
  1956.0000      0.0000    763.9945      2.1098     85.5316
  1956.2500      0.0000    789.5954      2.1047     90.5646
  1956.5000      0.0000    790.8670      2.0720     96.1539
  1956.7500      0.0000    771.4686      2.0293    101.5487
  1957.0000      0.0000    753.1227      1.9930    106.6666
  1957.2500      0.0000    750.7565      1.9698    111.3576
  1957.5000      0.0000    758.2812      1.9687    114.9306
  1957.7500      0.0000    758.5640      1.9953    116.5826
  1958.0000      0.0000    746.5183      2.0372    116.1985
  1958.2500      0.0000    734.2462      2.0734    114.6545
  1958.5000      0.0000    731.3680      2.0981    113.2779
  1958.7500      0.0000    733.5132      2.1194    112.8478
  1959.0000      0.0000    733.2032      2.1411    112.9097
  1959.2500      0.0000    729.6766      2.1556    112.2305
  1959.5000      0.0000    723.2940      2.1577    110.3057
  1959.7500      0.0000    710.8381      2.1636    108.2853
  1960.0000      0.0000    692.4730      2.2005    107.9292
  1960.2500      0.0000    676.4556      2.2601    109.6061
  1960.5000      0.0000    671.0762      2.2992    111.6046
  1960.7500      0.0000    675.1577      2.3063    111.5430
  1961.0000      0.0000    681.0186      2.3121    108.4681
  1961.2500      0.0000    683.8907      2.3213    103.5524
  1961.5000      0.0000    684.2509      2.3027     98.9153
  1961.7500      0.0000    683.9724      2.2495     96.1651
  1962.0000      0.0000    683.9900      2.1893     95.9197
  1962.2500      0.0000    684.4967      2.1405     97.8156
  1962.5000      0.0000    685.3516      2.1017    100.4743
  1962.7500      0.0000    686.1977      2.0714    102.0616
  1963.0000      0.0000    686.6229      2.0525    101.5873
  1963.2500      0.0000    686.1401      2.0473     99.6662
  1963.5000      0.0000    684.6569      2.0506     98.0068
  1963.7500      0.0000    684.6861      2.0474     98.2811
  1964.0000      0.0000    691.2885      2.0252    101.1175
  1964.2500      0.0000    705.4299      1.9841    105.6867
  1964.5000      0.0000    720.5848      1.9302    110.1658
  1964.7500      0.0000    729.0240      1.8705    112.6944
  1965.0000      0.0000    727.0027      1.8151    112.1861
  1965.2500      0.0000    716.6603      1.7692    108.7722
  1965.5000      0.0000    705.3388      1.7239    103.7047
  1965.7500      0.0000    698.6590      1.6714     98.5527
  1966.0000      0.0000    696.6165      1.6185     94.2121
  1966.2500      0.0000    697.4999      1.5746     90.5780
  1966.5000      0.0000    702.0062      1.5466     87.0269
  1966.7500      0.0000    713.3651      1.5421     83.0362
  1967.0000      0.0000    732.2752      1.5476     78.3218
  1967.2500      0.0000    750.3961      1.5294     72.6441
  1967.5000      0.0000    754.8103      1.4848     65.9915
  1967.7500      0.0000    742.6216      1.4581     59.1503
  1968.0000      0.0000    724.8782      1.4833     53.6672
  1968.2500      0.0000    714.6093      1.5389     50.7449
  1968.5000      0.0000    715.9261      1.5789     50.1993
  1968.7500      0.0000    723.5496      1.5853     50.7355
  1969.0000      0.0000    729.7988      1.5738     51.1293
  1969.2500      0.0000    732.7987      1.5571     50.9223
  1969.5000      0.0000    736.5267      1.5297     50.2565
  1969.7500      0.0000    742.8083      1.4970     49.7454
  1970.0000      0.0000    750.3362      1.4867     50.6731
  1970.2500      0.0000    760.2082      1.5170     54.5448
  1970.5000      0.0000    770.5736      1.5840     61.8008
  1970.7500      0.0000    770.3940      1.6839     71.1777
  1971.0000      0.0000    752.2511      1.8220     80.6023
  1971.2500      0.0000    727.0789      1.9922     88.5209
  1971.5000      0.0000    713.8400      2.1556     94.4016
  1971.7500      0.0000    717.6807      2.2639     98.4995
  1972.0000      0.0000    727.4007      2.3138    101.4959
  1972.2500      0.0000    729.5952      2.3497    104.1309
  1972.5000      0.0000    718.3811      2.4135    106.6738
  1972.7500      0.0000    696.9145      2.5073    108.4537
  1973.0000      0.0000    674.8676      2.5949    108.1410
  1973.2500      0.0000    661.7571      2.6333    105.0121
  1973.5000      0.0000    661.9301      2.6133    100.0495
  1973.7500      0.0000    675.4822      2.5659     95.4426
  1974.0000      0.0000    698.3344      2.5189     92.7353
  1974.2500      0.0000    720.9177      2.4720     91.5162
  1974.5000      0.0000    734.4240      2.4128     89.9601
  1974.7500      0.0000    741.1145      2.3352     86.5750
  1975.0000      0.0000    750.5876      2.2463     81.4594
  1975.2500      0.0000    762.7330      2.1663     75.9637
  1975.5000      0.0000    765.4181      2.1199     71.3347
  1975.7500      0.0000    752.5422      2.1158     67.9547
  1976.0000      0.0000    734.8557      2.1364     65.7025
  1976.2500      0.0000    730.5004      2.1510     64.3193
