~Version Information
VERS.                      2.0: CWLS Log ASCII Standard - VERSION 2.0
WRAP.                       NO: One line per depth step
~Well Information Block
STRT.FT                -4.7500: 
STOP.FT              1784.7500: 
STEP.FT                 0.2500: 
NULL.                -999.2500: 
COMP.          Pioneer Natural Resources: COMPANY
WELL.          Buckeye 11-13 Tr: WELL
FLD.           Purgatorie River: FIELD
LOC.           211' FNL & 1054' FWL--: LOCATION
STAT.                       CO: State
CNTY.               Las Animas: COUNTY
CTRY. USA : Country
SECT. 13 : Section
TOWN. 33S : Township
RANG. 67W : range
SRVC.          Patterson Wireline: SERVICE COMPANY
DATE.          Wed Mar 16 09:19:21 2005: LOG DATE
API.           05 071 08317 00: UNIQUE WELL ID
~Curve Information Block
DEPT.FT            0 000 00 00: Depth
CCL.                          : Casing Collar Locator
TT3.usec                      : CBL 3' Travel Time
AMP3.mV                       : CBL 3' Amplitude
GR.GAPI                       : Gamma Ray
~Parameter Information Block
~A  Depth       CCL         TT3         AMP3         GR     
# ...
  1268.2500      0.0000    729.6016      6.2880     80.6603
  1268.5000      0.0000    739.3395      6.3016     81.3981
  1268.7500      0.0000    752.7426      6.1713     84.0146
  1269.0000      0.0000    766.9090      5.9952     87.0656
  1269.2500      0.0000    777.6838      5.8676     88.6172
  1269.5000      0.0000    782.6889      5.8034     87.5671
  1269.7500      0.0000    783.1912      5.7659     84.4022
  1270.0000      0.0000    782.5854      5.7443     80.7354
  1270.2500      0.0000    782.7333      5.7750     77.7930
  1270.5000      0.0000    781.9458      5.8959     75.3413
  1270.7500      0.0000    776.7946      6.1021     72.2897
  1271.0000      0.0000    765.7907      6.3393     68.2392
  1271.2500      0.0000    751.1158      6.5311     64.1942
  1271.5000      0.0000    736.9741      6.6241     61.7445
  1271.7500      0.0000    726.5867      6.6116     61.6643
  1272.0000      0.0000    720.8282      6.5115     63.2941
  1272.2500      0.0000    718.9930      6.3526     65.1506
  1272.5000      0.0000    720.0687      6.1877     66.1040
  1272.7500      0.0000    723.3185      6.0686     66.2133
  1273.0000      0.0000    728.4179      5.9912     66.6037
  1273.2500      0.0000    735.4760      5.9170     68.4151
  1273.5000      0.0000    744.4427      5.8542     71.6232
  1273.7500      0.0000    754.1297      5.8564     74.9432
  1274.0000      0.0000    762.3346      5.9321     77.0379
  1274.2500      0.0000    767.6760      6.0068     77.7068
  1274.5000      2.0000    770.9153      5.9940     77.7886
  1274.7500      2.0000    773.6044      5.8909     78.1713
  1275.0000      0.0000    776.1013      5.8018     79.1677
  1275.2500      0.0000    777.9630      5.8611     80.6482
  1275.5000      0.0000    779.5962      6.1106     82.3653
  1275.7500      0.0000    782.3180      6.4354     84.1218
  1276.0000      0.0000    786.9294      6.6305     85.9718
  1276.2500      0.0000    792.7198      6.5640     88.3149
  1276.5000      0.0000    797.7911      6.2941     91.4706
  1276.7500      0.0000    800.0323      6.0102     94.9850
  1277.0000      0.0000    797.8162      5.8528     97.5603
  1277.2500      0.0000    790.1894      5.8051     97.8971
  1277.5000      0.0000    777.3518      5.7469     95.6332
  1277.7500      0.0000    761.7156      5.5859     91.5462
  1278.0000      0.0000    747.9086      5.3328     87.2053
  1278.2500      0.0000    740.4935      5.0822     84.4531
  1278.5000      0.0000    740.9816      4.9453     84.4744
  1278.7500      0.0000    747.0341      4.9874     86.8074
  1279.0000      0.0000    754.5499      5.1817     89.5235
  1279.2500      0.0000    760.4380      5.4045     90.7309
  1279.5000      0.0000    763.7418      5.4981     89.8168
  1279.7500      0.0000    764.9054      5.3807     87.3654
  1280.0000      0.0000    764.5663      5.1124     84.3945
  1280.2500      0.0000    762.8629      4.8530     81.8705
  1280.5000      0.0000    759.3963      4.7530     80.4092
  1280.7500      0.0000    753.8260      4.8685     79.8604
  1281.0000      0.0000    746.9025      5.1381     79.4470
  1281.2500      0.0000    740.9645      5.4198     78.7293
  1281.5000      0.0000    738.8190      5.5809     78.1349
  1281.7500      0.0000    741.5756      5.5804     78.1905
  1282.0000      0.0000    747.5372      5.4751     78.5968
  1282.2500      0.0000    753.2811      5.3668     78.4953
  1282.5000      0.0000    755.7744      5.3541     77.5025
  1282.7500      0.0000    753.8237      5.4828     76.1346
  1283.0000      0.0000    748.5051      5.6960     75.2537
  1283.2500      0.0000    742.7853      5.8672     75.4031
  1283.5000      0.0000    740.0874      5.9137     76.6808
  1283.7500      0.0000    742.1579      5.8604     79.0715
  1284.0000      0.0000    747.9559      5.7917     82.6681
  1284.2500      0.0000    754.6957      5.7748     87.2989
  1284.5000      0.0000    759.8817      5.8145     91.9234
  1284.7500      0.0000    762.3204      5.8415     94.9266
  1285.0000      0.0000    761.7598      5.7556     95.2900
  1285.2500      0.0000    758.4212      5.5204     93.0970
  1285.5000      0.0000    753.1466      5.2112     88.8468
  1285.7500      0.0000    747.3923      4.9524     82.9812
  1286.0000      0.0000    742.3916      4.8291     76.3022
  1286.2500      0.0000    738.4440      4.8666     70.1358
  1286.5000      0.0000    735.5546      5.0351     65.7018
  1286.7500      0.0000    734.5289      5.2352     63.6156
  1287.0000      0.0000    736.6913      5.3370     63.9254
  1287.2500      0.0000    742.3662      5.2930     66.0681
  1287.5000      0.0000    750.0862      5.1943     68.7364
  1287.7500      0.0000    757.5615      5.1816     70.4935
  1288.0000      0.0000    763.3519      5.3210     70.8477
  1288.2500      0.0000    767.4824      5.5708     70.4015
  1288.5000      0.0000    770.5651      5.8235     69.9399
  1288.7500      0.0000    772.6123      5.9723     69.8685
  1289.0000      0.0000    772.9158      5.9921     70.4139
  1289.2500      0.0000    770.9816      5.9672     71.6289
  1289.5000      0.0000    767.1312      6.0051     73.0576
  1289.7500      0.0000    762.0424      6.1282     73.9777
  1290.0000      0.0000    756.3338      6.2766     74.1669
  1290.2500      0.0000    751.1858      6.3800     74.0777
  1290.5000      0.0000    748.9182      6.3783     74.1899
  1290.7500      0.0000    751.9008      6.2139     74.4997
  1291.0000      0.0000    760.4665      5.8791     74.7020
  1291.2500      0.0000    772.1010      5.4681     74.6948
  1291.5000      0.0000    782.6499      5.1288     74.7939
  1291.7500      0.0000    788.1707      4.9494     75.3673
  1292.0000      0.0000    786.2592      4.9139     76.3305
  1292.2500      0.0000    776.8487      4.9518     77.3291
  1292.5000      0.0000    762.4998      5.0034     78.4453
  1292.7500      0.0000    747.5245      5.0447     80.2896
  1293.0000      0.0000    735.9094      5.0877     83.1705
  1293.2500      0.0000    729.5632      5.1710     86.3659
  1293.5000      0.0000    728.3795      5.3125     88.3943
  1293.7500      0.0000    731.5092      5.4419     88.1363
  1294.0000      0.0000    737.9202      5.4191     85.8011
  1294.2500      0.0000    745.7715      5.1781     82.7428
  1294.5000      0.0000    752.3444      4.8299     80.3055
  1294.7500      0.0000    755.5633      4.5692     79.0586
  1295.0000      0.0000    755.2599      4.4920     79.0854
  1295.2500      0.0000    752.3951      4.5573     80.5343
  1295.5000      0.0000    747.7375      4.6944     83.5511
  1295.7500      0.0000    741.9832      4.8653     87.7909
  1296.0000      0.0000    736.3539      5.0228     92.2179
  1296.2500      0.0000    732.1791      5.1031     95.5005
  1296.5000      0.0000    730.2455      5.1089     96.7928
  1296.7500      0.0000    731.1635      5.1393     96.2411
  1297.0000      0.0000    736.0888      5.2793     94.6711
  1297.2500      0.0000    746.2169      5.4789     93.0115
  1297.5000      0.0000    760.9949      5.5943     92.2293
  1297.7500      0.0000    777.1276      5.5493     93.1589
  1298.0000      0.0000    790.2851      5.4108     95.4174
  1298.2500      0.0000    798.0748      5.2957     96.8340
  1298.5000      0.0000    800.9664      5.2492     95.2278
  1298.7500      0.0000    800.7089      5.2430     91.0053
  1299.0000      0.0000    798.9791      5.2515     87.2090
  1299.2500      0.0000    797.2107      5.2796     86.9893
  1299.5000      0.0000    796.1176      5.3330     91.4299
  1299.7500      0.0000    795.2725      5.4057     99.3317
  1300.0000      0.0000    794.3102      5.4890    108.3385
  1300.2500      0.0000    793.9321      5.5690    116.4789
  1300.5000      0.0000    794.0667      5.6286    123.1407
  1300.7500      0.0000    791.0427      5.6717    128.7029
  1301.0000      0.0000    777.8269      5.7152    133.4219
  1301.2500      0.0000    748.2954      5.7314    136.9597
  1301.5000      0.0000    702.9235      5.6363    138.7818
