~Version Information
VERS.                      2.0: CWLS Log ASCII Standard - VERSION 2.0
WRAP.                       NO: One line per depth step
~Well Information Block
STRT.FT                -9.0000: 
STOP.FT              2130.0000: 
STEP.FT                 0.2500: 
NULL.                -999.2500: 
COMP.          Pioneer Natural Resources: COMPANY
WELL.               King 22-13: WELL
FLD.           Purgatorie River: FIELD
LOC.           2419' FNL & 1806' FWL: LOCATION
PROV.                 Colorado: PROVINCE
CNTY.               Las Animas: COUNTRY
SRVC.                Patterson: SERVICE COMPANY
DATE.          Wed Apr 20 09:20:28 2005: LOG DATE
UWI.           05-071-08318-00: UNIQUE WELL ID
~Curve Information Block
DEPT.FT            0 000 00 00: Depth
CCL.                          : Casing Collar Locator
TT3.usec                      : CBL 3' Travel Time
AMP3.mV                       : CBL 3' Amplitude
GR.GAPI                       : Gamma Ray
~Parameter Information Block
~A  Depth       CCL         TT3         AMP3         GR     
# ...
  1666.0000      0.0000    778.2709      5.1372    113.1585
  1666.2500      0.0000    769.9322      5.1609    111.0222
  1666.5000      0.0000    758.4044      5.1734    108.1459
  1666.7500      0.0000    750.6542      5.1674    105.3141
  1667.0000      0.0000    749.0108      5.1367    102.6701
  1667.2500      0.0000    750.0989      5.0802    100.2096
  1667.5000      0.0000    749.3276      5.0054     98.3472
  1667.7500      0.0000    745.2076      4.9250     97.9088
  1668.0000      0.0000    739.5023      4.8497     99.3952
  1668.2500      0.0000    734.3260      4.7843    102.3447
  1668.5000      0.0000    730.0230      4.7299    105.6431
  1668.7500      0.0000    725.6336      4.6879    108.3654
  1669.0000      0.0000    720.3940      4.6624    110.1704
  1669.2500      0.0000    714.3438      4.6578    111.2785
  1669.5000      0.0000    707.9182      4.6708    112.4531
  1669.7500      0.0000    701.2703      4.6839    114.5271
  1670.0000      0.0000    694.4412      4.6787    117.3123
  1670.2500      0.0000    688.6916      4.6570    119.3105
  1670.5000      0.0000    687.8185      4.6382    119.1016
  1670.7500      0.0000    697.4042      4.6301    116.5950
  1671.0000      0.0000    721.6519      4.6216    112.3892
  1671.2500      0.0000    759.4653      4.6083    106.6700
  1671.5000      0.0000    802.5596      4.6008     99.5598
  1671.7500     -5.0000    838.6145      4.6066     92.1318
  1672.0000      5.0000    859.3881      4.6266     86.2582
  1672.2500      0.0000    866.9368      4.6693     83.3929
  1672.5000      0.0000    869.7834      4.7604     83.7066
  1672.7500      0.0000    872.4290      4.9339     86.1507
  1673.0000      0.0000    871.3168      5.1989     89.0195
  1673.2500      0.0000    861.2690      5.4941     90.6832
  1673.5000      0.0000    842.1735      5.6971     90.3286
  1673.7500      0.0000    817.9107      5.7222     88.3374
  1674.0000      0.0000    791.7451      5.6009     86.0666
  1674.2500      0.0000    765.4399      5.4399     85.1135
  1674.5000      0.0000    742.0498      5.3166     86.2501
  1674.7500      0.0000    726.3900      5.2397     88.6836
  1675.0000      0.0000    721.2034      5.1839     90.5840
  1675.2500      0.0000    724.1586      5.1296     90.6972
  1675.5000      0.0000    730.3322      5.0707     89.2342
  1675.7500      0.0000    736.6285      5.0077     87.0419
  1676.0000      0.0000    742.2382      4.9419     84.5014
  1676.2500      0.0000    746.0284      4.8738     81.7067
  1676.5000      0.0000    745.6002      4.8048     79.0544
  1676.7500      0.0000    739.0246      4.7430     77.0182
  1677.0000      0.0000    726.8948      4.7048     75.7333
  1677.2500      0.0000    712.8116      4.7057     75.1477
  1677.5000      0.0000    701.6796      4.7438     75.0630
  1677.7500      0.0000    696.4498      4.7959     74.8349
  1678.0000      0.0000    696.1044      4.8342     73.7288
  1678.2500      0.0000    697.1981      4.8495     71.8675
  1678.5000      0.0000    697.2874      4.8547     70.4083
  1678.7500      0.0000    696.3317      4.8663     70.6870
  1679.0000      0.0000    695.6797      4.8856     73.3485
  1679.2500      0.0000    697.0189      4.8981     78.0415
  1679.5000      0.0000    701.6113      4.8875     83.5834
  1679.7500      0.0000    708.7303      4.8490     88.6223
  1680.0000      0.0000    715.0491      4.7895     92.5862
  1680.2500      0.0000    717.3418      4.7198     96.0954
  1680.5000      0.0000    716.0319      4.6448    100.2751
  1680.7500      0.0000    714.8474      4.5627    105.5953
  1681.0000      0.0000    717.0804      4.4722    111.3423
  1681.2500      0.0000    723.4050      4.3815    116.1628
  1681.5000      0.0000    733.0018      4.3099    119.2005
  1681.7500      0.0000    744.9676      4.2757    120.8371
  1682.0000      0.0000    758.0818      4.2802    122.2265
  1682.2500      0.0000    770.3707      4.3058    124.0789
  1682.5000      0.0000    779.8553      4.3312    126.1287
  1682.7500      0.0000    785.5606      4.3479    127.8467
  1683.0000      0.0000    787.3617      4.3604    129.1840
  1683.2500      0.0000    785.0304      4.3762    130.2413
  1683.5000      0.0000    778.2764      4.3963    130.6334
  1683.7500      0.0000    768.2599      4.4168    129.7753
  1684.0000      0.0000    758.0851      4.4356    127.7536
  1684.2500      0.0000    750.5630      4.4550    125.6420
  1684.5000      0.0000    746.0690      4.4778    124.8799
  1684.7500      0.0000    743.7825      4.5029    126.0790
  1685.0000      0.0000    744.0718      4.5293    128.1007
  1685.2500      0.0000    748.2842      4.5585    128.7806
  1685.5000      0.0000    756.8737      4.5927    127.2166
  1685.7500      0.0000    768.5903      4.6308    124.9382
  1686.0000      0.0000    781.0844      4.6686    124.1462
  1686.2500      0.0000    791.9797      4.6997    125.2710
  1686.5000      0.0000    799.6816      4.7155    126.8518
  1686.7500      0.0000    803.4998      4.7119    127.3464
  1687.0000      0.0000    803.1047      4.6966    126.3419
  1687.2500      0.0000    798.2515      4.6865    124.1322
  1687.5000      0.0000    789.7142      4.6947    120.6972
  1687.7500      0.0000    780.3195      4.7196    115.5778
  1688.0000      0.0000    773.2690      4.7461    108.8856
  1688.2500      0.0000    767.9321      4.7569    102.0696
  1688.5000      0.0000    758.8549      4.7466     97.2784
  1688.7500      0.0000    741.8788      4.7243     95.8826
  1689.0000      0.0000    721.1716      4.7035     97.4693
  1689.2500      0.0000    707.0968      4.6915    100.0253
  1689.5000      0.0000    705.2927      4.6872    101.1761
  1689.7500      0.0000    709.1735      4.6861     99.5711
  1690.0000      0.0000    704.8359      4.6868     95.4549
  1690.2500      0.0000    683.4731      4.6933     90.4541
  1690.5000      0.0000    649.6874      4.7134     86.9431
  1690.7500      0.0000    619.1738      4.7498     86.9714
  1691.0000      0.0000    607.7276      4.7938     90.9826
  1691.2500      0.0000    620.0552      4.8272     97.2615
  1691.5000      0.0000    647.5927      4.8330    102.7150
  1691.7500      0.0000    676.7275      4.8075    104.6821
  1692.0000      0.0000    698.6681      4.7618    102.7412
  1692.2500      0.0000    711.9830      4.7120     99.0757
  1692.5000      0.0000    718.6771      4.6674     96.7831
  1692.7500      0.0000    720.5034      4.6283     97.4959
  1693.0000      0.0000    718.7466      4.5928    100.4249
  1693.2500      0.0000    715.4139      4.5672    103.4830
  1693.5000      0.0000    712.9656      4.5657    105.3111
  1693.7500      0.0000    712.2193      4.5977    106.1496
  1694.0000      0.0000    711.1569      4.6535    106.7565
  1694.2500      0.0000    706.9754      4.7102    106.8899
  1694.5000      0.0000    699.2271      4.7507    105.3548
  1694.7500      0.0000    689.7922      4.7740    101.5178
  1695.0000      0.0000    679.6136      4.7851     96.3903
  1695.2500      0.0000    666.3665      4.7822     92.0859
  1695.5000      0.0000    645.9792      4.7604     90.3225
  1695.7500      0.0000    616.8075      4.7226     91.3997
  1696.0000      0.0000    582.4578      4.6814     94.4657
  1696.2500      0.0000    550.0660      4.6479     98.5719
  1696.5000      0.0000    525.6818      4.6247    103.1018
  1696.7500      0.0000    511.9169      4.6097    107.1576
  1697.0000      0.0000    509.8952      4.6028    109.3350
  1697.2500      0.0000    521.5116      4.6076    108.7476
  1697.5000      0.0000    547.7271      4.6290    105.8234
  1697.7500      0.0000    584.6114      4.6669    101.4425
  1698.0000      0.0000    623.0192      4.7111     95.6363
  1698.2500      0.0000    653.9926      4.7460     87.7353
  1698.5000      0.0000    674.5694      4.7621     77.7463
  1698.7500      0.0000    687.9080      4.7629     67.3822
  1699.0000      0.0000    698.5357      4.7558     59.7318
  1699.2500      0.0000    708.3934      4.7405     57.6275
