~Version Information
VERS.                      2.0: CWLS Log ASCII Standard - VERSION 2.0
WRAP.                       NO: One line per depth step
~Well Information Block
STRT.FT               620.0000: 
STOP.FT              2663.2500: 
STEP.FT                 0.2500: 
NULL.                -999.2500: 
COMP.          Evergreen Operating Corporation: COMPANY
WELL.             Carbon 34-21: WELL
FLD.           Purgatoire River: FIELD
LOC.           56' FSL & 2304' FEL: LOCATION
PROV.                 Colorado: PROVINCE
CNTY.               Las Animas: COUNTRY
SRVC.                Patterson: SERVICE COMPANY
DATE.          Mon Sep 13 11:41:04 2004: LOG DATE
UWI.           05 071 08117 00: UNIQUE WELL ID
~Curve Information Block
DEPT.FT            0 000 00 00: Depth
DIR.Ohm-m                     : IEL Induction Resistivity
SN.Ohm-m                      : IEL Short Normal
SP.mV                         : IEL Spontaneous Potential
GR.GAPI                       : Gamma Ray
~Parameter Information Block
~A  Depth       DIR          SN          SP          GR     
# ...
  2630.0000     23.3507     34.1050    145.8742     93.9171
  2630.2500     23.2265     33.7724    147.2269     95.7407
  2630.5000     23.1209     33.4451    148.4354     97.0102
  2630.7500     23.0259     33.1516    149.5267     97.5864
  2631.0000     22.9396     32.9176    150.5301     98.1440
  2631.2500     22.8641     32.7573    151.4714     97.7675
  2631.5000     22.7977     32.6782    152.3688     96.0094
  2631.7500     22.7274     32.6849    153.2294     94.9573
  2632.0000     22.6324     32.7782    154.0452     95.3701
  2632.2500     22.4994     32.9482    154.7916     97.2591
  2632.5000     22.3422     33.1690    155.4291    101.6028
  2632.7500     22.2086     33.4110    155.9124    104.7017
  2633.0000     22.1636     33.6700    156.2060    108.7180
  2633.2500     22.2597     33.9747    156.2984    110.8370
  2633.5000     22.5129     34.3565    156.2107    113.3106
  2633.7500     22.8991     34.8151    155.9925    114.4398
  2634.0000     23.3698     35.3166    155.7089    114.8982
  2634.2500     23.8736     35.8177    155.4244    114.2414
  2634.5000     24.3695     36.2908    155.1924    112.2158
  2634.7500     24.8284     36.7439    155.0581    110.4773
  2635.0000     25.2279     37.2197    155.0679    107.2718
  2635.2500     25.5506     37.7636    155.2794    104.7015
  2635.5000     25.7869     38.3725    155.7573    101.1439
  2635.7500     25.9356     38.9696    156.5559     99.9196
  2636.0000     25.9974     39.4326    157.6932    100.3230
  2636.2500     25.9674     39.6533    159.1349    101.1464
  2636.5000     25.8355     39.5855    160.7970    100.6118
  2636.7500     25.5986     39.2554    162.5695     98.2396
  2637.0000     25.2773     38.7411    164.3491     92.5507
  2637.2500     24.9201     38.1371    166.0656     88.7149
  2637.5000     24.5876     37.5179    167.6934     85.0220
  2637.7500     24.3222     36.9111    169.2450     84.4492
  2638.0000     24.1254     36.2961    170.7527     85.8482
  2638.2500     23.9559     35.6339    172.2451     87.4138
  2638.5000     23.7535     34.9069    173.7276     89.6066
  2638.7500     23.4733     34.1376    175.1719     91.0568
  2639.0000     23.1112     33.3786    176.5194     93.9533
  2639.2500     22.7048     32.6878    177.6985     96.3926
  2639.5000     22.3101     32.1056    178.6476     99.9563
  2639.7500     21.9712     31.6394    179.3344    101.7879
  2640.0000     21.7014     31.2612    179.7646    103.6455
  2640.2500     21.4879     30.9229    179.9781    104.5723
  2640.5000     21.3103     30.5837    180.0375    106.0268
  2640.7500     21.1574     30.2334    180.0150    107.2347
  2641.0000     21.0285     29.8986    179.9810    109.1781
  2641.2500     20.9258     29.6294    179.9940    109.9257
  2641.5000     20.8499     29.4744    180.0910    108.9989
  2641.7500     20.8012     29.4516    180.2785    107.1079
  2642.0000     20.7817     29.5308    180.5283    104.4908
  2642.2500     20.7892     29.6420    180.7799    104.4137
  2642.5000     20.8121     29.7115    180.9519    107.6855
  2642.7500     20.8315     29.7045    180.9582    111.2073
  2643.0000     20.8323     29.6520    180.7266    115.0691
  2643.2500     20.8142     29.6455    180.2128    114.2513
  2643.5000     20.7931     29.8024    179.4071    104.5433
  2643.7500     20.7933     30.2114    178.3292     91.8653
  2644.0000     20.8381     30.8837    177.0153     66.1148
  2644.2500     20.9455     31.7361    175.5033     47.6863
  2644.5000     21.1296     32.6246    173.8271     24.1507
  2644.7500     21.3984     33.4115    172.0265     13.3123
  2645.0000     21.7462     34.0247    170.1706      4.3062
  2645.2500     22.1455     34.4770    168.3798      1.7170
  2645.5000     22.5502     34.8433    166.8279      0.3300
  2645.7500     22.9092     35.2085    165.7142      0.0911
  2646.0000     23.1816     35.6031    165.2065      0.0084
  2646.2500     23.3392     35.9648    165.3770      0.0000
  2646.5000     23.3607     36.1679    166.1598   -999.2500
  2646.7500     23.2320     36.1215    167.3513   -999.2500
  2647.0000     22.9605     35.8599    168.6557   -999.2500
  2647.2500     22.5886     35.5360    169.7562   -999.2500
  2647.5000     22.1911     35.3185    170.3830   -999.2500
  2647.7500     21.8537     35.2870    170.3549   -999.2500
  2648.0000     21.6451     35.4049    169.5915   -999.2500
  2648.2500     21.5998     35.5684    168.1072   -999.2500
  2648.5000     21.7143     35.6796    166.0033   -999.2500
  2648.7500     21.9593     35.7028    163.4619   -999.2500
  2649.0000     22.2989     35.6892    160.7345   -999.2500
  2649.2500     22.7075     35.7580    158.1131   -999.2500
  2649.5000     23.1732     36.0248    155.8795   -999.2500
  2649.7500     23.6840     36.5156    154.2470   -999.2500
  2650.0000     24.2105     37.1357    153.3125   -999.2500
  2650.2500     24.4588     37.7301    153.0396   -999.2500
  2650.5000     24.8510     38.1816    153.2776   -999.2500
  2650.7500     25.1211     38.4652    153.8072   -999.2500
  2651.0000     25.2675     38.6262    154.3955   -999.2500
  2651.2500     25.3051     38.7227    154.8435   -999.2500
  2651.5000     25.2494     38.7808    155.0147   -999.2500
  2651.7500     25.1138     38.7798    154.8449   -999.2500
  2652.0000     24.9169     38.6683    154.3370   -999.2500
  2652.2500     24.6923     38.4115    153.5476   -999.2500
  2652.5000     24.5005     38.0475    152.5705   -999.2500
  2652.7500     24.4502     37.6954    151.5158   -999.2500
  2653.0000     24.7245     37.4873    150.4881   -999.2500
  2653.2500     25.6055     37.4847    149.5640   -999.2500
  2653.5000     27.4985     37.6590    148.7759   -999.2500
  2653.7500     31.4391     37.9372    148.1073   -999.2500
  2654.0000     37.4900     38.2519    147.5027   -999.2500
  2654.2500     47.1210     38.5555    146.8873   -999.2500
  2654.5000     61.3412     38.8131    146.1908   -999.2500
  2654.7500     79.8655     39.0024    145.3654   -999.2500
  2655.0000     99.5145     39.1197    144.3932   -999.2500
  2655.2500    115.1777     39.1796    143.2850   -999.2500
  2655.5000    124.1649     39.2046    142.0662   -999.2500
  2655.7500    127.8815     39.2149    140.7702   -999.2500
  2656.0000    129.1738     39.2239    139.4120   -999.2500
  2656.2500    130.1991     39.2402    137.9563   -999.2500
  2656.5000    132.2025     39.2665    136.2637   -999.2500
  2656.7500 100000.0000     39.2978    134.0199   -999.2500
  2657.0000 100000.0000     39.3149    130.6765   -999.2500
  2657.2500 100000.0000     39.2809    125.4661   -999.2500
  2657.5000 100000.0000     39.1148    117.5562   -999.2500
  2657.7500 100000.0000     38.6051    106.3575   -999.2500
  2658.0000 100000.0000     37.2603     91.8889   -999.2500
  2658.2500 100000.0000     34.2633     75.0015   -999.2500
  2658.5000 100000.0000     28.8487     57.2781   -999.2500
  2658.7500 100000.0000     21.0944     40.5900   -999.2500
  2659.0000 100000.0000     12.3781     26.5081   -999.2500
  2659.2500 100000.0000      4.7199     15.8652   -999.2500
  2659.5000 100000.0000     -0.5298      8.6632   -999.2500
  2659.7500 100000.0000     -3.3353      4.3003   -999.2500
  2660.0000 100000.0000     -4.5035      1.9347   -999.2500
  2660.2500 100000.0000     -4.8825      0.7867   -999.2500
  2660.5000 100000.0000     -4.9783      0.2880   -999.2500
  2660.7500 100000.0000     -4.9971      0.0942   -999.2500
  2661.0000 100000.0000   -999.2500      0.0268   -999.2500
  2661.2500 100000.0000   -999.2500      0.0058   -999.2500
  2661.5000 100000.0000   -999.2500   -999.2500   -999.2500
  2661.7500 100000.0000   -999.2500   -999.2500   -999.2500
  2662.0000 100000.0000   -999.2500   -999.2500   -999.2500
  2662.2500 100000.0000   -999.2500   -999.2500   -999.2500
  2662.5000 100000.0000   -999.2500   -999.2500   -999.2500
  2662.7500 100000.0000   -999.2500   -999.2500   -999.2500
  2663.0000 100000.0000   -999.2500   -999.2500   -999.2500
  2663.2500 100000.0000   -999.2500   -999.2500   -999.2500
